[
  {
    "service_request": "2026-1251508",
    "request_type": "Roads and Streets",
    "request_reason": "Street Subsidence (Sinking)",
    "date_created": "2026-01-12T22:49:25.000",
    "date_modified": "2026-01-12T22:49:27.000",
    "request_status": "Pending",
    "responsible_agency": "Sewerage & Water Board",
    "final_address": "11137 Winchester Park Dr",
    "address_councildis": "E",
    "status": "Pending",
    "rowid": "1251508",
    "final_x": "3715060.88197",
    "final_y": "561412.072478",
    "longitude": "-89.96096786048174",
    "latitude": "30.03662572539122",
    "geocoded_column": {
      "latitude": "30.03662572539122",
      "longitude": "-89.96096786048174"
    }
  },
  {
    "service_request": "2026-1251507",
    "request_type": "Roads and Streets",
    "request_reason": "Pothole",
    "date_created": "2026-01-12T22:39:02.000",
    "date_modified": "2026-01-12T22:39:04.000",
    "request_status": "Pending",
    "responsible_agency": "Department of Public Works",
    "final_address": "2400 BLK Mistletoe St",
    "address_councildis": "A",
    "status": "Pending",
    "rowid": "1251507",
    "final_x": "3662127.85386",
    "final_y": "534319.834035",
    "longitude": "-90.12914798430471",
    "latitude": "29.963768283581913",
    "geocoded_column": {
      "latitude": "29.963768283581913",
      "longitude": "-90.12914798430471"
    }
  },
  {
    "service_request": "2026-1251506",
    "request_type": "Streetlights",
    "request_reason": "Streetlight Outage/Malfunction",
    "date_created": "2026-01-12T22:20:23.000",
    "date_modified": "2026-01-12T22:20:24.000",
    "request_status": "Pending",
    "responsible_agency": "Department of Public Works",
    "final_address": "2123 Broadway St",
    "address_councildis": "A",
    "status": "Pending",
    "rowid": "1251506",
    "final_x": "3666112.92826",
    "final_y": "529285.727937",
    "longitude": "-90.11673225146713",
    "latitude": "29.9498103802666",
    "geocoded_column": {
      "latitude": "29.9498103802666",
      "longitude": "-90.11673225146713"
    }
  },
  {
    "service_request": "2026-1251505",
    "request_type": "Trash/Recycling",
    "request_reason": "Request a Large Item Pick Up",
    "date_created": "2026-01-12T22:13:51.000",
    "date_modified": "2026-01-12T22:14:53.000",
    "request_status": "Pending",
    "responsible_agency": "Department of Sanitation",
    "final_address": "5520 Hawthorne Pl",
    "address_councildis": "A",
    "status": "Assigned to Contractor",
    "contractor": "IV Waste",
    "rowid": "1251505",
    "final_x": "3667719.94817",
    "final_y": "544459.351567",
    "longitude": "-90.11114710969673",
    "latitude": "29.991485767460503",
    "geocoded_column": {
      "latitude": "29.991485767460503",
      "longitude": "-90.11114710969673"
    }
  },
  {
    "service_request": "2026-1251504",
    "request_type": "Trash/Recycling",
    "request_reason": "Request a Large Item Pick Up",
    "date_created": "2026-01-12T22:11:09.000",
    "date_modified": "2026-01-12T22:13:19.000",
    "request_status": "Pending",
    "responsible_agency": "Department of Sanitation",
    "final_address": "300 BLK N Saint Patrick St",
    "address_councildis": "A",
    "status": "Assigned to Contractor",
    "contractor": "IV Waste",
    "rowid": "1251504",
    "final_x": "3669714.71631",
    "final_y": "540627.861773",
    "longitude": "-90.10497580406256",
    "latitude": "29.980891824514302",
    "geocoded_column": {
      "latitude": "29.980891824514302",
      "longitude": "-90.10497580406256"
    }
  },
  {
    "service_request": "2026-1251503",
    "request_type": "Trash/Recycling",
    "request_reason": "Order Recycling Cart",
    "date_created": "2026-01-12T21:40:06.000",
    "date_modified": "2026-01-12T21:40:07.000",
    "request_status": "Pending",
    "responsible_agency": "Department of Sanitation",
    "final_address": "3634 Magazine St Apt B",
    "address_councildis": "B",
    "status": "Pending",
    "rowid": "1251503",
    "final_x": "3673852.78062",
    "final_y": "519124.847351",
    "longitude": "-90.0926413203366",
    "latitude": "29.921643031909504",
    "geocoded_column": {
      "latitude": "29.921643031909504",
      "longitude": "-90.0926413203366"
    }
  },
  {
    "service_request": "2026-1251502",
    "request_type": "Trash/Recycling",
    "request_reason": "Replace Recycling Cart",
    "date_created": "2026-01-12T21:37:06.000",
    "date_modified": "2026-01-12T21:37:08.000",
    "request_status": "Pending",
    "responsible_agency": "Department of Sanitation",
    "final_address": "5508 Hurst St",
    "address_councildis": "A",
    "status": "Pending",
    "rowid": "1251502",
    "final_x": "3666876.13357",
    "final_y": "521346.677753",
    "longitude": "-90.11458907392488",
    "latitude": "29.927958235744203",
    "geocoded_column": {
      "latitude": "29.927958235744203",
      "longitude": "-90.11458907392488"
    }
  },
  {
    "service_request": "2026-1251501",
    "request_type": "Trash/Recycling",
    "request_reason": "Repair Recycling Cart",
    "date_created": "2026-01-12T21:29:24.000",
    "date_modified": "2026-01-12T21:29:26.000",
    "request_status": "Pending",
    "responsible_agency": "Department of Sanitation",
    "final_address": "11211 N Forest Park Ct",
    "address_councildis": "E",
    "status": "Pending",
    "rowid": "1251501",
    "final_x": "3716881.35698",
    "final_y": "558867.231196",
    "longitude": "-89.95531156548867",
    "latitude": "30.02956835813173",
    "geocoded_column": {
      "latitude": "30.02956835813173",
      "longitude": "-89.95531156548867"
    }
  },
  {
    "service_request": "2026-1251500",
    "request_type": "Street and Traffic Signs",
    "request_reason": "Street Name Sign Damaged or Missing",
    "date_created": "2026-01-12T21:19:46.000",
    "date_modified": "2026-01-12T21:19:48.000",
    "request_status": "Pending",
    "responsible_agency": "Department of Public Works",
    "final_address": "118 City Park Ave",
    "address_councildis": "A",
    "status": "Pending",
    "rowid": "1251500",
    "final_x": "3667651.43245",
    "final_y": "540854.232907",
    "longitude": "-90.1114849682831",
    "latitude": "29.98157492613766",
    "geocoded_column": {
      "latitude": "29.98157492613766",
      "longitude": "-90.1114849682831"
    }
  },
  {
    "service_request": "2026-1251499",
    "request_type": "Trash/Recycling",
    "request_reason": "Request a Large Item Pick Up",
    "date_created": "2026-01-12T20:47:25.000",
    "date_modified": "2026-01-12T20:47:28.000",
    "request_status": "Pending",
    "responsible_agency": "Department of Sanitation",
    "final_address": "7220 Camberley Dr",
    "address_councildis": "E",
    "status": "Assigned to Contractor",
    "contractor": "Waste Pro",
    "rowid": "1251499",
    "final_x": "3713079.49387",
    "final_y": "565054.625506",
    "longitude": "-89.96709214049548",
    "latitude": "30.04670638135721",
    "geocoded_column": {
      "latitude": "30.04670638135721",
      "longitude": "-89.96709214049548"
    }
  },
  {
    "service_request": "2026-1251498",
    "request_type": "Trash/Recycling",
    "request_reason": "Order Recycling Cart",
    "date_created": "2026-01-12T20:31:48.000",
    "date_modified": "2026-01-12T20:31:50.000",
    "request_status": "Pending",
    "responsible_agency": "Department of Sanitation",
    "final_address": "735 Valence St",
    "address_councildis": "B",
    "status": "Pending",
    "rowid": "1251498",
    "final_x": "3670039.15988",
    "final_y": "518234.294774",
    "longitude": "-90.10470945273762",
    "latitude": "29.919307286228552",
    "geocoded_column": {
      "latitude": "29.919307286228552",
      "longitude": "-90.10470945273762"
    }
  },
  {
    "service_request": "2026-1251497",
    "request_type": "Streetlights",
    "request_reason": "Streetlight Outage/Malfunction",
    "date_created": "2026-01-12T20:28:56.000",
    "date_modified": "2026-01-12T20:28:59.000",
    "request_status": "Pending",
    "responsible_agency": "Department of Public Works",
    "final_address": "4500 Metropolitan Dr",
    "address_councildis": "D",
    "status": "Pending",
    "rowid": "1251497",
    "final_x": "3690748.05174",
    "final_y": "550320.127636",
    "longitude": "-90.03819742247637",
    "latitude": "30.00690528750776",
    "geocoded_column": {
      "latitude": "30.00690528750776",
      "longitude": "-90.03819742247637"
    }
  },
  {
    "service_request": "2026-1251496",
    "request_type": "Trash/Recycling",
    "request_reason": "Request a Large Item Pick Up",
    "date_created": "2026-01-12T20:23:43.000",
    "date_modified": "2026-01-12T20:23:45.000",
    "request_status": "Pending",
    "responsible_agency": "Department of Sanitation",
    "final_address": "5757 Pasteur Blvd",
    "address_councildis": "D",
    "status": "Assigned to Contractor",
    "contractor": "IV Waste",
    "rowid": "1251496",
    "final_x": "3682891.95765",
    "final_y": "554518.377112",
    "longitude": "-90.06286983712863",
    "latitude": "30.018690766928753",
    "geocoded_column": {
      "latitude": "30.018690766928753",
      "longitude": "-90.06286983712863"
    }
  },
  {
    "service_request": "2026-1251495",
    "request_type": "Trash/Recycling",
    "request_reason": "MIssed Recycling Pick-Up",
    "date_created": "2026-01-12T20:14:16.000",
    "date_modified": "2026-01-12T20:14:19.000",
    "request_status": "Pending",
    "responsible_agency": "Department of Sanitation",
    "final_address": "2023 Chestnut St Apt A",
    "address_councildis": "B",
    "status": "Assigned to Contractor",
    "contractor": "IV Waste",
    "rowid": "1251495",
    "final_x": "3678837.98875",
    "final_y": "523064.682811",
    "longitude": "-90.07676878359312",
    "latitude": "29.93232692859311",
    "geocoded_column": {
      "latitude": "29.93232692859311",
      "longitude": "-90.07676878359312"
    }
  },
  {
    "service_request": "2026-1251494",
    "request_type": "Trash/Recycling",
    "request_reason": "Replace Trash Cart",
    "date_created": "2026-01-12T20:03:30.000",
    "date_modified": "2026-01-12T20:03:32.000",
    "request_status": "Pending",
    "responsible_agency": "Department of Sanitation",
    "final_address": "5301 Laurel St Unit B",
    "address_councildis": "B",
    "status": "Assigned to Contractor",
    "contractor": "IV Waste",
    "rowid": "1251494",
    "final_x": "3667354.97031",
    "final_y": "517934.55327",
    "longitude": "-90.11319218920758",
    "latitude": "29.918561957238303",
    "geocoded_column": {
      "latitude": "29.918561957238303",
      "longitude": "-90.11319218920758"
    }
  },
  {
    "service_request": "2026-1251493",
    "request_type": "Trash/Recycling",
    "request_reason": "Order Trash Cart",
    "date_created": "2026-01-12T19:48:39.000",
    "date_modified": "2026-01-12T19:48:41.000",
    "request_status": "Pending",
    "responsible_agency": "Department of Sanitation",
    "final_address": "337 39Th St",
    "address_councildis": "A",
    "status": "Assigned to Contractor",
    "contractor": "IV Waste",
    "rowid": "1251493",
    "final_x": "3665201.43725",
    "final_y": "553091.676439",
    "longitude": "-90.11881354211772",
    "latitude": "30.015295306094735",
    "geocoded_column": {
      "latitude": "30.015295306094735",
      "longitude": "-90.11881354211772"
    }
  },
  {
    "service_request": "2026-1251492",
    "request_type": "Streetlights",
    "request_reason": "Streetlight Outage/Malfunction",
    "date_created": "2026-01-12T19:43:48.000",
    "date_modified": "2026-01-12T19:43:49.000",
    "request_status": "Pending",
    "responsible_agency": "Department of Public Works",
    "final_address": "500 BLK S Claiborne Ave",
    "address_councildis": "B",
    "status": "Pending",
    "rowid": "1251492",
    "final_x": "3676967.50561",
    "final_y": "531030.281887",
    "longitude": "-90.0823991982193",
    "latitude": "29.954285961173184",
    "geocoded_column": {
      "latitude": "29.954285961173184",
      "longitude": "-90.0823991982193"
    }
  },
  {
    "service_request": "2026-1251491",
    "request_type": "Trash/Recycling",
    "request_reason": "Request a Large Item Pick Up",
    "date_created": "2026-01-12T19:43:02.000",
    "date_modified": "2026-01-12T19:43:05.000",
    "request_status": "Pending",
    "responsible_agency": "Department of Sanitation",
    "final_address": "4153 Vincennes Pl",
    "address_councildis": "B",
    "status": "Assigned to Contractor",
    "contractor": "IV Waste",
    "rowid": "1251491",
    "final_x": "3668659.22119",
    "final_y": "530831.10701",
    "longitude": "-90.10864025539712",
    "latitude": "29.953985083245843",
    "geocoded_column": {
      "latitude": "29.953985083245843",
      "longitude": "-90.10864025539712"
    }
  },
  {
    "service_request": "2026-1251490",
    "request_type": "Streetlights",
    "request_reason": "Streetlight Outage/Malfunction",
    "date_created": "2026-01-12T19:35:32.000",
    "date_modified": "2026-01-12T19:35:34.000",
    "request_status": "Pending",
    "responsible_agency": "Department of Public Works",
    "final_address": "925 Common St Ste B",
    "address_councildis": "B",
    "status": "Pending",
    "rowid": "1251490",
    "final_x": "3679958.2036",
    "final_y": "530885.913922",
    "longitude": "-90.07296078173862",
    "latitude": "29.953798882643973",
    "geocoded_column": {
      "latitude": "29.953798882643973",
      "longitude": "-90.07296078173862"
    }
  },
  {
    "service_request": "2026-1251489",
    "request_type": "Trash/Recycling",
    "request_reason": "Request a Large Item Pick Up",
    "date_created": "2026-01-12T19:12:39.000",
    "date_modified": "2026-01-12T19:12:40.000",
    "request_status": "Pending",
    "responsible_agency": "Department of Sanitation",
    "final_address": "522 Pelican Ave",
    "address_councildis": "C",
    "status": "Assigned to Contractor",
    "contractor": "Richards Disposal",
    "rowid": "1251489",
    "final_x": "3687071.77705",
    "final_y": "530810.193346",
    "longitude": "-90.05050179090793",
    "latitude": "29.95337360958347",
    "geocoded_column": {
      "latitude": "29.95337360958347",
      "longitude": "-90.05050179090793"
    }
  },
  {
    "service_request": "2026-1251488",
    "request_type": "Trash/Recycling",
    "request_reason": "Request a Large Item Pick Up",
    "date_created": "2026-01-12T18:29:24.000",
    "date_modified": "2026-01-12T18:29:25.000",
    "request_status": "Pending",
    "responsible_agency": "Department of Sanitation",
    "final_address": "420 40Th St",
    "address_councildis": "A",
    "status": "Assigned to Contractor",
    "contractor": "IV Waste",
    "rowid": "1251488",
    "final_x": "3664858.84967",
    "final_y": "553317.453783",
    "longitude": "-90.11988840916199",
    "latitude": "30.015926094866252",
    "geocoded_column": {
      "latitude": "30.015926094866252",
      "longitude": "-90.11988840916199"
    }
  },
  {
    "service_request": "2026-1251487",
    "request_type": "Trash/Recycling",
    "request_reason": "Request a Large Item Pick Up",
    "date_created": "2026-01-12T18:19:15.000",
    "date_modified": "2026-01-12T18:19:18.000",
    "request_status": "Pending",
    "responsible_agency": "Department of Sanitation",
    "final_address": "6410 Louis Xiv St",
    "address_councildis": "A",
    "status": "Assigned to Contractor",
    "contractor": "IV Waste",
    "rowid": "1251487",
    "final_x": "3668296.12257",
    "final_y": "550198.134932",
    "longitude": "-90.10913342375032",
    "latitude": "30.00724852609579",
    "geocoded_column": {
      "latitude": "30.00724852609579",
      "longitude": "-90.10913342375032"
    }
  },
  {
    "service_request": "2026-1251486",
    "request_type": "Abandoned Vehicles",
    "request_reason": "Abandoned/Junk Vehicles",
    "date_created": "2026-01-12T18:12:54.000",
    "date_modified": "2026-01-12T18:12:56.000",
    "request_status": "Pending",
    "responsible_agency": "Department of Public Works",
    "final_address": "6310 Douglass St",
    "address_councildis": "E",
    "status": "Pending",
    "rowid": "1251486",
    "final_x": "3699405.49431",
    "final_y": "530908.467842",
    "longitude": "-90.01155384503977",
    "latitude": "29.953258385896852",
    "geocoded_column": {
      "latitude": "29.953258385896852",
      "longitude": "-90.01155384503977"
    }
  },
  {
    "service_request": "2026-1251485",
    "request_type": "Property Maintenance",
    "request_reason": "Property Maintenance",
    "date_created": "2026-01-12T18:09:50.000",
    "date_modified": "2026-01-12T18:09:51.000",
    "request_status": "Pending",
    "responsible_agency": "Department of Code Enforcement",
    "final_address": "2032 Jefferson Ave",
    "address_councildis": "A",
    "status": "Pending",
    "rowid": "1251485",
    "final_x": "3667652.09274",
    "final_y": "523277.828155",
    "longitude": "-90.1120745672925",
    "latitude": "29.933245567747143",
    "geocoded_column": {
      "latitude": "29.933245567747143",
      "longitude": "-90.1120745672925"
    }
  },
  {
    "service_request": "2026-1251484",
    "request_type": "Trash/Recycling",
    "request_reason": "Illegal Dumping",
    "date_created": "2026-01-12T17:40:38.000",
    "date_modified": "2026-01-12T17:40:40.000",
    "request_status": "Pending",
    "responsible_agency": "Department of Sanitation",
    "final_address": "6243 Warrington Dr",
    "address_councildis": "D",
    "status": "Pending",
    "rowid": "1251484",
    "final_x": "3680855.88264",
    "final_y": "556111.007002",
    "longitude": "-90.06924758512207",
    "latitude": "30.02313183359311",
    "geocoded_column": {
      "latitude": "30.02313183359311",
      "longitude": "-90.06924758512207"
    }
  },
  {
    "service_request": "2026-1251483",
    "request_type": "Trash/Recycling",
    "request_reason": "Replace Recycling Cart",
    "date_created": "2026-01-12T17:33:08.000",
    "date_modified": "2026-01-12T17:33:09.000",
    "request_status": "Pending",
    "responsible_agency": "Department of Sanitation",
    "final_address": "823 Seventh St",
    "address_councildis": "B",
    "status": "Pending",
    "rowid": "1251483",
    "final_x": "3676899.75182",
    "final_y": "519635.623352",
    "longitude": "-90.08300574519303",
    "latitude": "29.922956432091716",
    "geocoded_column": {
      "latitude": "29.922956432091716",
      "longitude": "-90.08300574519303"
    }
  },
  {
    "service_request": "2026-1251482",
    "request_type": "Trash/Recycling",
    "request_reason": "Replace Trash Cart",
    "date_created": "2026-01-12T17:31:03.000",
    "date_modified": "2026-01-12T17:31:04.000",
    "request_status": "Pending",
    "responsible_agency": "Department of Sanitation",
    "final_address": "823 Seventh St",
    "address_councildis": "B",
    "status": "Assigned to Contractor",
    "contractor": "IV Waste",
    "rowid": "1251482",
    "final_x": "3676899.75182",
    "final_y": "519635.623352",
    "longitude": "-90.08300574519303",
    "latitude": "29.922956432091716",
    "geocoded_column": {
      "latitude": "29.922956432091716",
      "longitude": "-90.08300574519303"
    }
  },
  {
    "service_request": "2026-1251481",
    "request_type": "Roads and Streets",
    "request_reason": "Pothole",
    "date_created": "2026-01-12T17:13:36.000",
    "date_modified": "2026-01-12T17:13:38.000",
    "request_status": "Pending",
    "responsible_agency": "Department of Public Works",
    "final_address": "4606 Deanne St",
    "address_councildis": "D",
    "status": "Pending",
    "rowid": "1251481",
    "final_x": "3696312.57143",
    "final_y": "553534.129175",
    "longitude": "-90.02050137329559",
    "latitude": "30.015568475268733",
    "geocoded_column": {
      "latitude": "30.015568475268733",
      "longitude": "-90.02050137329559"
    }
  },
  {
    "service_request": "2026-1251474",
    "request_type": "Road Striping",
    "request_reason": "Lane Striping or other Pavement Markings",
    "date_created": "2026-01-12T16:44:39.000",
    "date_modified": "2026-01-12T16:44:41.000",
    "request_status": "Pending",
    "responsible_agency": "Department of Public Works",
    "final_address": "3423 Wall Blvd",
    "address_councildis": "C",
    "status": "Pending",
    "rowid": "1251474",
    "final_x": "3695832.16144",
    "final_y": "523784.748475",
    "longitude": "-90.02309404144196",
    "latitude": "29.933783485339887",
    "geocoded_column": {
      "latitude": "29.933783485339887",
      "longitude": "-90.02309404144196"
    }
  },
  {
    "service_request": "2026-1251473",
    "request_type": "Trash/Recycling",
    "request_reason": "Request a Large Item Pick Up",
    "date_created": "2026-01-12T16:42:23.000",
    "date_modified": "2026-01-12T16:42:25.000",
    "request_status": "Pending",
    "responsible_agency": "Department of Sanitation",
    "final_address": "1726 Congress St",
    "address_councildis": "D",
    "status": "Assigned to Contractor",
    "contractor": "IV Waste",
    "rowid": "1251473",
    "final_x": "3691290.73404",
    "final_y": "538056.179081",
    "longitude": "-90.03692131447764",
    "latitude": "29.97316698099584",
    "geocoded_column": {
      "latitude": "29.97316698099584",
      "longitude": "-90.03692131447764"
    }
  },
  {
    "service_request": "2026-1251472",
    "request_type": "Property Maintenance",
    "request_reason": "Property Maintenance",
    "date_created": "2026-01-12T16:41:20.000",
    "date_modified": "2026-01-12T16:41:22.000",
    "request_status": "Pending",
    "responsible_agency": "Department of Code Enforcement",
    "final_address": "3012 Pauger St",
    "address_councildis": "D",
    "status": "Pending",
    "rowid": "1251472",
    "final_x": "3683474.80028",
    "final_y": "540765.685259",
    "longitude": "-90.06151057770103",
    "latitude": "29.98085801383437",
    "geocoded_column": {
      "latitude": "29.98085801383437",
      "longitude": "-90.06151057770103"
    }
  },
  {
    "service_request": "2026-1251471",
    "request_type": "Trash/Recycling",
    "request_reason": "Request a Large Item Pick Up",
    "date_created": "2026-01-12T16:40:45.000",
    "date_modified": "2026-01-12T16:40:46.000",
    "request_status": "Pending",
    "responsible_agency": "Department of Sanitation",
    "final_address": "6 Snipe St",
    "address_councildis": "D",
    "status": "Assigned to Contractor",
    "contractor": "IV Waste",
    "rowid": "1251471",
    "final_x": "3672167.10094",
    "final_y": "556691.193882",
    "longitude": "-90.09668250900766",
    "latitude": "30.024987840876765",
    "geocoded_column": {
      "latitude": "30.024987840876765",
      "longitude": "-90.09668250900766"
    }
  },
  {
    "service_request": "2026-1251470",
    "request_type": "Trash/Recycling",
    "request_reason": "Request a Large Item Pick Up",
    "date_created": "2026-01-12T16:40:15.000",
    "date_modified": "2026-01-12T16:40:16.000",
    "request_status": "Pending",
    "responsible_agency": "Department of Sanitation",
    "final_address": "6165 General Haig St",
    "address_councildis": "A",
    "status": "Assigned to Contractor",
    "contractor": "IV Waste",
    "rowid": "1251470",
    "final_x": "3670694.27828",
    "final_y": "548289.830866",
    "longitude": "-90.1016217699609",
    "latitude": "30.00193068956904",
    "geocoded_column": {
      "latitude": "30.00193068956904",
      "longitude": "-90.1016217699609"
    }
  },
  {
    "service_request": "2026-1251469",
    "request_type": "Mosquito, Termite & Rodent Control",
    "request_reason": "Mosquito Complaint",
    "date_created": "2026-01-12T16:35:36.000",
    "date_modified": "2026-01-12T16:35:38.000",
    "request_status": "Pending",
    "responsible_agency": "Mosquito, Termite & Rodent Control Board",
    "final_address": "8023 Devine Ave",
    "address_councildis": "E",
    "status": "Pending",
    "rowid": "1251469",
    "final_x": "3705068.9466",
    "final_y": "564277.553825",
    "longitude": "-89.99243823956664",
    "latitude": "30.044829935640895",
    "geocoded_column": {
      "latitude": "30.044829935640895",
      "longitude": "-89.99243823956664"
    }
  },
  {
    "service_request": "2026-1251468",
    "request_type": "Trash/Recycling",
    "request_reason": "Return Trash Cart",
    "date_created": "2026-01-12T16:35:20.000",
    "date_modified": "2026-01-12T16:35:22.000",
    "request_status": "Pending",
    "responsible_agency": "Department of Sanitation",
    "final_address": "2020 Chestnut St",
    "address_councildis": "B",
    "status": "Assigned to Contractor",
    "contractor": "IV Waste",
    "rowid": "1251468",
    "final_x": "3678919.00712",
    "final_y": "523020.204411",
    "longitude": "-90.07651455624993",
    "latitude": "29.93220218433621",
    "geocoded_column": {
      "latitude": "29.93220218433621",
      "longitude": "-90.07651455624993"
    }
  },
  {
    "service_request": "2026-1251467",
    "request_type": "Trash/Recycling",
    "request_reason": "Request a Large Item Pick Up",
    "date_created": "2026-01-12T16:33:29.000",
    "date_modified": "2026-01-12T16:46:51.000",
    "case_close_date": "2026-01-12T10:46:50.000",
    "request_status": "Closed",
    "responsible_agency": "Department of Sanitation",
    "final_address": "8023 Devine Ave",
    "address_councildis": "E",
    "status": "Invalid Request",
    "contractor": "Waste Pro",
    "contractor_action": "Invalid",
    "rowid": "1251467",
    "final_x": "3705068.9466",
    "final_y": "564277.553825",
    "longitude": "-89.99243823956664",
    "latitude": "30.044829935640895",
    "geocoded_column": {
      "latitude": "30.044829935640895",
      "longitude": "-89.99243823956664"
    }
  },
  {
    "service_request": "2026-1251466",
    "request_type": "Trash/Recycling",
    "request_reason": "Request a Large Item Pick Up",
    "date_created": "2026-01-12T16:32:43.000",
    "date_modified": "2026-01-12T16:32:45.000",
    "request_status": "Pending",
    "responsible_agency": "Department of Sanitation",
    "final_address": "5901 Milne Blvd",
    "address_councildis": "A",
    "status": "Assigned to Contractor",
    "contractor": "IV Waste",
    "rowid": "1251466",
    "final_x": "3667038.96186",
    "final_y": "546952.023825",
    "longitude": "-90.11321436053092",
    "latitude": "29.99835971606422",
    "geocoded_column": {
      "latitude": "29.99835971606422",
      "longitude": "-90.11321436053092"
    }
  },
  {
    "service_request": "2026-1251465",
    "request_type": "Trash/Recycling",
    "request_reason": "Request a Large Item Pick Up",
    "date_created": "2026-01-12T16:31:11.000",
    "date_modified": "2026-01-12T16:31:13.000",
    "request_status": "Pending",
    "responsible_agency": "Department of Sanitation",
    "final_address": "5319 Pasteur Blvd",
    "address_councildis": "D",
    "status": "Assigned to Contractor",
    "contractor": "IV Waste",
    "rowid": "1251465",
    "final_x": "3683016.51663",
    "final_y": "552383.24527",
    "longitude": "-90.06255109449584",
    "latitude": "30.012816135629862",
    "geocoded_column": {
      "latitude": "30.012816135629862",
      "longitude": "-90.06255109449584"
    }
  },
  {
    "service_request": "2026-1251464",
    "request_type": "Trash/Recycling",
    "request_reason": "Request a Large Item Pick Up",
    "date_created": "2026-01-12T16:29:25.000",
    "date_modified": "2026-01-12T16:29:27.000",
    "request_status": "Pending",
    "responsible_agency": "Department of Sanitation",
    "final_address": "9930 E Rockton Cir",
    "address_councildis": "E",
    "status": "Assigned to Contractor",
    "contractor": "Waste Pro",
    "rowid": "1251464",
    "final_x": "3708608.03076",
    "final_y": "562702.971552",
    "longitude": "-89.98131189526949",
    "latitude": "30.040386111473406",
    "geocoded_column": {
      "latitude": "30.040386111473406",
      "longitude": "-89.98131189526949"
    }
  },
  {
    "service_request": "2026-1251462",
    "request_type": "Roads and Streets",
    "request_reason": "Pothole",
    "date_created": "2026-01-12T16:29:01.000",
    "date_modified": "2026-01-12T16:29:02.000",
    "request_status": "Pending",
    "responsible_agency": "Department of Public Works",
    "final_address": "6240 Dover Pl",
    "address_councildis": "C",
    "status": "Pending",
    "rowid": "1251462",
    "final_x": "3707277.11108",
    "final_y": "519132.681399",
    "longitude": "-89.98713573210043",
    "latitude": "29.92062712230568",
    "geocoded_column": {
      "latitude": "29.92062712230568",
      "longitude": "-89.98713573210043"
    }
  },
  {
    "service_request": "2026-1251463",
    "request_type": "Roads and Streets",
    "request_reason": "Pothole",
    "date_created": "2026-01-12T16:29:01.000",
    "date_modified": "2026-01-12T16:29:02.000",
    "request_status": "Pending",
    "responsible_agency": "Department of Public Works",
    "final_address": "6240 Dover Pl",
    "address_councildis": "C",
    "status": "Pending",
    "rowid": "1251463",
    "final_x": "3707277.11108",
    "final_y": "519132.681399",
    "longitude": "-89.98713573210043",
    "latitude": "29.92062712230568",
    "geocoded_column": {
      "latitude": "29.92062712230568",
      "longitude": "-89.98713573210043"
    }
  },
  {
    "service_request": "2026-1251461",
    "request_type": "Trash/Recycling",
    "request_reason": "Request a Large Item Pick Up",
    "date_created": "2026-01-12T16:20:49.000",
    "date_modified": "2026-01-12T16:20:51.000",
    "request_status": "Pending",
    "responsible_agency": "Department of Sanitation",
    "final_address": "7600 Symmes Ave",
    "address_councildis": "E",
    "status": "Assigned to Contractor",
    "contractor": "Waste Pro",
    "rowid": "1251461",
    "final_x": "3707849.92529",
    "final_y": "564522.969313",
    "longitude": "-89.98363998529048",
    "latitude": "30.045414953882887",
    "geocoded_column": {
      "latitude": "30.045414953882887",
      "longitude": "-89.98363998529048"
    }
  },
  {
    "service_request": "2026-1251460",
    "request_type": "Abandoned Vehicles",
    "request_reason": "Abandoned/Junk Vehicles",
    "date_created": "2026-01-12T16:18:27.000",
    "date_modified": "2026-01-12T16:18:28.000",
    "request_status": "Pending",
    "responsible_agency": "Department of Public Works",
    "final_address": "2132 Dumaine St",
    "address_councildis": "D",
    "status": "Pending",
    "rowid": "1251460",
    "final_x": "3678844.10715",
    "final_y": "536183.374663",
    "longitude": "-90.0762951329089",
    "latitude": "29.968398752506356",
    "geocoded_column": {
      "latitude": "29.968398752506356",
      "longitude": "-90.0762951329089"
    }
  },
  {
    "service_request": "2026-1251459",
    "request_type": "Trash/Recycling",
    "request_reason": "Request a Large Item Pick Up",
    "date_created": "2026-01-12T16:18:05.000",
    "date_modified": "2026-01-12T16:18:06.000",
    "request_status": "Pending",
    "responsible_agency": "Department of Sanitation",
    "final_address": "108 Neil Ave",
    "address_councildis": "C",
    "status": "Assigned to Contractor",
    "contractor": "Richards Disposal",
    "rowid": "1251459",
    "final_x": "3705948.17387",
    "final_y": "518833.316855",
    "longitude": "-89.99134160368092",
    "latitude": "29.91984683768692",
    "geocoded_column": {
      "latitude": "29.91984683768692",
      "longitude": "-89.99134160368092"
    }
  },
  {
    "service_request": "2026-1251458",
    "request_type": "Trash/Recycling",
    "request_reason": "Order Recycling Cart",
    "date_created": "2026-01-12T16:17:51.000",
    "date_modified": "2026-01-12T16:17:53.000",
    "request_status": "Pending",
    "responsible_agency": "Department of Sanitation",
    "final_address": "404 S Hennessey St",
    "address_councildis": "A",
    "status": "Pending",
    "rowid": "1251458",
    "final_x": "3669540.19425",
    "final_y": "537895.928457",
    "longitude": "-90.10561947583037",
    "latitude": "29.973385073686295",
    "geocoded_column": {
      "latitude": "29.973385073686295",
      "longitude": "-90.10561947583037"
    }
  },
  {
    "service_request": "2026-1251457",
    "request_type": "Trash/Recycling",
    "request_reason": "Request a Large Item Pick Up",
    "date_created": "2026-01-12T16:13:59.000",
    "date_modified": "2026-01-12T16:14:00.000",
    "request_status": "Pending",
    "responsible_agency": "Department of Sanitation",
    "final_address": "2021 Music St",
    "address_councildis": "D",
    "status": "Assigned to Contractor",
    "contractor": "IV Waste",
    "rowid": "1251457",
    "final_x": "3686606.54665",
    "final_y": "539981.539403",
    "longitude": "-90.05164686190794",
    "latitude": "29.978605937861595",
    "geocoded_column": {
      "latitude": "29.978605937861595",
      "longitude": "-90.05164686190794"
    }
  },
  {
    "service_request": "2026-1251456",
    "request_type": "Streetlights",
    "request_reason": "Streetlight Outage/Malfunction",
    "date_created": "2026-01-12T16:11:05.000",
    "date_modified": "2026-01-12T16:11:07.000",
    "request_status": "Pending",
    "responsible_agency": "Department of Public Works",
    "final_address": "7700 Hansbrough Ave",
    "address_councildis": "E",
    "status": "Pending",
    "rowid": "1251456",
    "final_x": "3707493.02878",
    "final_y": "564647.866017",
    "longitude": "-89.98476329655885",
    "latitude": "30.04576992422749",
    "geocoded_column": {
      "latitude": "30.04576992422749",
      "longitude": "-89.98476329655885"
    }
  },
  {
    "service_request": "2026-1251455",
    "request_type": "Trash/Recycling",
    "request_reason": "Order Second Trash Cart",
    "date_created": "2026-01-12T16:10:59.000",
    "date_modified": "2026-01-12T16:11:01.000",
    "request_status": "Pending",
    "responsible_agency": "Department of Sanitation",
    "final_address": "41 Dove St",
    "address_councildis": "D",
    "status": "Assigned to Contractor",
    "contractor": "IV Waste",
    "rowid": "1251455",
    "final_x": "3673463.86587",
    "final_y": "555020.868313",
    "longitude": "-90.09264208054755",
    "latitude": "30.020356501053794",
    "geocoded_column": {
      "latitude": "30.020356501053794",
      "longitude": "-90.09264208054755"
    }
  },
  {
    "service_request": "2026-1251454",
    "request_type": "Trash/Recycling",
    "request_reason": "Request a Large Item Pick Up",
    "date_created": "2026-01-12T16:09:19.000",
    "date_modified": "2026-01-12T16:09:20.000",
    "request_status": "Pending",
    "responsible_agency": "Department of Sanitation",
    "final_address": "4533 Iberville St",
    "address_councildis": "A",
    "status": "Assigned to Contractor",
    "contractor": "IV Waste",
    "rowid": "1251454",
    "final_x": "3669783.40366",
    "final_y": "539933.506762",
    "longitude": "-90.10478237219661",
    "latitude": "29.978980558788198",
    "geocoded_column": {
      "latitude": "29.978980558788198",
      "longitude": "-90.10478237219661"
    }
  },
  {
    "service_request": "2026-1251453",
    "request_type": "Abandoned Vehicles",
    "request_reason": "Abandoned/Junk Vehicles",
    "date_created": "2026-01-12T16:09:07.000",
    "date_modified": "2026-01-12T16:09:08.000",
    "request_status": "Pending",
    "responsible_agency": "Department of Public Works",
    "final_address": "420 S Gayoso St",
    "address_councildis": "B",
    "status": "Pending",
    "rowid": "1251453",
    "final_x": "3673513.65524",
    "final_y": "534712.196422",
    "longitude": "-90.093179270705",
    "latitude": "29.964513224111478",
    "geocoded_column": {
      "latitude": "29.964513224111478",
      "longitude": "-90.093179270705"
    }
  },
  {
    "service_request": "2026-1251452",
    "request_type": "Trash/Recycling",
    "request_reason": "Request a Large Item Pick Up",
    "date_created": "2026-01-12T16:08:57.000",
    "date_modified": "2026-01-12T16:08:59.000",
    "request_status": "Pending",
    "responsible_agency": "Department of Sanitation",
    "final_address": "1220 Joliet St",
    "address_councildis": "A",
    "status": "Assigned to Contractor",
    "contractor": "IV Waste",
    "rowid": "1251452",
    "final_x": "3661002.43578",
    "final_y": "529493.895553",
    "longitude": "-90.13286162784152",
    "latitude": "29.95053098453264",
    "geocoded_column": {
      "latitude": "29.95053098453264",
      "longitude": "-90.13286162784152"
    }
  },
  {
    "service_request": "2026-1251451",
    "request_type": "Abandoned Vehicles",
    "request_reason": "Abandoned/Junk Vehicles",
    "date_created": "2026-01-12T16:06:34.000",
    "date_modified": "2026-01-12T16:06:35.000",
    "request_status": "Pending",
    "responsible_agency": "Department of Public Works",
    "final_address": "3016 Sullen Pl",
    "address_councildis": "C",
    "status": "Pending",
    "rowid": "1251451",
    "final_x": "3707894.75256",
    "final_y": "519558.166968",
    "longitude": "-89.98517033941326",
    "latitude": "29.92177709189864",
    "geocoded_column": {
      "latitude": "29.92177709189864",
      "longitude": "-89.98517033941326"
    }
  },
  {
    "service_request": "2026-1251450",
    "request_type": "Trash/Recycling",
    "request_reason": "Request a Large Item Pick Up",
    "date_created": "2026-01-12T16:03:24.000",
    "date_modified": "2026-01-12T16:03:26.000",
    "request_status": "Pending",
    "responsible_agency": "Department of Sanitation",
    "final_address": "3983 S Front St",
    "address_councildis": "B",
    "status": "Assigned to Contractor",
    "contractor": "IV Waste",
    "rowid": "1251450",
    "final_x": "3672779.75105",
    "final_y": "517400.684405",
    "longitude": "-90.09608718486076",
    "latitude": "29.916934036661424",
    "geocoded_column": {
      "latitude": "29.916934036661424",
      "longitude": "-90.09608718486076"
    }
  },
  {
    "service_request": "2026-1251449",
    "request_type": "Streetlights",
    "request_reason": "Streetlight Outage/Malfunction",
    "date_created": "2026-01-12T16:03:14.000",
    "date_modified": "2026-01-12T16:03:16.000",
    "request_status": "Pending",
    "responsible_agency": "Department of Public Works",
    "final_address": "11051 Harrow Rd",
    "address_councildis": "E",
    "status": "Pending",
    "rowid": "1251449",
    "final_x": "3711980.31032",
    "final_y": "564152.278881",
    "longitude": "-89.97060002265906",
    "latitude": "30.04426128315203",
    "geocoded_column": {
      "latitude": "30.04426128315203",
      "longitude": "-89.97060002265906"
    }
  },
  {
    "service_request": "2026-1251448",
    "request_type": "Roads and Streets",
    "request_reason": "Pothole",
    "date_created": "2026-01-12T16:02:16.000",
    "date_modified": "2026-01-12T16:02:18.000",
    "request_status": "Pending",
    "responsible_agency": "Department of Public Works",
    "final_address": "13701 Curran Rd",
    "address_councildis": "E",
    "status": "Pending",
    "rowid": "1251448",
    "final_x": "3717590.94341",
    "final_y": "571491.795048",
    "longitude": "-89.95258859376848",
    "latitude": "30.064257258114328",
    "geocoded_column": {
      "latitude": "30.064257258114328",
      "longitude": "-89.95258859376848"
    }
  },
  {
    "service_request": "2026-1251447",
    "request_type": "Trash/Recycling",
    "request_reason": "Request a Large Item Pick Up",
    "date_created": "2026-01-12T15:59:55.000",
    "date_modified": "2026-01-12T15:59:57.000",
    "request_status": "Pending",
    "responsible_agency": "Department of Sanitation",
    "final_address": "4946 Rhodes Dr",
    "address_councildis": "E",
    "status": "Assigned to Contractor",
    "contractor": "Waste Pro",
    "rowid": "1251447",
    "final_x": "3702356.30276",
    "final_y": "555451.959577",
    "longitude": "-90.0013356503354",
    "latitude": "30.020649991324696",
    "geocoded_column": {
      "latitude": "30.020649991324696",
      "longitude": "-90.0013356503354"
    }
  },
  {
    "service_request": "2026-1251446",
    "request_type": "Safety & Permits",
    "request_reason": "Construction permit",
    "date_created": "2026-01-12T15:56:45.000",
    "date_modified": "2026-01-12T15:56:46.000",
    "request_status": "Pending",
    "responsible_agency": "Safety and Permits",
    "final_address": "617 Eighth St",
    "address_councildis": "B",
    "status": "Pending",
    "rowid": "1251446",
    "final_x": "3677066.07528",
    "final_y": "518843.922167",
    "longitude": "-90.082508007108",
    "latitude": "29.920774518098227",
    "geocoded_column": {
      "latitude": "29.920774518098227",
      "longitude": "-90.082508007108"
    }
  },
  {
    "service_request": "2026-1251445",
    "request_type": "Trash/Recycling",
    "request_reason": "Request a Large Item Pick Up",
    "date_created": "2026-01-12T15:56:31.000",
    "date_modified": "2026-01-12T15:56:33.000",
    "request_status": "Pending",
    "responsible_agency": "Department of Sanitation",
    "final_address": "1520 St Roch Ave",
    "address_councildis": "C",
    "status": "Assigned to Contractor",
    "contractor": "IV Waste",
    "rowid": "1251445",
    "final_x": "3686277.57058",
    "final_y": "538055.249353",
    "longitude": "-90.05275388167806",
    "latitude": "29.97331943061236",
    "geocoded_column": {
      "latitude": "29.97331943061236",
      "longitude": "-90.05275388167806"
    }
  },
  {
    "service_request": "2026-1251444",
    "request_type": "Streetlights",
    "request_reason": "Streetlight Outage/Malfunction",
    "date_created": "2026-01-12T15:53:00.000",
    "date_modified": "2026-01-12T15:53:02.000",
    "request_status": "Pending",
    "responsible_agency": "Department of Public Works",
    "final_address": "1855 Gentilly Blvd",
    "address_councildis": "A",
    "status": "Pending",
    "rowid": "1251444",
    "final_x": "3678763.53704",
    "final_y": "542827.469965",
    "longitude": "-90.07631939564985",
    "latitude": "29.986670149460135",
    "geocoded_column": {
      "latitude": "29.986670149460135",
      "longitude": "-90.07631939564985"
    }
  },
  {
    "service_request": "2026-1251443",
    "request_type": "Trash/Recycling",
    "request_reason": "Order Trash Cart",
    "date_created": "2026-01-12T15:51:20.000",
    "date_modified": "2026-01-12T15:51:22.000",
    "request_status": "Pending",
    "responsible_agency": "Department of Sanitation",
    "final_address": "1208 Carondelet St",
    "address_councildis": "B",
    "status": "Assigned to Contractor",
    "contractor": "IV Waste",
    "rowid": "1251443",
    "final_x": "3679317.07349",
    "final_y": "526515.47795",
    "longitude": "-90.07513673728523",
    "latitude": "29.941801020390272",
    "geocoded_column": {
      "latitude": "29.941801020390272",
      "longitude": "-90.07513673728523"
    }
  },
  {
    "service_request": "2026-1251442",
    "request_type": "Streetlights",
    "request_reason": "Streetlight Outage/Malfunction",
    "date_created": "2026-01-12T15:48:40.000",
    "date_modified": "2026-01-12T15:48:42.000",
    "request_status": "Pending",
    "responsible_agency": "Department of Public Works",
    "final_address": "1855 Gentilly Blvd",
    "address_councildis": "A",
    "status": "Pending",
    "rowid": "1251442",
    "final_x": "3678763.53704",
    "final_y": "542827.469965",
    "longitude": "-90.07631939564985",
    "latitude": "29.986670149460135",
    "geocoded_column": {
      "latitude": "29.986670149460135",
      "longitude": "-90.07631939564985"
    }
  },
  {
    "service_request": "2026-1251441",
    "request_type": "Trash/Recycling",
    "request_reason": "Repair Trash Cart",
    "date_created": "2026-01-12T15:46:02.000",
    "date_modified": "2026-01-12T15:46:04.000",
    "request_status": "Pending",
    "responsible_agency": "Department of Sanitation",
    "final_address": "3729 Copernicus St",
    "address_councildis": "C",
    "status": "Assigned to Contractor",
    "contractor": "Richards Disposal",
    "rowid": "1251441",
    "final_x": "3697634.70051",
    "final_y": "522989.588475",
    "longitude": "-90.01743237107532",
    "latitude": "29.931540271104087",
    "geocoded_column": {
      "latitude": "29.931540271104087",
      "longitude": "-90.01743237107532"
    }
  },
  {
    "service_request": "2026-1251440",
    "request_type": "Trash/Recycling",
    "request_reason": "Illegal Dumping",
    "date_created": "2026-01-12T15:43:45.000",
    "date_modified": "2026-01-12T15:43:47.000",
    "request_status": "Pending",
    "responsible_agency": "Department of Sanitation",
    "final_address": "2360 Treasure St",
    "address_councildis": "D",
    "status": "Pending",
    "rowid": "1251440",
    "final_x": "3685678.55657",
    "final_y": "544105.75611",
    "longitude": "-90.05443240914583",
    "latitude": "29.98997458285399",
    "geocoded_column": {
      "latitude": "29.98997458285399",
      "longitude": "-90.05443240914583"
    }
  },
  {
    "service_request": "2026-1251439",
    "request_type": "Trash/Recycling",
    "request_reason": "Request a Large Item Pick Up",
    "date_created": "2026-01-12T15:41:41.000",
    "date_modified": "2026-01-12T15:41:42.000",
    "request_status": "Pending",
    "responsible_agency": "Department of Sanitation",
    "final_address": "2407 Baronne St",
    "address_councildis": "B",
    "status": "Assigned to Contractor",
    "contractor": "IV Waste",
    "rowid": "1251439",
    "final_x": "3676459.10965",
    "final_y": "523808.657147",
    "longitude": "-90.08425308713221",
    "latitude": "29.934444132808675",
    "geocoded_column": {
      "latitude": "29.934444132808675",
      "longitude": "-90.08425308713221"
    }
  },
  {
    "service_request": "2026-1251438",
    "request_type": "Trash/Recycling",
    "request_reason": "Replace Trash Cart",
    "date_created": "2026-01-12T15:38:54.000",
    "date_modified": "2026-01-12T15:38:57.000",
    "request_status": "Pending",
    "responsible_agency": "Department of Sanitation",
    "final_address": "3320 Dumaine St",
    "address_councildis": "A",
    "status": "Assigned to Contractor",
    "contractor": "IV Waste",
    "rowid": "1251438",
    "final_x": "3674953.44072",
    "final_y": "539153.400266",
    "longitude": "-90.08848016099134",
    "latitude": "29.976682100442886",
    "geocoded_column": {
      "latitude": "29.976682100442886",
      "longitude": "-90.08848016099134"
    }
  },
  {
    "service_request": "2026-1251437",
    "request_type": "Trash/Recycling",
    "request_reason": "Request a Large Item Pick Up",
    "date_created": "2026-01-12T15:37:29.000",
    "date_modified": "2026-01-12T15:37:31.000",
    "request_status": "Pending",
    "responsible_agency": "Department of Sanitation",
    "final_address": "11429 Longview Dr",
    "address_councildis": "E",
    "status": "Assigned to Contractor",
    "contractor": "Waste Pro",
    "rowid": "1251437",
    "final_x": "3719337.91333",
    "final_y": "560142.727773",
    "longitude": "-89.9475002353285",
    "latitude": "30.03299399715027",
    "geocoded_column": {
      "latitude": "30.03299399715027",
      "longitude": "-89.9475002353285"
    }
  },
  {
    "service_request": "2026-1251435",
    "request_type": "Trash/Recycling",
    "request_reason": "Request a Large Item Pick Up",
    "date_created": "2026-01-12T15:32:32.000",
    "date_modified": "2026-01-12T15:32:34.000",
    "request_status": "Pending",
    "responsible_agency": "Department of Sanitation",
    "final_address": "3601 Forest Park Ln",
    "address_councildis": "C",
    "status": "Assigned to Contractor",
    "contractor": "Richards Disposal",
    "rowid": "1251435",
    "final_x": "3702941.29425",
    "final_y": "511402.819888",
    "longitude": "-90.00110548233576",
    "latitude": "29.899511993939825",
    "geocoded_column": {
      "latitude": "29.899511993939825",
      "longitude": "-90.00110548233576"
    }
  },
  {
    "service_request": "2026-1251434",
    "request_type": "Parks & Parkways",
    "request_reason": "Request Tree Service (Right of Way/Public Property)",
    "date_created": "2026-01-12T15:32:02.000",
    "date_modified": "2026-01-12T15:32:28.000",
    "request_status": "Pending",
    "responsible_agency": "Department of Parks & Parkway",
    "final_address": "4771 Lennox Blvd",
    "address_councildis": "C",
    "status": "Pending",
    "rowid": "1251434",
    "final_x": "3700640.05009",
    "final_y": "512981.089777",
    "longitude": "-90.00831026343923",
    "latitude": "29.90392507482159",
    "geocoded_column": {
      "latitude": "29.90392507482159",
      "longitude": "-90.00831026343923"
    }
  },
  {
    "service_request": "2026-1251433",
    "request_type": "Property Maintenance",
    "request_reason": "Property Maintenance",
    "date_created": "2026-01-12T15:29:52.000",
    "date_modified": "2026-01-12T15:29:53.000",
    "request_status": "Pending",
    "responsible_agency": "Department of Code Enforcement",
    "final_address": "839 Pacific Ave",
    "address_councildis": "C",
    "status": "Pending",
    "rowid": "1251433",
    "final_x": "3688402.62211",
    "final_y": "528364.19552",
    "longitude": "-90.04638630781086",
    "latitude": "29.946606918257864",
    "geocoded_column": {
      "latitude": "29.946606918257864",
      "longitude": "-90.04638630781086"
    }
  },
  {
    "service_request": "2026-1251432",
    "request_type": "Abandoned Vehicles",
    "request_reason": "Abandoned/Junk Vehicles",
    "date_created": "2026-01-12T15:29:43.000",
    "date_modified": "2026-01-12T15:29:44.000",
    "request_status": "Pending",
    "responsible_agency": "Department of Public Works",
    "final_address": "1800 BLK Aubry St",
    "address_councildis": "D",
    "status": "Pending",
    "rowid": "1251432",
    "final_x": "3682217.63159",
    "final_y": "539137.990737",
    "longitude": "-90.06553815068996",
    "latitude": "29.97642073012327",
    "geocoded_column": {
      "latitude": "29.97642073012327",
      "longitude": "-90.06553815068996"
    }
  },
  {
    "service_request": "2026-1251431",
    "request_type": "Trash/Recycling",
    "request_reason": "Repair Recycling Cart",
    "date_created": "2026-01-12T15:29:38.000",
    "date_modified": "2026-01-12T15:29:40.000",
    "request_status": "Pending",
    "responsible_agency": "Department of Sanitation",
    "final_address": "1318 N Lopez St",
    "address_councildis": "A",
    "status": "Pending",
    "rowid": "1251431",
    "final_x": "3676517.25051",
    "final_y": "539933.983754",
    "longitude": "-90.08351426986214",
    "latitude": "29.97878162912782",
    "geocoded_column": {
      "latitude": "29.97878162912782",
      "longitude": "-90.08351426986214"
    }
  },
  {
    "service_request": "2026-1251430",
    "request_type": "Roads and Streets",
    "request_reason": "Pothole",
    "date_created": "2026-01-12T15:29:32.000",
    "date_modified": "2026-01-12T15:29:33.000",
    "request_status": "Pending",
    "responsible_agency": "Department of Public Works",
    "final_address": "3601 General De Gaulle Dr",
    "address_councildis": "C",
    "status": "Pending",
    "rowid": "1251430",
    "final_x": "3696412.83325",
    "final_y": "520435.727544",
    "longitude": "-90.02138195142473",
    "latitude": "29.92455655300626",
    "geocoded_column": {
      "latitude": "29.92455655300626",
      "longitude": "-90.02138195142473"
    }
  },
  {
    "service_request": "2026-1251429",
    "request_type": "Roads and Streets",
    "request_reason": "Sidewalk Damaged or Missing",
    "date_created": "2026-01-12T15:28:49.000",
    "date_modified": "2026-01-12T15:28:51.000",
    "request_status": "Pending",
    "responsible_agency": "Department of Public Works",
    "final_address": "1350 Bourbon St",
    "address_councildis": "C",
    "status": "Pending",
    "rowid": "1251429",
    "final_x": "3683700.26441",
    "final_y": "534514.026181",
    "longitude": "-90.06101771273805",
    "latitude": "29.963661240674625",
    "geocoded_column": {
      "latitude": "29.963661240674625",
      "longitude": "-90.06101771273805"
    }
  },
  {
    "service_request": "2026-1251428",
    "request_type": "Trash/Recycling",
    "request_reason": "Request a Large Item Pick Up",
    "date_created": "2026-01-12T15:26:31.000",
    "date_modified": "2026-01-12T15:26:33.000",
    "request_status": "Pending",
    "responsible_agency": "Department of Sanitation",
    "final_address": "3630 Frenchmen St",
    "address_councildis": "D",
    "status": "Assigned to Contractor",
    "contractor": "IV Waste",
    "rowid": "1251428",
    "final_x": "3683751.13737",
    "final_y": "546057.995856",
    "longitude": "-90.06045209693988",
    "latitude": "29.995401558241365",
    "geocoded_column": {
      "latitude": "29.995401558241365",
      "longitude": "-90.06045209693988"
    }
  },
  {
    "service_request": "2026-1251427",
    "request_type": "Trash/Recycling",
    "request_reason": "Request a Large Item Pick Up",
    "date_created": "2026-01-12T15:25:22.000",
    "date_modified": "2026-01-12T15:25:24.000",
    "request_status": "Pending",
    "responsible_agency": "Department of Sanitation",
    "final_address": "7576 Dearborn Rd",
    "address_councildis": "E",
    "status": "Assigned to Contractor",
    "contractor": "Waste Pro",
    "rowid": "1251427",
    "final_x": "3709273.66014",
    "final_y": "564507.335585",
    "longitude": "-89.97914091540856",
    "latitude": "30.045325778719388",
    "geocoded_column": {
      "latitude": "30.045325778719388",
      "longitude": "-89.97914091540856"
    }
  },
  {
    "service_request": "2026-1251426",
    "request_type": "Trash/Recycling",
    "request_reason": "Illegal Dumping",
    "date_created": "2026-01-12T15:22:41.000",
    "date_modified": "2026-01-12T15:22:43.000",
    "request_status": "Pending",
    "responsible_agency": "Department of Sanitation",
    "final_address": "6833 E Coronet Ct",
    "address_councildis": "E",
    "status": "Pending",
    "rowid": "1251426",
    "final_x": "3703514.84298",
    "final_y": "557661.121691",
    "longitude": "-89.99759366421445",
    "latitude": "30.026687252345102",
    "geocoded_column": {
      "latitude": "30.026687252345102",
      "longitude": "-89.99759366421445"
    }
  },
  {
    "service_request": "2026-1251425",
    "request_type": "Trash/Recycling",
    "request_reason": "Request a Large Item Pick Up",
    "date_created": "2026-01-12T15:20:13.000",
    "date_modified": "2026-01-12T15:20:15.000",
    "request_status": "Pending",
    "responsible_agency": "Department of Sanitation",
    "final_address": "13132 Wales St",
    "address_councildis": "E",
    "status": "Assigned to Contractor",
    "contractor": "Waste Pro",
    "rowid": "1251425",
    "final_x": "3716150.53087",
    "final_y": "570805.678887",
    "longitude": "-89.95716785516677",
    "latitude": "30.062418370215706",
    "geocoded_column": {
      "latitude": "30.062418370215706",
      "longitude": "-89.95716785516677"
    }
  },
  {
    "service_request": "2026-1251424",
    "request_type": "Roads and Streets",
    "request_reason": "Pothole",
    "date_created": "2026-01-12T15:19:39.000",
    "date_modified": "2026-01-12T15:19:40.000",
    "request_status": "Pending",
    "responsible_agency": "Department of Public Works",
    "final_address": "3500 BLK Sullen Pl",
    "address_councildis": "C",
    "status": "Pending",
    "rowid": "1251424",
    "final_x": "3707673.42517",
    "final_y": "517916.463955",
    "longitude": "-89.9859299065591",
    "latitude": "29.917270139134107",
    "geocoded_column": {
      "latitude": "29.917270139134107",
      "longitude": "-89.9859299065591"
    }
  },
  {
    "service_request": "2026-1251423",
    "request_type": "Graffiti Removal",
    "request_reason": "Graffiti Removal",
    "date_created": "2026-01-12T15:18:50.000",
    "date_modified": "2026-01-12T15:18:51.000",
    "request_status": "Pending",
    "responsible_agency": "Department of Code Enforcement",
    "final_address": "1350 Bourbon St",
    "address_councildis": "C",
    "status": "Pending",
    "rowid": "1251423",
    "final_x": "3683700.26441",
    "final_y": "534514.026181",
    "longitude": "-90.06101771273805",
    "latitude": "29.963661240674625",
    "geocoded_column": {
      "latitude": "29.963661240674625",
      "longitude": "-90.06101771273805"
    }
  },
  {
    "service_request": "2026-1251422",
    "request_type": "Roads and Streets",
    "request_reason": "Street Subsidence (Sinking)",
    "date_created": "2026-01-12T15:10:50.000",
    "date_modified": "2026-01-12T15:10:52.000",
    "request_status": "Pending",
    "responsible_agency": "Sewerage & Water Board",
    "final_address": "5707 Magazine St",
    "address_councildis": "A",
    "status": "Pending",
    "rowid": "1251422",
    "final_x": "3665746.71021",
    "final_y": "518998.832823",
    "longitude": "-90.11823301272621",
    "latitude": "29.92153538432904",
    "geocoded_column": {
      "latitude": "29.92153538432904",
      "longitude": "-90.11823301272621"
    }
  },
  {
    "service_request": "2026-1251421",
    "request_type": "Trash/Recycling",
    "request_reason": "Repair Recycling Cart",
    "date_created": "2026-01-12T15:09:08.000",
    "date_modified": "2026-01-12T15:09:10.000",
    "request_status": "Pending",
    "responsible_agency": "Department of Sanitation",
    "final_address": "264 Lowerline St",
    "address_councildis": "A",
    "status": "Pending",
    "rowid": "1251421",
    "final_x": "3661223.08781",
    "final_y": "523222.965243",
    "longitude": "-90.13237244796392",
    "latitude": "29.933281558424163",
    "geocoded_column": {
      "latitude": "29.933281558424163",
      "longitude": "-90.13237244796392"
    }
  },
  {
    "service_request": "2026-1251419",
    "request_type": "Streetlights",
    "request_reason": "Streetlight Outage/Malfunction",
    "date_created": "2026-01-12T15:09:06.000",
    "date_modified": "2026-01-12T15:09:07.000",
    "request_status": "Pending",
    "responsible_agency": "Department of Public Works",
    "final_address": "Interstate 10 & South Claiborne Avenue",
    "address_councildis": "B",
    "status": "Pending",
    "rowid": "1251419",
    "final_x": "3677266.60392",
    "final_y": "531421.213251",
    "longitude": "-90.0814412778146",
    "latitude": "29.95535190945546",
    "geocoded_column": {
      "latitude": "29.95535190945546",
      "longitude": "-90.0814412778146"
    }
  },
  {
    "service_request": "2026-1251420",
    "request_type": "Streetlights",
    "request_reason": "Streetlight Outage/Malfunction",
    "date_created": "2026-01-12T15:09:06.000",
    "date_modified": "2026-01-12T15:09:07.000",
    "request_status": "Pending",
    "responsible_agency": "Department of Public Works",
    "final_address": "Interstate 10 & South Claiborne Avenue",
    "address_councildis": "B",
    "status": "Pending",
    "rowid": "1251420",
    "final_x": "3677266.60392",
    "final_y": "531421.213251",
    "longitude": "-90.0814412778146",
    "latitude": "29.95535190945546",
    "geocoded_column": {
      "latitude": "29.95535190945546",
      "longitude": "-90.0814412778146"
    }
  },
  {
    "service_request": "2026-1251418",
    "request_type": "Trash/Recycling",
    "request_reason": "Request a Large Item Pick Up",
    "date_created": "2026-01-12T15:09:04.000",
    "date_modified": "2026-01-12T15:09:06.000",
    "request_status": "Pending",
    "responsible_agency": "Department of Sanitation",
    "final_address": "130 Chatelain Ct",
    "address_councildis": "E",
    "status": "Assigned to Contractor",
    "contractor": "Waste Pro",
    "rowid": "1251418",
    "final_x": "3715004.51487",
    "final_y": "567456.24458",
    "longitude": "-89.96091721311386",
    "latitude": "30.05324660092427",
    "geocoded_column": {
      "latitude": "30.05324660092427",
      "longitude": "-89.96091721311386"
    }
  },
  {
    "service_request": "2026-1251417",
    "request_type": "Trash/Recycling",
    "request_reason": "Request a Large Item Pick Up",
    "date_created": "2026-01-12T15:08:49.000",
    "date_modified": "2026-01-12T15:08:51.000",
    "request_status": "Pending",
    "responsible_agency": "Department of Sanitation",
    "final_address": "7647 Avalon Way",
    "address_councildis": "E",
    "status": "Assigned to Contractor",
    "contractor": "Waste Pro",
    "rowid": "1251417",
    "final_x": "3708957.36728",
    "final_y": "564808.342562",
    "longitude": "-89.98012930996306",
    "latitude": "30.046163701653665",
    "geocoded_column": {
      "latitude": "30.046163701653665",
      "longitude": "-89.98012930996306"
    }
  },
  {
    "service_request": "2026-1251416",
    "request_type": "Streetlights",
    "request_reason": "Streetlight Outage/Malfunction",
    "date_created": "2026-01-12T15:08:13.000",
    "date_modified": "2026-01-12T15:08:15.000",
    "request_status": "Pending",
    "responsible_agency": "Department of Public Works",
    "final_address": "1920 Upperline St",
    "address_councildis": "B",
    "status": "Pending",
    "rowid": "1251416",
    "final_x": "3669002.79828",
    "final_y": "521976.231354",
    "longitude": "-90.10785440979389",
    "latitude": "29.929626939174778",
    "geocoded_column": {
      "latitude": "29.929626939174778",
      "longitude": "-90.10785440979389"
    }
  },
  {
    "service_request": "2026-1251415",
    "request_type": "Trash/Recycling",
    "request_reason": "Request a Large Item Pick Up",
    "date_created": "2026-01-12T15:06:36.000",
    "date_modified": "2026-01-12T15:06:37.000",
    "request_status": "Pending",
    "responsible_agency": "Department of Sanitation",
    "final_address": "8026 Gus St",
    "address_councildis": "E",
    "status": "Assigned to Contractor",
    "contractor": "Waste Pro",
    "rowid": "1251415",
    "final_x": "3703295.80497",
    "final_y": "563168.013728",
    "longitude": "-89.99808301990942",
    "latitude": "30.04183607321788",
    "geocoded_column": {
      "latitude": "30.04183607321788",
      "longitude": "-89.99808301990942"
    }
  },
  {
    "service_request": "2026-1251414",
    "request_type": "Trash/Recycling",
    "request_reason": "Request a Large Item Pick Up",
    "date_created": "2026-01-12T15:06:35.000",
    "date_modified": "2026-01-12T15:06:37.000",
    "request_status": "Pending",
    "responsible_agency": "Department of Sanitation",
    "final_address": "6124 N Galvez St",
    "address_councildis": "E",
    "status": "Assigned to Contractor",
    "contractor": "Waste Pro",
    "rowid": "1251414",
    "final_x": "3701098.83357",
    "final_y": "536708.950023",
    "longitude": "-90.00599488092195",
    "latitude": "29.96915381591089",
    "geocoded_column": {
      "latitude": "29.96915381591089",
      "longitude": "-90.00599488092195"
    }
  },
  {
    "service_request": "2026-1251413",
    "request_type": "Trash/Recycling",
    "request_reason": "Request a Large Item Pick Up",
    "date_created": "2026-01-12T15:06:34.000",
    "date_modified": "2026-01-12T15:06:36.000",
    "request_status": "Pending",
    "responsible_agency": "Department of Sanitation",
    "final_address": "1909 Pauger St",
    "address_councildis": "C",
    "status": "Assigned to Contractor",
    "contractor": "IV Waste",
    "rowid": "1251413",
    "final_x": "3683864.48565",
    "final_y": "536676.143687",
    "longitude": "-90.06042327034184",
    "latitude": "29.969601302092908",
    "geocoded_column": {
      "latitude": "29.969601302092908",
      "longitude": "-90.06042327034184"
    }
  },
  {
    "service_request": "2026-1251412",
    "request_type": "Trash/Recycling",
    "request_reason": "Request a Large Item Pick Up",
    "date_created": "2026-01-12T15:03:09.000",
    "date_modified": "2026-01-12T15:03:11.000",
    "request_status": "Pending",
    "responsible_agency": "Department of Sanitation",
    "final_address": "4749 Laine Ave",
    "address_councildis": "E",
    "status": "Assigned to Contractor",
    "contractor": "Waste Pro",
    "rowid": "1251412",
    "final_x": "3705744.33982",
    "final_y": "555466.449689",
    "longitude": "-89.99063001253046",
    "latitude": "30.020581105059698",
    "geocoded_column": {
      "latitude": "30.020581105059698",
      "longitude": "-89.99063001253046"
    }
  },
  {
    "service_request": "2026-1251411",
    "request_type": "Trash/Recycling",
    "request_reason": "Request a Large Item Pick Up",
    "date_created": "2026-01-12T15:00:41.000",
    "date_modified": "2026-01-12T15:00:43.000",
    "request_status": "Pending",
    "responsible_agency": "Department of Sanitation",
    "final_address": "7040 Queensway Dr",
    "address_councildis": "E",
    "status": "Assigned to Contractor",
    "contractor": "Waste Pro",
    "rowid": "1251411",
    "final_x": "3719143.7742",
    "final_y": "569435.856358",
    "longitude": "-89.94775861293397",
    "latitude": "30.05855274367395",
    "geocoded_column": {
      "latitude": "30.05855274367395",
      "longitude": "-89.94775861293397"
    }
  },
  {
    "service_request": "2026-1251410",
    "request_type": "Roads and Streets",
    "request_reason": "Debris in Driving Lanes",
    "date_created": "2026-01-12T15:00:08.000",
    "date_modified": "2026-01-12T15:00:10.000",
    "request_status": "Pending",
    "responsible_agency": "Department of Public Works",
    "final_address": "13651 N Nemours St",
    "address_councildis": "E",
    "status": "Pending",
    "rowid": "1251410",
    "final_x": "3726281.07462",
    "final_y": "563183.800608",
    "longitude": "-89.92544144673893",
    "latitude": "30.04112296855219",
    "geocoded_column": {
      "latitude": "30.04112296855219",
      "longitude": "-89.92544144673893"
    }
  },
  {
    "service_request": "2026-1251409",
    "request_type": "Trash/Recycling",
    "request_reason": "Order Trash Cart",
    "date_created": "2026-01-12T14:59:52.000",
    "date_modified": "2026-01-12T14:59:54.000",
    "request_status": "Pending",
    "responsible_agency": "Department of Sanitation",
    "final_address": "3949 Kathleen St",
    "address_councildis": "C",
    "status": "Assigned to Contractor",
    "contractor": "Richards Disposal",
    "rowid": "1251409",
    "final_x": "3709769.75307",
    "final_y": "516092.301876",
    "longitude": "-89.97938109170677",
    "latitude": "29.91218638113022",
    "geocoded_column": {
      "latitude": "29.91218638113022",
      "longitude": "-89.97938109170677"
    }
  },
  {
    "service_request": "2026-1251408",
    "request_type": "Trash/Recycling",
    "request_reason": "Dead Animal Pick Up",
    "date_created": "2026-01-12T14:59:01.000",
    "date_modified": "2026-01-12T17:49:24.000",
    "case_close_date": "2026-01-12T11:49:24.000",
    "request_status": "Closed",
    "responsible_agency": "Department of Sanitation",
    "final_address": "8001 Dwyer Rd",
    "address_councildis": "E",
    "status": "Assigned to Contractor",
    "contractor": "Waste Pro",
    "contractor_action": "Completed",
    "rowid": "1251408",
    "final_x": "3704295.02878",
    "final_y": "556516.15817",
    "longitude": "-89.9951706310831",
    "latitude": "30.023514015733472",
    "geocoded_column": {
      "latitude": "30.023514015733472",
      "longitude": "-89.9951706310831"
    }
  },
  {
    "service_request": "2026-1251407",
    "request_type": "Trash/Recycling",
    "request_reason": "Illegal Dumping",
    "date_created": "2026-01-12T14:56:44.000",
    "date_modified": "2026-01-12T14:56:45.000",
    "request_status": "Pending",
    "responsible_agency": "Department of Sanitation",
    "final_address": "11100 Almonaster Ave",
    "address_councildis": "E",
    "status": "Pending",
    "rowid": "1251407",
    "final_x": "3716880.0142",
    "final_y": "551950.962134",
    "longitude": "-89.95557859507915",
    "latitude": "30.01055140522027",
    "geocoded_column": {
      "latitude": "30.01055140522027",
      "longitude": "-89.95557859507915"
    }
  },
  {
    "service_request": "2026-1251406",
    "request_type": "Trash/Recycling",
    "request_reason": "Request a Large Item Pick Up",
    "date_created": "2026-01-12T14:54:24.000",
    "date_modified": "2026-01-12T14:55:00.000",
    "request_status": "Pending",
    "responsible_agency": "Department of Sanitation",
    "final_address": "8600 Lake Forest Blvd",
    "address_councildis": "E",
    "status": "Assigned to Contractor",
    "contractor": "Waste Pro",
    "rowid": "1251406",
    "final_x": "3706233.01867",
    "final_y": "557882.382491",
    "longitude": "-89.98899638685525",
    "latitude": "30.027208226926486",
    "geocoded_column": {
      "latitude": "30.027208226926486",
      "longitude": "-89.98899638685525"
    }
  },
  {
    "service_request": "2026-1251405",
    "request_type": "Trash/Recycling",
    "request_reason": "Request a Large Item Pick Up",
    "date_created": "2026-01-12T14:50:12.000",
    "date_modified": "2026-01-12T14:50:13.000",
    "request_status": "Pending",
    "responsible_agency": "Department of Sanitation",
    "final_address": "7812 Haney Dr",
    "address_councildis": "E",
    "status": "Assigned to Contractor",
    "contractor": "Waste Pro",
    "rowid": "1251405",
    "final_x": "3712217.36837",
    "final_y": "567785.708324",
    "longitude": "-89.96971416267708",
    "latitude": "30.054243986808753",
    "geocoded_column": {
      "latitude": "30.054243986808753",
      "longitude": "-89.96971416267708"
    }
  },
  {
    "service_request": "2026-1251404",
    "request_type": "Trash/Recycling",
    "request_reason": "Request a Large Item Pick Up",
    "date_created": "2026-01-12T14:50:11.000",
    "date_modified": "2026-01-12T14:50:13.000",
    "request_status": "Pending",
    "responsible_agency": "Department of Sanitation",
    "final_address": "918 Lyons St",
    "address_councildis": "B",
    "status": "Assigned to Contractor",
    "contractor": "IV Waste",
    "rowid": "1251404",
    "final_x": "3669157.11969",
    "final_y": "518760.842423",
    "longitude": "-90.10747583566132",
    "latitude": "29.920781101973933",
    "geocoded_column": {
      "latitude": "29.920781101973933",
      "longitude": "-90.10747583566132"
    }
  },
  {
    "service_request": "2026-1251403",
    "request_type": "Trash/Recycling",
    "request_reason": "Request a Large Item Pick Up",
    "date_created": "2026-01-12T14:44:26.000",
    "date_modified": "2026-01-12T14:44:28.000",
    "request_status": "Pending",
    "responsible_agency": "Department of Sanitation",
    "final_address": "7311 Dartmoor Dr",
    "address_councildis": "E",
    "status": "Assigned to Contractor",
    "contractor": "Waste Pro",
    "rowid": "1251403",
    "final_x": "3705178.63102",
    "final_y": "561787.430815",
    "longitude": "-89.9921837018742",
    "latitude": "30.03797955257158",
    "geocoded_column": {
      "latitude": "30.03797955257158",
      "longitude": "-89.9921837018742"
    }
  },
  {
    "service_request": "2026-1251402",
    "request_type": "Trash/Recycling",
    "request_reason": "Request a Large Item Pick Up",
    "date_created": "2026-01-12T14:34:27.000",
    "date_modified": "2026-01-12T14:34:30.000",
    "request_status": "Pending",
    "responsible_agency": "Department of Sanitation",
    "final_address": "418 Thayer St",
    "address_councildis": "C",
    "status": "Assigned to Contractor",
    "contractor": "Richards Disposal",
    "rowid": "1251402",
    "final_x": "3689594.41679",
    "final_y": "530100.926401",
    "longitude": "-90.0425616260201",
    "latitude": "29.951345472012935",
    "geocoded_column": {
      "latitude": "29.951345472012935",
      "longitude": "-90.0425616260201"
    }
  },
  {
    "service_request": "2026-1251401",
    "request_type": "Trash/Recycling",
    "request_reason": "Repair Trash Cart",
    "date_created": "2026-01-12T14:31:55.000",
    "date_modified": "2026-01-12T14:34:11.000",
    "request_status": "Pending",
    "responsible_agency": "Department of Sanitation",
    "final_address": "4421 Elba St",
    "address_councildis": "B",
    "status": "Assigned to Contractor",
    "contractor": "IV Waste",
    "rowid": "1251401",
    "final_x": "3669663.47572",
    "final_y": "530512.32653",
    "longitude": "-90.10548000642322",
    "latitude": "29.95307898953855",
    "geocoded_column": {
      "latitude": "29.95307898953855",
      "longitude": "-90.10548000642322"
    }
  },
  {
    "service_request": "2026-1251400",
    "request_type": "Trash/Recycling",
    "request_reason": "Request a Large Item Pick Up",
    "date_created": "2026-01-12T14:28:05.000",
    "date_modified": "2026-01-12T14:28:07.000",
    "request_status": "Pending",
    "responsible_agency": "Department of Sanitation",
    "final_address": "7451 Bullard Ave",
    "address_councildis": "E",
    "status": "Assigned to Contractor",
    "contractor": "Waste Pro",
    "rowid": "1251400",
    "final_x": "3713565.55685",
    "final_y": "566964.363812",
    "longitude": "-89.96548388924016",
    "latitude": "30.051941440478178",
    "geocoded_column": {
      "latitude": "30.051941440478178",
      "longitude": "-89.96548388924016"
    }
  },
  {
    "service_request": "2026-1251399",
    "request_type": "Trash/Recycling",
    "request_reason": "Illegal Dumping",
    "date_created": "2026-01-12T14:25:49.000",
    "date_modified": "2026-01-12T14:25:50.000",
    "request_status": "Pending",
    "responsible_agency": "Department of Sanitation",
    "final_address": "6000 BLK Wales St",
    "address_councildis": "E",
    "status": "Pending",
    "rowid": "1251399",
    "final_x": "3695353.26707",
    "final_y": "559518.923729",
    "longitude": "-90.02331613538378",
    "latitude": "30.032054578375735",
    "geocoded_column": {
      "latitude": "30.032054578375735",
      "longitude": "-90.02331613538378"
    }
  },
  {
    "service_request": "2026-1251398",
    "request_type": "Trash/Recycling",
    "request_reason": "Repair Trash Cart",
    "date_created": "2026-01-12T14:25:09.000",
    "date_modified": "2026-01-12T14:25:11.000",
    "request_status": "Pending",
    "responsible_agency": "Department of Sanitation",
    "final_address": "2929 Magazine St",
    "address_councildis": "B",
    "status": "Assigned to Contractor",
    "contractor": "IV Waste",
    "rowid": "1251398",
    "final_x": "3676418.04961",
    "final_y": "520453.062648",
    "longitude": "-90.08449817005943",
    "latitude": "29.92521857019658",
    "geocoded_column": {
      "latitude": "29.92521857019658",
      "longitude": "-90.08449817005943"
    }
  },
  {
    "service_request": "2026-1251397",
    "request_type": "Trash/Recycling",
    "request_reason": "Request a Large Item Pick Up",
    "date_created": "2026-01-12T14:22:54.000",
    "date_modified": "2026-01-12T14:22:56.000",
    "request_status": "Pending",
    "responsible_agency": "Department of Sanitation",
    "final_address": "424 35Th St",
    "address_councildis": "A",
    "status": "Assigned to Contractor",
    "contractor": "IV Waste",
    "rowid": "1251397",
    "final_x": "3664709.87264",
    "final_y": "551673.304469",
    "longitude": "-90.12041410097171",
    "latitude": "30.01140959528731",
    "geocoded_column": {
      "latitude": "30.01140959528731",
      "longitude": "-90.12041410097171"
    }
  },
  {
    "service_request": "2026-1251396",
    "request_type": "Trash/Recycling",
    "request_reason": "Request a Large Item Pick Up",
    "date_created": "2026-01-12T14:20:03.000",
    "date_modified": "2026-01-12T14:20:05.000",
    "request_status": "Pending",
    "responsible_agency": "Department of Sanitation",
    "final_address": "5811 S Claiborne Ave",
    "address_councildis": "A",
    "status": "Assigned to Contractor",
    "contractor": "IV Waste",
    "rowid": "1251396",
    "final_x": "3667596.08237",
    "final_y": "526988.130366",
    "longitude": "-90.11212655283812",
    "latitude": "29.943449348399366",
    "geocoded_column": {
      "latitude": "29.943449348399366",
      "longitude": "-90.11212655283812"
    }
  },
  {
    "service_request": "2026-1251395",
    "request_type": "Trash/Recycling",
    "request_reason": "Repair Trash Cart",
    "date_created": "2026-01-12T14:18:45.000",
    "date_modified": "2026-01-12T14:18:47.000",
    "request_status": "Pending",
    "responsible_agency": "Department of Sanitation",
    "final_address": "2025 Lamarque St",
    "address_councildis": "C",
    "status": "Assigned to Contractor",
    "contractor": "Richards Disposal",
    "rowid": "1251395",
    "final_x": "3691613.80457",
    "final_y": "526571.891838",
    "longitude": "-90.03631154732832",
    "latitude": "29.94157913766319",
    "geocoded_column": {
      "latitude": "29.94157913766319",
      "longitude": "-90.03631154732832"
    }
  },
  {
    "service_request": "2026-1251394",
    "request_type": "Utility Poles",
    "request_reason": "Utility Pole Down",
    "date_created": "2026-01-12T14:18:06.000",
    "date_modified": "2026-01-12T14:18:09.000",
    "request_status": "Pending",
    "responsible_agency": "Utility Company Collective",
    "final_address": "7820 Trapier Ave",
    "address_councildis": "E",
    "status": "Pending",
    "rowid": "1251394",
    "final_x": "3706212.36951",
    "final_y": "564076.813537",
    "longitude": "-89.98883196165598",
    "latitude": "30.044241138442462",
    "geocoded_column": {
      "latitude": "30.044241138442462",
      "longitude": "-89.98883196165598"
    }
  },
  {
    "service_request": "2026-1251393",
    "request_type": "Trash/Recycling",
    "request_reason": "Request a Large Item Pick Up",
    "date_created": "2026-01-12T14:17:20.000",
    "date_modified": "2026-01-12T15:49:45.000",
    "case_close_date": "2026-01-12T09:49:44.000",
    "request_status": "Closed",
    "responsible_agency": "Department of Sanitation",
    "final_address": "5042 E St Andrews Cir",
    "address_councildis": "E",
    "status": "Invalid Request",
    "contractor": "Waste Pro",
    "contractor_action": "Invalid",
    "rowid": "1251393",
    "final_x": "3719668.63813",
    "final_y": "560054.682077",
    "longitude": "-89.94645849494519",
    "latitude": "30.03274090466412",
    "geocoded_column": {
      "latitude": "30.03274090466412",
      "longitude": "-89.94645849494519"
    }
  },
  {
    "service_request": "2026-1251392",
    "request_type": "Trash/Recycling",
    "request_reason": "Request a Large Item Pick Up",
    "date_created": "2026-01-12T14:12:51.000",
    "date_modified": "2026-01-12T14:12:53.000",
    "request_status": "Pending",
    "responsible_agency": "Department of Sanitation",
    "final_address": "7601 Berg Rd",
    "address_councildis": "E",
    "status": "Assigned to Contractor",
    "contractor": "Waste Pro",
    "rowid": "1251392",
    "final_x": "3712142.36107",
    "final_y": "566511.358755",
    "longitude": "-89.96999916537659",
    "latitude": "30.050742498190353",
    "geocoded_column": {
      "latitude": "30.050742498190353",
      "longitude": "-89.96999916537659"
    }
  },
  {
    "service_request": "2026-1251391",
    "request_type": "Roads and Streets",
    "request_reason": "Pothole",
    "date_created": "2026-01-12T14:12:21.000",
    "date_modified": "2026-01-12T14:12:28.000",
    "request_status": "Pending",
    "responsible_agency": "Department of Public Works",
    "final_address": "2500 Louisa St",
    "address_councildis": "D",
    "status": "Pending",
    "rowid": "1251391",
    "final_x": "3690855.46716",
    "final_y": "541198.25134",
    "longitude": "-90.03818380569375",
    "latitude": "29.98182009611967",
    "geocoded_column": {
      "latitude": "29.98182009611967",
      "longitude": "-90.03818380569375"
    }
  },
  {
    "service_request": "2026-1251390",
    "request_type": "Trash/Recycling",
    "request_reason": "Replace Trash Cart",
    "date_created": "2026-01-12T14:10:03.000",
    "date_modified": "2026-01-12T14:10:04.000",
    "request_status": "Pending",
    "responsible_agency": "Department of Sanitation",
    "final_address": "2946 Blair St",
    "address_councildis": "C",
    "status": "Assigned to Contractor",
    "contractor": "Richards Disposal",
    "rowid": "1251390",
    "final_x": "3709589.36453",
    "final_y": "519706.776376",
    "longitude": "-89.97981568225714",
    "latitude": "29.922130783117073",
    "geocoded_column": {
      "latitude": "29.922130783117073",
      "longitude": "-89.97981568225714"
    }
  },
  {
    "service_request": "2026-1251389",
    "request_type": "Trash/Recycling",
    "request_reason": "Request a Large Item Pick Up",
    "date_created": "2026-01-12T14:07:28.000",
    "date_modified": "2026-01-12T14:07:29.000",
    "request_status": "Pending",
    "responsible_agency": "Department of Sanitation",
    "final_address": "7569 Avalon Way",
    "address_councildis": "E",
    "status": "Assigned to Contractor",
    "contractor": "Waste Pro",
    "rowid": "1251389",
    "final_x": "3709173.9155",
    "final_y": "564402.016289",
    "longitude": "-89.97946008676786",
    "latitude": "30.04503943378443",
    "geocoded_column": {
      "latitude": "30.04503943378443",
      "longitude": "-89.97946008676786"
    }
  },
  {
    "service_request": "2026-1251388",
    "request_type": "Trash/Recycling",
    "request_reason": "Request a Large Item Pick Up",
    "date_created": "2026-01-12T14:05:06.000",
    "date_modified": "2026-01-12T14:05:07.000",
    "request_status": "Pending",
    "responsible_agency": "Department of Sanitation",
    "final_address": "7711 Birch St",
    "address_councildis": "A",
    "status": "Assigned to Contractor",
    "contractor": "IV Waste",
    "rowid": "1251388",
    "final_x": "3663954.26714",
    "final_y": "528521.214976",
    "longitude": "-90.1235736543242",
    "latitude": "29.947771060925213",
    "geocoded_column": {
      "latitude": "29.947771060925213",
      "longitude": "-90.1235736543242"
    }
  },
  {
    "service_request": "2026-1251387",
    "request_type": "Drainage",
    "request_reason": "Catch Basin Frame and Cover Missing or Damaged",
    "date_created": "2026-01-12T14:02:11.000",
    "date_modified": "2026-01-12T14:03:52.000",
    "request_status": "Pending",
    "responsible_agency": "Sewerage & Water Board",
    "final_address": "4141 Jumonville St",
    "address_councildis": "D",
    "status": "Pending",
    "rowid": "1251387",
    "final_x": "3678075.86088",
    "final_y": "547569.05461",
    "longitude": "-90.07832747095594",
    "latitude": "29.999728566948285",
    "geocoded_column": {
      "latitude": "29.999728566948285",
      "longitude": "-90.07832747095594"
    }
  },
  {
    "service_request": "2026-1251386",
    "request_type": "Trash/Recycling",
    "request_reason": "Request a Large Item Pick Up",
    "date_created": "2026-01-12T14:00:24.000",
    "date_modified": "2026-01-12T14:00:26.000",
    "request_status": "Pending",
    "responsible_agency": "Department of Sanitation",
    "final_address": "7330 Hansbrough Ave",
    "address_councildis": "E",
    "status": "Assigned to Contractor",
    "contractor": "Waste Pro",
    "rowid": "1251386",
    "final_x": "3708108.51044",
    "final_y": "563544.047008",
    "longitude": "-89.98285920144167",
    "latitude": "30.042714930924113",
    "geocoded_column": {
      "latitude": "30.042714930924113",
      "longitude": "-89.98285920144167"
    }
  },
  {
    "service_request": "2026-1251385",
    "request_type": "Trash/Recycling",
    "request_reason": "Request a Large Item Pick Up",
    "date_created": "2026-01-12T13:58:27.000",
    "date_modified": "2026-01-12T13:58:28.000",
    "request_status": "Pending",
    "responsible_agency": "Department of Sanitation",
    "final_address": "707 Nashville Ave",
    "address_councildis": "A",
    "status": "Assigned to Contractor",
    "contractor": "IV Waste",
    "rowid": "1251385",
    "final_x": "3665522.55482",
    "final_y": "518729.996023",
    "longitude": "-90.1189495704744",
    "latitude": "29.92080270156744",
    "geocoded_column": {
      "latitude": "29.92080270156744",
      "longitude": "-90.1189495704744"
    }
  },
  {
    "service_request": "2026-1251384",
    "request_type": "Trash/Recycling",
    "request_reason": "Request a Large Item Pick Up",
    "date_created": "2026-01-12T13:56:14.000",
    "date_modified": "2026-01-12T13:56:15.000",
    "request_status": "Pending",
    "responsible_agency": "Department of Sanitation",
    "final_address": "1923 Clouet St",
    "address_councildis": "D",
    "status": "Assigned to Contractor",
    "contractor": "IV Waste",
    "rowid": "1251384",
    "final_x": "3689839.10179",
    "final_y": "539177.491082",
    "longitude": "-90.04146591691",
    "latitude": "29.976295272512164",
    "geocoded_column": {
      "latitude": "29.976295272512164",
      "longitude": "-90.04146591691"
    }
  },
  {
    "service_request": "2026-1251383",
    "request_type": "Trash/Recycling",
    "request_reason": "Request a Large Item Pick Up",
    "date_created": "2026-01-12T13:55:56.000",
    "date_modified": "2026-01-12T13:55:57.000",
    "request_status": "Pending",
    "responsible_agency": "Department of Sanitation",
    "final_address": "11413 Maxine Dr",
    "address_councildis": "E",
    "status": "Assigned to Contractor",
    "contractor": "Waste Pro",
    "rowid": "1251383",
    "final_x": "3718473.85541",
    "final_y": "560651.536606",
    "longitude": "-89.95021129706048",
    "latitude": "30.03442172195074",
    "geocoded_column": {
      "latitude": "30.03442172195074",
      "longitude": "-89.95021129706048"
    }
  },
  {
    "service_request": "2026-1251382",
    "request_type": "Trash/Recycling",
    "request_reason": "Request a Large Item Pick Up",
    "date_created": "2026-01-12T13:55:43.000",
    "date_modified": "2026-01-12T13:55:44.000",
    "request_status": "Pending",
    "responsible_agency": "Department of Sanitation",
    "final_address": "4438 Cerise Ave",
    "address_councildis": "E",
    "status": "Assigned to Contractor",
    "contractor": "Waste Pro",
    "rowid": "1251382",
    "final_x": "3708700.44772",
    "final_y": "554041.804504",
    "longitude": "-89.98134279603082",
    "latitude": "30.01656830620188",
    "geocoded_column": {
      "latitude": "30.01656830620188",
      "longitude": "-89.98134279603082"
    }
  },
  {
    "service_request": "2026-1251381",
    "request_type": "Trash/Recycling",
    "request_reason": "Request a Large Item Pick Up",
    "date_created": "2026-01-12T13:52:31.000",
    "date_modified": "2026-01-12T13:52:33.000",
    "request_status": "Pending",
    "responsible_agency": "Department of Sanitation",
    "final_address": "7951 Windward Ct",
    "address_councildis": "E",
    "status": "Assigned to Contractor",
    "contractor": "Waste Pro",
    "rowid": "1251381",
    "final_x": "3715062.47288",
    "final_y": "570516.990055",
    "longitude": "-89.96061812879275",
    "latitude": "30.06166048153654",
    "geocoded_column": {
      "latitude": "30.06166048153654",
      "longitude": "-89.96061812879275"
    }
  },
  {
    "service_request": "2026-1251380",
    "request_type": "Trash/Recycling",
    "request_reason": "Request a Large Item Pick Up",
    "date_created": "2026-01-12T13:51:13.000",
    "date_modified": "2026-01-12T13:51:26.000",
    "request_status": "Pending",
    "responsible_agency": "Department of Sanitation",
    "final_address": "322 Calhoun St",
    "address_councildis": "A",
    "status": "Assigned to Contractor",
    "contractor": "IV Waste",
    "rowid": "1251380",
    "final_x": "3662787.58323",
    "final_y": "518287.652278",
    "longitude": "-90.1275973593474",
    "latitude": "29.9196658119982",
    "geocoded_column": {
      "latitude": "29.9196658119982",
      "longitude": "-90.1275973593474"
    }
  },
  {
    "service_request": "2026-1251379",
    "request_type": "Trash/Recycling",
    "request_reason": "Order Recycling Cart",
    "date_created": "2026-01-12T13:50:45.000",
    "date_modified": "2026-01-12T13:50:47.000",
    "request_status": "Pending",
    "responsible_agency": "Department of Sanitation",
    "final_address": "634 Hagan St",
    "address_councildis": "A",
    "status": "Pending",
    "rowid": "1251379",
    "final_x": "3674598.34075",
    "final_y": "538324.105865",
    "longitude": "-90.08963010713775",
    "latitude": "29.97441242676685",
    "geocoded_column": {
      "latitude": "29.97441242676685",
      "longitude": "-90.08963010713775"
    }
  },
  {
    "service_request": "2026-1251378",
    "request_type": "Trash/Recycling",
    "request_reason": "Request a Large Item Pick Up",
    "date_created": "2026-01-12T13:48:10.000",
    "date_modified": "2026-01-12T13:48:11.000",
    "request_status": "Pending",
    "responsible_agency": "Department of Sanitation",
    "final_address": "7503 Lafourche St",
    "address_councildis": "E",
    "status": "Assigned to Contractor",
    "contractor": "Waste Pro",
    "rowid": "1251378",
    "final_x": "3710622.73297",
    "final_y": "564959.679394",
    "longitude": "-89.97486028429441",
    "latitude": "30.046525633814323",
    "geocoded_column": {
      "latitude": "30.046525633814323",
      "longitude": "-89.97486028429441"
    }
  },
  {
    "service_request": "2026-1251377",
    "request_type": "Trash/Recycling",
    "request_reason": "Illegal Dumping",
    "date_created": "2026-01-12T13:48:01.000",
    "date_modified": "2026-01-12T13:48:03.000",
    "request_status": "Pending",
    "responsible_agency": "Department of Sanitation",
    "final_address": "MONTICELLO AVE & APRICOT ST",
    "address_councildis": "A",
    "status": "Pending",
    "rowid": "1251377",
    "final_x": "3662448.7",
    "final_y": "535705.28",
    "longitude": "-90.12808875942216",
    "latitude": "29.96756853100463",
    "geocoded_column": {
      "latitude": "29.96756853100463",
      "longitude": "-90.12808875942216"
    }
  },
  {
    "service_request": "2026-1251376",
    "request_type": "Trash/Recycling",
    "request_reason": "Request a Large Item Pick Up",
    "date_created": "2026-01-12T13:46:29.000",
    "date_modified": "2026-01-12T14:36:19.000",
    "request_status": "Pending",
    "responsible_agency": "Department of Sanitation",
    "final_address": "4859 Warren Dr",
    "address_councildis": "E",
    "status": "Assigned to Contractor",
    "contractor": "Waste Pro",
    "rowid": "1251376",
    "final_x": "3713465.00389",
    "final_y": "556921.539162",
    "longitude": "-89.9661804330859",
    "latitude": "30.02433100515596",
    "geocoded_column": {
      "latitude": "30.02433100515596",
      "longitude": "-89.9661804330859"
    }
  },
  {
    "service_request": "2026-1251375",
    "request_type": "Abandoned Vehicles",
    "request_reason": "Abandoned/Junk Vehicles",
    "date_created": "2026-01-12T13:46:09.000",
    "date_modified": "2026-01-12T13:46:11.000",
    "request_status": "Pending",
    "responsible_agency": "Department of Public Works",
    "final_address": "5517 York St",
    "address_councildis": "A",
    "status": "Pending",
    "rowid": "1251375",
    "final_x": "3668465.20314",
    "final_y": "528751.012992",
    "longitude": "-90.10932304897048",
    "latitude": "29.948271204787854",
    "geocoded_column": {
      "latitude": "29.948271204787854",
      "longitude": "-90.10932304897048"
    }
  },
  {
    "service_request": "2026-1251374",
    "request_type": "Trash/Recycling",
    "request_reason": "Illegal Dumping",
    "date_created": "2026-01-12T13:44:50.000",
    "date_modified": "2026-01-12T13:44:51.000",
    "request_status": "Pending",
    "responsible_agency": "Department of Sanitation",
    "final_address": "2201 Esplanade Ave",
    "address_councildis": "D",
    "status": "Pending",
    "rowid": "1251374",
    "final_x": "3679592.69384",
    "final_y": "537975.467529",
    "longitude": "-90.07386885308212",
    "latitude": "29.973303790026478",
    "geocoded_column": {
      "latitude": "29.973303790026478",
      "longitude": "-90.07386885308212"
    }
  },
  {
    "service_request": "2026-1251373",
    "request_type": "Parks & Parkways",
    "request_reason": "Request Tree Service (Right of Way/Public Property)",
    "date_created": "2026-01-12T13:43:02.000",
    "date_modified": "2026-01-12T13:52:45.000",
    "request_status": "Pending",
    "responsible_agency": "Department of Parks & Parkway",
    "final_address": "9468 Colapissa St",
    "address_councildis": "A",
    "status": "Pending",
    "rowid": "1251373",
    "final_x": "3662989.26554",
    "final_y": "536626.159047",
    "longitude": "-90.12635099998136",
    "latitude": "29.970084999912725",
    "geocoded_column": {
      "latitude": "29.970084999912725",
      "longitude": "-90.12635099998136"
    }
  },
  {
    "service_request": "2026-1251372",
    "request_type": "Trash/Recycling",
    "request_reason": "Request a Large Item Pick Up",
    "date_created": "2026-01-12T13:42:15.000",
    "date_modified": "2026-01-12T13:42:17.000",
    "request_status": "Pending",
    "responsible_agency": "Department of Sanitation",
    "final_address": "7157 Parkside Ct",
    "address_councildis": "E",
    "status": "Assigned to Contractor",
    "contractor": "Waste Pro",
    "rowid": "1251372",
    "final_x": "3704500.85066",
    "final_y": "560387.324574",
    "longitude": "-89.99437734560306",
    "latitude": "30.034151605546306",
    "geocoded_column": {
      "latitude": "30.034151605546306",
      "longitude": "-89.99437734560306"
    }
  },
  {
    "service_request": "2026-1251371",
    "request_type": "Roads and Streets",
    "request_reason": "Sidewalk Damaged or Missing",
    "date_created": "2026-01-12T13:41:24.000",
    "date_modified": "2026-01-12T13:41:26.000",
    "request_status": "Pending",
    "responsible_agency": "Department of Public Works",
    "final_address": "227 Dauphine St",
    "address_councildis": "C",
    "status": "Pending",
    "rowid": "1251371",
    "final_x": "3680974.75349",
    "final_y": "531650.535747",
    "longitude": "-90.06972431450328",
    "latitude": "29.95587054917733",
    "geocoded_column": {
      "latitude": "29.95587054917733",
      "longitude": "-90.06972431450328"
    }
  },
  {
    "service_request": "2026-1251370",
    "request_type": "General Services",
    "request_reason": "General Service Request",
    "date_created": "2026-01-12T13:38:58.000",
    "date_modified": "2026-01-12T13:39:00.000",
    "request_status": "Pending",
    "responsible_agency": "Orleans Parish Communication District",
    "final_address": "4501 Lonely Oak Dr",
    "address_councildis": "E",
    "status": "Pending",
    "rowid": "1251370",
    "final_x": "3702500.10826",
    "final_y": "553199.513687",
    "longitude": "-90.00096402709364",
    "latitude": "30.01445202947477",
    "geocoded_column": {
      "latitude": "30.01445202947477",
      "longitude": "-90.00096402709364"
    }
  },
  {
    "service_request": "2026-1251369",
    "request_type": "General Services",
    "request_reason": "General Service Request",
    "date_created": "2026-01-12T13:38:35.000",
    "date_modified": "2026-01-12T13:38:38.000",
    "request_status": "Pending",
    "responsible_agency": "Orleans Parish Communication District",
    "final_address": "Interstate 10 & South Roman Street",
    "address_councildis": "B",
    "status": "Pending",
    "rowid": "1251369",
    "final_x": "3676839.85774",
    "final_y": "531199.051202",
    "longitude": "-90.08279644364342",
    "latitude": "29.954753851468443",
    "geocoded_column": {
      "latitude": "29.954753851468443",
      "longitude": "-90.08279644364342"
    }
  },
  {
    "service_request": "2026-1251368",
    "request_type": "Drainage",
    "request_reason": "Catch Basin Not Draining",
    "date_created": "2026-01-12T13:37:22.000",
    "date_modified": "2026-01-12T13:37:24.000",
    "request_status": "Pending",
    "responsible_agency": "Sewerage & Water Board",
    "final_address": "816 Cherokee St",
    "address_councildis": "A",
    "status": "Pending",
    "rowid": "1251368",
    "final_x": "3662670.2921",
    "final_y": "526049.154622",
    "longitude": "-90.1277098164101",
    "latitude": "29.94101089685265",
    "geocoded_column": {
      "latitude": "29.94101089685265",
      "longitude": "-90.1277098164101"
    }
  },
  {
    "service_request": "2026-1251367",
    "request_type": "Trash/Recycling",
    "request_reason": "Request a Large Item Pick Up",
    "date_created": "2026-01-12T13:35:37.000",
    "date_modified": "2026-01-12T13:35:38.000",
    "request_status": "Pending",
    "responsible_agency": "Department of Sanitation",
    "final_address": "10330 Chevy Chase Dr",
    "address_councildis": "E",
    "status": "Assigned to Contractor",
    "contractor": "Waste Pro",
    "rowid": "1251367",
    "final_x": "3710436.37643",
    "final_y": "563379.295264",
    "longitude": "-89.97550845144147",
    "latitude": "30.0421862857733",
    "geocoded_column": {
      "latitude": "30.0421862857733",
      "longitude": "-89.97550845144147"
    }
  },
  {
    "service_request": "2026-1251366",
    "request_type": "Trash/Recycling",
    "request_reason": "Missed Trash Pick-Up",
    "date_created": "2026-01-12T13:33:30.000",
    "date_modified": "2026-01-12T13:33:32.000",
    "request_status": "Pending",
    "responsible_agency": "Department of Sanitation",
    "final_address": "4501 Lonely Oak Dr",
    "address_councildis": "E",
    "status": "Assigned to Contractor",
    "contractor": "Waste Pro",
    "rowid": "1251366",
    "final_x": "3702500.10826",
    "final_y": "553199.513687",
    "longitude": "-90.00096402709364",
    "latitude": "30.01445202947477",
    "geocoded_column": {
      "latitude": "30.01445202947477",
      "longitude": "-90.00096402709364"
    }
  },
  {
    "service_request": "2026-1251365",
    "request_type": "Abandoned Vehicles",
    "request_reason": "Abandoned/Junk Vehicles",
    "date_created": "2026-01-12T13:32:49.000",
    "date_modified": "2026-01-12T13:32:51.000",
    "request_status": "Pending",
    "responsible_agency": "Department of Public Works",
    "final_address": "3245 Belfort St",
    "address_councildis": "A",
    "status": "Pending",
    "rowid": "1251365",
    "final_x": "3677945.07125",
    "final_y": "542580.488461",
    "longitude": "-90.07891316492554",
    "latitude": "29.986015699431682",
    "geocoded_column": {
      "latitude": "29.986015699431682",
      "longitude": "-90.07891316492554"
    }
  },
  {
    "service_request": "2026-1251364",
    "request_type": "Roads and Streets",
    "request_reason": "Pothole",
    "date_created": "2026-01-12T13:29:41.000",
    "date_modified": "2026-01-12T13:29:43.000",
    "request_status": "Pending",
    "responsible_agency": "Department of Public Works",
    "final_address": "5710 St Bernard Ave",
    "address_councildis": "D",
    "status": "Pending",
    "rowid": "1251364",
    "final_x": "3676761.79445",
    "final_y": "553418.291159",
    "longitude": "-90.0822769154463",
    "latitude": "30.015851392177428",
    "geocoded_column": {
      "latitude": "30.015851392177428",
      "longitude": "-90.0822769154463"
    }
  },
  {
    "service_request": "2026-1251363",
    "request_type": "Trash/Recycling",
    "request_reason": "Illegal Dumping",
    "date_created": "2026-01-12T13:23:13.000",
    "date_modified": "2026-01-12T13:25:39.000",
    "request_status": "Pending",
    "responsible_agency": "Department of Sanitation",
    "final_address": "716 Dauphine St",
    "address_councildis": "C",
    "status": "Pending",
    "rowid": "1251363",
    "final_x": "3682076.6349",
    "final_y": "532961.393092",
    "longitude": "-90.06619918586925",
    "latitude": "29.95944150265552",
    "geocoded_column": {
      "latitude": "29.95944150265552",
      "longitude": "-90.06619918586925"
    }
  },