[
  {
    "service_request": "2022-886685",
    "request_type": "Trash/Recycling",
    "request_reason": "Missed Trash Pick-Up",
    "date_created": "2022-05-27T01:33:06.000",
    "date_modified": "2022-05-27T01:33:07.000",
    "request_status": "Pending",
    "responsible_agency": "Department of Sanitation",
    "final_address": "1530 Magazine St, New Orleans, Louisiana, 70130",
    "address_councildis": "B",
    "status": "Assigned to Contractor",
    "contractor": "Richards Disposal",
    "rowid": "886685",
    "final_x": "3680175.45557",
    "final_y": "523569.600891",
    "longitude": "-90.07252898743484",
    "latitude": "29.933674889505326",
    "geocoded_column": {
      "latitude": "29.933674889505326",
      "longitude": "-90.07252898743484"
    }
  },
  {
    "service_request": "2022-886684",
    "request_type": "Roads/Drainage",
    "request_reason": "Accessibility Ramps, Curbs and Sidewalk Repair",
    "date_created": "2022-05-27T00:50:52.000",
    "date_modified": "2022-05-27T00:50:52.000",
    "request_status": "Pending",
    "responsible_agency": "Department of Public Works",
    "final_address": "13080 Maple Wood Dr",
    "address_councildis": "E",
    "status": "Pending",
    "rowid": "886684",
    "final_x": "3723820.73247",
    "final_y": "563644.669153",
    "longitude": "-89.93319908453847",
    "latitude": "30.042473058641562",
    "geocoded_column": {
      "latitude": "30.042473058641562",
      "longitude": "-89.93319908453847"
    }
  },
  {
    "service_request": "2022-886683",
    "request_type": "Roads/Drainage",
    "request_reason": "Street Subsidence (Sinking)",
    "date_created": "2022-05-26T23:24:07.000",
    "date_modified": "2022-05-26T23:24:07.000",
    "request_status": "Pending",
    "responsible_agency": "Department of Public Works",
    "final_address": "530 Natchez St",
    "address_councildis": "B",
    "status": "Pending",
    "rowid": "886683",
    "final_x": "3681314.0454",
    "final_y": "529450.096385",
    "longitude": "-90.06872963332046",
    "latitude": "29.949809791874127",
    "geocoded_column": {
      "latitude": "29.949809791874127",
      "longitude": "-90.06872963332046"
    }
  },
  {
    "service_request": "2022-886682",
    "request_type": "Health Related Questions",
    "request_reason": "Noise Ordinance Complaint",
    "date_created": "2022-05-26T23:01:39.000",
    "date_modified": "2022-05-26T23:01:39.000",
    "request_status": "Pending",
    "responsible_agency": "Health Department",
    "final_address": "2908 Magazine St, New Orleans, Louisiana, 70115",
    "address_councildis": "B",
    "status": "Pending",
    "rowid": "886682",
    "final_x": "3676593.91048",
    "final_y": "520434.460344",
    "longitude": "-90.08394367302807",
    "latitude": "29.9251621484587",
    "geocoded_column": {
      "latitude": "29.9251621484587",
      "longitude": "-90.08394367302807"
    }
  },
  {
    "service_request": "2022-886681",
    "request_type": "Trash/Recycling",
    "request_reason": "Order Recycling Cart",
    "date_created": "2022-05-26T23:00:17.000",
    "date_modified": "2022-05-26T23:00:17.000",
    "request_status": "Pending",
    "responsible_agency": "Department of Sanitation",
    "final_address": "1026 Dumaine St Apt 1A",
    "address_councildis": "C",
    "status": "Pending",
    "rowid": "886681",
    "final_x": "3681949.69039",
    "final_y": "533817.787909",
    "longitude": "-90.0665701496163",
    "latitude": "29.96180015542616",
    "geocoded_column": {
      "latitude": "29.96180015542616",
      "longitude": "-90.0665701496163"
    }
  },
  {
    "service_request": "2022-886680",
    "request_type": "Trash/Recycling",
    "request_reason": "Missed Trash Pick-Up",
    "date_created": "2022-05-26T22:51:02.000",
    "date_modified": "2022-05-26T22:51:03.000",
    "request_status": "Pending",
    "responsible_agency": "Department of Sanitation",
    "final_address": "400 S Hennessey St",
    "address_councildis": "A",
    "status": "Assigned to Contractor",
    "contractor": "Richards Disposal",
    "rowid": "886680",
    "final_x": "3669552.60564",
    "final_y": "537924.683273",
    "longitude": "-90.10557930493242",
    "latitude": "29.973463774100505",
    "geocoded_column": {
      "latitude": "29.973463774100505",
      "longitude": "-90.10557930493242"
    }
  },
  {
    "service_request": "2022-886679",
    "request_type": "Roads/Drainage",
    "request_reason": "Damaged Sidewalk",
    "date_created": "2022-05-26T22:40:15.000",
    "date_modified": "2022-05-26T22:40:15.000",
    "request_status": "Pending",
    "responsible_agency": "Department of Public Works",
    "final_address": "1643 Louisa St",
    "address_councildis": "D",
    "status": "Pending",
    "rowid": "886679",
    "final_x": "3690144.80272",
    "final_y": "538041.635145",
    "longitude": "-90.04054089987378",
    "latitude": "29.973162590205153",
    "geocoded_column": {
      "latitude": "29.973162590205153",
      "longitude": "-90.04054089987378"
    }
  },
  {
    "service_request": "2022-886678",
    "request_type": "Trash/Recycling",
    "request_reason": "Request a Large Item Pick Up",
    "date_created": "2022-05-26T22:29:04.000",
    "date_modified": "2022-05-26T22:29:05.000",
    "request_status": "Pending",
    "responsible_agency": "Department of Sanitation",
    "final_address": "126 N Solomon St",
    "address_councildis": "A",
    "status": "Assigned to Contractor",
    "contractor": "Richards Disposal",
    "rowid": "886678",
    "final_x": "3670776.78951",
    "final_y": "538931.177226",
    "longitude": "-90.10167889943484",
    "latitude": "29.976195168490353",
    "geocoded_column": {
      "latitude": "29.976195168490353",
      "longitude": "-90.10167889943484"
    }
  },
  {
    "service_request": "2022-886677",
    "request_type": "Trash/Recycling",
    "request_reason": "Repair Trash Cart",
    "date_created": "2022-05-26T21:52:18.000",
    "date_modified": "2022-05-26T21:52:18.000",
    "request_status": "Pending",
    "responsible_agency": "Department of Sanitation",
    "final_address": "6019 Charlotte Dr",
    "address_councildis": "D",
    "status": "Assigned to Contractor",
    "contractor": "Metro Disposal",
    "rowid": "886677",
    "final_x": "3679970.27023",
    "final_y": "554642.173208",
    "longitude": "-90.07209701216085",
    "latitude": "30.01911991074156",
    "geocoded_column": {
      "latitude": "30.01911991074156",
      "longitude": "-90.07209701216085"
    }
  },
  {
    "service_request": "2022-886676",
    "request_type": "Trash/Recycling",
    "request_reason": "Missed Trash Pick-Up",
    "date_created": "2022-05-26T21:11:30.000",
    "date_modified": "2022-05-26T21:11:30.000",
    "request_status": "Pending",
    "responsible_agency": "Department of Sanitation",
    "final_address": "1525 Dufossat St",
    "address_councildis": "B",
    "status": "Assigned to Contractor",
    "contractor": "Richards Disposal",
    "rowid": "886676",
    "final_x": "3668161.69364",
    "final_y": "520678.110521",
    "longitude": "-90.11055336688219",
    "latitude": "29.926082227758133",
    "geocoded_column": {
      "latitude": "29.926082227758133",
      "longitude": "-90.11055336688219"
    }
  },
  {
    "service_request": "2022-886675",
    "request_type": "Trash/Recycling",
    "request_reason": "Missed Trash Pick-Up",
    "date_created": "2022-05-26T21:11:29.000",
    "date_modified": "2022-05-26T21:11:30.000",
    "request_status": "Pending",
    "responsible_agency": "Department of Sanitation",
    "final_address": "1525 Dufossat St",
    "address_councildis": "B",
    "status": "Assigned to Contractor",
    "contractor": "Richards Disposal",
    "rowid": "886675",
    "final_x": "3668161.69364",
    "final_y": "520678.110521",
    "longitude": "-90.11055336688219",
    "latitude": "29.926082227758133",
    "geocoded_column": {
      "latitude": "29.926082227758133",
      "longitude": "-90.11055336688219"
    }
  },
  {
    "service_request": "2022-886674",
    "request_type": "Traffic Signals/Signs/Striping/Streetlights",
    "request_reason": "Street Light Outage/Malfunction",
    "date_created": "2022-05-26T21:10:05.000",
    "date_modified": "2022-05-26T21:11:06.000",
    "request_status": "Pending",
    "responsible_agency": "Department of Public Works",
    "final_address": "5400 BLK Chartres St",
    "address_councildis": "E",
    "status": "Pending",
    "contractor": "Royal Engineering",
    "rowid": "886674",
    "final_x": "3696933.82165",
    "final_y": "532068.724692",
    "longitude": "-90.01931626652545",
    "latitude": "29.956526850258545",
    "geocoded_column": {
      "latitude": "29.956526850258545",
      "longitude": "-90.01931626652545"
    }
  },
  {
    "service_request": "2022-886673",
    "request_type": "Trash/Recycling",
    "request_reason": "Request a Large Item Pick Up",
    "date_created": "2022-05-26T21:04:22.000",
    "date_modified": "2022-05-26T21:04:23.000",
    "request_status": "Pending",
    "responsible_agency": "Department of Sanitation",
    "final_address": "7333 Jeannette St",
    "address_councildis": "A",
    "status": "Assigned to Contractor",
    "contractor": "Richards Disposal",
    "rowid": "886673",
    "final_x": "3664376.85325",
    "final_y": "527705.949183",
    "longitude": "-90.12226658346822",
    "latitude": "29.94551706758655",
    "geocoded_column": {
      "latitude": "29.94551706758655",
      "longitude": "-90.12226658346822"
    }
  },
  {
    "service_request": "2022-886672",
    "request_type": "Trash/Recycling",
    "request_reason": "Missed Trash Pick-Up",
    "date_created": "2022-05-26T21:00:34.000",
    "date_modified": "2022-05-26T21:00:34.000",
    "request_status": "Pending",
    "responsible_agency": "Department of Sanitation",
    "final_address": "902 Stewart Ct",
    "address_councildis": "A",
    "status": "Assigned to Contractor",
    "contractor": "Richards Disposal",
    "rowid": "886672",
    "final_x": "3673066.12801",
    "final_y": "540708.791883",
    "longitude": "-90.09438777562833",
    "latitude": "29.981015140424745",
    "geocoded_column": {
      "latitude": "29.981015140424745",
      "longitude": "-90.09438777562833"
    }
  },
  {
    "service_request": "2022-886671",
    "request_type": "Roads/Drainage",
    "request_reason": "Street Subsidence (Sinking)",
    "date_created": "2022-05-26T20:47:56.000",
    "date_modified": "2022-05-26T20:47:56.000",
    "request_status": "Pending",
    "responsible_agency": "Department of Public Works",
    "final_address": "2118 Philip St",
    "address_councildis": "B",
    "status": "Pending",
    "rowid": "886671",
    "final_x": "3676036.5131",
    "final_y": "524949.735549",
    "longitude": "-90.0855479861423",
    "latitude": "29.937594385218006",
    "geocoded_column": {
      "latitude": "29.937594385218006",
      "longitude": "-90.0855479861423"
    }
  },
  {
    "service_request": "2022-886670",
    "request_type": "Trash/Recycling",
    "request_reason": "Request a Large Item Pick Up",
    "date_created": "2022-05-26T20:46:25.000",
    "date_modified": "2022-05-26T20:46:26.000",
    "request_status": "Pending",
    "responsible_agency": "Department of Sanitation",
    "final_address": "2710 State St, New Orleans, Louisiana, 70118",
    "address_councildis": "A",
    "status": "Assigned to Contractor",
    "contractor": "Richards Disposal",
    "rowid": "886670",
    "final_x": "3667001.16493",
    "final_y": "526506.320638",
    "longitude": "-90.11402105538313",
    "latitude": "29.94214194777943",
    "geocoded_column": {
      "latitude": "29.94214194777943",
      "longitude": "-90.11402105538313"
    }
  },
  {
    "service_request": "2022-886669",
    "request_type": "Trash/Recycling",
    "request_reason": "Missed Trash Pick-Up",
    "date_created": "2022-05-26T20:39:04.000",
    "date_modified": "2022-05-26T20:39:04.000",
    "request_status": "Pending",
    "responsible_agency": "Department of Sanitation",
    "final_address": "1461 Magazine St",
    "address_councildis": "B",
    "status": "Assigned to Contractor",
    "contractor": "Richards Disposal",
    "rowid": "886669",
    "final_x": "3680202.78491",
    "final_y": "524023.150652",
    "longitude": "-90.0724269539209",
    "latitude": "29.934921174757065",
    "geocoded_column": {
      "latitude": "29.934921174757065",
      "longitude": "-90.0724269539209"
    }
  },
  {
    "service_request": "2022-886668",
    "request_type": "Trash/Recycling",
    "request_reason": "Request a Large Item Pick Up",
    "date_created": "2022-05-26T20:26:31.000",
    "date_modified": "2022-05-26T20:26:31.000",
    "request_status": "Pending",
    "responsible_agency": "Department of Sanitation",
    "final_address": "7602 Zimple St, New Orleans, Louisiana, 70118",
    "address_councildis": "A",
    "status": "Assigned to Contractor",
    "contractor": "Richards Disposal",
    "rowid": "886668",
    "final_x": "3663009.63117",
    "final_y": "526902.859838",
    "longitude": "-90.12661007100039",
    "latitude": "29.943348492019815",
    "geocoded_column": {
      "latitude": "29.943348492019815",
      "longitude": "-90.12661007100039"
    }
  },
  {
    "service_request": "2022-886667",
    "request_type": "Roads/Drainage",
    "request_reason": "Street Subsidence (Sinking)",
    "date_created": "2022-05-26T20:03:10.000",
    "date_modified": "2022-05-26T21:36:21.000",
    "request_status": "Pending",
    "responsible_agency": "Department of Public Works",
    "final_address": "ST ANDREW ST & PRYTANIA ST",
    "address_councildis": "B",
    "status": "Pending",
    "rowid": "886667",
    "final_x": "3678532.0",
    "final_y": "523749.68",
    "longitude": "-90.07771106524251",
    "latitude": "29.93421966914228",
    "geocoded_column": {
      "latitude": "29.93421966914228",
      "longitude": "-90.07771106524251"
    }
  },
  {
    "service_request": "2022-886665",
    "request_type": "Trash/Recycling",
    "request_reason": "MIssed Recycling Pick-Up",
    "date_created": "2022-05-26T19:52:45.000",
    "date_modified": "2022-05-26T19:52:46.000",
    "request_status": "Pending",
    "responsible_agency": "Department of Sanitation",
    "final_address": "2314 Octavia St",
    "address_councildis": "A",
    "status": "Assigned to Contractor",
    "contractor": "Richards Disposal",
    "rowid": "886665",
    "final_x": "3667563.1826",
    "final_y": "524215.7831",
    "longitude": "-90.11232369870703",
    "latitude": "29.93582724925723",
    "geocoded_column": {
      "latitude": "29.93582724925723",
      "longitude": "-90.11232369870703"
    }
  },
  {
    "service_request": "2022-886664",
    "request_type": "Trash/Recycling",
    "request_reason": "Missed Trash Pick-Up",
    "date_created": "2022-05-26T19:24:20.000",
    "date_modified": "2022-05-26T19:24:21.000",
    "request_status": "Pending",
    "responsible_agency": "Department of Sanitation",
    "status": "Assigned to Contractor",
    "rowid": "886664",
    "longitude": "0.0",
    "latitude": "0.0",
    "geocoded_column": {
      "latitude": "0.0",
      "longitude": "0.0"
    }
  },
  {
    "service_request": "2022-886663",
    "request_type": "Health Related Questions",
    "request_reason": "Noise Ordinance Complaint",
    "date_created": "2022-05-26T19:10:48.000",
    "date_modified": "2022-05-26T19:10:48.000",
    "request_status": "Pending",
    "responsible_agency": "Health Department",
    "final_address": "1511 St. Ann St. Apt A",
    "status": "Pending",
    "rowid": "886663",
    "longitude": "0.0",
    "latitude": "0.0",
    "geocoded_column": {
      "latitude": "0.0",
      "longitude": "0.0"
    }
  },
  {
    "service_request": "2022-886662",
    "request_type": "Trash/Recycling",
    "request_reason": "Replace Recycling Cart",
    "date_created": "2022-05-26T19:08:26.000",
    "date_modified": "2022-05-26T19:08:26.000",
    "request_status": "Pending",
    "responsible_agency": "Department of Sanitation",
    "final_address": "1668 N Tonti St",
    "address_councildis": "D",
    "status": "Pending",
    "rowid": "886662",
    "final_x": "3680605.56565",
    "final_y": "539750.166346",
    "longitude": "-90.0706082332086",
    "latitude": "29.978152946199305",
    "geocoded_column": {
      "latitude": "29.978152946199305",
      "longitude": "-90.0706082332086"
    }
  },
  {
    "service_request": "2022-886661",
    "request_type": "Trash/Recycling",
    "request_reason": "Missed Trash Pick-Up",
    "date_created": "2022-05-26T19:00:38.000",
    "date_modified": "2022-05-26T19:00:39.000",
    "request_status": "Pending",
    "responsible_agency": "Department of Sanitation",
    "final_address": "1837 Magazine St",
    "address_councildis": "B",
    "status": "Assigned to Contractor",
    "contractor": "Richards Disposal",
    "rowid": "886661",
    "final_x": "3679757.01071",
    "final_y": "522860.135419",
    "longitude": "-90.07387461489293",
    "latitude": "29.93173674657509",
    "geocoded_column": {
      "latitude": "29.93173674657509",
      "longitude": "-90.07387461489293"
    }
  },
  {
    "service_request": "2022-886660",
    "request_type": "Mosquito, Termite & Rodent Control",
    "request_reason": "Mosquito Complaint",
    "date_created": "2022-05-26T18:40:37.000",
    "date_modified": "2022-05-26T18:40:37.000",
    "request_status": "Pending",
    "responsible_agency": "Mosquito, Termite & Rodent Control Board",
    "final_address": "8320 S Claiborne Ave",
    "address_councildis": "A",
    "status": "Pending",
    "rowid": "886660",
    "final_x": "3664099.469",
    "final_y": "532081.427267",
    "longitude": "-90.12299645514642",
    "latitude": "29.95755627598538",
    "geocoded_column": {
      "latitude": "29.95755627598538",
      "longitude": "-90.12299645514642"
    }
  },
  {
    "service_request": "2022-886659",
    "request_type": "Trash/Recycling",
    "request_reason": "Request a Large Item Pick Up",
    "date_created": "2022-05-26T18:37:23.000",
    "date_modified": "2022-05-26T18:37:23.000",
    "request_status": "Pending",
    "responsible_agency": "Department of Sanitation",
    "final_address": "2710 State St, New Orleans, Louisiana, 70118",
    "address_councildis": "A",
    "status": "Assigned to Contractor",
    "contractor": "Richards Disposal",
    "rowid": "886659",
    "final_x": "3667001.16493",
    "final_y": "526506.320638",
    "longitude": "-90.11402105538313",
    "latitude": "29.94214194777943",
    "geocoded_column": {
      "latitude": "29.94214194777943",
      "longitude": "-90.11402105538313"
    }
  },
  {
    "service_request": "2022-886658",
    "request_type": "Trash/Recycling",
    "request_reason": "Repair Recycling Cart",
    "date_created": "2022-05-26T18:31:33.000",
    "date_modified": "2022-05-26T18:31:33.000",
    "request_status": "Pending",
    "responsible_agency": "Department of Sanitation",
    "final_address": "210 Berkley Dr",
    "address_councildis": "C",
    "status": "Pending",
    "rowid": "886658",
    "final_x": "3706497.88363",
    "final_y": "518162.550902",
    "longitude": "-89.98963128166628",
    "latitude": "29.91798475005011",
    "geocoded_column": {
      "latitude": "29.91798475005011",
      "longitude": "-89.98963128166628"
    }
  },
  {
    "service_request": "2022-886657",
    "request_type": "Roads/Drainage",
    "request_reason": "Catch Basin - Clogged",
    "date_created": "2022-05-26T18:28:32.000",
    "date_modified": "2022-05-26T18:28:32.000",
    "request_status": "Pending",
    "responsible_agency": "Department of Public Works",
    "final_address": "916 St Louis St",
    "address_councildis": "C",
    "status": "Pending",
    "rowid": "886657",
    "final_x": "3681395.51836",
    "final_y": "532370.902595",
    "longitude": "-90.06837057502652",
    "latitude": "29.957838548000062",
    "geocoded_column": {
      "latitude": "29.957838548000062",
      "longitude": "-90.06837057502652"
    }
  },
  {
    "service_request": "2022-886656",
    "request_type": "Roads/Drainage",
    "request_reason": "Catch Basin - Clogged",
    "date_created": "2022-05-26T18:25:57.000",
    "date_modified": "2022-05-26T18:25:57.000",
    "request_status": "Pending",
    "responsible_agency": "Department of Public Works",
    "final_address": "3400 BLK Camp St",
    "address_councildis": "B",
    "status": "Pending",
    "rowid": "886656",
    "final_x": "3674690.01672",
    "final_y": "519889.441964",
    "longitude": "-90.08997233407257",
    "latitude": "29.92372046791189",
    "geocoded_column": {
      "latitude": "29.92372046791189",
      "longitude": "-90.08997233407257"
    }
  },
  {
    "service_request": "2022-886655",
    "request_type": "Property Maintenance",
    "request_reason": "Property Maintenance",
    "date_created": "2022-05-26T18:25:40.000",
    "date_modified": "2022-05-26T18:25:40.000",
    "request_status": "Pending",
    "responsible_agency": "Department of Code Enforcement",
    "final_address": "916 St Louis St",
    "address_councildis": "C",
    "status": "Pending",
    "rowid": "886655",
    "final_x": "3681395.51836",
    "final_y": "532370.902595",
    "longitude": "-90.06837057502652",
    "latitude": "29.957838548000062",
    "geocoded_column": {
      "latitude": "29.957838548000062",
      "longitude": "-90.06837057502652"
    }
  },
  {
    "service_request": "2022-886654",
    "request_type": "Roads/Drainage",
    "request_reason": "Catch Basin - Clogged",
    "date_created": "2022-05-26T18:21:57.000",
    "date_modified": "2022-05-26T18:21:57.000",
    "request_status": "Pending",
    "responsible_agency": "Department of Public Works",
    "final_address": "3400 BLK Camp St",
    "address_councildis": "B",
    "status": "Pending",
    "rowid": "886654",
    "final_x": "3674690.01672",
    "final_y": "519889.441964",
    "longitude": "-90.08997233407257",
    "latitude": "29.92372046791189",
    "geocoded_column": {
      "latitude": "29.92372046791189",
      "longitude": "-90.08997233407257"
    }
  },
  {
    "service_request": "2022-886653",
    "request_type": "Trash/Recycling",
    "request_reason": "Request a Large Item Pick Up",
    "date_created": "2022-05-26T18:20:52.000",
    "date_modified": "2022-05-26T18:20:53.000",
    "request_status": "Pending",
    "responsible_agency": "Department of Sanitation",
    "final_address": "2238 S Gayoso St, New Orleans, Louisiana, 70125",
    "address_councildis": "B",
    "status": "Assigned to Contractor",
    "contractor": "Richards Disposal",
    "rowid": "886653",
    "final_x": "3669392.99598",
    "final_y": "528577.243008",
    "longitude": "-90.10639949169564",
    "latitude": "29.94776610979986",
    "geocoded_column": {
      "latitude": "29.94776610979986",
      "longitude": "-90.10639949169564"
    }
  },
  {
    "service_request": "2022-886652",
    "request_type": "Roads/Drainage",
    "request_reason": "Catch Basin - Clogged",
    "date_created": "2022-05-26T18:20:17.000",
    "date_modified": "2022-05-26T18:20:18.000",
    "request_status": "Pending",
    "responsible_agency": "Department of Public Works",
    "final_address": "3525 Audubon Ct",
    "address_councildis": "B",
    "status": "Pending",
    "rowid": "886652",
    "final_x": "3669146.75092",
    "final_y": "533240.06266",
    "longitude": "-90.10701942356681",
    "latitude": "29.960594580353472",
    "geocoded_column": {
      "latitude": "29.960594580353472",
      "longitude": "-90.10701942356681"
    }
  },
  {
    "service_request": "2022-886651",
    "request_type": "Property Maintenance",
    "request_reason": "Property Maintenance",
    "date_created": "2022-05-26T18:18:30.000",
    "date_modified": "2022-05-26T18:18:30.000",
    "request_status": "Pending",
    "responsible_agency": "Department of Code Enforcement",
    "final_address": "2321 St Andrew St",
    "address_councildis": "B",
    "status": "Pending",
    "rowid": "886651",
    "final_x": "3676442.68616",
    "final_y": "526395.935806",
    "longitude": "-90.08421589400756",
    "latitude": "29.94155879197764",
    "geocoded_column": {
      "latitude": "29.94155879197764",
      "longitude": "-90.08421589400756"
    }
  },
  {
    "service_request": "2022-886650",
    "request_type": "Trash/Recycling",
    "request_reason": "Missed Trash Pick-Up",
    "date_created": "2022-05-26T18:06:09.000",
    "date_modified": "2022-05-26T18:06:10.000",
    "request_status": "Pending",
    "responsible_agency": "Department of Sanitation",
    "final_address": "3142 Burgundy St",
    "address_councildis": "C",
    "status": "Assigned to Contractor",
    "contractor": "Metro Disposal",
    "rowid": "886650",
    "final_x": "3689130.19561",
    "final_y": "535099.243014",
    "longitude": "-90.04384979713674",
    "latitude": "29.9651034812162",
    "geocoded_column": {
      "latitude": "29.9651034812162",
      "longitude": "-90.04384979713674"
    }
  },
  {
    "service_request": "2022-886649",
    "request_type": "Traffic Signals/Signs/Striping/Streetlights",
    "request_reason": "Street Light Outage/Malfunction",
    "date_created": "2022-05-26T17:48:05.000",
    "date_modified": "2022-05-26T17:48:06.000",
    "request_status": "Pending",
    "responsible_agency": "Department of Public Works",
    "final_address": "710 Canal St",
    "address_councildis": "B",
    "status": "Pending",
    "contractor": "Royal Engineering",
    "rowid": "886649",
    "final_x": "3681019.28194",
    "final_y": "530679.669506",
    "longitude": "-90.06961751952537",
    "latitude": "29.953199645171786",
    "geocoded_column": {
      "latitude": "29.953199645171786",
      "longitude": "-90.06961751952537"
    }
  },
  {
    "service_request": "2022-886648",
    "request_type": "Trash/Recycling",
    "request_reason": "Request a Large Item Pick Up",
    "date_created": "2022-05-26T17:45:28.000",
    "date_modified": "2022-05-26T17:45:29.000",
    "request_status": "Pending",
    "responsible_agency": "Department of Sanitation",
    "final_address": "4234 S Roman St, New Orleans, Louisiana, 70125",
    "address_councildis": "B",
    "status": "Assigned to Contractor",
    "contractor": "Richards Disposal",
    "rowid": "886648",
    "final_x": "3670751.55764",
    "final_y": "526567.139134",
    "longitude": "-90.1021781570251",
    "latitude": "29.942198910270154",
    "geocoded_column": {
      "latitude": "29.942198910270154",
      "longitude": "-90.1021781570251"
    }
  },
  {
    "service_request": "2022-886647",
    "request_type": "Trash/Recycling",
    "request_reason": "Missed Trash Pick-Up",
    "date_created": "2022-05-26T17:43:15.000",
    "date_modified": "2022-05-26T17:43:15.000",
    "request_status": "Pending",
    "responsible_agency": "Department of Sanitation",
    "final_address": "1731 Burdette St",
    "address_councildis": "A",
    "status": "Assigned to Contractor",
    "contractor": "Richards Disposal",
    "rowid": "886647",
    "final_x": "3664193.35296",
    "final_y": "529083.653568",
    "longitude": "-90.12280000141004",
    "latitude": "29.949310642835012",
    "geocoded_column": {
      "latitude": "29.949310642835012",
      "longitude": "-90.12280000141004"
    }
  },
  {
    "service_request": "2022-886646",
    "request_type": "Roads/Drainage",
    "request_reason": "Street Subsidence (Sinking)",
    "date_created": "2022-05-26T17:41:08.000",
    "date_modified": "2022-05-26T17:41:09.000",
    "request_status": "Pending",
    "responsible_agency": "Department of Public Works",
    "final_address": "3700 BLK Toulouse St",
    "address_councildis": "A",
    "status": "Pending",
    "rowid": "886646",
    "final_x": "3673293.86893",
    "final_y": "538935.48983",
    "longitude": "-90.09372905862894",
    "latitude": "29.976132392216428",
    "geocoded_column": {
      "latitude": "29.976132392216428",
      "longitude": "-90.09372905862894"
    }
  },
  {
    "service_request": "2022-886645",
    "request_type": "Trash/Recycling",
    "request_reason": "Replace Trash Cart",
    "date_created": "2022-05-26T17:37:18.000",
    "date_modified": "2022-05-26T17:37:19.000",
    "request_status": "Pending",
    "responsible_agency": "Department of Sanitation",
    "final_address": "4109 Clermont Dr",
    "address_councildis": "D",
    "status": "Assigned to Contractor",
    "contractor": "Metro Disposal",
    "rowid": "886645",
    "final_x": "3684847.13173",
    "final_y": "547684.683026",
    "longitude": "-90.05693272252127",
    "latitude": "29.99984084163541",
    "geocoded_column": {
      "latitude": "29.99984084163541",
      "longitude": "-90.05693272252127"
    }
  },
  {
    "service_request": "2022-886644",
    "request_type": "Roads/Drainage",
    "request_reason": "Pothole",
    "date_created": "2022-05-26T17:36:51.000",
    "date_modified": "2022-05-26T17:36:51.000",
    "request_status": "Pending",
    "responsible_agency": "Department of Public Works",
    "final_address": "1600 BLK Valmont St",
    "address_councildis": "B",
    "status": "Pending",
    "rowid": "886644",
    "final_x": "3667884.12679",
    "final_y": "521581.031429",
    "longitude": "-90.11139917230841",
    "latitude": "29.928573115392687",
    "geocoded_column": {
      "latitude": "29.928573115392687",
      "longitude": "-90.11139917230841"
    }
  },
  {
    "service_request": "2022-886643",
    "request_type": "Trash/Recycling",
    "request_reason": "Order Recycling Cart",
    "date_created": "2022-05-26T17:36:33.000",
    "date_modified": "2022-05-26T17:36:33.000",
    "request_status": "Pending",
    "responsible_agency": "Department of Sanitation",
    "final_address": "2532 Chippewa St",
    "address_councildis": "B",
    "status": "Pending",
    "rowid": "886643",
    "final_x": "3678437.84136",
    "final_y": "519914.253048",
    "longitude": "-90.0781409596112",
    "latitude": "29.92367633466433",
    "geocoded_column": {
      "latitude": "29.92367633466433",
      "longitude": "-90.0781409596112"
    }
  },
  {
    "service_request": "2022-886642",
    "request_type": "Trash/Recycling",
    "request_reason": "Request a Large Item Pick Up",
    "date_created": "2022-05-26T17:34:43.000",
    "date_modified": "2022-05-26T17:34:44.000",
    "request_status": "Pending",
    "responsible_agency": "Department of Sanitation",
    "final_address": "1718 Burbank Dr",
    "address_councildis": "D",
    "status": "Assigned to Contractor",
    "contractor": "Metro Disposal",
    "rowid": "886642",
    "final_x": "3679785.48219",
    "final_y": "554357.592088",
    "longitude": "-90.07269077105926",
    "latitude": "30.018343007530742",
    "geocoded_column": {
      "latitude": "30.018343007530742",
      "longitude": "-90.07269077105926"
    }
  },
  {
    "service_request": "2022-886641",
    "request_type": "Mosquito, Termite & Rodent Control",
    "request_reason": "Rodent Complaint (Rats)",
    "date_created": "2022-05-26T17:30:10.000",
    "date_modified": "2022-05-26T17:30:10.000",
    "request_status": "Pending",
    "responsible_agency": "Mosquito, Termite & Rodent Control Board",
    "final_address": "5134 Arts St",
    "address_councildis": "D",
    "status": "Pending",
    "rowid": "886641",
    "final_x": "3685725.6975",
    "final_y": "551901.752214",
    "longitude": "-90.0540085621892",
    "latitude": "30.011409312251264",
    "geocoded_column": {
      "latitude": "30.011409312251264",
      "longitude": "-90.0540085621892"
    }
  },
  {
    "service_request": "2022-886640",
    "request_type": "Trash/Recycling",
    "request_reason": "MIssed Recycling Pick-Up",
    "date_created": "2022-05-26T17:29:34.000",
    "date_modified": "2022-05-26T17:29:34.000",
    "request_status": "Pending",
    "responsible_agency": "Department of Sanitation",
    "final_address": "1138 Josephine St, New Orleans, Louisiana, 70130",
    "address_councildis": "B",
    "status": "Assigned to Contractor",
    "contractor": "Richards Disposal",
    "rowid": "886640",
    "final_x": "3678939.07432",
    "final_y": "522549.966266",
    "longitude": "-90.0764674893942",
    "latitude": "29.930908578442235",
    "geocoded_column": {
      "latitude": "29.930908578442235",
      "longitude": "-90.0764674893942"
    }
  },
  {
    "service_request": "2022-886639",
    "request_type": "Trash/Recycling",
    "request_reason": "Missed Trash Pick-Up",
    "date_created": "2022-05-26T17:26:38.000",
    "date_modified": "2022-05-26T17:26:39.000",
    "request_status": "Pending",
    "responsible_agency": "Department of Sanitation",
    "final_address": "137 S Gayoso St",
    "address_councildis": "B",
    "status": "Assigned to Contractor",
    "contractor": "Richards Disposal",
    "rowid": "886639",
    "final_x": "3674049.03694",
    "final_y": "535619.01575",
    "longitude": "-90.09145753590512",
    "latitude": "29.96699072804333",
    "geocoded_column": {
      "latitude": "29.96699072804333",
      "longitude": "-90.09145753590512"
    }
  },
  {
    "service_request": "2022-886638",
    "request_type": "Roads/Drainage",
    "request_reason": "Catch Basin - Clogged",
    "date_created": "2022-05-26T17:23:11.000",
    "date_modified": "2022-05-26T17:23:11.000",
    "request_status": "Pending",
    "responsible_agency": "Department of Public Works",
    "final_address": "3320 Banks St",
    "address_councildis": "B",
    "status": "Pending",
    "rowid": "886638",
    "final_x": "3672657.36571",
    "final_y": "535547.022342",
    "longitude": "-90.09585490276433",
    "latitude": "29.966834170390843",
    "geocoded_column": {
      "latitude": "29.966834170390843",
      "longitude": "-90.09585490276433"
    }
  },
  {
    "service_request": "2022-886637",
    "request_type": "Trash/Recycling",
    "request_reason": "Missed Trash Pick-Up",
    "date_created": "2022-05-26T17:20:46.000",
    "date_modified": "2022-05-26T17:20:47.000",
    "request_status": "Pending",
    "responsible_agency": "Department of Sanitation",
    "final_address": "1639 Crete St",
    "address_councildis": "A",
    "status": "Assigned to Contractor",
    "contractor": "Metro Disposal",
    "rowid": "886637",
    "final_x": "3678229.74997",
    "final_y": "540821.054603",
    "longitude": "-90.07807485716705",
    "latitude": "29.981169295151705",
    "geocoded_column": {
      "latitude": "29.981169295151705",
      "longitude": "-90.07807485716705"
    }
  },
  {
    "service_request": "2022-886636",
    "request_type": "Abandoned Vehicles",
    "request_reason": "Vehicle Blocking Your Driveway",
    "date_created": "2022-05-26T17:11:05.000",
    "date_modified": "2022-05-26T17:11:05.000",
    "request_status": "Pending",
    "responsible_agency": "Department of Public Works",
    "final_address": "2256 Agriculture St",
    "address_councildis": "D",
    "status": "Pending",
    "rowid": "886636",
    "final_x": "3685026.21372",
    "final_y": "543312.963854",
    "longitude": "-90.05652088576171",
    "latitude": "29.987814689790596",
    "geocoded_column": {
      "latitude": "29.987814689790596",
      "longitude": "-90.05652088576171"
    }
  },
  {
    "service_request": "2022-886635",
    "request_type": "Abandoned Vehicles",
    "request_reason": "Abandoned/Junk Vehicles",
    "date_created": "2022-05-26T17:09:55.000",
    "date_modified": "2022-05-26T17:09:55.000",
    "request_status": "Pending",
    "responsible_agency": "Department of Public Works",
    "final_address": "PRENTISS AVE & LYNHUBER ST",
    "address_councildis": "D",
    "status": "Pending",
    "rowid": "886635",
    "final_x": "3698003.2",
    "final_y": "554558.38",
    "longitude": "-90.01512256300707",
    "latitude": "30.018331408352836",
    "geocoded_column": {
      "latitude": "30.018331408352836",
      "longitude": "-90.01512256300707"
    }
  },
  {
    "service_request": "2022-886634",
    "request_type": "Trash/Recycling",
    "request_reason": "Request a Large Item Pick Up",
    "date_created": "2022-05-26T17:08:29.000",
    "date_modified": "2022-05-26T17:08:30.000",
    "request_status": "Pending",
    "responsible_agency": "Department of Sanitation",
    "final_address": "4316 Prytania St",
    "address_councildis": "B",
    "status": "Assigned to Contractor",
    "contractor": "Richards Disposal",
    "rowid": "886634",
    "final_x": "3671152.56679",
    "final_y": "520266.268408",
    "longitude": "-90.10112600699054",
    "latitude": "29.924861693239798",
    "geocoded_column": {
      "latitude": "29.924861693239798",
      "longitude": "-90.10112600699054"
    }
  },
  {
    "service_request": "2022-886633",
    "request_type": "Abandoned Vehicles",
    "request_reason": "Vehicle Blocking Your Driveway",
    "date_created": "2022-05-26T17:06:46.000",
    "date_modified": "2022-05-26T17:08:15.000",
    "request_status": "Pending",
    "responsible_agency": "Department of Public Works",
    "final_address": "2300 BLK Pressburg St",
    "address_councildis": "D",
    "status": "Pending",
    "rowid": "886633",
    "final_x": "3684484.32489",
    "final_y": "554665.578777",
    "longitude": "-90.05783335948631",
    "latitude": "30.019046874940756",
    "geocoded_column": {
      "latitude": "30.019046874940756",
      "longitude": "-90.05783335948631"
    }
  },
  {
    "service_request": "2022-886632",
    "request_type": "Trash/Recycling",
    "request_reason": "Illegal Dumping",
    "date_created": "2022-05-26T17:06:21.000",
    "date_modified": "2022-05-26T17:06:21.000",
    "request_status": "Pending",
    "responsible_agency": "Department of Sanitation",
    "final_address": "14100 Michoud Blvd",
    "address_councildis": "E",
    "status": "Pending",
    "rowid": "886632",
    "final_x": "3725642.99545",
    "final_y": "572199.841129",
    "longitude": "-89.92710828389505",
    "latitude": "30.065934837013195",
    "geocoded_column": {
      "latitude": "30.065934837013195",
      "longitude": "-89.92710828389505"
    }
  },
  {
    "service_request": "2022-886631",
    "request_type": "Abandoned Vehicles",
    "request_reason": "Abandoned/Junk Vehicles",
    "date_created": "2022-05-26T17:03:42.000",
    "date_modified": "2022-05-26T17:05:20.000",
    "request_status": "Pending",
    "responsible_agency": "Department of Public Works",
    "final_address": "2300 BLK Vienna St",
    "address_councildis": "D",
    "status": "Pending",
    "rowid": "886631",
    "final_x": "3684455.19372",
    "final_y": "555034.816227",
    "longitude": "-90.05791241773586",
    "latitude": "30.020063033713953",
    "geocoded_column": {
      "latitude": "30.020063033713953",
      "longitude": "-90.05791241773586"
    }
  },
  {
    "service_request": "2022-886630",
    "request_type": "Trash/Recycling",
    "request_reason": "Missed Trash Pick-Up",
    "date_created": "2022-05-26T17:01:52.000",
    "date_modified": "2022-05-26T17:01:53.000",
    "request_status": "Pending",
    "responsible_agency": "Department of Sanitation",
    "final_address": "1125 Race St",
    "address_councildis": "B",
    "status": "Assigned to Contractor",
    "contractor": "Richards Disposal",
    "rowid": "886630",
    "final_x": "3680013.18882",
    "final_y": "523935.104956",
    "longitude": "-90.07302856381352",
    "latitude": "29.93468481358087",
    "geocoded_column": {
      "latitude": "29.93468481358087",
      "longitude": "-90.07302856381352"
    }
  },
  {
    "service_request": "2022-886629",
    "request_type": "Trash/Recycling",
    "request_reason": "Request a Large Item Pick Up",
    "date_created": "2022-05-26T17:00:11.000",
    "date_modified": "2022-05-26T17:00:12.000",
    "request_status": "Pending",
    "responsible_agency": "Department of Sanitation",
    "final_address": "1326 Bartholomew St",
    "address_councildis": "D",
    "status": "Assigned to Contractor",
    "contractor": "Metro Disposal",
    "rowid": "886629",
    "final_x": "3692002.64374",
    "final_y": "536263.446407",
    "longitude": "-90.03473713663334",
    "latitude": "29.96821543405229",
    "geocoded_column": {
      "latitude": "29.96821543405229",
      "longitude": "-90.03473713663334"
    }
  },
  {
    "service_request": "2022-886628",
    "request_type": "Property Maintenance",
    "request_reason": "Property Maintenance",
    "date_created": "2022-05-26T16:57:47.000",
    "date_modified": "2022-05-26T16:57:47.000",
    "request_status": "Pending",
    "responsible_agency": "Department of Code Enforcement",
    "final_address": "14401 Chef Menteur Hwy",
    "address_councildis": "E",
    "status": "Pending",
    "rowid": "886628",
    "final_x": "3730862.58887",
    "final_y": "561723.310623",
    "longitude": "-89.91101978533842",
    "latitude": "30.036951651687797",
    "geocoded_column": {
      "latitude": "30.036951651687797",
      "longitude": "-89.91101978533842"
    }
  },
  {
    "service_request": "2022-886627",
    "request_type": "Trash/Recycling",
    "request_reason": "MIssed Recycling Pick-Up",
    "date_created": "2022-05-26T16:56:09.000",
    "date_modified": "2022-05-26T16:56:10.000",
    "request_status": "Pending",
    "responsible_agency": "Department of Sanitation",
    "final_address": "5826 Clara St",
    "address_councildis": "A",
    "status": "Assigned to Contractor",
    "contractor": "Richards Disposal",
    "rowid": "886627",
    "final_x": "3666914.57978",
    "final_y": "525225.735933",
    "longitude": "-90.11433743670578",
    "latitude": "29.938623284611396",
    "geocoded_column": {
      "latitude": "29.938623284611396",
      "longitude": "-90.11433743670578"
    }
  },
  {
    "service_request": "2022-886626",
    "request_type": "Property Maintenance",
    "request_reason": "Property Maintenance",
    "date_created": "2022-05-26T16:40:20.000",
    "date_modified": "2022-05-26T16:40:20.000",
    "request_status": "Pending",
    "responsible_agency": "Department of Code Enforcement",
    "final_address": "627 Philip St",
    "address_councildis": "B",
    "status": "Pending",
    "rowid": "886626",
    "final_x": "3679540.85461",
    "final_y": "520593.804664",
    "longitude": "-90.07463558775817",
    "latitude": "29.92551161028148",
    "geocoded_column": {
      "latitude": "29.92551161028148",
      "longitude": "-90.07463558775817"
    }
  },
  {
    "service_request": "2022-886625",
    "request_type": "Trash/Recycling",
    "request_reason": "Repair Recycling Cart",
    "date_created": "2022-05-26T16:40:10.000",
    "date_modified": "2022-05-26T16:40:10.000",
    "request_status": "Pending",
    "responsible_agency": "Department of Sanitation",
    "final_address": "4221 Palmyra St",
    "address_councildis": "A",
    "status": "Pending",
    "rowid": "886625",
    "final_x": "3669984.269",
    "final_y": "538232.965129",
    "longitude": "-90.10420557438091",
    "latitude": "29.974298720549502",
    "geocoded_column": {
      "latitude": "29.974298720549502",
      "longitude": "-90.10420557438091"
    }
  },
  {
    "service_request": "2022-886624",
    "request_type": "Trash/Recycling",
    "request_reason": "Replace Trash Cart",
    "date_created": "2022-05-26T16:36:50.000",
    "date_modified": "2022-05-26T16:36:51.000",
    "request_status": "Pending",
    "responsible_agency": "Department of Sanitation",
    "final_address": "1511 Polymnia St",
    "address_councildis": "B",
    "status": "Assigned to Contractor",
    "contractor": "Richards Disposal",
    "rowid": "886624",
    "final_x": "3679084.74255",
    "final_y": "524570.230012",
    "longitude": "-90.07593764881047",
    "latitude": "29.936459244959337",
    "geocoded_column": {
      "latitude": "29.936459244959337",
      "longitude": "-90.07593764881047"
    }
  },
  {
    "service_request": "2022-886623",
    "request_type": "Traffic Signals/Signs/Striping/Streetlights",
    "request_reason": "Disabled Parking Sign ",
    "date_created": "2022-05-26T16:35:43.000",
    "date_modified": "2022-05-26T16:35:43.000",
    "request_status": "Pending",
    "responsible_agency": "Department of Public Works",
    "final_address": "812 Hillary St",
    "address_councildis": "A",
    "status": "Pending",
    "rowid": "886623",
    "final_x": "3662405.01255",
    "final_y": "526241.528766",
    "longitude": "-90.12854097021442",
    "latitude": "29.941547536776724",
    "geocoded_column": {
      "latitude": "29.941547536776724",
      "longitude": "-90.12854097021442"
    }
  },
  {
    "service_request": "2022-886622",
    "request_type": "Trash/Recycling",
    "request_reason": "Damaged Caused By Contractor",
    "date_created": "2022-05-26T16:34:38.000",
    "date_modified": "2022-05-26T16:34:39.000",
    "request_status": "Pending",
    "responsible_agency": "Department of Sanitation",
    "final_address": "1131 Orange St",
    "address_councildis": "B",
    "status": "Assigned to Contractor",
    "contractor": "Richards Disposal",
    "rowid": "886622",
    "final_x": "3679856.47944",
    "final_y": "523577.759035",
    "longitude": "-90.07353569564594",
    "latitude": "29.933706968638734",
    "geocoded_column": {
      "latitude": "29.933706968638734",
      "longitude": "-90.07353569564594"
    }
  },
  {
    "service_request": "2022-886621",
    "request_type": "Trash/Recycling",
    "request_reason": "MIssed Recycling Pick-Up",
    "date_created": "2022-05-26T16:32:57.000",
    "date_modified": "2022-05-26T16:32:57.000",
    "request_status": "Pending",
    "responsible_agency": "Department of Sanitation",
    "final_address": "1902 Wilton Dr",
    "address_councildis": "D",
    "status": "Assigned to Contractor",
    "contractor": "Metro Disposal",
    "rowid": "886621",
    "final_x": "3681548.39324",
    "final_y": "550816.323221",
    "longitude": "-90.06724426200525",
    "latitude": "30.008552354633732",
    "geocoded_column": {
      "latitude": "30.008552354633732",
      "longitude": "-90.06724426200525"
    }
  },
  {
    "service_request": "2022-886620",
    "request_type": "Parks & Parkways",
    "request_reason": "Request Tree Service (Right of Way/Public Property)",
    "date_created": "2022-05-26T16:29:16.000",
    "date_modified": "2022-05-26T16:29:17.000",
    "request_status": "Pending",
    "responsible_agency": "Department of Parks & Parkway",
    "final_address": "3067 N Rampart St",
    "address_councildis": "C",
    "status": "Pending",
    "rowid": "886620",
    "final_x": "3688810.30595",
    "final_y": "535618.97799",
    "longitude": "-90.04484153152492",
    "latitude": "29.96654246552033",
    "geocoded_column": {
      "latitude": "29.96654246552033",
      "longitude": "-90.04484153152492"
    }
  },
  {
    "service_request": "2022-886619",
    "request_type": "Trash/Recycling",
    "request_reason": "Missed Trash Pick-Up",
    "date_created": "2022-05-26T16:24:15.000",
    "date_modified": "2022-05-26T16:24:16.000",
    "request_status": "Pending",
    "responsible_agency": "Department of Sanitation",
    "final_address": "4815 Walmsley Ave, New Orleans, Louisiana, 70125",
    "address_councildis": "B",
    "status": "Assigned to Contractor",
    "contractor": "Richards Disposal",
    "rowid": "886619",
    "final_x": "3668173.76909",
    "final_y": "530634.130626",
    "longitude": "-90.11017975954138",
    "latitude": "29.95345772065518",
    "geocoded_column": {
      "latitude": "29.95345772065518",
      "longitude": "-90.11017975954138"
    }
  },
  {
    "service_request": "2022-886618",
    "request_type": "Property Maintenance",
    "request_reason": "Property Maintenance",
    "date_created": "2022-05-26T16:22:57.000",
    "date_modified": "2022-05-26T16:22:57.000",
    "request_status": "Pending",
    "responsible_agency": "Department of Code Enforcement",
    "final_address": "1729 Burdette St",
    "address_councildis": "A",
    "status": "Pending",
    "rowid": "886618",
    "final_x": "3664183.66093",
    "final_y": "529069.944576",
    "longitude": "-90.12283106087168",
    "latitude": "29.949273229070222",
    "geocoded_column": {
      "latitude": "29.949273229070222",
      "longitude": "-90.12283106087168"
    }
  },
  {
    "service_request": "2022-886617",
    "request_type": "Trash/Recycling",
    "request_reason": "Replace Trash Cart",
    "date_created": "2022-05-26T16:22:37.000",
    "date_modified": "2022-05-26T16:22:38.000",
    "request_status": "Pending",
    "responsible_agency": "Department of Sanitation",
    "final_address": "2001 S Chippewa St",
    "address_councildis": "B",
    "status": "Assigned to Contractor",
    "contractor": "Richards Disposal",
    "rowid": "886617",
    "final_x": "3680502.43573",
    "final_y": "521337.604409",
    "longitude": "-90.07157431929909",
    "latitude": "29.927527736439345",
    "geocoded_column": {
      "latitude": "29.927527736439345",
      "longitude": "-90.07157431929909"
    }
  },
  {
    "service_request": "2022-886616",
    "request_type": "Trash/Recycling",
    "request_reason": "MIssed Recycling Pick-Up",
    "date_created": "2022-05-26T16:14:54.000",
    "date_modified": "2022-05-26T16:14:55.000",
    "request_status": "Pending",
    "responsible_agency": "Department of Sanitation",
    "final_address": "234 S Norman C Francis Pkwy, New Orleans, Louisiana, 70119",
    "status": "Assigned to Contractor",
    "rowid": "886616",
    "longitude": "0.0",
    "latitude": "0.0",
    "geocoded_column": {
      "latitude": "0.0",
      "longitude": "0.0"
    }
  },
  {
    "service_request": "2022-886615",
    "request_type": "Trash/Recycling",
    "request_reason": "Missed Trash Pick-Up",
    "date_created": "2022-05-26T16:14:16.000",
    "date_modified": "2022-05-26T16:14:17.000",
    "request_status": "Pending",
    "responsible_agency": "Department of Sanitation",
    "final_address": "S SARATOGA ST & JOSEPHINE ST",
    "address_councildis": "B",
    "status": "Assigned to Contractor",
    "contractor": "Richards Disposal",
    "rowid": "886615",
    "final_x": "3676764.4",
    "final_y": "525445.28",
    "longitude": "-90.08323292373125",
    "latitude": "29.938935154353153",
    "geocoded_column": {
      "latitude": "29.938935154353153",
      "longitude": "-90.08323292373125"
    }
  },
  {
    "service_request": "2022-886614",
    "request_type": "Roads/Drainage",
    "request_reason": "Ditch Issue",
    "date_created": "2022-05-26T16:10:42.000",
    "date_modified": "2022-05-26T16:10:42.000",
    "request_status": "Pending",
    "responsible_agency": "Department of Public Works",
    "final_address": "3200 Iowa St",
    "address_councildis": "C",
    "status": "Pending",
    "rowid": "886614",
    "final_x": "3694305.84355",
    "final_y": "520797.420537",
    "longitude": "-90.02801996680303",
    "latitude": "29.925617252136263",
    "geocoded_column": {
      "latitude": "29.925617252136263",
      "longitude": "-90.02801996680303"
    }
  },
  {
    "service_request": "2022-886613",
    "request_type": "Roads/Drainage",
    "request_reason": "Damaged Sidewalk",
    "date_created": "2022-05-26T16:05:00.000",
    "date_modified": "2022-05-26T16:05:00.000",
    "request_status": "Pending",
    "responsible_agency": "Department of Public Works",
    "final_address": "119 N Lopez St",
    "address_councildis": "B",
    "status": "Pending",
    "rowid": "886613",
    "final_x": "3673993.06388",
    "final_y": "536448.551495",
    "longitude": "-90.091605910311",
    "latitude": "29.969273339094578",
    "geocoded_column": {
      "latitude": "29.969273339094578",
      "longitude": "-90.091605910311"
    }
  },
  {
    "service_request": "2022-886612",
    "request_type": "Abandoned Vehicles",
    "request_reason": "Abandoned/Junk Vehicles",
    "date_created": "2022-05-26T16:01:53.000",
    "date_modified": "2022-05-26T16:01:53.000",
    "request_status": "Pending",
    "responsible_agency": "Department of Public Works",
    "final_address": "3325 Kansas St",
    "address_councildis": "C",
    "status": "Pending",
    "rowid": "886612",
    "final_x": "3694294.59894",
    "final_y": "520277.803832",
    "longitude": "-90.02807414720398",
    "latitude": "29.924188834367307",
    "geocoded_column": {
      "latitude": "29.924188834367307",
      "longitude": "-90.02807414720398"
    }
  },
  {
    "service_request": "2022-886611",
    "request_type": "Trash/Recycling",
    "request_reason": "Request a Large Item Pick Up",
    "date_created": "2022-05-26T15:58:13.000",
    "date_modified": "2022-05-26T15:58:14.000",
    "request_status": "Pending",
    "responsible_agency": "Department of Sanitation",
    "final_address": "119 N Lopez St",
    "address_councildis": "B",
    "status": "Assigned to Contractor",
    "contractor": "Richards Disposal",
    "rowid": "886611",
    "final_x": "3673993.06388",
    "final_y": "536448.551495",
    "longitude": "-90.091605910311",
    "latitude": "29.969273339094578",
    "geocoded_column": {
      "latitude": "29.969273339094578",
      "longitude": "-90.091605910311"
    }
  },
  {
    "service_request": "2022-886610",
    "request_type": "Traffic Signals/Signs/Striping/Streetlights",
    "request_reason": "Street Light Outage/Malfunction",
    "date_created": "2022-05-26T15:57:03.000",
    "date_modified": "2022-05-26T15:57:03.000",
    "request_status": "Pending",
    "responsible_agency": "Department of Public Works",
    "final_address": "6000 St Charles Ave",
    "address_councildis": "A",
    "status": "Pending",
    "contractor": "Royal Engineering",
    "rowid": "886610",
    "final_x": "3665637.85568",
    "final_y": "522382.40153",
    "longitude": "-90.1184633815831",
    "latitude": "29.930842305352986",
    "geocoded_column": {
      "latitude": "29.930842305352986",
      "longitude": "-90.1184633815831"
    }
  },
  {
    "service_request": "2022-886609",
    "request_type": "Trash/Recycling",
    "request_reason": "Order Recycling Cart",
    "date_created": "2022-05-26T15:55:21.000",
    "date_modified": "2022-05-26T15:55:22.000",
    "request_status": "Pending",
    "responsible_agency": "Department of Sanitation",
    "final_address": "4551 Lennox Blvd",
    "address_councildis": "C",
    "status": "Pending",
    "rowid": "886609",
    "final_x": "3700688.74007",
    "final_y": "514247.744883",
    "longitude": "-90.00811036456096",
    "latitude": "29.90740640065948",
    "geocoded_column": {
      "latitude": "29.90740640065948",
      "longitude": "-90.00811036456096"
    }
  },
  {
    "service_request": "2022-886608",
    "request_type": "Traffic Signals/Signs/Striping/Streetlights",
    "request_reason": "Street Light Outage/Malfunction",
    "date_created": "2022-05-26T15:54:31.000",
    "date_modified": "2022-05-26T15:54:32.000",
    "request_status": "Pending",
    "responsible_agency": "Department of Public Works",
    "final_address": "749 Louisiana Ave",
    "address_councildis": "B",
    "status": "Pending",
    "contractor": "Royal Engineering",
    "rowid": "886608",
    "final_x": "3675590.29006",
    "final_y": "518598.252535",
    "longitude": "-90.08717482330962",
    "latitude": "29.920143220348766",
    "geocoded_column": {
      "latitude": "29.920143220348766",
      "longitude": "-90.08717482330962"
    }
  },
  {
    "service_request": "2022-886607",
    "request_type": "Trash/Recycling",
    "request_reason": "Request a Large Item Pick Up",
    "date_created": "2022-05-26T15:51:08.000",
    "date_modified": "2022-05-26T15:51:08.000",
    "request_status": "Pending",
    "responsible_agency": "Department of Sanitation",
    "final_address": "749 Louisiana Ave",
    "address_councildis": "B",
    "status": "Assigned to Contractor",
    "contractor": "Richards Disposal",
    "rowid": "886607",
    "final_x": "3675590.29006",
    "final_y": "518598.252535",
    "longitude": "-90.08717482330962",
    "latitude": "29.920143220348766",
    "geocoded_column": {
      "latitude": "29.920143220348766",
      "longitude": "-90.08717482330962"
    }
  },
  {
    "service_request": "2022-886606",
    "request_type": "Trash/Recycling",
    "request_reason": "MIssed Recycling Pick-Up",
    "date_created": "2022-05-26T15:50:15.000",
    "date_modified": "2022-05-26T15:50:16.000",
    "request_status": "Pending",
    "responsible_agency": "Department of Sanitation",
    "final_address": "749 Louisiana Ave",
    "address_councildis": "B",
    "status": "Assigned to Contractor",
    "contractor": "Richards Disposal",
    "rowid": "886606",
    "final_x": "3675590.29006",
    "final_y": "518598.252535",
    "longitude": "-90.08717482330962",
    "latitude": "29.920143220348766",
    "geocoded_column": {
      "latitude": "29.920143220348766",
      "longitude": "-90.08717482330962"
    }
  },
  {
    "service_request": "2022-886605",
    "request_type": "Trash/Recycling",
    "request_reason": "Repair Recycling Cart",
    "date_created": "2022-05-26T15:49:29.000",
    "date_modified": "2022-05-26T15:49:30.000",
    "request_status": "Pending",
    "responsible_agency": "Department of Sanitation",
    "final_address": "8319 Cohn St",
    "address_councildis": "A",
    "status": "Pending",
    "rowid": "886605",
    "final_x": "3662984.56595",
    "final_y": "530833.934658",
    "longitude": "-90.12655849416645",
    "latitude": "29.954158410184178",
    "geocoded_column": {
      "latitude": "29.954158410184178",
      "longitude": "-90.12655849416645"
    }
  },
  {
    "service_request": "2022-886604",
    "request_type": "Trash/Recycling",
    "request_reason": "Missed Trash Pick-Up",
    "date_created": "2022-05-26T15:48:11.000",
    "date_modified": "2022-05-26T15:48:12.000",
    "request_status": "Pending",
    "responsible_agency": "Department of Sanitation",
    "final_address": "2600 BLK Fern St",
    "address_councildis": "A",
    "status": "Assigned to Contractor",
    "contractor": "Richards Disposal",
    "rowid": "886604",
    "final_x": "3666056.70164",
    "final_y": "531716.831039",
    "longitude": "-90.11682829035385",
    "latitude": "29.956496763837553",
    "geocoded_column": {
      "latitude": "29.956496763837553",
      "longitude": "-90.11682829035385"
    }
  },
  {
    "service_request": "2022-886603",
    "request_type": "Trash/Recycling",
    "request_reason": "Missed Trash Pick-Up",
    "date_created": "2022-05-26T15:45:53.000",
    "date_modified": "2022-05-26T15:45:54.000",
    "request_status": "Pending",
    "responsible_agency": "Department of Sanitation",
    "final_address": "920 Euterpe St, New Orleans, Louisiana, 70130",
    "address_councildis": "B",
    "status": "Assigned to Contractor",
    "contractor": "Richards Disposal",
    "rowid": "886603",
    "final_x": "3677482.54018",
    "final_y": "525860.341053",
    "longitude": "-90.08095134832443",
    "latitude": "29.94005487265027",
    "geocoded_column": {
      "latitude": "29.94005487265027",
      "longitude": "-90.08095134832443"
    }
  },
  {
    "service_request": "2022-886602",
    "request_type": "Trash/Recycling",
    "request_reason": "MIssed Recycling Pick-Up",
    "date_created": "2022-05-26T15:45:01.000",
    "date_modified": "2022-05-26T15:45:01.000",
    "request_status": "Pending",
    "responsible_agency": "Department of Sanitation",
    "final_address": "920 Euterpe St, New Orleans, Louisiana, 70130",
    "address_councildis": "B",
    "status": "Assigned to Contractor",
    "contractor": "Richards Disposal",
    "rowid": "886602",
    "final_x": "3677482.54018",
    "final_y": "525860.341053",
    "longitude": "-90.08095134832443",
    "latitude": "29.94005487265027",
    "geocoded_column": {
      "latitude": "29.94005487265027",
      "longitude": "-90.08095134832443"
    }
  },
  {
    "service_request": "2022-886601",
    "request_type": "Parks & Parkways",
    "request_reason": "Request Tree Service (Right of Way/Public Property)",
    "date_created": "2022-05-26T15:44:51.000",
    "date_modified": "2022-05-26T15:44:52.000",
    "request_status": "Pending",
    "responsible_agency": "Department of Parks & Parkway",
    "final_address": "1828 Jefferson Ave",
    "address_councildis": "A",
    "status": "Pending",
    "rowid": "886601",
    "final_x": "3667474.25965",
    "final_y": "522534.707066",
    "longitude": "-90.1126609689365",
    "latitude": "29.931207432186657",
    "geocoded_column": {
      "latitude": "29.931207432186657",
      "longitude": "-90.1126609689365"
    }
  },
  {
    "service_request": "2022-886600",
    "request_type": "Trash/Recycling",
    "request_reason": "Request a Large Item Pick Up",
    "date_created": "2022-05-26T15:44:08.000",
    "date_modified": "2022-05-26T15:44:09.000",
    "request_status": "Pending",
    "responsible_agency": "Department of Sanitation",
    "final_address": "4737 Bancroft Dr",
    "address_councildis": "D",
    "status": "Assigned to Contractor",
    "contractor": "Metro Disposal",
    "rowid": "886600",
    "final_x": "3676422.66824",
    "final_y": "549696.909972",
    "longitude": "-90.08347665530222",
    "latitude": "30.005629100251475",
    "geocoded_column": {
      "latitude": "30.005629100251475",
      "longitude": "-90.08347665530222"
    }
  },
  {
    "service_request": "2022-886599",
    "request_type": "Abandoned Vehicles",
    "request_reason": "Abandoned/Junk Vehicles",
    "date_created": "2022-05-26T15:35:55.000",
    "date_modified": "2022-05-26T15:35:56.000",
    "request_status": "Pending",
    "responsible_agency": "Department of Public Works",
    "final_address": "4800 BLK Lynhuber Dr",
    "address_councildis": "D",
    "status": "Pending",
    "rowid": "886599",
    "final_x": "3697978.03806",
    "final_y": "554845.812012",
    "longitude": "-90.01519161754413",
    "latitude": "30.01912253333843",
    "geocoded_column": {
      "latitude": "30.01912253333843",
      "longitude": "-90.01519161754413"
    }
  },
  {
    "service_request": "2022-886598",
    "request_type": "Traffic Signals/Signs/Striping/Streetlights",
    "request_reason": "Additional signage",
    "date_created": "2022-05-26T15:31:39.000",
    "date_modified": "2022-05-26T15:31:40.000",
    "request_status": "Pending",
    "responsible_agency": "Department of Public Works",
    "final_address": "3307 Spain St",
    "address_councildis": "D",
    "status": "Pending",
    "rowid": "886598",
    "final_x": "3685496.55548",
    "final_y": "544921.786191",
    "longitude": "-90.05497854341903",
    "latitude": "29.99222395882699",
    "geocoded_column": {
      "latitude": "29.99222395882699",
      "longitude": "-90.05497854341903"
    }
  },
  {
    "service_request": "2022-886597",
    "request_type": "Parks & Parkways",
    "request_reason": "Request Tree Service (Right of Way/Public Property)",
    "date_created": "2022-05-26T15:29:57.000",
    "date_modified": "2022-05-26T15:29:58.000",
    "request_status": "Pending",
    "responsible_agency": "Department of Parks & Parkway",
    "final_address": "3316 Spain St",
    "address_councildis": "D",
    "status": "Pending",
    "rowid": "886597",
    "final_x": "3685381.03887",
    "final_y": "545010.865423",
    "longitude": "-90.05534029852087",
    "latitude": "29.992472438035616",
    "geocoded_column": {
      "latitude": "29.992472438035616",
      "longitude": "-90.05534029852087"
    }
  },
  {
    "service_request": "2022-886596",
    "request_type": "Roads/Drainage",
    "request_reason": "Debris in Roadway",
    "date_created": "2022-05-26T15:28:17.000",
    "date_modified": "2022-05-26T15:28:17.000",
    "request_status": "Pending",
    "responsible_agency": "Department of Public Works",
    "final_address": "1000 N Rampart St",
    "address_councildis": "C",
    "status": "Pending",
    "rowid": "886596",
    "final_x": "3682127.03426",
    "final_y": "534247.985029",
    "longitude": "-90.06599510126377",
    "latitude": "29.962977658108578",
    "geocoded_column": {
      "latitude": "29.962977658108578",
      "longitude": "-90.06599510126377"
    }
  },
  {
    "service_request": "2022-886595",
    "request_type": "Trash/Recycling",
    "request_reason": "Replace Trash Cart",
    "date_created": "2022-05-26T15:28:10.000",
    "date_modified": "2022-05-26T15:28:11.000",
    "request_status": "Pending",
    "responsible_agency": "Department of Sanitation",
    "final_address": "5301 Wickfield Dr",
    "address_councildis": "D",
    "status": "Assigned to Contractor",
    "contractor": "Metro Disposal",
    "rowid": "886595",
    "final_x": "3681265.218",
    "final_y": "552142.154006",
    "longitude": "-90.06809265051375",
    "latitude": "30.01220651080255",
    "geocoded_column": {
      "latitude": "30.01220651080255",
      "longitude": "-90.06809265051375"
    }
  },
  {
    "service_request": "2022-886594",
    "request_type": "Abandoned Vehicles",
    "request_reason": "Abandoned/Junk Vehicles",
    "date_created": "2022-05-26T15:24:00.000",
    "date_modified": "2022-05-26T15:24:00.000",
    "request_status": "Pending",
    "responsible_agency": "Department of Public Works",
    "final_address": "2905 Clara St A",
    "address_councildis": "B",
    "status": "Pending",
    "rowid": "886594",
    "final_x": "3673064.034",
    "final_y": "525791.991933",
    "longitude": "-90.09490359935643",
    "latitude": "29.939998986313554",
    "geocoded_column": {
      "latitude": "29.939998986313554",
      "longitude": "-90.09490359935643"
    }
  },
  {
    "service_request": "2022-886593",
    "request_type": "Trash/Recycling",
    "request_reason": "Illegal Dumping",
    "date_created": "2022-05-26T15:23:46.000",
    "date_modified": "2022-05-26T15:23:46.000",
    "request_status": "Pending",
    "responsible_agency": "Department of Sanitation",
    "final_address": "7690 Pineridge St",
    "address_councildis": "E",
    "status": "Pending",
    "rowid": "886593",
    "final_x": "3718692.83673",
    "final_y": "572239.541673",
    "longitude": "-89.94907690414483",
    "latitude": "30.066276693158187",
    "geocoded_column": {
      "latitude": "30.066276693158187",
      "longitude": "-89.94907690414483"
    }
  },
  {
    "service_request": "2022-886592",
    "request_type": "Roads/Drainage",
    "request_reason": "Street Subsidence (Sinking)",
    "date_created": "2022-05-26T15:23:34.000",
    "date_modified": "2022-05-26T15:23:34.000",
    "request_status": "Pending",
    "responsible_agency": "Department of Public Works",
    "final_address": "2838 Bristol Pl, New Orleans, Louisiana, 70131",
    "address_councildis": "C",
    "status": "Pending",
    "rowid": "886592",
    "final_x": "3702649.1434",
    "final_y": "520483.527224",
    "longitude": "-90.00169442281198",
    "latitude": "29.924490175825134",
    "geocoded_column": {
      "latitude": "29.924490175825134",
      "longitude": "-90.00169442281198"
    }
  },
  {
    "service_request": "2022-886591",
    "request_type": "Trash/Recycling",
    "request_reason": "Request a Large Item Pick Up",
    "date_created": "2022-05-26T15:22:42.000",
    "date_modified": "2022-05-26T15:22:43.000",
    "request_status": "Pending",
    "responsible_agency": "Department of Sanitation",
    "final_address": "2100 Milan St, New Orleans, Louisiana, 70115",
    "address_councildis": "B",
    "status": "Assigned to Contractor",
    "contractor": "Richards Disposal",
    "rowid": "886591",
    "final_x": "3671370.10222",
    "final_y": "522752.720442",
    "longitude": "-90.10035485957032",
    "latitude": "29.931692205018255",
    "geocoded_column": {
      "latitude": "29.931692205018255",
      "longitude": "-90.10035485957032"
    }
  },
  {
    "service_request": "2022-886590",
    "request_type": "Parks & Parkways",
    "request_reason": "Request Tree Service (Right of Way/Public Property)",
    "date_created": "2022-05-26T15:22:16.000",
    "date_modified": "2022-05-26T15:31:38.000",
    "case_close_date": "2022-05-26T10:31:38.000",
    "request_status": "Closed",
    "responsible_agency": "Department of Parks & Parkway",
    "final_address": "7501 Alabama St",
    "address_councildis": "D",
    "status": "Referred to Property Owner",
    "rowid": "886590",
    "final_x": "3695094.31626",
    "final_y": "558157.703195",
    "longitude": "-90.02418357862899",
    "latitude": "30.028319879228118",
    "geocoded_column": {
      "latitude": "30.028319879228118",
      "longitude": "-90.02418357862899"
    }
  },
  {
    "service_request": "2022-886589",
    "request_type": "Parks & Parkways",
    "request_reason": "Request Grass Cutting Service (City Owned Property)",
    "date_created": "2022-05-26T15:22:10.000",
    "date_modified": "2022-05-26T15:26:29.000",
    "request_status": "Pending",
    "responsible_agency": "Department of Parks & Parkway",
    "final_address": "MEMORIAL PARK DR & IDAHO ST",
    "address_councildis": "C",
    "status": "Pending",
    "rowid": "886589",
    "final_x": "3693150.1",
    "final_y": "520827.88",
    "longitude": "-90.03166718853367",
    "latitude": "29.925737156781242",
    "geocoded_column": {
      "latitude": "29.925737156781242",
      "longitude": "-90.03166718853367"
    }
  },
  {
    "service_request": "2022-886588",
    "request_type": "Trash/Recycling",
    "request_reason": "MIssed Recycling Pick-Up",
    "date_created": "2022-05-26T15:21:42.000",
    "date_modified": "2022-05-26T15:21:42.000",
    "request_status": "Pending",
    "responsible_agency": "Department of Sanitation",
    "final_address": "4153 Vincennes Pl",
    "address_councildis": "B",
    "status": "Assigned to Contractor",
    "contractor": "Richards Disposal",
    "rowid": "886588",
    "final_x": "3668701.87246",
    "final_y": "530819.415362",
    "longitude": "-90.10850597428482",
    "latitude": "29.95395168150606",
    "geocoded_column": {
      "latitude": "29.95395168150606",
      "longitude": "-90.10850597428482"
    }
  },
  {
    "service_request": "2022-886587",
    "request_type": "Trash/Recycling",
    "request_reason": "Request a Large Item Pick Up",
    "date_created": "2022-05-26T15:19:04.000",
    "date_modified": "2022-05-26T15:19:05.000",
    "request_status": "Pending",
    "responsible_agency": "Department of Sanitation",
    "final_address": "3647 Annunciation St",
    "address_councildis": "B",
    "status": "Assigned to Contractor",
    "contractor": "Richards Disposal",
    "rowid": "886587",
    "final_x": "3674078.96596",
    "final_y": "518192.315766",
    "longitude": "-90.09195923979797",
    "latitude": "29.919072132311207",
    "geocoded_column": {
      "latitude": "29.919072132311207",
      "longitude": "-90.09195923979797"
    }
  },
  {
    "service_request": "2022-886586",
    "request_type": "Trash/Recycling",
    "request_reason": "Missed Trash Pick-Up",
    "date_created": "2022-05-26T15:18:56.000",
    "date_modified": "2022-05-26T15:18:57.000",
    "request_status": "Pending",
    "responsible_agency": "Department of Sanitation",
    "final_address": "2036 Palmer Ave",
    "address_councildis": "A",
    "status": "Assigned to Contractor",
    "contractor": "Richards Disposal",
    "rowid": "886586",
    "final_x": "3665847.62528",
    "final_y": "524585.894588",
    "longitude": "-90.11772736910913",
    "latitude": "29.9368950930788",
    "geocoded_column": {
      "latitude": "29.9368950930788",
      "longitude": "-90.11772736910913"
    }
  },
  {
    "service_request": "2022-886585",
    "request_type": "Trash/Recycling",
    "request_reason": "Replace Trash Cart",
    "date_created": "2022-05-26T15:15:44.000",
    "date_modified": "2022-05-26T15:15:44.000",
    "request_status": "Pending",
    "responsible_agency": "Department of Sanitation",
    "final_address": "9115 Pritchard Pl",
    "address_councildis": "A",
    "status": "Assigned to Contractor",
    "contractor": "Richards Disposal",
    "rowid": "886585",
    "final_x": "3663367.86163",
    "final_y": "535388.445126",
    "longitude": "-90.12519656289815",
    "latitude": "29.96667072312719",
    "geocoded_column": {
      "latitude": "29.96667072312719",
      "longitude": "-90.12519656289815"
    }
  },
  {
    "service_request": "2022-886584",
    "request_type": "Roads/Drainage",
    "request_reason": "Pothole",
    "date_created": "2022-05-26T15:15:25.000",
    "date_modified": "2022-05-26T15:15:25.000",
    "request_status": "Pending",
    "responsible_agency": "Department of Public Works",
    "final_address": "1628 N Prieur St",
    "address_councildis": "D",
    "status": "Pending",
    "rowid": "886584",
    "final_x": "3681496.59528",
    "final_y": "538601.463241",
    "longitude": "-90.06783411434395",
    "latitude": "29.974967382115864",
    "geocoded_column": {
      "latitude": "29.974967382115864",
      "longitude": "-90.06783411434395"
    }
  },
  {
    "service_request": "2022-886583",
    "request_type": "Roads/Drainage",
    "request_reason": "Pothole",
    "date_created": "2022-05-26T15:14:38.000",
    "date_modified": "2022-05-26T15:15:55.000",
    "case_close_date": "2022-05-26T10:15:55.000",
    "request_status": "Closed",
    "responsible_agency": "Department of Public Works",
    "final_address": "314 N Dupre St",
    "address_councildis": "B",
    "status": "Resolved",
    "rowid": "886583",
    "final_x": "3675223.8699",
    "final_y": "536407.959303",
    "longitude": "-90.08772032037234",
    "latitude": "29.969124991898752",
    "geocoded_column": {
      "latitude": "29.969124991898752",
      "longitude": "-90.08772032037234"
    }
  },
  {
    "service_request": "2022-886582",
    "request_type": "Trash/Recycling",
    "request_reason": "Illegal Dumping",
    "date_created": "2022-05-26T15:11:24.000",
    "date_modified": "2022-05-26T15:11:25.000",
    "request_status": "Pending",
    "responsible_agency": "Department of Sanitation",
    "final_address": "2410 Baronne St",
    "address_councildis": "B",
    "status": "Pending",
    "rowid": "886582",
    "final_x": "3676469.18184",
    "final_y": "523737.773115",
    "longitude": "-90.08422372893698",
    "latitude": "29.934248922989283",
    "geocoded_column": {
      "latitude": "29.934248922989283",
      "longitude": "-90.08422372893698"
    }
  },
  {
    "service_request": "2022-886581",
    "request_type": "Roads/Drainage",
    "request_reason": "Pothole",
    "date_created": "2022-05-26T15:11:02.000",
    "date_modified": "2022-05-26T15:11:24.000",
    "case_close_date": "2022-05-26T10:11:24.000",
    "request_status": "Closed",
    "responsible_agency": "Department of Public Works",
    "final_address": "3200 BLK Audubon St",
    "address_councildis": "B",
    "status": "Resolved",
    "rowid": "886581",
    "final_x": "3668360.47919",
    "final_y": "532266.380793",
    "longitude": "-90.10953516031276",
    "latitude": "29.957940391049203",
    "geocoded_column": {
      "latitude": "29.957940391049203",
      "longitude": "-90.10953516031276"
    }
  },
  {
    "service_request": "2022-886580",
    "request_type": "Trash/Recycling",
    "request_reason": "Illegal Dumping",
    "date_created": "2022-05-26T15:10:18.000",
    "date_modified": "2022-05-26T15:10:18.000",
    "request_status": "Pending",
    "responsible_agency": "Department of Sanitation",
    "final_address": "N ROBERTSON ST & POLAND AVE",
    "address_councildis": "D",
    "status": "Pending",
    "rowid": "886580",
    "final_x": "3693434.1",
    "final_y": "536482.68",
    "longitude": "-90.03020868302556",
    "latitude": "29.96877356380623",
    "geocoded_column": {
      "latitude": "29.96877356380623",
      "longitude": "-90.03020868302556"
    }
  },
  {
    "service_request": "2022-886579",
    "request_type": "Trash/Recycling",
    "request_reason": "Return Recycling Cart",
    "date_created": "2022-05-26T15:10:14.000",
    "date_modified": "2022-05-26T15:10:15.000",
    "request_status": "Pending",
    "responsible_agency": "Department of Sanitation",
    "final_address": "860 Taft Pl",
    "address_councildis": "A",
    "status": "Pending",
    "rowid": "886579",
    "final_x": "3673862.46452",
    "final_y": "539858.93569",
    "longitude": "-90.09190166604417",
    "latitude": "29.978654627086406",
    "geocoded_column": {
      "latitude": "29.978654627086406",
      "longitude": "-90.09190166604417"
    }
  },
  {
    "service_request": "2022-886578",
    "request_type": "Roads/Drainage",
    "request_reason": "Pothole",
    "date_created": "2022-05-26T15:08:11.000",
    "date_modified": "2022-05-26T15:08:38.000",
    "case_close_date": "2022-05-26T10:08:38.000",
    "request_status": "Closed",
    "responsible_agency": "Department of Public Works",
    "final_address": "3300 BLK Audubon St",
    "address_councildis": "B",
    "status": "Resolved",
    "rowid": "886578",
    "final_x": "3668647.37724",
    "final_y": "532660.026331",
    "longitude": "-90.10861592864129",
    "latitude": "29.9590143579496",
    "geocoded_column": {
      "latitude": "29.9590143579496",
      "longitude": "-90.10861592864129"
    }
  },
  {
    "service_request": "2022-886577",
    "request_type": "Abandoned Vehicles",
    "request_reason": "Abandoned/Junk Vehicles",
    "date_created": "2022-05-26T15:06:50.000",
    "date_modified": "2022-05-26T15:11:36.000",
    "request_status": "Pending",
    "responsible_agency": "Department of Public Works",
    "final_address": "10100 Flossmoor Dr",
    "address_councildis": "E",
    "status": "Pending",
    "rowid": "886577",
    "final_x": "3709501.43902",
    "final_y": "563413.76944",
    "longitude": "-89.9784618974459",
    "latitude": "30.042311505955645",
    "geocoded_column": {
      "latitude": "30.042311505955645",
      "longitude": "-89.9784618974459"
    }
  },
  {
    "service_request": "2022-886576",
    "request_type": "Trash/Recycling",
    "request_reason": "MIssed Recycling Pick-Up",
    "date_created": "2022-05-26T15:06:01.000",
    "date_modified": "2022-05-26T15:06:02.000",
    "request_status": "Pending",
    "responsible_agency": "Department of Sanitation",
    "final_address": "1909 Washington Ave",
    "address_councildis": "B",
    "status": "Assigned to Contractor",
    "contractor": "Richards Disposal",
    "rowid": "886576",
    "final_x": "3675300.34229",
    "final_y": "523541.832315",
    "longitude": "-90.08792044539828",
    "latitude": "29.933745133703223",
    "geocoded_column": {
      "latitude": "29.933745133703223",
      "longitude": "-90.08792044539828"
    }
  },
  {
    "service_request": "2022-886575",
    "request_type": "Trash/Recycling",
    "request_reason": "MIssed Recycling Pick-Up",
    "date_created": "2022-05-26T15:01:10.000",
    "date_modified": "2022-05-26T15:01:10.000",
    "request_status": "Pending",
    "responsible_agency": "Department of Sanitation",
    "final_address": "1111 Erato St",
    "address_councildis": "B",
    "status": "Assigned to Contractor",
    "contractor": "Richards Disposal",
    "rowid": "886575",
    "final_x": "3680552.30274",
    "final_y": "525692.492349",
    "longitude": "-90.07126548381918",
    "latitude": "29.939500730852806",
    "geocoded_column": {
      "latitude": "29.939500730852806",
      "longitude": "-90.07126548381918"
    }
  },
  {
    "service_request": "2022-886574",
    "request_type": "Roads/Drainage",
    "request_reason": "Pothole",
    "date_created": "2022-05-26T15:00:16.000",
    "date_modified": "2022-05-26T15:03:03.000",
    "case_close_date": "2022-05-26T10:03:03.000",
    "request_status": "Closed",
    "responsible_agency": "Department of Public Works",
    "final_address": "7000 BLK Forshey St",
    "address_councildis": "B",
    "status": "Resolved",
    "rowid": "886574",
    "final_x": "3668623.3635",
    "final_y": "532447.870916",
    "longitude": "-90.10869891832743",
    "latitude": "29.958431706238997",
    "geocoded_column": {
      "latitude": "29.958431706238997",
      "longitude": "-90.10869891832743"
    }
  },
  {
    "service_request": "2022-886571",
    "request_type": "Parks & Parkways",
    "request_reason": "Request Tree Service (Right of Way/Public Property)",
    "date_created": "2022-05-26T15:00:13.000",
    "date_modified": "2022-05-26T15:00:14.000",
    "request_status": "Pending",
    "responsible_agency": "Department of Parks & Parkway",
    "final_address": "1421 Poland Ave",
    "address_councildis": "D",
    "status": "Pending",
    "rowid": "886571",
    "final_x": "3693444.28553",
    "final_y": "536286.352967",
    "longitude": "-90.03018356796458",
    "latitude": "29.968233415506802",
    "geocoded_column": {
      "latitude": "29.968233415506802",
      "longitude": "-90.03018356796458"
    }
  },
  {
    "service_request": "2022-886570",
    "request_type": "Trash/Recycling",
    "request_reason": "Repair Trash Cart",
    "date_created": "2022-05-26T14:59:33.000",
    "date_modified": "2022-05-26T14:59:34.000",
    "request_status": "Pending",
    "responsible_agency": "Department of Sanitation",
    "final_address": "8209 Apple St",
    "address_councildis": "A",
    "status": "Assigned to Contractor",
    "contractor": "Richards Disposal",
    "rowid": "886570",
    "final_x": "3665061.22688",
    "final_y": "532421.245315",
    "longitude": "-90.11994813161375",
    "latitude": "29.958462695940344",
    "geocoded_column": {
      "latitude": "29.958462695940344",
      "longitude": "-90.11994813161375"
    }
  },
  {
    "service_request": "2022-886569",
    "request_type": "Abandoned Vehicles",
    "request_reason": "Abandoned/Junk Vehicles",
    "date_created": "2022-05-26T14:58:47.000",
    "date_modified": "2022-05-26T14:58:47.000",
    "request_status": "Pending",
    "responsible_agency": "Department of Public Works",
    "final_address": "2411 Royal St",
    "address_councildis": "C",
    "status": "Pending",
    "rowid": "886569",
    "final_x": "3685984.66697",
    "final_y": "534973.167046",
    "longitude": "-90.05378762566677",
    "latitude": "29.96485377491716",
    "geocoded_column": {
      "latitude": "29.96485377491716",
      "longitude": "-90.05378762566677"
    }
  },
  {
    "service_request": "2022-886568",
    "request_type": "Trash/Recycling",
    "request_reason": "Missed Trash Pick-Up",
    "date_created": "2022-05-26T14:57:24.000",
    "date_modified": "2022-05-26T14:57:25.000",
    "request_status": "Pending",
    "responsible_agency": "Department of Sanitation",
    "final_address": "2107 Annunciation St",
    "address_councildis": "B",
    "status": "Assigned to Contractor",
    "contractor": "Richards Disposal",
    "rowid": "886568",
    "final_x": "3679758.14146",
    "final_y": "521431.067449",
    "longitude": "-90.073920630889",
    "latitude": "29.927807244285876",
    "geocoded_column": {
      "latitude": "29.927807244285876",
      "longitude": "-90.073920630889"
    }
  },
  {
    "service_request": "2022-886567",
    "request_type": "Trash/Recycling",
    "request_reason": "Missed Trash Pick-Up",
    "date_created": "2022-05-26T14:56:56.000",
    "date_modified": "2022-05-26T14:56:56.000",
    "request_status": "Pending",
    "responsible_agency": "Department of Sanitation",
    "final_address": "2107 Annunciation St",
    "address_councildis": "B",
    "status": "Assigned to Contractor",
    "contractor": "Richards Disposal",
    "rowid": "886567",
    "final_x": "3679758.14146",
    "final_y": "521431.067449",
    "longitude": "-90.073920630889",
    "latitude": "29.927807244285876",
    "geocoded_column": {
      "latitude": "29.927807244285876",
      "longitude": "-90.073920630889"
    }
  },
  {
    "service_request": "2022-886566",
    "request_type": "Trash/Recycling",
    "request_reason": "Missed Trash Pick-Up",
    "date_created": "2022-05-26T14:56:23.000",
    "date_modified": "2022-05-26T14:56:24.000",
    "request_status": "Pending",
    "responsible_agency": "Department of Sanitation",
    "final_address": "2107 Annunciation St",
    "address_councildis": "B",
    "status": "Assigned to Contractor",
    "contractor": "Richards Disposal",
    "rowid": "886566",
    "final_x": "3679758.14146",
    "final_y": "521431.067449",
    "longitude": "-90.073920630889",
    "latitude": "29.927807244285876",
    "geocoded_column": {
      "latitude": "29.927807244285876",
      "longitude": "-90.073920630889"
    }
  },
  {
    "service_request": "2022-886565",
    "request_type": "Trash/Recycling",
    "request_reason": "Missed Trash Pick-Up",
    "date_created": "2022-05-26T14:55:46.000",
    "date_modified": "2022-05-26T14:55:47.000",
    "request_status": "Pending",
    "responsible_agency": "Department of Sanitation",
    "final_address": "2107 Annunciation St",
    "address_councildis": "B",
    "status": "Assigned to Contractor",
    "contractor": "Richards Disposal",
    "rowid": "886565",
    "final_x": "3679758.14146",
    "final_y": "521431.067449",
    "longitude": "-90.073920630889",
    "latitude": "29.927807244285876",
    "geocoded_column": {
      "latitude": "29.927807244285876",
      "longitude": "-90.073920630889"
    }
  },
  {
    "service_request": "2022-886564",
    "request_type": "Trash/Recycling",
    "request_reason": "Missed Trash Pick-Up",
    "date_created": "2022-05-26T14:54:58.000",
    "date_modified": "2022-05-26T14:54:58.000",
    "request_status": "Pending",
    "responsible_agency": "Department of Sanitation",
    "final_address": "2107 Annunciation St",
    "address_councildis": "B",
    "status": "Assigned to Contractor",
    "contractor": "Richards Disposal",
    "rowid": "886564",
    "final_x": "3679758.14146",
    "final_y": "521431.067449",
    "longitude": "-90.073920630889",
    "latitude": "29.927807244285876",
    "geocoded_column": {
      "latitude": "29.927807244285876",
      "longitude": "-90.073920630889"
    }
  },
  {
    "service_request": "2022-886563",
    "request_type": "Roads/Drainage",
    "request_reason": "Pothole",
    "date_created": "2022-05-26T14:54:37.000",
    "date_modified": "2022-05-26T14:55:07.000",
    "case_close_date": "2022-05-26T09:55:07.000",
    "request_status": "Closed",
    "responsible_agency": "Department of Public Works",
    "final_address": "4900 BLK Thalia St",
    "address_councildis": "B",
    "status": "Resolved",
    "rowid": "886563",
    "final_x": "3668762.42425",
    "final_y": "532281.981484",
    "longitude": "-90.10826540081445",
    "latitude": "29.957971477608655",
    "geocoded_column": {
      "latitude": "29.957971477608655",
      "longitude": "-90.10826540081445"
    }
  },
  {
    "service_request": "2022-886562",
    "request_type": "Trash/Recycling",
    "request_reason": "Missed Trash Pick-Up",
    "date_created": "2022-05-26T14:54:31.000",
    "date_modified": "2022-05-26T14:54:32.000",
    "request_status": "Pending",
    "responsible_agency": "Department of Sanitation",
    "final_address": "2107 Annunciation St",
    "address_councildis": "B",
    "status": "Assigned to Contractor",
    "contractor": "Richards Disposal",
    "rowid": "886562",
    "final_x": "3679758.14146",
    "final_y": "521431.067449",
    "longitude": "-90.073920630889",
    "latitude": "29.927807244285876",
    "geocoded_column": {
      "latitude": "29.927807244285876",
      "longitude": "-90.073920630889"
    }
  },
  {
    "service_request": "2022-886561",
    "request_type": "Traffic Signals/Signs/Striping/Streetlights",
    "request_reason": "Street Light Outage/Malfunction",
    "date_created": "2022-05-26T14:53:53.000",
    "date_modified": "2022-05-26T14:53:53.000",
    "request_status": "Pending",
    "responsible_agency": "Department of Public Works",
    "final_address": "4001 Camp St",
    "address_councildis": "B",
    "status": "Pending",
    "contractor": "Royal Engineering",
    "rowid": "886561",
    "final_x": "3672445.33531",
    "final_y": "519343.153783",
    "longitude": "-90.09707659300315",
    "latitude": "29.922285133646398",
    "geocoded_column": {
      "latitude": "29.922285133646398",
      "longitude": "-90.09707659300315"
    }
  },
  {
    "service_request": "2022-886560",
    "request_type": "Trash/Recycling",
    "request_reason": "Missed Trash Pick-Up",
    "date_created": "2022-05-26T14:53:31.000",
    "date_modified": "2022-05-26T14:53:32.000",
    "request_status": "Pending",
    "responsible_agency": "Department of Sanitation",
    "final_address": "1526 Dufossat St",
    "address_councildis": "B",
    "status": "Assigned to Contractor",
    "contractor": "Richards Disposal",
    "rowid": "886560",
    "final_x": "3668068.2489",
    "final_y": "520682.173113",
    "longitude": "-90.1108482089379",
    "latitude": "29.926096140224107",
    "geocoded_column": {
      "latitude": "29.926096140224107",
      "longitude": "-90.1108482089379"
    }
  },
  {
    "service_request": "2022-886559",
    "request_type": "Trash/Recycling",
    "request_reason": "Missed Trash Pick-Up",
    "date_created": "2022-05-26T14:51:21.000",
    "date_modified": "2022-05-26T14:51:22.000",
    "request_status": "Pending",
    "responsible_agency": "Department of Sanitation",
    "final_address": "5200 Atlanta St",
    "address_councildis": "B",
    "status": "Assigned to Contractor",
    "contractor": "Richards Disposal",
    "rowid": "886559",
    "final_x": "3667983.80449",
    "final_y": "520661.062009",
    "longitude": "-90.11111548717626",
    "latitude": "29.92604056837358",
    "geocoded_column": {
      "latitude": "29.92604056837358",
      "longitude": "-90.11111548717626"
    }
  },
  {
    "service_request": "2022-886558",
    "request_type": "Trash/Recycling",
    "request_reason": "Missed Trash Pick-Up",
    "date_created": "2022-05-26T14:46:26.000",
    "date_modified": "2022-05-26T14:46:27.000",
    "request_status": "Pending",
    "responsible_agency": "Department of Sanitation",
    "final_address": "1023 Richard St",
    "address_councildis": "B",
    "status": "Assigned to Contractor",
    "contractor": "Richards Disposal",
    "rowid": "886558",
    "final_x": "3680213.45237",
    "final_y": "523110.398075",
    "longitude": "-90.07242498608905",
    "latitude": "29.932411083454486",
    "geocoded_column": {
      "latitude": "29.932411083454486",
      "longitude": "-90.07242498608905"
    }
  },
  {
    "service_request": "2022-886557",
    "request_type": "Property Maintenance",
    "request_reason": "Property Maintenance",
    "date_created": "2022-05-26T14:46:13.000",
    "date_modified": "2022-05-26T14:46:13.000",
    "request_status": "Pending",
    "responsible_agency": "Department of Code Enforcement",
    "final_address": "6627 Foch Rd",
    "address_councildis": "D",
    "status": "Pending",
    "rowid": "886557",
    "final_x": "3696951.49853",
    "final_y": "555761.709209",
    "longitude": "-90.01840190020457",
    "latitude": "30.02167333405786",
    "geocoded_column": {
      "latitude": "30.02167333405786",
      "longitude": "-90.01840190020457"
    }
  },
  {
    "service_request": "2022-886556",
    "request_type": "Roads/Drainage",
    "request_reason": "Catch Basin - Clogged",
    "date_created": "2022-05-26T14:41:55.000",
    "date_modified": "2022-05-26T14:41:56.000",
    "request_status": "Pending",
    "responsible_agency": "Department of Public Works",
    "final_address": "922 Esplanade Ave",
    "address_councildis": "C",
    "status": "Pending",
    "rowid": "886556",
    "final_x": "3683292.8173",
    "final_y": "534913.109254",
    "longitude": "-90.06229040798526",
    "latitude": "29.96477101557513",
    "geocoded_column": {
      "latitude": "29.96477101557513",
      "longitude": "-90.06229040798526"
    }
  },
  {
    "service_request": "2022-886555",
    "request_type": "Health Related Questions",
    "request_reason": "Noise Ordinance Complaint",
    "date_created": "2022-05-26T14:41:35.000",
    "date_modified": "2022-05-26T14:41:35.000",
    "request_status": "Pending",
    "responsible_agency": "Health Department",
    "final_address": "2251 N Tonti St, New Orleans, Louisiana, 70117",
    "address_councildis": "D",
    "status": "Pending",
    "rowid": "886555",
    "final_x": "3685217.75618",
    "final_y": "540815.652747",
    "longitude": "-90.05600380233565",
    "latitude": "29.980942097233374",
    "geocoded_column": {
      "latitude": "29.980942097233374",
      "longitude": "-90.05600380233565"
    }
  },
  {
    "service_request": "2022-886554",
    "request_type": "Trash/Recycling",
    "request_reason": "Repair Trash Cart",
    "date_created": "2022-05-26T14:36:43.000",
    "date_modified": "2022-05-26T14:36:56.000",
    "request_status": "Pending",
    "responsible_agency": "Department of Sanitation",
    "final_address": "2324 St Ann St",
    "address_councildis": "D",
    "status": "Assigned to Contractor",
    "contractor": "Richards Disposal",
    "rowid": "886554",
    "final_x": "3678098.00379",
    "final_y": "536285.084743",
    "longitude": "-90.07864784691483",
    "latitude": "29.96870090560809",
    "geocoded_column": {
      "latitude": "29.96870090560809",
      "longitude": "-90.07864784691483"
    }
  },
  {
    "service_request": "2022-886553",
    "request_type": "Trash/Recycling",
    "request_reason": "Request a Large Item Pick Up",
    "date_created": "2022-05-26T14:36:28.000",
    "date_modified": "2022-05-26T14:36:28.000",
    "request_status": "Pending",
    "responsible_agency": "Department of Sanitation",
    "final_address": "5940 Freret St",
    "address_councildis": "A",
    "status": "Assigned to Contractor",
    "contractor": "Richards Disposal",
    "rowid": "886553",
    "final_x": "3666526.365",
    "final_y": "524292.977916",
    "longitude": "-90.11559437259132",
    "latitude": "29.93606984896579",
    "geocoded_column": {
      "latitude": "29.93606984896579",
      "longitude": "-90.11559437259132"
    }
  },
  {
    "service_request": "2022-886552",
    "request_type": "Roads/Drainage",
    "request_reason": "Catch Basin - Clogged",
    "date_created": "2022-05-26T14:34:27.000",
    "date_modified": "2022-05-26T14:34:27.000",
    "request_status": "Pending",
    "responsible_agency": "Department of Public Works",
    "final_address": "600 Baronne St",
    "address_councildis": "B",
    "status": "Pending",
    "rowid": "886552",
    "final_x": "3679853.90722",
    "final_y": "529065.15296",
    "longitude": "-90.07335332548715",
    "latitude": "29.94879555600546",
    "geocoded_column": {
      "latitude": "29.94879555600546",
      "longitude": "-90.07335332548715"
    }
  },
  {
    "service_request": "2022-886551",
    "request_type": "Roads/Drainage",
    "request_reason": "Street Subsidence (Sinking)",
    "date_created": "2022-05-26T14:33:55.000",
    "date_modified": "2022-05-26T14:33:56.000",
    "request_status": "Pending",
    "responsible_agency": "Department of Public Works",
    "final_address": "3522 Meadow Park Ln",
    "address_councildis": "C",
    "status": "Pending",
    "rowid": "886551",
    "final_x": "3704149.50865",
    "final_y": "511465.331696",
    "longitude": "-89.99729024473372",
    "latitude": "29.899645198969285",
    "geocoded_column": {
      "latitude": "29.899645198969285",
      "longitude": "-89.99729024473372"
    }
  },
  {
    "service_request": "2022-886549",
    "request_type": "Trash/Recycling",
    "request_reason": "Repair Trash Cart",
    "date_created": "2022-05-26T14:30:58.000",
    "date_modified": "2022-05-26T14:30:59.000",
    "request_status": "Pending",
    "responsible_agency": "Department of Sanitation",
    "final_address": "2429 St Ann St",
    "address_councildis": "D",
    "status": "Assigned to Contractor",
    "contractor": "Richards Disposal",
    "rowid": "886549",
    "final_x": "3677881.01173",
    "final_y": "536605.244487",
    "longitude": "-90.07932205532843",
    "latitude": "29.96958776713474",
    "geocoded_column": {
      "latitude": "29.96958776713474",
      "longitude": "-90.07932205532843"
    }
  },
  {
    "service_request": "2022-886548",
    "request_type": "Roads/Drainage",
    "request_reason": "Pothole",
    "date_created": "2022-05-26T14:29:16.000",
    "date_modified": "2022-05-26T14:31:20.000",
    "case_close_date": "2022-05-26T09:31:20.000",
    "request_status": "Closed",
    "responsible_agency": "Department of Public Works",
    "final_address": "400 N Norman C Francis Prkwy",
    "address_councildis": "B",
    "status": "Resolved",
    "rowid": "886548",
    "final_x": "3674130.50824",
    "final_y": "537579.889416",
    "longitude": "-90.09113311680044",
    "latitude": "29.972380038693117",
    "geocoded_column": {
      "latitude": "29.972380038693117",
      "longitude": "-90.09113311680044"
    }
  },
  {
    "service_request": "2022-886547",
    "request_type": "Trash/Recycling",
    "request_reason": "Missed Trash Pick-Up",
    "date_created": "2022-05-26T14:28:43.000",
    "date_modified": "2022-05-26T14:28:44.000",
    "request_status": "Pending",
    "responsible_agency": "Department of Sanitation",
    "final_address": "2513 First St",
    "address_councildis": "B",
    "status": "Assigned to Contractor",
    "contractor": "Richards Disposal",
    "rowid": "886547",
    "final_x": "3675097.21198",
    "final_y": "526088.040318",
    "longitude": "-90.08847438989118",
    "latitude": "29.940752442531135",
    "geocoded_column": {
      "latitude": "29.940752442531135",
      "longitude": "-90.08847438989118"
    }
  },
  {
    "service_request": "2022-886546",
    "request_type": "Trash/Recycling",
    "request_reason": "Order Recycling Cart",
    "date_created": "2022-05-26T14:26:38.000",
    "date_modified": "2022-05-26T14:26:38.000",
    "request_status": "Pending",
    "responsible_agency": "Department of Sanitation",
    "final_address": "2001 Robert St",
    "address_councildis": "B",
    "status": "Pending",
    "rowid": "886546",
    "final_x": "3668828.56058",
    "final_y": "522886.561275",
    "longitude": "-90.10837372701303",
    "latitude": "29.93213517843514",
    "geocoded_column": {
      "latitude": "29.93213517843514",
      "longitude": "-90.10837372701303"
    }
  },
  {
    "service_request": "2022-886545",
    "request_type": "Trash/Recycling",
    "request_reason": "Request a Large Item Pick Up",
    "date_created": "2022-05-26T14:22:34.000",
    "date_modified": "2022-05-26T14:22:35.000",
    "request_status": "Pending",
    "responsible_agency": "Department of Sanitation",
    "final_address": "604 Tupelo St",
    "address_councildis": "E",
    "status": "Assigned to Contractor",
    "contractor": "Metro Disposal",
    "rowid": "886545",
    "final_x": "3698786.3144",
    "final_y": "531636.061507",
    "longitude": "-90.01348247337211",
    "latitude": "29.955278636323474",
    "geocoded_column": {
      "latitude": "29.955278636323474",
      "longitude": "-90.01348247337211"
    }
  },
  {
    "service_request": "2022-886544",
    "request_type": "Traffic Signals/Signs/Striping/Streetlights",
    "request_reason": "Street Light Outage/Malfunction",
    "date_created": "2022-05-26T14:18:50.000",
    "date_modified": "2022-05-26T14:18:51.000",
    "request_status": "Pending",
    "responsible_agency": "Department of Public Works",
    "final_address": "SHAW AVE & QUEISSER ST",
    "address_councildis": "E",
    "status": "Pending",
    "contractor": "Royal Engineering",
    "rowid": "886544",
    "final_x": "3707579.4",
    "final_y": "563552.48",
    "longitude": "-89.98453107454228",
    "latitude": "30.042755254388656",
    "geocoded_column": {
      "latitude": "30.042755254388656",
      "longitude": "-89.98453107454228"
    }
  },