[
  {
    "service_request": "2025-1166706",
    "request_type": "Trash/Recycling",
    "request_reason": "Order Recycling Cart",
    "date_created": "2025-02-04T23:55:14.000",
    "date_modified": "2025-02-04T23:55:17.000",
    "request_status": "Pending",
    "responsible_agency": "Department of Sanitation",
    "final_address": "215 N Rendon St",
    "address_councildis": "B",
    "status": "Pending",
    "rowid": "1166706",
    "final_x": "3673840.02491",
    "final_y": "536954.06804",
    "longitude": "-90.09207192570067",
    "latitude": "29.970667897845903",
    "geocoded_column": {
      "latitude": "29.970667897845903",
      "longitude": "-90.09207192570067"
    }
  },
  {
    "service_request": "2025-1166705",
    "request_type": "Trash/Recycling",
    "request_reason": "Request a Large Item Pick Up",
    "date_created": "2025-02-04T23:40:16.000",
    "date_modified": "2025-02-04T23:40:18.000",
    "request_status": "Pending",
    "responsible_agency": "Department of Sanitation",
    "final_address": "1727 Laharpe St",
    "address_councildis": "D",
    "status": "Assigned to Contractor",
    "contractor": "IV Waste",
    "rowid": "1166705",
    "final_x": "3681498.70504",
    "final_y": "537870.748425",
    "longitude": "-90.06785293863872",
    "latitude": "29.972958105349967",
    "geocoded_column": {
      "latitude": "29.972958105349967",
      "longitude": "-90.06785293863872"
    }
  },
  {
    "service_request": "2025-1166704",
    "request_type": "Trash/Recycling",
    "request_reason": "Request a Large Item Pick Up",
    "date_created": "2025-02-04T23:40:15.000",
    "date_modified": "2025-02-04T23:40:18.000",
    "request_status": "Pending",
    "responsible_agency": "Department of Sanitation",
    "final_address": "1727 Laharpe St",
    "address_councildis": "D",
    "status": "Assigned to Contractor",
    "contractor": "IV Waste",
    "rowid": "1166704",
    "final_x": "3681498.70504",
    "final_y": "537870.748425",
    "longitude": "-90.06785293863872",
    "latitude": "29.972958105349967",
    "geocoded_column": {
      "latitude": "29.972958105349967",
      "longitude": "-90.06785293863872"
    }
  },
  {
    "service_request": "2025-1166703",
    "request_type": "Trash/Recycling",
    "request_reason": "Request a Large Item Pick Up",
    "date_created": "2025-02-04T23:17:30.000",
    "date_modified": "2025-02-04T23:17:33.000",
    "request_status": "Pending",
    "responsible_agency": "Department of Sanitation",
    "final_address": "2501 Amelia St",
    "address_councildis": "B",
    "status": "Assigned to Contractor",
    "contractor": "IV Waste",
    "rowid": "1166703",
    "final_x": "3672390.71553",
    "final_y": "524322.746748",
    "longitude": "-90.09707941732725",
    "latitude": "29.93597903240438",
    "geocoded_column": {
      "latitude": "29.93597903240438",
      "longitude": "-90.09707941732725"
    }
  },
  {
    "service_request": "2025-1166702",
    "request_type": "Trash/Recycling",
    "request_reason": "Order Recycling Cart",
    "date_created": "2025-02-04T23:11:12.000",
    "date_modified": "2025-02-04T23:11:14.000",
    "request_status": "Pending",
    "responsible_agency": "Department of Sanitation",
    "final_address": "1454 N White St",
    "address_councildis": "A",
    "status": "Pending",
    "rowid": "1166702",
    "final_x": "3677726.73371",
    "final_y": "540001.713419",
    "longitude": "-90.07969192398376",
    "latitude": "29.97893153243927",
    "geocoded_column": {
      "latitude": "29.97893153243927",
      "longitude": "-90.07969192398376"
    }
  },
  {
    "service_request": "2025-1166701",
    "request_type": "General Services",
    "request_reason": "General Service Request",
    "date_created": "2025-02-04T22:23:05.000",
    "date_modified": "2025-02-04T22:23:07.000",
    "request_status": "Pending",
    "responsible_agency": "Orleans Parish Communication District",
    "final_address": "6969 Whitmore Pl",
    "address_councildis": "E",
    "status": "Pending",
    "rowid": "1166701",
    "final_x": "3719275.73081",
    "final_y": "568970.86743",
    "longitude": "-89.9473592940678",
    "latitude": "30.057269829452306",
    "geocoded_column": {
      "latitude": "30.057269829452306",
      "longitude": "-89.9473592940678"
    }
  },
  {
    "service_request": "2025-1166700",
    "request_type": "Street and Traffic Signs",
    "request_reason": "Stop Sign Missing or Damaged",
    "date_created": "2025-02-04T22:21:52.000",
    "date_modified": "2025-02-04T22:21:55.000",
    "request_status": "Pending",
    "responsible_agency": "Department of Public Works",
    "final_address": "5401 N Claiborne Ave",
    "address_councildis": "E",
    "status": "Pending",
    "rowid": "1166700",
    "final_x": "3697741.8657",
    "final_y": "535854.702151",
    "longitude": "-90.01662736731949",
    "latitude": "29.966911438713822",
    "geocoded_column": {
      "latitude": "29.966911438713822",
      "longitude": "-90.01662736731949"
    }
  },
  {
    "service_request": "2025-1166699",
    "request_type": "Roads and Streets",
    "request_reason": "ADA Ramps Damaged or Missing",
    "date_created": "2025-02-04T22:19:24.000",
    "date_modified": "2025-02-04T22:19:26.000",
    "request_status": "Pending",
    "responsible_agency": "Department of Public Works",
    "final_address": "5401 N Robertson St",
    "address_councildis": "E",
    "status": "Pending",
    "rowid": "1166699",
    "final_x": "3697638.12189",
    "final_y": "535469.165446",
    "longitude": "-90.01696897566863",
    "latitude": "29.965854628004326",
    "geocoded_column": {
      "latitude": "29.965854628004326",
      "longitude": "-90.01696897566863"
    }
  },
  {
    "service_request": "2025-1166698",
    "request_type": "Drainage",
    "request_reason": "Catch Basin Clogged",
    "date_created": "2025-02-04T22:16:58.000",
    "date_modified": "2025-02-04T22:17:00.000",
    "request_status": "Pending",
    "responsible_agency": "Sewerage & Water Board ",
    "final_address": "5401 N Robertson St",
    "address_councildis": "E",
    "status": "Pending",
    "rowid": "1166698",
    "final_x": "3697638.12189",
    "final_y": "535469.165446",
    "longitude": "-90.01696897566863",
    "latitude": "29.965854628004326",
    "geocoded_column": {
      "latitude": "29.965854628004326",
      "longitude": "-90.01696897566863"
    }
  },
  {
    "service_request": "2025-1166697",
    "request_type": "Property Maintenance",
    "request_reason": "Property Maintenance",
    "date_created": "2025-02-04T22:02:56.000",
    "date_modified": "2025-02-04T22:02:58.000",
    "request_status": "Pending",
    "responsible_agency": "Department of Code Enforcement",
    "final_address": "1808 Allen St",
    "address_councildis": "D",
    "status": "Pending",
    "rowid": "1166697",
    "final_x": "3682423.56706",
    "final_y": "538787.522761",
    "longitude": "-90.06489999797404",
    "latitude": "29.97545079830909",
    "geocoded_column": {
      "latitude": "29.97545079830909",
      "longitude": "-90.06489999797404"
    }
  },
  {
    "service_request": "2025-1166696",
    "request_type": "Trash/Recycling",
    "request_reason": "Request a Large Item Pick Up",
    "date_created": "2025-02-04T21:44:51.000",
    "date_modified": "2025-02-04T21:44:53.000",
    "request_status": "Pending",
    "responsible_agency": "Department of Sanitation",
    "final_address": "3447 Constance St",
    "address_councildis": "B",
    "status": "Assigned to Contractor",
    "contractor": "IV Waste",
    "rowid": "1166696",
    "final_x": "3674735.0251",
    "final_y": "519150.982263",
    "longitude": "-90.08985555563908",
    "latitude": "29.921688598053645",
    "geocoded_column": {
      "latitude": "29.921688598053645",
      "longitude": "-90.08985555563908"
    }
  },
  {
    "service_request": "2025-1166695",
    "request_type": "Trash/Recycling",
    "request_reason": "Order Trash Cart",
    "date_created": "2025-02-04T21:37:39.000",
    "date_modified": "2025-02-04T21:37:40.000",
    "request_status": "Pending",
    "responsible_agency": "Department of Sanitation",
    "final_address": "2729 Orleans Ave",
    "address_councildis": "A",
    "status": "Assigned to Contractor",
    "contractor": "IV Waste",
    "rowid": "1166695",
    "final_x": "3676596.35182",
    "final_y": "537238.057352",
    "longitude": "-90.08335732377971",
    "latitude": "29.97136638270878",
    "geocoded_column": {
      "latitude": "29.97136638270878",
      "longitude": "-90.08335732377971"
    }
  },
  {
    "service_request": "2025-1166694",
    "request_type": "General Services",
    "request_reason": "General Service Request",
    "date_created": "2025-02-04T21:32:57.000",
    "date_modified": "2025-02-04T21:32:59.000",
    "request_status": "Pending",
    "responsible_agency": "Orleans Parish Communication District",
    "final_address": "3661 White Oak Ave",
    "address_councildis": "C",
    "status": "Pending",
    "rowid": "1166694",
    "final_x": "3703841.54628",
    "final_y": "514109.561522",
    "longitude": "-89.99816489105514",
    "latitude": "29.906925803496318",
    "geocoded_column": {
      "latitude": "29.906925803496318",
      "longitude": "-89.99816489105514"
    }
  },
  {
    "service_request": "2025-1166693",
    "request_type": "Street and Traffic Signs",
    "request_reason": "Additional Signage Request",
    "date_created": "2025-02-04T21:29:56.000",
    "date_modified": "2025-02-04T21:30:01.000",
    "request_status": "Pending",
    "responsible_agency": "Department of Public Works",
    "final_address": "0 BLK Acadiana Pl",
    "address_councildis": "E",
    "status": "Pending",
    "rowid": "1166693",
    "final_x": "3725131.4083",
    "final_y": "564393.680055",
    "longitude": "-89.92902788187175",
    "latitude": "30.04448842646984",
    "geocoded_column": {
      "latitude": "30.04448842646984",
      "longitude": "-89.92902788187175"
    }
  },
  {
    "service_request": "2025-1166692",
    "request_type": "Trash/Recycling",
    "request_reason": "Illegal Dumping",
    "date_created": "2025-02-04T21:24:01.000",
    "date_modified": "2025-02-04T21:24:03.000",
    "request_status": "Pending",
    "responsible_agency": "Department of Sanitation",
    "final_address": "2300 Behrman Hwy",
    "address_councildis": "C",
    "status": "Pending",
    "rowid": "1166692",
    "final_x": "3691780.26377",
    "final_y": "521720.529786",
    "longitude": "-90.03595942721589",
    "latitude": "29.9282343598742",
    "geocoded_column": {
      "latitude": "29.9282343598742",
      "longitude": "-90.03595942721589"
    }
  },
  {
    "service_request": "2025-1166691",
    "request_type": "Property Maintenance",
    "request_reason": "Property Maintenance",
    "date_created": "2025-02-04T21:16:50.000",
    "date_modified": "2025-02-04T21:16:52.000",
    "request_status": "Pending",
    "responsible_agency": "Department of Code Enforcement",
    "final_address": "2300 Behrman Hwy",
    "address_councildis": "C",
    "status": "Pending",
    "rowid": "1166691",
    "final_x": "3691780.26377",
    "final_y": "521720.529786",
    "longitude": "-90.03595942721589",
    "latitude": "29.9282343598742",
    "geocoded_column": {
      "latitude": "29.9282343598742",
      "longitude": "-90.03595942721589"
    }
  },
  {
    "service_request": "2025-1166690",
    "request_type": "Trash/Recycling",
    "request_reason": "Start Trash Service",
    "date_created": "2025-02-04T21:08:59.000",
    "date_modified": "2025-02-04T21:09:02.000",
    "request_status": "Pending",
    "responsible_agency": "Department of Sanitation",
    "final_address": "1726 Soniat St",
    "address_councildis": "B",
    "status": "Assigned to Contractor",
    "contractor": "IV Waste",
    "rowid": "1166690",
    "final_x": "3668412.47828",
    "final_y": "522053.142266",
    "longitude": "-90.10971535797277",
    "latitude": "29.92985576650478",
    "geocoded_column": {
      "latitude": "29.92985576650478",
      "longitude": "-90.10971535797277"
    }
  },
  {
    "service_request": "2025-1166689",
    "request_type": "Trash/Recycling",
    "request_reason": "Illegal Dumping",
    "date_created": "2025-02-04T20:30:15.000",
    "date_modified": "2025-02-04T20:30:18.000",
    "request_status": "Pending",
    "responsible_agency": "Department of Sanitation",
    "final_address": "1107 Louisa St",
    "address_councildis": "C",
    "status": "Pending",
    "rowid": "1166689",
    "final_x": "3689624.65839",
    "final_y": "535988.174855",
    "longitude": "-90.0422566863142",
    "latitude": "29.96753242282984",
    "geocoded_column": {
      "latitude": "29.96753242282984",
      "longitude": "-90.0422566863142"
    }
  },
  {
    "service_request": "2025-1166688",
    "request_type": "Streetlights",
    "request_reason": "Streetlight Outage/Malfunction",
    "date_created": "2025-02-04T20:21:49.000",
    "date_modified": "2025-02-04T20:21:50.000",
    "request_status": "Pending",
    "responsible_agency": "Department of Public Works",
    "final_address": "2617 Laurel St",
    "address_councildis": "B",
    "status": "Pending",
    "contractor": "Legacy Professional Services",
    "rowid": "1166688",
    "final_x": "3677836.89307",
    "final_y": "520493.393464",
    "longitude": "-90.08001793779636",
    "latitude": "29.925286870251444",
    "geocoded_column": {
      "latitude": "29.925286870251444",
      "longitude": "-90.08001793779636"
    }
  },
  {
    "service_request": "2025-1166687",
    "request_type": "Trash/Recycling",
    "request_reason": "Replace Recycling Cart",
    "date_created": "2025-02-04T20:10:39.000",
    "date_modified": "2025-02-04T20:10:41.000",
    "request_status": "Pending",
    "responsible_agency": "Department of Sanitation",
    "final_address": "2422 Nashville Ave",
    "address_councildis": "A",
    "status": "Pending",
    "rowid": "1166687",
    "final_x": "3667035.22938",
    "final_y": "525038.460989",
    "longitude": "-90.1139628236199",
    "latitude": "29.938104808763356",
    "geocoded_column": {
      "latitude": "29.938104808763356",
      "longitude": "-90.1139628236199"
    }
  },
  {
    "service_request": "2025-1166686",
    "request_type": "Trash/Recycling",
    "request_reason": "Request a Large Item Pick Up",
    "date_created": "2025-02-04T20:09:56.000",
    "date_modified": "2025-02-04T20:09:58.000",
    "request_status": "Pending",
    "responsible_agency": "Department of Sanitation",
    "final_address": "1119 Louisa St",
    "address_councildis": "C",
    "status": "Assigned to Contractor",
    "contractor": "IV Waste",
    "rowid": "1166686",
    "final_x": "3689646.78857",
    "final_y": "536081.930183",
    "longitude": "-90.04218346268537",
    "latitude": "29.9677895314519",
    "geocoded_column": {
      "latitude": "29.9677895314519",
      "longitude": "-90.04218346268537"
    }
  },
  {
    "service_request": "2025-1166685",
    "request_type": "Abandoned Vehicles",
    "request_reason": "Abandoned/Junk Vehicles",
    "date_created": "2025-02-04T20:06:25.000",
    "date_modified": "2025-02-04T20:06:28.000",
    "request_status": "Pending",
    "responsible_agency": "Department of Public Works",
    "final_address": "2506 Monroe St",
    "address_councildis": "A",
    "status": "Pending",
    "rowid": "1166685",
    "final_x": "3663572.61479",
    "final_y": "533362.348676",
    "longitude": "-90.12461744581769",
    "latitude": "29.9610936840548",
    "geocoded_column": {
      "latitude": "29.9610936840548",
      "longitude": "-90.12461744581769"
    }
  },
  {
    "service_request": "2025-1166684",
    "request_type": "Street and Traffic Signs",
    "request_reason": "Street Name Sign Damaged or Missing",
    "date_created": "2025-02-04T20:06:10.000",
    "date_modified": "2025-02-04T20:06:19.000",
    "request_status": "Pending",
    "responsible_agency": "Department of Public Works",
    "final_address": "ROYAL ST & MARIGNY ST",
    "address_councildis": "C",
    "status": "Pending",
    "rowid": "1166684",
    "final_x": "3685537.5",
    "final_y": "534904.48",
    "longitude": "-90.05520216714501",
    "latitude": "29.9646786320322",
    "geocoded_column": {
      "latitude": "29.9646786320322",
      "longitude": "-90.05520216714501"
    }
  },
  {
    "service_request": "2025-1166683",
    "request_type": "Streetlights",
    "request_reason": "Streetlight Outage/Malfunction",
    "date_created": "2025-02-04T20:03:18.000",
    "date_modified": "2025-02-04T20:03:19.000",
    "request_status": "Pending",
    "responsible_agency": "Department of Public Works",
    "final_address": "6318 Carlson Dr",
    "address_councildis": "D",
    "status": "Pending",
    "contractor": "Legacy Professional Services",
    "rowid": "1166683",
    "final_x": "3679353.33781",
    "final_y": "556895.299866",
    "longitude": "-90.07396806094755",
    "latitude": "30.025333844572998",
    "geocoded_column": {
      "latitude": "30.025333844572998",
      "longitude": "-90.07396806094755"
    }
  },
  {
    "service_request": "2025-1166682",
    "request_type": "Trash/Recycling",
    "request_reason": "Order Recycling Cart",
    "date_created": "2025-02-04T19:59:31.000",
    "date_modified": "2025-02-04T19:59:33.000",
    "request_status": "Pending",
    "responsible_agency": "Department of Sanitation",
    "final_address": "1510 N Prieur St",
    "address_councildis": "D",
    "status": "Pending",
    "rowid": "1166682",
    "final_x": "3681001.47592",
    "final_y": "537878.939849",
    "longitude": "-90.0694229977171",
    "latitude": "29.972995719190134",
    "geocoded_column": {
      "latitude": "29.972995719190134",
      "longitude": "-90.0694229977171"
    }
  },
  {
    "service_request": "2025-1166680",
    "request_type": "Trash/Recycling",
    "request_reason": "Request a Large Item Pick Up",
    "date_created": "2025-02-04T19:46:46.000",
    "date_modified": "2025-02-04T19:46:48.000",
    "request_status": "Pending",
    "responsible_agency": "Department of Sanitation",
    "final_address": "5900 Painters St",
    "address_councildis": "D",
    "status": "Assigned to Contractor",
    "contractor": "IV Waste",
    "rowid": "1166680",
    "final_x": "3686014.71062",
    "final_y": "554837.458712",
    "longitude": "-90.05299181489838",
    "latitude": "30.019472550883613",
    "geocoded_column": {
      "latitude": "30.019472550883613",
      "longitude": "-90.05299181489838"
    }
  },
  {
    "service_request": "2025-1166679",
    "request_type": "Trash/Recycling",
    "request_reason": "Request a Large Item Pick Up",
    "date_created": "2025-02-04T19:46:46.000",
    "date_modified": "2025-02-04T19:46:48.000",
    "request_status": "Pending",
    "responsible_agency": "Department of Sanitation",
    "final_address": "5900 Painters St",
    "address_councildis": "D",
    "status": "Assigned to Contractor",
    "contractor": "IV Waste",
    "rowid": "1166679",
    "final_x": "3686014.71062",
    "final_y": "554837.458712",
    "longitude": "-90.05299181489838",
    "latitude": "30.019472550883613",
    "geocoded_column": {
      "latitude": "30.019472550883613",
      "longitude": "-90.05299181489838"
    }
  },
  {
    "service_request": "2025-1166681",
    "request_type": "Trash/Recycling",
    "request_reason": "Request a Large Item Pick Up",
    "date_created": "2025-02-04T19:46:46.000",
    "date_modified": "2025-02-04T19:46:48.000",
    "request_status": "Pending",
    "responsible_agency": "Department of Sanitation",
    "final_address": "5900 Painters St",
    "address_councildis": "D",
    "status": "Assigned to Contractor",
    "contractor": "IV Waste",
    "rowid": "1166681",
    "final_x": "3686014.71062",
    "final_y": "554837.458712",
    "longitude": "-90.05299181489838",
    "latitude": "30.019472550883613",
    "geocoded_column": {
      "latitude": "30.019472550883613",
      "longitude": "-90.05299181489838"
    }
  },
  {
    "service_request": "2025-1166678",
    "request_type": "Mosquito, Termite & Rodent Control",
    "request_reason": "Non-Rodent Complaint (Mice, Possums, Snakes)",
    "date_created": "2025-02-04T19:35:32.000",
    "date_modified": "2025-02-04T19:35:35.000",
    "request_status": "Pending",
    "responsible_agency": "Mosquito, Termite & Rodent Control Board",
    "final_address": "722 Whitney Ave",
    "address_councildis": "C",
    "status": "Pending",
    "rowid": "1166678",
    "final_x": "3690285.44931",
    "final_y": "528790.748544",
    "longitude": "-90.04042637086549",
    "latitude": "29.94772151143303",
    "geocoded_column": {
      "latitude": "29.94772151143303",
      "longitude": "-90.04042637086549"
    }
  },
  {
    "service_request": "2025-1166677",
    "request_type": "Roads and Streets",
    "request_reason": "Pothole",
    "date_created": "2025-02-04T19:29:25.000",
    "date_modified": "2025-02-04T19:29:55.000",
    "case_close_date": "2025-02-04T13:29:54.000",
    "request_status": "Closed",
    "responsible_agency": "Department of Public Works",
    "final_address": "1020 Kerlerec St",
    "address_councildis": "C",
    "status": "Resolved",
    "rowid": "1166677",
    "final_x": "3683241.754",
    "final_y": "535441.651526",
    "longitude": "-90.06243314958633",
    "latitude": "29.966225882168917",
    "geocoded_column": {
      "latitude": "29.966225882168917",
      "longitude": "-90.06243314958633"
    }
  },
  {
    "service_request": "2025-1166676",
    "request_type": "Abandoned Vehicles",
    "request_reason": "Abandoned/Junk Vehicles",
    "date_created": "2025-02-04T19:15:11.000",
    "date_modified": "2025-02-04T19:15:14.000",
    "request_status": "Pending",
    "responsible_agency": "Department of Public Works",
    "final_address": "209 N Gayoso St",
    "address_councildis": "B",
    "status": "Pending",
    "rowid": "1166676",
    "final_x": "3674635.72827",
    "final_y": "536350.122375",
    "longitude": "-90.08957969868536",
    "latitude": "29.96898352686012",
    "geocoded_column": {
      "latitude": "29.96898352686012",
      "longitude": "-90.08957969868536"
    }
  },
  {
    "service_request": "2025-1166675",
    "request_type": "Utility Poles",
    "request_reason": "Wires Sagging/Hanging Low",
    "date_created": "2025-02-04T18:49:26.000",
    "date_modified": "2025-02-04T18:49:31.000",
    "request_status": "Pending",
    "responsible_agency": "Utility Company Collective",
    "final_address": "4976 St Roch Ave",
    "address_councildis": "D",
    "status": "Pending",
    "rowid": "1166675",
    "final_x": "3685157.58799",
    "final_y": "551397.131989",
    "longitude": "-90.0558212249067",
    "latitude": "30.010039219104588",
    "geocoded_column": {
      "latitude": "30.010039219104588",
      "longitude": "-90.0558212249067"
    }
  },
  {
    "service_request": "2025-1166674",
    "request_type": "Trash/Recycling",
    "request_reason": "Illegal Dumping",
    "date_created": "2025-02-04T18:05:13.000",
    "date_modified": "2025-02-04T18:05:15.000",
    "request_status": "Pending",
    "responsible_agency": "Department of Sanitation",
    "final_address": "2100 BLK Egania St",
    "address_councildis": "E",
    "status": "Pending",
    "rowid": "1166674",
    "final_x": "3697903.21177",
    "final_y": "537984.118701",
    "longitude": "-90.01604053016788",
    "latitude": "29.972761471458615",
    "geocoded_column": {
      "latitude": "29.972761471458615",
      "longitude": "-90.01604053016788"
    }
  },
  {
    "service_request": "2025-1166673",
    "request_type": "Parks & Parkways",
    "request_reason": "Park Maintenance/Clean Up",
    "date_created": "2025-02-04T17:48:24.000",
    "date_modified": "2025-02-04T17:48:26.000",
    "request_status": "Pending",
    "responsible_agency": "Department of Parks & Parkway",
    "final_address": "2500 Fats Domino Ave",
    "address_councildis": "E",
    "status": "Pending",
    "rowid": "1166673",
    "final_x": "3699406.48336",
    "final_y": "539214.37601",
    "longitude": "-90.01124811827164",
    "latitude": "29.976096628677436",
    "geocoded_column": {
      "latitude": "29.976096628677436",
      "longitude": "-90.01124811827164"
    }
  },
  {
    "service_request": "2025-1166672",
    "request_type": "Trash/Recycling",
    "request_reason": "Request a Large Item Pick Up",
    "date_created": "2025-02-04T17:44:35.000",
    "date_modified": "2025-02-04T17:44:36.000",
    "request_status": "Pending",
    "responsible_agency": "Department of Sanitation",
    "final_address": "5403 Shirley Taylor St",
    "address_councildis": "E",
    "status": "Assigned to Contractor",
    "contractor": "Waste Pro",
    "rowid": "1166672",
    "final_x": "3698559.97712",
    "final_y": "538873.268105",
    "longitude": "-90.0139340209676",
    "latitude": "29.975185534204194",
    "geocoded_column": {
      "latitude": "29.975185534204194",
      "longitude": "-90.0139340209676"
    }
  },
  {
    "service_request": "2025-1166671",
    "request_type": "Traffic Signals",
    "request_reason": "Traffic Signal Malfunctioning or Damaged",
    "date_created": "2025-02-04T17:43:11.000",
    "date_modified": "2025-02-04T17:43:13.000",
    "request_status": "Pending",
    "responsible_agency": "Department of Public Works",
    "final_address": "586 Walnut St",
    "address_councildis": "A",
    "status": "Pending",
    "rowid": "1166671",
    "final_x": "3663183.05024",
    "final_y": "524127.912572",
    "longitude": "-90.12615484235931",
    "latitude": "29.935713246786555",
    "geocoded_column": {
      "latitude": "29.935713246786555",
      "longitude": "-90.12615484235931"
    }
  },
  {
    "service_request": "2025-1166670",
    "request_type": "Trash/Recycling",
    "request_reason": "Request a Large Item Pick Up",
    "date_created": "2025-02-04T17:36:07.000",
    "date_modified": "2025-02-04T17:36:10.000",
    "request_status": "Pending",
    "responsible_agency": "Department of Sanitation",
    "final_address": "2737 Lavender St",
    "address_councildis": "D",
    "status": "Assigned to Contractor",
    "contractor": "IV Waste",
    "rowid": "1166670",
    "final_x": "3688122.25833",
    "final_y": "547055.447441",
    "longitude": "-90.04660880465295",
    "latitude": "29.998009949728633",
    "geocoded_column": {
      "latitude": "29.998009949728633",
      "longitude": "-90.04660880465295"
    }
  },
  {
    "service_request": "2025-1166669",
    "request_type": "Abandoned Vehicles",
    "request_reason": "Abandoned/Junk Vehicles",
    "date_created": "2025-02-04T17:31:43.000",
    "date_modified": "2025-02-04T17:31:46.000",
    "request_status": "Pending",
    "responsible_agency": "Department of Public Works",
    "final_address": "2203 Soniat St",
    "address_councildis": "B",
    "status": "Pending",
    "rowid": "1166669",
    "final_x": "3668538.3938",
    "final_y": "523612.740923",
    "longitude": "-90.10926526780908",
    "latitude": "29.934140466416302",
    "geocoded_column": {
      "latitude": "29.934140466416302",
      "longitude": "-90.10926526780908"
    }
  },
  {
    "service_request": "2025-1166668",
    "request_type": "General Services",
    "request_reason": "General Service Request",
    "date_created": "2025-02-04T17:28:32.000",
    "date_modified": "2025-02-04T17:28:34.000",
    "request_status": "Pending",
    "responsible_agency": "Orleans Parish Communication District",
    "final_address": "1045 Independence St",
    "address_councildis": "C",
    "status": "Pending",
    "rowid": "1166668",
    "final_x": "3690971.34473",
    "final_y": "535424.554246",
    "longitude": "-90.03802395924733",
    "latitude": "29.965940872811437",
    "geocoded_column": {
      "latitude": "29.965940872811437",
      "longitude": "-90.03802395924733"
    }
  },
  {
    "service_request": "2025-1166667",
    "request_type": "Trash/Recycling",
    "request_reason": "Request a Large Item Pick Up",
    "date_created": "2025-02-04T17:19:02.000",
    "date_modified": "2025-02-04T17:19:04.000",
    "request_status": "Pending",
    "responsible_agency": "Department of Sanitation",
    "final_address": "11 New Basin Way",
    "address_councildis": "A",
    "status": "Assigned to Contractor",
    "contractor": "IV Waste",
    "rowid": "1166667",
    "final_x": "3666688.3746",
    "final_y": "554712.42652",
    "longitude": "-90.11406100681539",
    "latitude": "30.019708378005763",
    "geocoded_column": {
      "latitude": "30.019708378005763",
      "longitude": "-90.11406100681539"
    }
  },
  {
    "service_request": "2025-1166666",
    "request_type": "Abandoned Vehicles",
    "request_reason": "Abandoned/Junk Vehicles",
    "date_created": "2025-02-04T17:08:39.000",
    "date_modified": "2025-02-04T17:08:41.000",
    "request_status": "Pending",
    "responsible_agency": "Department of Public Works",
    "final_address": "2201 Soniat St",
    "address_councildis": "B",
    "status": "Pending",
    "rowid": "1166666",
    "final_x": "3668538.3938",
    "final_y": "523601.074299",
    "longitude": "-90.10926566126547",
    "latitude": "29.9341083869385",
    "geocoded_column": {
      "latitude": "29.9341083869385",
      "longitude": "-90.10926566126547"
    }
  },
  {
    "service_request": "2025-1166665",
    "request_type": "Trash/Recycling",
    "request_reason": "Request a Large Item Pick Up",
    "date_created": "2025-02-04T17:00:04.000",
    "date_modified": "2025-02-04T17:00:06.000",
    "request_status": "Pending",
    "responsible_agency": "Department of Sanitation",
    "final_address": "1726 Touro St",
    "address_councildis": "D",
    "status": "Assigned to Contractor",
    "contractor": "IV Waste",
    "rowid": "1166665",
    "final_x": "3684007.18729",
    "final_y": "538664.457353",
    "longitude": "-90.05990282228291",
    "latitude": "29.975064113509408",
    "geocoded_column": {
      "latitude": "29.975064113509408",
      "longitude": "-90.05990282228291"
    }
  },
  {
    "service_request": "2025-1166664",
    "request_type": "Trash/Recycling",
    "request_reason": "Request a Large Item Pick Up",
    "date_created": "2025-02-04T16:51:01.000",
    "date_modified": "2025-02-04T16:51:03.000",
    "request_status": "Pending",
    "responsible_agency": "Department of Sanitation",
    "final_address": "1119 Louisa St",
    "address_councildis": "C",
    "status": "Assigned to Contractor",
    "contractor": "IV Waste",
    "rowid": "1166664",
    "final_x": "3689646.78857",
    "final_y": "536081.930183",
    "longitude": "-90.04218346268537",
    "latitude": "29.9677895314519",
    "geocoded_column": {
      "latitude": "29.9677895314519",
      "longitude": "-90.04218346268537"
    }
  },
  {
    "service_request": "2025-1166663",
    "request_type": "Trash/Recycling",
    "request_reason": "Missed Trash Pick-Up",
    "date_created": "2025-02-04T16:48:30.000",
    "date_modified": "2025-02-04T16:48:32.000",
    "request_status": "Pending",
    "responsible_agency": "Department of Sanitation",
    "final_address": "7154 Northgate Dr",
    "address_councildis": "E",
    "status": "Assigned to Contractor",
    "contractor": "Waste Pro",
    "rowid": "1166663",
    "final_x": "3713567.20229",
    "final_y": "565114.192162",
    "longitude": "-89.96554849358034",
    "latitude": "30.046854166969826",
    "geocoded_column": {
      "latitude": "30.046854166969826",
      "longitude": "-89.96554849358034"
    }
  },
  {
    "service_request": "2025-1166662",
    "request_type": "Trash/Recycling",
    "request_reason": "Missed Trash Pick-Up",
    "date_created": "2025-02-04T16:45:32.000",
    "date_modified": "2025-02-04T16:45:35.000",
    "request_status": "Pending",
    "responsible_agency": "Department of Sanitation",
    "final_address": "3011 Baudin St",
    "address_councildis": "B",
    "status": "Assigned to Contractor",
    "contractor": "IV Waste",
    "rowid": "1166662",
    "final_x": "3673306.37512",
    "final_y": "534685.864966",
    "longitude": "-90.09383474648541",
    "latitude": "29.964446988444646",
    "geocoded_column": {
      "latitude": "29.964446988444646",
      "longitude": "-90.09383474648541"
    }
  },
  {
    "service_request": "2025-1166661",
    "request_type": "Abandoned Vehicles",
    "request_reason": "Abandoned/Junk Vehicles",
    "date_created": "2025-02-04T16:43:01.000",
    "date_modified": "2025-02-04T16:43:03.000",
    "request_status": "Pending",
    "responsible_agency": "Department of Public Works",
    "final_address": "4630 St Charles Ave",
    "address_councildis": "B",
    "status": "Pending",
    "rowid": "1166661",
    "final_x": "3669824.55719",
    "final_y": "520628.244792",
    "longitude": "-90.10530586201752",
    "latitude": "29.925896214610017",
    "geocoded_column": {
      "latitude": "29.925896214610017",
      "longitude": "-90.10530586201752"
    }
  },
  {
    "service_request": "2025-1166660",
    "request_type": "Abandoned Vehicles",
    "request_reason": "Vehicle Blocking Your Driveway",
    "date_created": "2025-02-04T16:42:05.000",
    "date_modified": "2025-02-04T16:42:05.000",
    "request_status": "Pending",
    "responsible_agency": "Department of Public Works",
    "final_address": "301 S White St",
    "address_councildis": "B",
    "status": "Pending",
    "rowid": "1166660",
    "final_x": "3674313.05544",
    "final_y": "534803.115974",
    "longitude": "-90.0906517070814",
    "latitude": "29.964739408035033",
    "geocoded_column": {
      "latitude": "29.964739408035033",
      "longitude": "-90.0906517070814"
    }
  },
  {
    "service_request": "2025-1166659",
    "request_type": "Property Maintenance",
    "request_reason": "Property Maintenance",
    "date_created": "2025-02-04T16:41:25.000",
    "date_modified": "2025-02-04T16:41:27.000",
    "request_status": "Pending",
    "responsible_agency": "Department of Code Enforcement",
    "final_address": "1726 N Rocheblave St",
    "address_councildis": "D",
    "status": "Pending",
    "rowid": "1166659",
    "final_x": "3680553.28751",
    "final_y": "540251.871179",
    "longitude": "-90.07075588620559",
    "latitude": "29.97953404416108",
    "geocoded_column": {
      "latitude": "29.97953404416108",
      "longitude": "-90.07075588620559"
    }
  },
  {
    "service_request": "2025-1166658",
    "request_type": "Abandoned Vehicles",
    "request_reason": "Abandoned/Junk Vehicles",
    "date_created": "2025-02-04T16:24:09.000",
    "date_modified": "2025-02-04T16:24:11.000",
    "request_status": "Pending",
    "responsible_agency": "Department of Public Works",
    "final_address": "1932 Ap Tureaud Ave",
    "address_councildis": "D",
    "status": "Pending",
    "rowid": "1166658",
    "final_x": "3681657.0278",
    "final_y": "539365.763914",
    "longitude": "-90.0673007571682",
    "latitude": "29.97706407057423",
    "geocoded_column": {
      "latitude": "29.97706407057423",
      "longitude": "-90.0673007571682"
    }
  },
  {
    "service_request": "2025-1166657",
    "request_type": "Trash/Recycling",
    "request_reason": "Request a Large Item Pick Up",
    "date_created": "2025-02-04T16:23:44.000",
    "date_modified": "2025-02-04T16:23:46.000",
    "request_status": "Pending",
    "responsible_agency": "Department of Sanitation",
    "final_address": "5900 BLK Canal Blvd",
    "address_councildis": "A",
    "status": "Assigned to Contractor",
    "contractor": "IV Waste",
    "rowid": "1166657",
    "final_x": "3668384.0569",
    "final_y": "546954.857321",
    "longitude": "-90.10896510028445",
    "latitude": "29.998328055673074",
    "geocoded_column": {
      "latitude": "29.998328055673074",
      "longitude": "-90.10896510028445"
    }
  },
  {
    "service_request": "2025-1166656",
    "request_type": "Streetlights",
    "request_reason": "Streetlight Outage/Malfunction",
    "date_created": "2025-02-04T16:22:46.000",
    "date_modified": "2025-02-04T16:22:47.000",
    "request_status": "Pending",
    "responsible_agency": "Department of Public Works",
    "final_address": "8830 Apricot St",
    "address_councildis": "A",
    "status": "Pending",
    "contractor": "Legacy Professional Services",
    "rowid": "1166656",
    "final_x": "3663834.86951",
    "final_y": "534386.957125",
    "longitude": "-90.12375513453597",
    "latitude": "29.963903412481677",
    "geocoded_column": {
      "latitude": "29.963903412481677",
      "longitude": "-90.12375513453597"
    }
  },
  {
    "service_request": "2025-1166655",
    "request_type": "Trash/Recycling",
    "request_reason": "Request a Large Item Pick Up",
    "date_created": "2025-02-04T16:21:12.000",
    "date_modified": "2025-02-04T16:21:15.000",
    "request_status": "Pending",
    "responsible_agency": "Department of Sanitation",
    "final_address": "5339 Cameron Blvd",
    "address_councildis": "D",
    "status": "Assigned to Contractor",
    "contractor": "IV Waste",
    "rowid": "1166655",
    "final_x": "3682651.81832",
    "final_y": "552656.511382",
    "longitude": "-90.06369377453055",
    "latitude": "30.01357863436615",
    "geocoded_column": {
      "latitude": "30.01357863436615",
      "longitude": "-90.06369377453055"
    }
  },
  {
    "service_request": "2025-1166654",
    "request_type": "Trash/Recycling",
    "request_reason": "Request a Large Item Pick Up",
    "date_created": "2025-02-04T16:19:02.000",
    "date_modified": "2025-02-04T16:19:04.000",
    "request_status": "Pending",
    "responsible_agency": "Department of Sanitation",
    "final_address": "3930 Thalia St",
    "address_councildis": "B",
    "status": "Assigned to Contractor",
    "contractor": "IV Waste",
    "rowid": "1166654",
    "final_x": "3672287.18727",
    "final_y": "530220.508673",
    "longitude": "-90.09720539395188",
    "latitude": "29.95219901911367",
    "geocoded_column": {
      "latitude": "29.95219901911367",
      "longitude": "-90.09720539395188"
    }
  },
  {
    "service_request": "2025-1166653",
    "request_type": "Trash/Recycling",
    "request_reason": "Request a Large Item Pick Up",
    "date_created": "2025-02-04T16:17:17.000",
    "date_modified": "2025-02-04T16:17:19.000",
    "request_status": "Pending",
    "responsible_agency": "Department of Sanitation",
    "final_address": "2821 General Pershing St",
    "address_councildis": "B",
    "status": "Assigned to Contractor",
    "contractor": "IV Waste",
    "rowid": "1166653",
    "final_x": "3670863.68039",
    "final_y": "525295.537341",
    "longitude": "-90.10186730742465",
    "latitude": "29.93869910510978",
    "geocoded_column": {
      "latitude": "29.93869910510978",
      "longitude": "-90.10186730742465"
    }
  },
  {
    "service_request": "2025-1166652",
    "request_type": "Trash/Recycling",
    "request_reason": "Order Recycling Cart",
    "date_created": "2025-02-04T16:12:40.000",
    "date_modified": "2025-02-04T16:12:41.000",
    "request_status": "Pending",
    "responsible_agency": "Department of Sanitation",
    "final_address": "3525 Palmyra St",
    "address_councildis": "B",
    "status": "Pending",
    "rowid": "1166652",
    "final_x": "3672208.55585",
    "final_y": "536549.845191",
    "longitude": "-90.09723808304186",
    "latitude": "29.969604915992807",
    "geocoded_column": {
      "latitude": "29.969604915992807",
      "longitude": "-90.09723808304186"
    }
  },
  {
    "service_request": "2025-1166651",
    "request_type": "Trash/Recycling",
    "request_reason": "Order Trash Cart",
    "date_created": "2025-02-04T16:12:09.000",
    "date_modified": "2025-02-04T16:12:11.000",
    "request_status": "Pending",
    "responsible_agency": "Department of Sanitation",
    "final_address": "6050 Curran Rd",
    "address_councildis": "E",
    "status": "Assigned to Contractor",
    "contractor": "Waste Pro",
    "rowid": "1166651",
    "final_x": "3695428.85808",
    "final_y": "558835.64214",
    "longitude": "-90.02310195400588",
    "latitude": "30.030173438762414",
    "geocoded_column": {
      "latitude": "30.030173438762414",
      "longitude": "-90.02310195400588"
    }
  },
  {
    "service_request": "2025-1166650",
    "request_type": "Trash/Recycling",
    "request_reason": "Return Recycling Cart",
    "date_created": "2025-02-04T16:11:37.000",
    "date_modified": "2025-02-04T16:11:39.000",
    "request_status": "Pending",
    "responsible_agency": "Department of Sanitation",
    "final_address": "7458 Garfield St",
    "address_councildis": "A",
    "status": "Pending",
    "rowid": "1166650",
    "final_x": "3661134.24653",
    "final_y": "523976.310588",
    "longitude": "-90.13262799436322",
    "latitude": "29.9353555812167",
    "geocoded_column": {
      "latitude": "29.9353555812167",
      "longitude": "-90.13262799436322"
    }
  },
  {
    "service_request": "2025-1166649",
    "request_type": "Trash/Recycling",
    "request_reason": "Request a Large Item Pick Up",
    "date_created": "2025-02-04T16:05:25.000",
    "date_modified": "2025-02-04T16:05:28.000",
    "request_status": "Pending",
    "responsible_agency": "Department of Sanitation",
    "final_address": "3929 Paris Ave",
    "address_councildis": "D",
    "status": "Assigned to Contractor",
    "contractor": "IV Waste",
    "rowid": "1166649",
    "final_x": "3679658.63567",
    "final_y": "546856.595665",
    "longitude": "-90.0733521714332",
    "latitude": "29.997721795784287",
    "geocoded_column": {
      "latitude": "29.997721795784287",
      "longitude": "-90.0733521714332"
    }
  },
  {
    "service_request": "2025-1166648",
    "request_type": "Trash/Recycling",
    "request_reason": "Request a Large Item Pick Up",
    "date_created": "2025-02-04T16:04:50.000",
    "date_modified": "2025-02-04T16:04:54.000",
    "request_status": "Pending",
    "responsible_agency": "Department of Sanitation",
    "final_address": "3425 Louisiana Avenue Prkwy",
    "address_councildis": "B",
    "status": "Assigned to Contractor",
    "contractor": "IV Waste",
    "rowid": "1166648",
    "final_x": "3671735.80174",
    "final_y": "527743.921983",
    "longitude": "-90.09903065366775",
    "latitude": "29.945405563587222",
    "geocoded_column": {
      "latitude": "29.945405563587222",
      "longitude": "-90.09903065366775"
    }
  },
  {
    "service_request": "2025-1166647",
    "request_type": "Trash/Recycling",
    "request_reason": "Request a Large Item Pick Up",
    "date_created": "2025-02-04T16:02:29.000",
    "date_modified": "2025-02-04T16:02:31.000",
    "request_status": "Pending",
    "responsible_agency": "Department of Sanitation",
    "final_address": "882 Homedale St",
    "address_councildis": "A",
    "status": "Assigned to Contractor",
    "contractor": "IV Waste",
    "rowid": "1166647",
    "final_x": "3669445.17345",
    "final_y": "544580.454543",
    "longitude": "-90.10569338979708",
    "latitude": "29.991768047846392",
    "geocoded_column": {
      "latitude": "29.991768047846392",
      "longitude": "-90.10569338979708"
    }
  },
  {
    "service_request": "2025-1166646",
    "request_type": "Abandoned Vehicles",
    "request_reason": "Abandoned/Junk Vehicles",
    "date_created": "2025-02-04T15:55:17.000",
    "date_modified": "2025-02-04T15:58:21.000",
    "request_status": "Pending",
    "responsible_agency": "Department of Public Works",
    "final_address": "6415 N Galvez St",
    "address_councildis": "E",
    "status": "Pending",
    "rowid": "1166646",
    "final_x": "3702040.10916",
    "final_y": "536529.775047",
    "longitude": "-90.00302885524863",
    "latitude": "29.968631134600997",
    "geocoded_column": {
      "latitude": "29.968631134600997",
      "longitude": "-90.00302885524863"
    }
  },
  {
    "service_request": "2025-1166645",
    "request_type": "Parks & Parkways",
    "request_reason": "Request Tree Service (Right of Way/Public Property)",
    "date_created": "2025-02-04T15:52:33.000",
    "date_modified": "2025-02-04T15:52:42.000",
    "request_status": "Pending",
    "responsible_agency": "Department of Parks & Parkway",
    "final_address": "3521 Toledano St",
    "address_councildis": "B",
    "status": "Pending",
    "rowid": "1166645",
    "final_x": "3671838.84219",
    "final_y": "528451.782208",
    "longitude": "-90.09868123951762",
    "latitude": "29.947348894875553",
    "geocoded_column": {
      "latitude": "29.947348894875553",
      "longitude": "-90.09868123951762"
    }
  },
  {
    "service_request": "2025-1166644",
    "request_type": "Trash/Recycling",
    "request_reason": "Order Recycling Cart",
    "date_created": "2025-02-04T15:48:03.000",
    "date_modified": "2025-02-04T15:56:29.000",
    "request_status": "Pending",
    "responsible_agency": "Department of Sanitation",
    "final_address": "6766 Bellaire Dr",
    "address_councildis": "A",
    "status": "Assigned to Contractor",
    "contractor": "IV Waste",
    "rowid": "1166644",
    "final_x": "3664543.94906",
    "final_y": "553269.561751",
    "longitude": "-90.12088495985304",
    "latitude": "30.015803574272873",
    "geocoded_column": {
      "latitude": "30.015803574272873",
      "longitude": "-90.12088495985304"
    }
  },
  {
    "service_request": "2025-1166643",
    "request_type": "Trash/Recycling",
    "request_reason": "Order Trash Cart",
    "date_created": "2025-02-04T15:48:02.000",
    "date_modified": "2025-02-04T15:53:00.000",
    "request_status": "Pending",
    "responsible_agency": "Department of Sanitation",
    "final_address": "3521 Toledano St",
    "address_councildis": "B",
    "status": "Assigned to Contractor",
    "contractor": "IV Waste",
    "rowid": "1166643",
    "final_x": "3671838.84219",
    "final_y": "528451.782208",
    "longitude": "-90.09868123951762",
    "latitude": "29.947348894875553",
    "geocoded_column": {
      "latitude": "29.947348894875553",
      "longitude": "-90.09868123951762"
    }
  },
  {
    "service_request": "2025-1166642",
    "request_type": "Trash/Recycling",
    "request_reason": "Repair Trash Cart",
    "date_created": "2025-02-04T15:47:40.000",
    "date_modified": "2025-02-04T15:47:44.000",
    "request_status": "Pending",
    "responsible_agency": "Department of Sanitation",
    "final_address": "326 S Bernadotte St",
    "address_councildis": "A",
    "status": "Assigned to Contractor",
    "contractor": "IV Waste",
    "rowid": "1166642",
    "final_x": "3668271.78023",
    "final_y": "539216.261258",
    "longitude": "-90.10958086750139",
    "latitude": "29.977052853511278",
    "geocoded_column": {
      "latitude": "29.977052853511278",
      "longitude": "-90.10958086750139"
    }
  },
  {
    "service_request": "2025-1166641",
    "request_type": "Property Maintenance",
    "request_reason": "Property Maintenance",
    "date_created": "2025-02-04T15:46:25.000",
    "date_modified": "2025-02-04T15:46:27.000",
    "request_status": "Pending",
    "responsible_agency": "Department of Code Enforcement",
    "final_address": "532 S Cortez St",
    "address_councildis": "B",
    "status": "Pending",
    "rowid": "1166641",
    "final_x": "3670979.95233",
    "final_y": "536050.910791",
    "longitude": "-90.1011350729958",
    "latitude": "29.968269400014158",
    "geocoded_column": {
      "latitude": "29.968269400014158",
      "longitude": "-90.1011350729958"
    }
  },
  {
    "service_request": "2025-1166640",
    "request_type": "Streetlights",
    "request_reason": "Streetlight Outage/Malfunction",
    "date_created": "2025-02-04T15:42:58.000",
    "date_modified": "2025-02-04T15:42:59.000",
    "request_status": "Pending",
    "responsible_agency": "Department of Public Works",
    "final_address": "419 Carondelet St Unit 102",
    "address_councildis": "B",
    "status": "Pending",
    "contractor": "Legacy Professional Services",
    "rowid": "1166640",
    "final_x": "3680304.82709",
    "final_y": "529630.970881",
    "longitude": "-90.07190991158426",
    "latitude": "29.950337723715503",
    "geocoded_column": {
      "latitude": "29.950337723715503",
      "longitude": "-90.07190991158426"
    }
  },
  {
    "service_request": "2025-1166639",
    "request_type": "Parks & Parkways",
    "request_reason": "Request Tree Service (Right of Way/Public Property)",
    "date_created": "2025-02-04T15:28:13.000",
    "date_modified": "2025-02-04T15:28:15.000",
    "request_status": "Pending",
    "responsible_agency": "Department of Parks & Parkway",
    "final_address": "1220 Josephine St",
    "address_councildis": "B",
    "status": "Pending",
    "rowid": "1166639",
    "final_x": "3678700.40398",
    "final_y": "522761.447546",
    "longitude": "-90.0772136201585",
    "latitude": "29.931497279039757",
    "geocoded_column": {
      "latitude": "29.931497279039757",
      "longitude": "-90.0772136201585"
    }
  },
  {
    "service_request": "2025-1166638",
    "request_type": "Trash/Recycling",
    "request_reason": "Illegal Dumping",
    "date_created": "2025-02-04T15:27:00.000",
    "date_modified": "2025-02-04T15:27:02.000",
    "request_status": "Pending",
    "responsible_agency": "Department of Sanitation",
    "final_address": "4900 BLK Bullard Ave",
    "address_councildis": "E",
    "status": "Pending",
    "rowid": "1166638",
    "final_x": "3719202.46904",
    "final_y": "558207.839081",
    "longitude": "-89.94800217025124",
    "latitude": "30.027678336932574",
    "geocoded_column": {
      "latitude": "30.027678336932574",
      "longitude": "-89.94800217025124"
    }
  },
  {
    "service_request": "2025-1166637",
    "request_type": "Trash/Recycling",
    "request_reason": "Request a Large Item Pick Up",
    "date_created": "2025-02-04T15:26:36.000",
    "date_modified": "2025-02-04T15:26:38.000",
    "request_status": "Pending",
    "responsible_agency": "Department of Sanitation",
    "final_address": "1943 Port St",
    "address_councildis": "D",
    "status": "Assigned to Contractor",
    "contractor": "IV Waste",
    "rowid": "1166637",
    "final_x": "3688304.31311",
    "final_y": "539728.200394",
    "longitude": "-90.04629368733777",
    "latitude": "29.97785701881487",
    "geocoded_column": {
      "latitude": "29.97785701881487",
      "longitude": "-90.04629368733777"
    }
  },
  {
    "service_request": "2025-1166636",
    "request_type": "Property Maintenance",
    "request_reason": "Property Maintenance",
    "date_created": "2025-02-04T15:25:01.000",
    "date_modified": "2025-02-04T15:52:34.000",
    "case_close_date": "2025-02-04T09:52:34.000",
    "request_status": "Closed",
    "responsible_agency": "Department of Code Enforcement",
    "final_address": "830 Deslonde St",
    "address_councildis": "E",
    "status": "Referred to Code Enforcement",
    "rowid": "1166636",
    "final_x": "3695096.40342",
    "final_y": "533527.162116",
    "longitude": "-90.02506562237743",
    "latitude": "29.960594850123556",
    "geocoded_column": {
      "latitude": "29.960594850123556",
      "longitude": "-90.02506562237743"
    }
  },
  {
    "service_request": "2025-1166635",
    "request_type": "Trash/Recycling",
    "request_reason": "Replace Trash Cart",
    "date_created": "2025-02-04T15:22:20.000",
    "date_modified": "2025-02-04T15:22:22.000",
    "request_status": "Pending",
    "responsible_agency": "Department of Sanitation",
    "final_address": "1913 Esplanade Ave",
    "address_councildis": "D",
    "status": "Assigned to Contractor",
    "contractor": "IV Waste",
    "rowid": "1166635",
    "final_x": "3680365.65781",
    "final_y": "537355.902472",
    "longitude": "-90.0714492252029",
    "latitude": "29.971576815645047",
    "geocoded_column": {
      "latitude": "29.971576815645047",
      "longitude": "-90.0714492252029"
    }
  },
  {
    "service_request": "2025-1166634",
    "request_type": "Trash/Recycling",
    "request_reason": "Request a Large Item Pick Up",
    "date_created": "2025-02-04T15:20:40.000",
    "date_modified": "2025-02-04T15:20:44.000",
    "request_status": "Pending",
    "responsible_agency": "Department of Sanitation",
    "final_address": "2532 Cleveland Ave",
    "address_councildis": "B",
    "status": "Assigned to Contractor",
    "contractor": "IV Waste",
    "rowid": "1166634",
    "final_x": "3675606.50638",
    "final_y": "534280.927429",
    "longitude": "-90.08658501458339",
    "latitude": "29.963264931025336",
    "geocoded_column": {
      "latitude": "29.963264931025336",
      "longitude": "-90.08658501458339"
    }
  },
  {
    "service_request": "2025-1166633",
    "request_type": "Trash/Recycling",
    "request_reason": "Repair Recycling Cart",
    "date_created": "2025-02-04T15:16:17.000",
    "date_modified": "2025-02-04T15:16:19.000",
    "request_status": "Pending",
    "responsible_agency": "Department of Sanitation",
    "final_address": "2459 Dauphine St",
    "address_councildis": "C",
    "status": "Pending",
    "rowid": "1166633",
    "final_x": "3686379.65788",
    "final_y": "535362.519686",
    "longitude": "-90.05252652861357",
    "latitude": "29.965912225426226",
    "geocoded_column": {
      "latitude": "29.965912225426226",
      "longitude": "-90.05252652861357"
    }
  },
  {
    "service_request": "2025-1166632",
    "request_type": "Trash/Recycling",
    "request_reason": "Request a Large Item Pick Up",
    "date_created": "2025-02-04T15:15:40.000",
    "date_modified": "2025-02-04T15:15:42.000",
    "request_status": "Pending",
    "responsible_agency": "Department of Sanitation",
    "final_address": "5313 Zeno Pl",
    "address_councildis": "E",
    "status": "Assigned to Contractor",
    "contractor": "Waste Pro",
    "rowid": "1166632",
    "final_x": "3718340.7278",
    "final_y": "561576.304671",
    "longitude": "-89.95059672789853",
    "latitude": "30.036968877612576",
    "geocoded_column": {
      "latitude": "30.036968877612576",
      "longitude": "-89.95059672789853"
    }
  },
  {
    "service_request": "2025-1166631",
    "request_type": "Property Maintenance",
    "request_reason": "Property Maintenance",
    "date_created": "2025-02-04T15:14:46.000",
    "date_modified": "2025-02-04T15:48:46.000",
    "case_close_date": "2025-02-04T09:48:45.000",
    "request_status": "Closed",
    "responsible_agency": "Department of Code Enforcement",
    "final_address": "4431 Macarthur Blvd",
    "address_councildis": "C",
    "status": "Referred to Code Enforcement",
    "rowid": "1166631",
    "final_x": "3700270.09015",
    "final_y": "520176.40268",
    "longitude": "-90.00921543719888",
    "latitude": "29.923721497773414",
    "geocoded_column": {
      "latitude": "29.923721497773414",
      "longitude": "-90.00921543719888"
    }
  },
  {
    "service_request": "2025-1166630",
    "request_type": "Trash/Recycling",
    "request_reason": "Request a Large Item Pick Up",
    "date_created": "2025-02-04T15:13:33.000",
    "date_modified": "2025-02-04T15:13:35.000",
    "request_status": "Pending",
    "responsible_agency": "Department of Sanitation",
    "final_address": "3301 Louisiana Avenue Prkwy",
    "address_councildis": "B",
    "status": "Assigned to Contractor",
    "contractor": "IV Waste",
    "rowid": "1166630",
    "final_x": "3671926.17582",
    "final_y": "527238.174143",
    "longitude": "-90.09844678934947",
    "latitude": "29.944009282287695",
    "geocoded_column": {
      "latitude": "29.944009282287695",
      "longitude": "-90.09844678934947"
    }
  },
  {
    "service_request": "2025-1166629",
    "request_type": "Streetlights",
    "request_reason": "Streetlight Outage/Malfunction",
    "date_created": "2025-02-04T15:12:02.000",
    "date_modified": "2025-02-04T15:12:03.000",
    "request_status": "Pending",
    "responsible_agency": "Department of Public Works",
    "final_address": "6329 Dwyer Rd",
    "address_councildis": "D",
    "status": "Pending",
    "contractor": "Legacy Professional Services",
    "rowid": "1166629",
    "final_x": "3697681.95555",
    "final_y": "555239.427225",
    "longitude": "-90.01611283359381",
    "latitude": "30.020214187951225",
    "geocoded_column": {
      "latitude": "30.020214187951225",
      "longitude": "-90.01611283359381"
    }
  },
  {
    "service_request": "2025-1166628",
    "request_type": "Trash/Recycling",
    "request_reason": "Request a Large Item Pick Up",
    "date_created": "2025-02-04T15:09:42.000",
    "date_modified": "2025-02-04T15:09:46.000",
    "request_status": "Pending",
    "responsible_agency": "Department of Sanitation",
    "final_address": "4549 Chantilly Dr",
    "address_councildis": "E",
    "status": "Assigned to Contractor",
    "contractor": "Waste Pro",
    "rowid": "1166628",
    "final_x": "3701052.60708",
    "final_y": "553239.790039",
    "longitude": "-90.00553591071336",
    "latitude": "30.014608974783897",
    "geocoded_column": {
      "latitude": "30.014608974783897",
      "longitude": "-90.00553591071336"
    }
  },
  {
    "service_request": "2025-1166627",
    "request_type": "Abandoned Vehicles",
    "request_reason": "Abandoned/Junk Vehicles",
    "date_created": "2025-02-04T15:08:28.000",
    "date_modified": "2025-02-04T15:08:29.000",
    "request_status": "Pending",
    "responsible_agency": "Department of Public Works",
    "final_address": "4030 Vincennes Pl",
    "address_councildis": "B",
    "status": "Pending",
    "rowid": "1166627",
    "final_x": "3668444.37646",
    "final_y": "530307.454338",
    "longitude": "-90.10933631225676",
    "latitude": "29.952551522184326",
    "geocoded_column": {
      "latitude": "29.952551522184326",
      "longitude": "-90.10933631225676"
    }
  },
  {
    "service_request": "2025-1166625",
    "request_type": "Trash/Recycling",
    "request_reason": "Order Trash Cart",
    "date_created": "2025-02-04T15:05:24.000",
    "date_modified": "2025-02-04T15:05:26.000",
    "request_status": "Pending",
    "responsible_agency": "Department of Sanitation",
    "final_address": "4401 Skyview Dr",
    "address_councildis": "D",
    "status": "Assigned to Contractor",
    "contractor": "Waste Pro",
    "rowid": "1166625",
    "final_x": "3696898.76938",
    "final_y": "552558.122262",
    "longitude": "-90.01868464681878",
    "latitude": "30.012866343058153",
    "geocoded_column": {
      "latitude": "30.012866343058153",
      "longitude": "-90.01868464681878"
    }
  },
  {
    "service_request": "2025-1166624",
    "request_type": "Trash/Recycling",
    "request_reason": "Request a Large Item Pick Up",
    "date_created": "2025-02-04T15:04:02.000",
    "date_modified": "2025-02-04T15:04:05.000",
    "request_status": "Pending",
    "responsible_agency": "Department of Sanitation",
    "final_address": "4613 Haydel St",
    "address_councildis": "E",
    "status": "Assigned to Contractor",
    "contractor": "Waste Pro",
    "rowid": "1166624",
    "final_x": "3699157.19338",
    "final_y": "553776.853463",
    "longitude": "-90.01150488012743",
    "latitude": "30.01614595260955",
    "geocoded_column": {
      "latitude": "30.01614595260955",
      "longitude": "-90.01150488012743"
    }
  },
  {
    "service_request": "2025-1166623",
    "request_type": "Trash/Recycling",
    "request_reason": "Request a Large Item Pick Up",
    "date_created": "2025-02-04T15:02:47.000",
    "date_modified": "2025-02-04T15:02:49.000",
    "request_status": "Pending",
    "responsible_agency": "Department of Sanitation",
    "final_address": "171 Alix St",
    "address_councildis": "C",
    "status": "Assigned to Contractor",
    "contractor": "Richards Disposal",
    "rowid": "1166623",
    "final_x": "3686112.19894",
    "final_y": "529697.200961",
    "longitude": "-90.0535709732054",
    "latitude": "29.95034276544561",
    "geocoded_column": {
      "latitude": "29.95034276544561",
      "longitude": "-90.0535709732054"
    }
  },
  {
    "service_request": "2025-1166622",
    "request_type": "Trash/Recycling",
    "request_reason": "Request a Large Item Pick Up",
    "date_created": "2025-02-04T15:00:36.000",
    "date_modified": "2025-02-04T15:00:38.000",
    "request_status": "Pending",
    "responsible_agency": "Department of Sanitation",
    "final_address": "4632 Tulip St",
    "address_councildis": "E",
    "status": "Assigned to Contractor",
    "contractor": "Waste Pro",
    "rowid": "1166622",
    "final_x": "3702076.75415",
    "final_y": "553699.046935",
    "longitude": "-90.00228327378548",
    "latitude": "30.015839084370892",
    "geocoded_column": {
      "latitude": "30.015839084370892",
      "longitude": "-90.00228327378548"
    }
  },
  {
    "service_request": "2025-1166621",
    "request_type": "Trash/Recycling",
    "request_reason": "Request a Large Item Pick Up",
    "date_created": "2025-02-04T14:58:15.000",
    "date_modified": "2025-02-04T14:58:16.000",
    "request_status": "Pending",
    "responsible_agency": "Department of Sanitation",
    "final_address": "1801 Opelousas Ave",
    "address_councildis": "C",
    "status": "Assigned to Contractor",
    "contractor": "Richards Disposal",
    "rowid": "1166621",
    "final_x": "3690917.26044",
    "final_y": "528912.36928",
    "longitude": "-90.038427161804",
    "latitude": "29.94803630905356",
    "geocoded_column": {
      "latitude": "29.94803630905356",
      "longitude": "-90.038427161804"
    }
  },
  {
    "service_request": "2025-1166620",
    "request_type": "Health Related Request",
    "request_reason": "Homeless Encampment Complaint",
    "date_created": "2025-02-04T14:54:34.000",
    "date_modified": "2025-02-04T15:23:58.000",
    "request_status": "Pending",
    "responsible_agency": "Health Department",
    "final_address": "1808 Bayou Rd",
    "address_councildis": "D",
    "status": "Pending",
    "rowid": "1166620",
    "final_x": "3680629.89019",
    "final_y": "536540.134663",
    "longitude": "-90.07064313080053",
    "latitude": "29.96932573100885",
    "geocoded_column": {
      "latitude": "29.96932573100885",
      "longitude": "-90.07064313080053"
    }
  },
  {
    "service_request": "2025-1166619",
    "request_type": "Property Maintenance",
    "request_reason": "Property Maintenance",
    "date_created": "2025-02-04T14:53:29.000",
    "date_modified": "2025-02-04T15:31:17.000",
    "case_close_date": "2025-02-04T09:31:17.000",
    "request_status": "Closed",
    "responsible_agency": "Department of Code Enforcement",
    "final_address": "2457 N Galvez St",
    "address_councildis": "D",
    "status": "Referred to Code Enforcement",
    "rowid": "1166619",
    "final_x": "3686687.02678",
    "final_y": "540182.882827",
    "longitude": "-90.05138556182146",
    "latitude": "29.9791570857515",
    "geocoded_column": {
      "latitude": "29.9791570857515",
      "longitude": "-90.05138556182146"
    }
  },
  {
    "service_request": "2025-1166618",
    "request_type": "Drainage",
    "request_reason": "Drainage Manhole Cover Missing or Damaged",
    "date_created": "2025-02-04T14:52:01.000",
    "date_modified": "2025-02-04T14:52:03.000",
    "request_status": "Pending",
    "responsible_agency": "Sewerage & Water Board ",
    "final_address": "601 Washington Ave",
    "address_councildis": "B",
    "status": "Pending",
    "rowid": "1166618",
    "final_x": "3678086.42798",
    "final_y": "519356.679927",
    "longitude": "-90.07926950610171",
    "latitude": "29.922153769545876",
    "geocoded_column": {
      "latitude": "29.922153769545876",
      "longitude": "-90.07926950610171"
    }
  },
  {
    "service_request": "2025-1166617",
    "request_type": "Abandoned Vehicles",
    "request_reason": "Abandoned/Junk Vehicles",
    "date_created": "2025-02-04T14:49:29.000",
    "date_modified": "2025-02-04T14:51:35.000",
    "request_status": "Pending",
    "responsible_agency": "Department of Public Works",
    "final_address": "4546 Knight Dr",
    "address_councildis": "E",
    "status": "Pending",
    "rowid": "1166617",
    "final_x": "3708176.00568",
    "final_y": "554387.78396",
    "longitude": "-89.98298691167658",
    "latitude": "30.01753661983738",
    "geocoded_column": {
      "latitude": "30.01753661983738",
      "longitude": "-89.98298691167658"
    }
  },
  {
    "service_request": "2025-1166616",
    "request_type": "Trash/Recycling",
    "request_reason": "Request a Large Item Pick Up",
    "date_created": "2025-02-04T14:49:19.000",
    "date_modified": "2025-02-04T14:49:22.000",
    "request_status": "Pending",
    "responsible_agency": "Department of Sanitation",
    "final_address": "2227 Lamanche St",
    "address_councildis": "E",
    "status": "Assigned to Contractor",
    "contractor": "Waste Pro",
    "rowid": "1166616",
    "final_x": "3699562.7946",
    "final_y": "538015.507401",
    "longitude": "-90.01079814734425",
    "latitude": "29.972795213914964",
    "geocoded_column": {
      "latitude": "29.972795213914964",
      "longitude": "-90.01079814734425"
    }
  },
  {
    "service_request": "2025-1166615",
    "request_type": "Trash/Recycling",
    "request_reason": "Request a Large Item Pick Up",
    "date_created": "2025-02-04T14:46:20.000",
    "date_modified": "2025-02-04T14:46:22.000",
    "request_status": "Pending",
    "responsible_agency": "Department of Sanitation",
    "final_address": "909 Semmes St",
    "address_councildis": "C",
    "status": "Assigned to Contractor",
    "contractor": "Richards Disposal",
    "rowid": "1166615",
    "final_x": "3688528.59747",
    "final_y": "524025.1831",
    "longitude": "-90.04614245762163",
    "latitude": "29.934672215766103",
    "geocoded_column": {
      "latitude": "29.934672215766103",
      "longitude": "-90.04614245762163"
    }
  },
  {
    "service_request": "2025-1166614",
    "request_type": "Trash/Recycling",
    "request_reason": "Request a Large Item Pick Up",
    "date_created": "2025-02-04T14:43:24.000",
    "date_modified": "2025-02-04T14:43:26.000",
    "request_status": "Pending",
    "responsible_agency": "Department of Sanitation",
    "final_address": "6000 Eastover Dr",
    "address_councildis": "E",
    "status": "Assigned to Contractor",
    "contractor": "Waste Pro",
    "rowid": "1166614",
    "final_x": "3719006.6974",
    "final_y": "565431.132386",
    "longitude": "-89.94834489854064",
    "latitude": "30.04754596522158",
    "geocoded_column": {
      "latitude": "30.04754596522158",
      "longitude": "-89.94834489854064"
    }
  },
  {
    "service_request": "2025-1166613",
    "request_type": "Trash/Recycling",
    "request_reason": "Request a Large Item Pick Up",
    "date_created": "2025-02-04T14:42:38.000",
    "date_modified": "2025-02-04T14:42:40.000",
    "request_status": "Pending",
    "responsible_agency": "Department of Sanitation",
    "final_address": "8001 St Charles Ave",
    "address_councildis": "A",
    "status": "Assigned to Contractor",
    "contractor": "IV Waste",
    "rowid": "1166613",
    "final_x": "3660907.46752",
    "final_y": "526609.02963",
    "longitude": "-90.13325689094823",
    "latitude": "29.9426012587303",
    "geocoded_column": {
      "latitude": "29.9426012587303",
      "longitude": "-90.13325689094823"
    }
  },
  {
    "service_request": "2025-1166612",
    "request_type": "Trash/Recycling",
    "request_reason": "Illegal Dumping",
    "date_created": "2025-02-04T14:40:04.000",
    "date_modified": "2025-02-04T14:40:07.000",
    "request_status": "Pending",
    "responsible_agency": "Department of Sanitation",
    "final_address": "1708 Old Roman St",
    "address_councildis": "D",
    "status": "Pending",
    "rowid": "1166612",
    "final_x": "3682203.855",
    "final_y": "538944.119818",
    "longitude": "-90.06558843573221",
    "latitude": "29.975888071637012",
    "geocoded_column": {
      "latitude": "29.975888071637012",
      "longitude": "-90.06558843573221"
    }
  },
  {
    "service_request": "2025-1166611",
    "request_type": "Trash/Recycling",
    "request_reason": "Repair Trash Cart",
    "date_created": "2025-02-04T14:36:48.000",
    "date_modified": "2025-02-04T14:36:49.000",
    "request_status": "Pending",
    "responsible_agency": "Department of Sanitation",
    "final_address": "1118 Pine St",
    "address_councildis": "A",
    "status": "Assigned to Contractor",
    "contractor": "IV Waste",
    "rowid": "1166611",
    "final_x": "3663781.35328",
    "final_y": "526515.627582",
    "longitude": "-90.12418643729724",
    "latitude": "29.94226135727316",
    "geocoded_column": {
      "latitude": "29.94226135727316",
      "longitude": "-90.12418643729724"
    }
  },
  {
    "service_request": "2025-1166610",
    "request_type": "Drainage",
    "request_reason": "Catch Basin Clogged",
    "date_created": "2025-02-04T14:36:05.000",
    "date_modified": "2025-02-04T14:36:07.000",
    "request_status": "Pending",
    "responsible_agency": "Sewerage & Water Board ",
    "final_address": "1569 Mandolin St",
    "address_councildis": "D",
    "status": "Pending",
    "rowid": "1166610",
    "final_x": "3679264.93941",
    "final_y": "548157.444178",
    "longitude": "-90.0745507046921",
    "latitude": "30.00131056523442",
    "geocoded_column": {
      "latitude": "30.00131056523442",
      "longitude": "-90.0745507046921"
    }
  },
  {
    "service_request": "2025-1166609",
    "request_type": "Trash/Recycling",
    "request_reason": "Request a Large Item Pick Up",
    "date_created": "2025-02-04T14:35:08.000",
    "date_modified": "2025-02-04T14:35:10.000",
    "request_status": "Pending",
    "responsible_agency": "Department of Sanitation",
    "final_address": "130 Horseshoe Bend",
    "address_councildis": "E",
    "status": "Assigned to Contractor",
    "contractor": "Waste Pro",
    "rowid": "1166609",
    "final_x": "3720124.63052",
    "final_y": "561626.157791",
    "longitude": "-89.9449573675473",
    "latitude": "30.037046641322327",
    "geocoded_column": {
      "latitude": "30.037046641322327",
      "longitude": "-89.9449573675473"
    }
  },
  {
    "service_request": "2025-1166608",
    "request_type": "Trash/Recycling",
    "request_reason": "Repair Trash Cart",
    "date_created": "2025-02-04T14:34:39.000",
    "date_modified": "2025-02-04T14:34:41.000",
    "request_status": "Pending",
    "responsible_agency": "Department of Sanitation",
    "final_address": "5341 St Charles Ave",
    "address_councildis": "B",
    "status": "Assigned to Contractor",
    "contractor": "IV Waste",
    "rowid": "1166608",
    "final_x": "3667597.07149",
    "final_y": "521552.413305",
    "longitude": "-90.11230631094173",
    "latitude": "29.92850283878036",
    "geocoded_column": {
      "latitude": "29.92850283878036",
      "longitude": "-90.11230631094173"
    }
  },
  {
    "service_request": "2025-1166607",
    "request_type": "Roads and Streets",
    "request_reason": "Debris in Driving Lanes",
    "date_created": "2025-02-04T14:34:20.000",
    "date_modified": "2025-02-04T14:34:22.000",
    "request_status": "Pending",
    "responsible_agency": "Department of Public Works",
    "final_address": "3124 Kansas St",
    "address_councildis": "C",
    "status": "Pending",
    "rowid": "1166607",
    "final_x": "3694680.85552",
    "final_y": "520760.462393",
    "longitude": "-90.02683750434248",
    "latitude": "29.925503877739178",
    "geocoded_column": {
      "latitude": "29.925503877739178",
      "longitude": "-90.02683750434248"
    }
  },
  {
    "service_request": "2025-1166606",
    "request_type": "Property Maintenance",
    "request_reason": "Property Maintenance",
    "date_created": "2025-02-04T14:34:10.000",
    "date_modified": "2025-02-04T15:17:53.000",
    "case_close_date": "2025-02-04T09:17:53.000",
    "request_status": "Closed",
    "responsible_agency": "Department of Code Enforcement",
    "final_address": "53 Martin Dr",
    "address_councildis": "E",
    "status": "Referred to Code Enforcement",
    "rowid": "1166606",
    "final_x": "3697994.64976",
    "final_y": "560920.209822",
    "longitude": "-90.01491829456401",
    "latitude": "30.035824275592585",
    "geocoded_column": {
      "latitude": "30.035824275592585",
      "longitude": "-90.01491829456401"
    }
  },
  {
    "service_request": "2025-1166605",
    "request_type": "Streetlights",
    "request_reason": "Streetlight Outage/Malfunction",
    "date_created": "2025-02-04T14:33:58.000",
    "date_modified": "2025-02-04T14:33:59.000",
    "request_status": "Pending",
    "responsible_agency": "Department of Public Works",
    "final_address": "1228 Eighth St",
    "address_councildis": "B",
    "status": "Pending",
    "contractor": "Legacy Professional Services",
    "rowid": "1166605",
    "final_x": "3675742.71963",
    "final_y": "520690.868089",
    "longitude": "-90.0866218067992",
    "latitude": "29.92589267952533",
    "geocoded_column": {
      "latitude": "29.92589267952533",
      "longitude": "-90.0866218067992"
    }
  },
  {
    "service_request": "2025-1166604",
    "request_type": "Trash/Recycling",
    "request_reason": "Illegal Dumping",
    "date_created": "2025-02-04T14:30:04.000",
    "date_modified": "2025-02-04T14:30:07.000",
    "request_status": "Pending",
    "responsible_agency": "Department of Sanitation",
    "final_address": "N MIRO ST & TUPELO ST",
    "address_councildis": "E",
    "status": "Pending",
    "rowid": "1166604",
    "final_x": "3701076.7",
    "final_y": "537224.68",
    "longitude": "-90.0060459136643",
    "latitude": "29.97057259190875",
    "geocoded_column": {
      "latitude": "29.97057259190875",
      "longitude": "-90.0060459136643"
    }
  },
  {
    "service_request": "2025-1166603",
    "request_type": "Trash/Recycling",
    "request_reason": "Order Trash Cart",
    "date_created": "2025-02-04T14:28:19.000",
    "date_modified": "2025-02-04T14:28:22.000",
    "request_status": "Pending",
    "responsible_agency": "Department of Sanitation",
    "final_address": "909 Semmes St",
    "address_councildis": "C",
    "status": "Assigned to Contractor",
    "contractor": "Richards Disposal",
    "rowid": "1166603",
    "final_x": "3688528.59747",
    "final_y": "524025.1831",
    "longitude": "-90.04614245762163",
    "latitude": "29.934672215766103",
    "geocoded_column": {
      "latitude": "29.934672215766103",
      "longitude": "-90.04614245762163"
    }
  },
  {
    "service_request": "2025-1166602",
    "request_type": "Trash/Recycling",
    "request_reason": "Illegal Dumping",
    "date_created": "2025-02-04T14:24:15.000",
    "date_modified": "2025-02-04T14:24:17.000",
    "request_status": "Pending",
    "responsible_agency": "Department of Sanitation",
    "final_address": "4916 Haik Dr",
    "address_councildis": "D",
    "status": "Pending",
    "rowid": "1166602",
    "final_x": "3681923.04367",
    "final_y": "550777.925781",
    "longitude": "-90.0660619642023",
    "latitude": "30.008435387590307",
    "geocoded_column": {
      "latitude": "30.008435387590307",
      "longitude": "-90.0660619642023"
    }
  },
  {
    "service_request": "2025-1166601",
    "request_type": "Streetlights",
    "request_reason": "Streetlight Outage/Malfunction",
    "date_created": "2025-02-04T14:20:42.000",
    "date_modified": "2025-02-04T14:20:43.000",
    "request_status": "Pending",
    "responsible_agency": "Department of Public Works",
    "final_address": "909 Semmes St",
    "address_councildis": "C",
    "status": "Pending",
    "contractor": "Legacy Professional Services",
    "rowid": "1166601",
    "final_x": "3688528.59747",
    "final_y": "524025.1831",
    "longitude": "-90.04614245762163",
    "latitude": "29.934672215766103",
    "geocoded_column": {
      "latitude": "29.934672215766103",
      "longitude": "-90.04614245762163"
    }
  },
  {
    "service_request": "2025-1166600",
    "request_type": "Abandoned Vehicles",
    "request_reason": "Abandoned/Junk Vehicles",
    "date_created": "2025-02-04T14:14:34.000",
    "date_modified": "2025-02-04T14:14:36.000",
    "request_status": "Pending",
    "responsible_agency": "Department of Public Works",
    "final_address": "2720 Dryades St",
    "address_councildis": "B",
    "status": "Pending",
    "rowid": "1166600",
    "final_x": "3675451.7515",
    "final_y": "523485.383483",
    "longitude": "-90.08744439093692",
    "latitude": "29.93358539190366",
    "geocoded_column": {
      "latitude": "29.93358539190366",
      "longitude": "-90.08744439093692"
    }
  },
  {
    "service_request": "2025-1166599",
    "request_type": "Trash/Recycling",
    "request_reason": "Order Trash Cart",
    "date_created": "2025-02-04T14:12:58.000",
    "date_modified": "2025-02-04T14:16:49.000",
    "request_status": "Pending",
    "responsible_agency": "Department of Sanitation",
    "final_address": "7011 Yorktown Dr",
    "address_councildis": "E",
    "status": "Assigned to Contractor",
    "contractor": "Waste Pro",
    "rowid": "1166599",
    "final_x": "3706261.27326",
    "final_y": "560483.24547",
    "longitude": "-89.98881067055623",
    "latitude": "30.03435866981574",
    "geocoded_column": {
      "latitude": "30.03435866981574",
      "longitude": "-89.98881067055623"
    }
  },
  {
    "service_request": "2025-1166598",
    "request_type": "Mosquito, Termite & Rodent Control",
    "request_reason": "Rodent Complaint (Rats)",
    "date_created": "2025-02-04T14:12:51.000",
    "date_modified": "2025-02-04T14:12:53.000",
    "request_status": "Pending",
    "responsible_agency": "Mosquito, Termite & Rodent Control Board",
    "final_address": "2820 Johnny Jackson Jr Blvd",
    "address_councildis": "D",
    "status": "Pending",
    "rowid": "1166598",
    "final_x": "3691246.97955",
    "final_y": "542826.498765",
    "longitude": "-90.0368890418366",
    "latitude": "29.98628501881457",
    "geocoded_column": {
      "latitude": "29.98628501881457",
      "longitude": "-90.0368890418366"
    }
  },
  {
    "service_request": "2025-1166597",
    "request_type": "Health Related Request",
    "request_reason": "Homeless Encampment Complaint",
    "date_created": "2025-02-04T14:11:35.000",
    "date_modified": "2025-02-04T14:11:37.000",
    "request_status": "Pending",
    "responsible_agency": "Health Department",
    "final_address": "2720 Dryades St",
    "address_councildis": "B",
    "status": "Pending",
    "rowid": "1166597",
    "final_x": "3675451.7515",
    "final_y": "523485.383483",
    "longitude": "-90.08744439093692",
    "latitude": "29.93358539190366",
    "geocoded_column": {
      "latitude": "29.93358539190366",
      "longitude": "-90.08744439093692"
    }
  },
  {
    "service_request": "2025-1166596",
    "request_type": "Streetlights",
    "request_reason": "Streetlight Outage/Malfunction",
    "date_created": "2025-02-04T14:11:20.000",
    "date_modified": "2025-02-04T14:11:21.000",
    "request_status": "Pending",
    "responsible_agency": "Department of Public Works",
    "final_address": "1523 Stanton Rd",
    "address_councildis": "C",
    "status": "Pending",
    "contractor": "Legacy Professional Services",
    "rowid": "1166596",
    "final_x": "3720481.69798",
    "final_y": "517073.856821",
    "longitude": "-89.94553422088245",
    "latitude": "29.914532921694942",
    "geocoded_column": {
      "latitude": "29.914532921694942",
      "longitude": "-89.94553422088245"
    }
  },
  {
    "service_request": "2025-1166595",
    "request_type": "Trash/Recycling",
    "request_reason": "Request a Large Item Pick Up",
    "date_created": "2025-02-04T14:11:18.000",
    "date_modified": "2025-02-04T14:11:21.000",
    "request_status": "Pending",
    "responsible_agency": "Department of Sanitation",
    "final_address": "2348 Lake Oaks Prkwy",
    "address_councildis": "D",
    "status": "Assigned to Contractor",
    "contractor": "IV Waste",
    "rowid": "1166595",
    "final_x": "3684425.09193",
    "final_y": "558334.973404",
    "longitude": "-90.05789146117077",
    "latitude": "30.02913816602361",
    "geocoded_column": {
      "latitude": "30.02913816602361",
      "longitude": "-90.05789146117077"
    }
  },
  {
    "service_request": "2025-1166594",
    "request_type": "Healthy Homes",
    "request_reason": "Healthy Homes",
    "date_created": "2025-02-04T14:07:14.000",
    "date_modified": "2025-02-04T15:09:11.000",
    "request_status": "Pending",
    "responsible_agency": "Department of Code Enforcement",
    "final_address": "8300 BLK Palmetto St",
    "address_councildis": "A",
    "status": "Wrong Agency",
    "rowid": "1166594",
    "final_x": "3667447.79171",
    "final_y": "535735.105483",
    "longitude": "-90.1123004589861",
    "latitude": "29.967505009825242",
    "geocoded_column": {
      "latitude": "29.967505009825242",
      "longitude": "-90.1123004589861"
    }
  },
  {
    "service_request": "2025-1166593",
    "request_type": "Property Maintenance",
    "request_reason": "Property Maintenance",
    "date_created": "2025-02-04T14:05:55.000",
    "date_modified": "2025-02-04T15:04:37.000",
    "case_close_date": "2025-02-04T09:04:36.000",
    "request_status": "Closed",
    "responsible_agency": "Department of Code Enforcement",
    "final_address": "2715 Dryades St",
    "address_councildis": "B",
    "status": "Referred to External Agency",
    "rowid": "1166593",
    "final_x": "3675445.93256",
    "final_y": "523561.504571",
    "longitude": "-90.08746014814588",
    "latitude": "29.93379487405884",
    "geocoded_column": {
      "latitude": "29.93379487405884",
      "longitude": "-90.08746014814588"
    }
  },
  {
    "service_request": "2025-1166592",
    "request_type": "Trash/Recycling",
    "request_reason": "Missed Trash Pick-Up",
    "date_created": "2025-02-04T14:05:52.000",
    "date_modified": "2025-02-04T14:05:55.000",
    "request_status": "Pending",
    "responsible_agency": "Department of Sanitation",
    "final_address": "1913 W Homestead Dr",
    "address_councildis": "C",
    "status": "Assigned to Contractor",
    "contractor": "Richards Disposal",
    "rowid": "1166592",
    "final_x": "3696854.68528",
    "final_y": "524885.203132",
    "longitude": "-90.01982617504373",
    "latitude": "29.936777166920255",
    "geocoded_column": {
      "latitude": "29.936777166920255",
      "longitude": "-90.01982617504373"
    }
  },
  {
    "service_request": "2025-1166591",
    "request_type": "Trash/Recycling",
    "request_reason": "Repair Trash Cart",
    "date_created": "2025-02-04T14:05:14.000",
    "date_modified": "2025-02-04T14:27:45.000",
    "request_status": "Pending",
    "responsible_agency": "Department of Sanitation",
    "final_address": "1077 Allen Toussaint Blvd",
    "address_councildis": "D",
    "status": "Pending",
    "rowid": "1166591",
    "final_x": "3674064.46427",
    "final_y": "554514.774808",
    "longitude": "-90.09076171170278",
    "latitude": "30.018947030735326",
    "geocoded_column": {
      "latitude": "30.018947030735326",
      "longitude": "-90.09076171170278"
    }
  },
  {
    "service_request": "2025-1166590",
    "request_type": "Trash/Recycling",
    "request_reason": "Repair Trash Cart",
    "date_created": "2025-02-04T14:02:56.000",
    "date_modified": "2025-02-04T14:02:58.000",
    "request_status": "Pending",
    "responsible_agency": "Department of Sanitation",
    "final_address": "715 Evelina St",
    "address_councildis": "C",
    "status": "Assigned to Contractor",
    "contractor": "Richards Disposal",
    "rowid": "1166590",
    "final_x": "3687650.19497",
    "final_y": "529460.074625",
    "longitude": "-90.04872319281222",
    "latitude": "29.94964342716621",
    "geocoded_column": {
      "latitude": "29.94964342716621",
      "longitude": "-90.04872319281222"
    }
  },
  {
    "service_request": "2025-1166589",
    "request_type": "Trash/Recycling",
    "request_reason": "Request a Large Item Pick Up",
    "date_created": "2025-02-04T14:00:12.000",
    "date_modified": "2025-02-04T14:05:14.000",
    "request_status": "Pending",
    "responsible_agency": "Department of Sanitation",
    "final_address": "5970 Winchester Park Dr",
    "address_councildis": "E",
    "status": "Assigned to Contractor",
    "contractor": "Waste Pro",
    "rowid": "1166589",
    "final_x": "3714448.4949",
    "final_y": "563097.127648",
    "longitude": "-89.96283941856971",
    "latitude": "30.041279101358025",
    "geocoded_column": {
      "latitude": "30.041279101358025",
      "longitude": "-89.96283941856971"
    }
  },
  {
    "service_request": "2025-1166588",
    "request_type": "Trash/Recycling",
    "request_reason": "Illegal Dumping",
    "date_created": "2025-02-04T13:59:17.000",
    "date_modified": "2025-02-04T13:59:19.000",
    "request_status": "Pending",
    "responsible_agency": "Department of Sanitation",
    "final_address": "7724 Marquis St",
    "address_councildis": "E",
    "status": "Pending",
    "rowid": "1166588",
    "final_x": "3710922.8028",
    "final_y": "566690.116963",
    "longitude": "-89.97384702826919",
    "latitude": "30.051273852556243",
    "geocoded_column": {
      "latitude": "30.051273852556243",
      "longitude": "-89.97384702826919"
    }
  },
  {
    "service_request": "2025-1166587",
    "request_type": "Trash/Recycling",
    "request_reason": "Repair Trash Cart",
    "date_created": "2025-02-04T13:57:47.000",
    "date_modified": "2025-02-04T13:57:51.000",
    "request_status": "Pending",
    "responsible_agency": "Department of Sanitation",
    "final_address": "4619 Iberville St",
    "address_councildis": "A",
    "status": "Assigned to Contractor",
    "contractor": "IV Waste",
    "rowid": "1166587",
    "final_x": "3669557.37274",
    "final_y": "540164.609483",
    "longitude": "-90.10548844501554",
    "latitude": "29.97962267478204",
    "geocoded_column": {
      "latitude": "29.97962267478204",
      "longitude": "-90.10548844501554"
    }
  },
  {
    "service_request": "2025-1166586",
    "request_type": "Trash/Recycling",
    "request_reason": "Return Recycling Cart",
    "date_created": "2025-02-04T13:55:55.000",
    "date_modified": "2025-02-04T13:55:57.000",
    "request_status": "Pending",
    "responsible_agency": "Department of Sanitation",
    "final_address": "534 Verret St",
    "address_councildis": "C",
    "status": "Pending",
    "rowid": "1166586",
    "final_x": "3687085.18012",
    "final_y": "529623.554881",
    "longitude": "-90.05050141839914",
    "latitude": "29.950110347449453",
    "geocoded_column": {
      "latitude": "29.950110347449453",
      "longitude": "-90.05050141839914"
    }
  },
  {
    "service_request": "2025-1166585",
    "request_type": "Trash/Recycling",
    "request_reason": "Request a Large Item Pick Up",
    "date_created": "2025-02-04T13:55:27.000",
    "date_modified": "2025-02-04T13:55:29.000",
    "request_status": "Pending",
    "responsible_agency": "Department of Sanitation",
    "final_address": "3539 Inwood Ave",
    "address_councildis": "C",
    "status": "Assigned to Contractor",
    "contractor": "Richards Disposal",
    "rowid": "1166585",
    "final_x": "3703499.05105",
    "final_y": "515187.901747",
    "longitude": "-89.9992062074937",
    "latitude": "29.90990184066074",
    "geocoded_column": {
      "latitude": "29.90990184066074",
      "longitude": "-89.9992062074937"
    }
  },
  {
    "service_request": "2025-1166583",
    "request_type": "Trash/Recycling",
    "request_reason": "Repair Trash Cart",
    "date_created": "2025-02-04T13:51:25.000",
    "date_modified": "2025-02-04T13:51:27.000",
    "request_status": "Pending",
    "responsible_agency": "Department of Sanitation",
    "final_address": "534 Verret St",
    "address_councildis": "C",
    "status": "Assigned to Contractor",
    "contractor": "Richards Disposal",
    "rowid": "1166583",
    "final_x": "3687085.18012",
    "final_y": "529623.554881",
    "longitude": "-90.05050141839914",
    "latitude": "29.950110347449453",
    "geocoded_column": {
      "latitude": "29.950110347449453",
      "longitude": "-90.05050141839914"
    }
  },
  {
    "service_request": "2025-1166582",
    "request_type": "Trash/Recycling",
    "request_reason": "Request a Large Item Pick Up",
    "date_created": "2025-02-04T13:50:57.000",
    "date_modified": "2025-02-04T13:50:59.000",
    "request_status": "Pending",
    "responsible_agency": "Department of Sanitation",
    "final_address": "1822 Elysian Fields Ave",
    "address_councildis": "D",
    "status": "Assigned to Contractor",
    "contractor": "IV Waste",
    "rowid": "1166582",
    "final_x": "3684678.46434",
    "final_y": "539068.654794",
    "longitude": "-90.05776854807917",
    "latitude": "29.97615498499658",
    "geocoded_column": {
      "latitude": "29.97615498499658",
      "longitude": "-90.05776854807917"
    }
  },
  {
    "service_request": "2025-1166581",
    "request_type": "Parks & Parkways",
    "request_reason": "Request Tree Service (Right of Way/Public Property)",
    "date_created": "2025-02-04T13:50:24.000",
    "date_modified": "2025-02-04T13:50:26.000",
    "request_status": "Pending",
    "responsible_agency": "Department of Parks & Parkway",
    "final_address": "2550 St Ann St",
    "address_councildis": "D",
    "status": "Pending",
    "rowid": "1166581",
    "final_x": "3677383.75349",
    "final_y": "536818.436744",
    "longitude": "-90.08088508119663",
    "latitude": "29.970188927381336",
    "geocoded_column": {
      "latitude": "29.970188927381336",
      "longitude": "-90.08088508119663"
    }
  },
  {
    "service_request": "2025-1166580",
    "request_type": "Trash/Recycling",
    "request_reason": "Request a Large Item Pick Up",
    "date_created": "2025-02-04T13:47:51.000",
    "date_modified": "2025-02-04T13:47:54.000",
    "request_status": "Pending",
    "responsible_agency": "Department of Sanitation",
    "final_address": "7035 Walmsley Ave",
    "address_councildis": "B",
    "status": "Assigned to Contractor",
    "contractor": "IV Waste",
    "rowid": "1166580",
    "final_x": "3667654.24045",
    "final_y": "531034.71757",
    "longitude": "-90.11180673170965",
    "latitude": "29.95457444265618",
    "geocoded_column": {
      "latitude": "29.95457444265618",
      "longitude": "-90.11180673170965"
    }
  },
  {
    "service_request": "2025-1166579",
    "request_type": "Trash/Recycling",
    "request_reason": "Repair Trash Cart",
    "date_created": "2025-02-04T13:41:33.000",
    "date_modified": "2025-02-04T13:43:10.000",
    "request_status": "Pending",
    "responsible_agency": "Department of Sanitation",
    "final_address": "8221 Curran Rd",
    "address_councildis": "E",
    "status": "Assigned to Contractor",
    "contractor": "Waste Pro",
    "rowid": "1166579",
    "final_x": "3702843.94372",
    "final_y": "562033.958815",
    "longitude": "-89.9995527788093",
    "latitude": "30.03873233837447",
    "geocoded_column": {
      "latitude": "30.03873233837447",
      "longitude": "-89.9995527788093"
    }
  },
  {
    "service_request": "2025-1166578",
    "request_type": "Abandoned Vehicles",
    "request_reason": "Abandoned/Junk Vehicles",
    "date_created": "2025-02-04T13:40:24.000",
    "date_modified": "2025-02-04T13:40:31.000",
    "request_status": "Pending",
    "responsible_agency": "Department of Public Works",
    "final_address": "GENERAL MEYER AVE & MANSFIELD AVE",
    "address_councildis": "C",
    "status": "Pending",
    "rowid": "1166578",
    "final_x": "3709254.5",
    "final_y": "519734.18",
    "longitude": "-89.98087167949555",
    "latitude": "29.92221700571698",
    "geocoded_column": {
      "latitude": "29.92221700571698",
      "longitude": "-89.98087167949555"
    }
  },
  {
    "service_request": "2025-1166577",
    "request_type": "Property Maintenance",
    "request_reason": "Property Maintenance",
    "date_created": "2025-02-04T13:40:01.000",
    "date_modified": "2025-02-04T14:42:42.000",
    "case_close_date": "2025-02-04T08:42:41.000",
    "request_status": "Closed",
    "responsible_agency": "Department of Code Enforcement",
    "final_address": "7706 Burthe St",
    "address_councildis": "A",
    "status": "Referred to Code Enforcement",
    "rowid": "1166577",
    "final_x": "3662251.59872",
    "final_y": "526633.522686",
    "longitude": "-90.12901232289202",
    "latitude": "29.9426298297996",
    "geocoded_column": {
      "latitude": "29.9426298297996",
      "longitude": "-90.12901232289202"
    }
  },
  {
    "service_request": "2025-1166576",
    "request_type": "Property Maintenance",
    "request_reason": "Property Maintenance",
    "date_created": "2025-02-04T13:39:11.000",
    "date_modified": "2025-02-04T14:55:26.000",
    "case_close_date": "2025-02-04T08:55:25.000",
    "request_status": "Closed",
    "responsible_agency": "Department of Code Enforcement",
    "final_address": "2512 Broadway St",
    "address_councildis": "A",
    "status": "Referred to Code Enforcement",
    "rowid": "1166576",
    "final_x": "3666812.69895",
    "final_y": "530549.710338",
    "longitude": "-90.11448029251594",
    "latitude": "29.953265472274552",
    "geocoded_column": {
      "latitude": "29.953265472274552",
      "longitude": "-90.11448029251594"
    }
  },
  {
    "service_request": "2025-1166575",
    "request_type": "Drainage",
    "request_reason": "Street Flooding",
    "date_created": "2025-02-04T13:37:26.000",
    "date_modified": "2025-02-04T13:37:28.000",
    "request_status": "Pending",
    "responsible_agency": "Sewerage & Water Board ",
    "final_address": "909 Whitney Ave",
    "address_councildis": "C",
    "status": "Pending",
    "rowid": "1166575",
    "final_x": "3690101.31702",
    "final_y": "528144.148799",
    "longitude": "-90.04103077232406",
    "latitude": "29.945949295523484",
    "geocoded_column": {
      "latitude": "29.945949295523484",
      "longitude": "-90.04103077232406"
    }
  },
  {
    "service_request": "2025-1166574",
    "request_type": "Trash/Recycling",
    "request_reason": "Request a Large Item Pick Up",
    "date_created": "2025-02-04T13:36:41.000",
    "date_modified": "2025-02-04T13:36:43.000",
    "request_status": "Pending",
    "responsible_agency": "Department of Sanitation",
    "final_address": "4734 Longfellow Dr",
    "address_councildis": "E",
    "status": "Assigned to Contractor",
    "contractor": "Waste Pro",
    "rowid": "1166574",
    "final_x": "3709557.03928",
    "final_y": "555790.486617",
    "longitude": "-89.97857103326695",
    "latitude": "30.021348682650533",
    "geocoded_column": {
      "latitude": "30.021348682650533",
      "longitude": "-89.97857103326695"
    }
  },
  {
    "service_request": "2025-1166573",
    "request_type": "Parks & Parkways",
    "request_reason": "Request Tree Service (Right of Way/Public Property)",
    "date_created": "2025-02-04T13:35:37.000",
    "date_modified": "2025-02-04T13:36:24.000",
    "request_status": "Pending",
    "responsible_agency": "Department of Parks & Parkway",
    "final_address": "873 Hidalgo St",
    "address_councildis": "A",
    "status": "Pending",
    "rowid": "1166573",
    "final_x": "3669323.43617",
    "final_y": "544116.572942",
    "longitude": "-90.1060936271834",
    "latitude": "29.990496118413013",
    "geocoded_column": {
      "latitude": "29.990496118413013",
      "longitude": "-90.1060936271834"
    }
  },
  {
    "service_request": "2025-1166572",
    "request_type": "Abandoned Vehicles",
    "request_reason": "Vehicle Blocking Your Driveway",
    "date_created": "2025-02-04T13:35:20.000",
    "date_modified": "2025-02-04T13:35:22.000",
    "request_status": "Pending",
    "responsible_agency": "Department of Public Works",
    "final_address": "1129 St Philip St",
    "address_councildis": "C",
    "status": "Pending",
    "rowid": "1166572",
    "final_x": "3681893.42293",
    "final_y": "534464.278789",
    "longitude": "-90.06672526624999",
    "latitude": "29.96357949444221",
    "geocoded_column": {
      "latitude": "29.96357949444221",
      "longitude": "-90.06672526624999"
    }
  },
  {
    "service_request": "2025-1166571",
    "request_type": "Trash/Recycling",
    "request_reason": "Repair Trash Cart",
    "date_created": "2025-02-04T13:35:10.000",
    "date_modified": "2025-02-04T13:35:12.000",
    "request_status": "Pending",
    "responsible_agency": "Department of Sanitation",
    "final_address": "6002 Lafaye St",
    "address_councildis": "D",
    "status": "Assigned to Contractor",
    "contractor": "IV Waste",
    "rowid": "1166571",
    "final_x": "3687081.71036",
    "final_y": "555286.043801",
    "longitude": "-90.04960458132798",
    "latitude": "30.020673168194378",
    "geocoded_column": {
      "latitude": "30.020673168194378",
      "longitude": "-90.04960458132798"
    }
  },
  {
    "service_request": "2025-1166570",
    "request_type": "Trash/Recycling",
    "request_reason": "Request a Large Item Pick Up",
    "date_created": "2025-02-04T13:31:49.000",
    "date_modified": "2025-02-04T13:31:51.000",
    "request_status": "Pending",
    "responsible_agency": "Department of Sanitation",
    "final_address": "1029 Mazant St",
    "address_councildis": "C",
    "status": "Assigned to Contractor",
    "contractor": "IV Waste",
    "rowid": "1166570",
    "final_x": "3692089.66569",
    "final_y": "535001.06215",
    "longitude": "-90.03450750802241",
    "latitude": "29.96474161002834",
    "geocoded_column": {
      "latitude": "29.96474161002834",
      "longitude": "-90.03450750802241"
    }
  },
  {
    "service_request": "2025-1166569",
    "request_type": "Roads and Streets",
    "request_reason": "Abandoned Service Cut",
    "date_created": "2025-02-04T13:30:38.000",
    "date_modified": "2025-02-04T13:30:41.000",
    "request_status": "Pending",
    "responsible_agency": "Department of Public Works",
    "final_address": "2359 Easter Ln",
    "address_councildis": "C",
    "status": "Pending",
    "rowid": "1166569",
    "final_x": "3699256.50461",
    "final_y": "522480.119354",
    "longitude": "-90.01233110046651",
    "latitude": "29.930088094515146",
    "geocoded_column": {
      "latitude": "29.930088094515146",
      "longitude": "-90.01233110046651"
    }
  },
  {
    "service_request": "2025-1166568",
    "request_type": "Abandoned Vehicles",
    "request_reason": "Abandoned/Junk Vehicles",
    "date_created": "2025-02-04T13:30:09.000",
    "date_modified": "2025-02-04T13:30:11.000",
    "request_status": "Pending",
    "responsible_agency": "Department of Public Works",
    "final_address": "4758 Sandalwood St",
    "address_councildis": "E",
    "status": "Pending",
    "rowid": "1166568",
    "final_x": "3712142.01195",
    "final_y": "556264.485018",
    "longitude": "-89.9703855007612",
    "latitude": "30.0225677019896",
    "geocoded_column": {
      "latitude": "30.0225677019896",
      "longitude": "-89.9703855007612"
    }
  },
  {
    "service_request": "2025-1166567",
    "request_type": "Abandoned Vehicles",
    "request_reason": "Abandoned/Junk Vehicles",
    "date_created": "2025-02-04T13:29:37.000",
    "date_modified": "2025-02-04T13:29:39.000",
    "request_status": "Pending",
    "responsible_agency": "Department of Public Works",
    "final_address": "1039 Fourth St",
    "address_councildis": "B",
    "status": "Pending",
    "rowid": "1166567",
    "final_x": "3677394.07208",
    "final_y": "520937.866873",
    "longitude": "-90.08140045493947",
    "latitude": "29.926522338585347",
    "geocoded_column": {
      "latitude": "29.926522338585347",
      "longitude": "-90.08140045493947"
    }
  },