[
  {
    "service_request": "2025-1233815",
    "request_type": "Trash/Recycling",
    "request_reason": "Order Trash Cart",
    "date_created": "2025-10-15T23:57:19.000",
    "date_modified": "2025-10-15T23:57:20.000",
    "request_status": "Pending",
    "responsible_agency": "Department of Sanitation",
    "final_address": "2431 Palmer Ave",
    "address_councildis": "A",
    "status": "Assigned to Contractor",
    "contractor": "IV Waste",
    "rowid": "1233815",
    "final_x": "3666476.30407",
    "final_y": "525769.359293",
    "longitude": "-90.1157028867942",
    "latitude": "29.94013088778818",
    "geocoded_column": {
      "latitude": "29.94013088778818",
      "longitude": "-90.1157028867942"
    }
  },
  {
    "service_request": "2025-1233814",
    "request_type": "Trash/Recycling",
    "request_reason": "Return Recycling Cart",
    "date_created": "2025-10-15T23:52:44.000",
    "date_modified": "2025-10-15T23:52:46.000",
    "request_status": "Pending",
    "responsible_agency": "Department of Sanitation",
    "final_address": "1834 Broadway St",
    "address_councildis": "A",
    "status": "Pending",
    "rowid": "1233814",
    "final_x": "3665456.008",
    "final_y": "528520.851968",
    "longitude": "-90.118832057248",
    "latitude": "29.947726380948694",
    "geocoded_column": {
      "latitude": "29.947726380948694",
      "longitude": "-90.118832057248"
    }
  },
  {
    "service_request": "2025-1233813",
    "request_type": "Streetlights",
    "request_reason": "Streetlight Outage/Malfunction",
    "date_created": "2025-10-15T21:16:51.000",
    "date_modified": "2025-10-15T21:16:54.000",
    "request_status": "Pending",
    "responsible_agency": "Department of Public Works",
    "final_address": "4928 S Johnson St",
    "address_councildis": "B",
    "status": "Pending",
    "rowid": "1233813",
    "final_x": "3668997.93857",
    "final_y": "526943.505662",
    "longitude": "-90.10770202356689",
    "latitude": "29.94328548871366",
    "geocoded_column": {
      "latitude": "29.94328548871366",
      "longitude": "-90.10770202356689"
    }
  },
  {
    "service_request": "2025-1233812",
    "request_type": "Streetlights",
    "request_reason": "Streetlight Outage/Malfunction",
    "date_created": "2025-10-15T21:14:34.000",
    "date_modified": "2025-10-15T21:14:36.000",
    "request_status": "Pending",
    "responsible_agency": "Department of Public Works",
    "final_address": "829 Touro St",
    "address_councildis": "C",
    "status": "Pending",
    "rowid": "1233812",
    "final_x": "3684325.21589",
    "final_y": "535411.455046",
    "longitude": "-90.05901266505654",
    "latitude": "29.966109764801487",
    "geocoded_column": {
      "latitude": "29.966109764801487",
      "longitude": "-90.05901266505654"
    }
  },
  {
    "service_request": "2025-1233811",
    "request_type": "Streetlights",
    "request_reason": "Streetlight Outage/Malfunction",
    "date_created": "2025-10-15T21:00:24.000",
    "date_modified": "2025-10-15T21:00:25.000",
    "request_status": "Pending",
    "responsible_agency": "Department of Public Works",
    "final_address": "336 Camp St",
    "address_councildis": "B",
    "status": "Pending",
    "rowid": "1233811",
    "final_x": "3681245.67778",
    "final_y": "529610.236353",
    "longitude": "-90.06893992170875",
    "latitude": "29.950252197400477",
    "geocoded_column": {
      "latitude": "29.950252197400477",
      "longitude": "-90.06893992170875"
    }
  },
  {
    "service_request": "2025-1233810",
    "request_type": "Trash/Recycling",
    "request_reason": "Order Trash Cart",
    "date_created": "2025-10-15T20:26:22.000",
    "date_modified": "2025-10-15T20:26:25.000",
    "request_status": "Pending",
    "responsible_agency": "Department of Sanitation",
    "final_address": "10 Greenbrier Ct",
    "address_councildis": "C",
    "status": "Assigned to Contractor",
    "contractor": "Richards Disposal",
    "rowid": "1233810",
    "final_x": "3722150.87033",
    "final_y": "511463.075312",
    "longitude": "-89.94048108171843",
    "latitude": "29.899049582438813",
    "geocoded_column": {
      "latitude": "29.899049582438813",
      "longitude": "-89.94048108171843"
    }
  },
  {
    "service_request": "2025-1233809",
    "request_type": "General Services",
    "request_reason": "General Service Request",
    "date_created": "2025-10-15T20:25:29.000",
    "date_modified": "2025-10-15T20:25:32.000",
    "request_status": "Pending",
    "responsible_agency": "Orleans Parish Communication District",
    "final_address": "2375 Tchoupitoulas St",
    "address_councildis": "B",
    "status": "Pending",
    "rowid": "1233809",
    "final_x": "3679613.8253",
    "final_y": "519311.171063",
    "longitude": "-90.07444972504409",
    "latitude": "29.92198258143572",
    "geocoded_column": {
      "latitude": "29.92198258143572",
      "longitude": "-90.07444972504409"
    }
  },
  {
    "service_request": "2025-1233808",
    "request_type": "Property Maintenance",
    "request_reason": "Property Maintenance",
    "date_created": "2025-10-15T20:19:58.000",
    "date_modified": "2025-10-15T20:20:01.000",
    "request_status": "Pending",
    "responsible_agency": "Department of Code Enforcement",
    "final_address": "4568 Laine Ave",
    "address_councildis": "E",
    "status": "Pending",
    "rowid": "1233808",
    "final_x": "3705768.84126",
    "final_y": "554320.558744",
    "longitude": "-89.99059502422291",
    "latitude": "30.017429557885198",
    "geocoded_column": {
      "latitude": "30.017429557885198",
      "longitude": "-89.99059502422291"
    }
  },
  {
    "service_request": "2025-1233807",
    "request_type": "Abandoned Vehicles",
    "request_reason": "Abandoned/Junk Vehicles",
    "date_created": "2025-10-15T20:08:33.000",
    "date_modified": "2025-10-15T20:08:36.000",
    "request_status": "Pending",
    "responsible_agency": "Department of Public Works",
    "final_address": "4568 Laine Ave",
    "address_councildis": "E",
    "status": "Pending",
    "rowid": "1233807",
    "final_x": "3705768.84126",
    "final_y": "554320.558744",
    "longitude": "-89.99059502422291",
    "latitude": "30.017429557885198",
    "geocoded_column": {
      "latitude": "30.017429557885198",
      "longitude": "-89.99059502422291"
    }
  },
  {
    "service_request": "2025-1233806",
    "request_type": "Trash/Recycling",
    "request_reason": "Request a Large Item Pick Up",
    "date_created": "2025-10-15T19:55:50.000",
    "date_modified": "2025-10-15T19:55:52.000",
    "request_status": "Pending",
    "responsible_agency": "Department of Sanitation",
    "final_address": "1741 Elysian Fields Ave",
    "address_councildis": "D",
    "status": "Assigned to Contractor",
    "contractor": "IV Waste",
    "rowid": "1233806",
    "final_x": "3684913.93378",
    "final_y": "538859.868041",
    "longitude": "-90.05703221259067",
    "latitude": "29.97557368478291",
    "geocoded_column": {
      "latitude": "29.97557368478291",
      "longitude": "-90.05703221259067"
    }
  },
  {
    "service_request": "2025-1233805",
    "request_type": "Trash/Recycling",
    "request_reason": "Request a Large Item Pick Up",
    "date_created": "2025-10-15T19:51:34.000",
    "date_modified": "2025-10-15T19:51:36.000",
    "request_status": "Pending",
    "responsible_agency": "Department of Sanitation",
    "final_address": "1725 Second St",
    "address_councildis": "B",
    "status": "Assigned to Contractor",
    "contractor": "IV Waste",
    "rowid": "1233805",
    "final_x": "3676400.13096",
    "final_y": "523553.212667",
    "longitude": "-90.08444807101502",
    "latitude": "29.933743511681364",
    "geocoded_column": {
      "latitude": "29.933743511681364",
      "longitude": "-90.08444807101502"
    }
  },
  {
    "service_request": "2025-1233804",
    "request_type": "Drainage",
    "request_reason": "Illegal Dumping (Sewer Odor)",
    "date_created": "2025-10-15T19:32:00.000",
    "date_modified": "2025-10-15T19:32:02.000",
    "request_status": "Pending",
    "responsible_agency": "Sewerage & Water Board",
    "final_address": "5929 Camp St",
    "address_councildis": "A",
    "status": "Pending",
    "rowid": "1233804",
    "final_x": "3665081.97088",
    "final_y": "519490.934007",
    "longitude": "-90.12031487069862",
    "latitude": "29.922907874664983",
    "geocoded_column": {
      "latitude": "29.922907874664983",
      "longitude": "-90.12031487069862"
    }
  },
  {
    "service_request": "2025-1233803",
    "request_type": "Trash/Recycling",
    "request_reason": "Request a Large Item Pick Up",
    "date_created": "2025-10-15T19:31:05.000",
    "date_modified": "2025-10-15T19:31:06.000",
    "request_status": "Pending",
    "responsible_agency": "Department of Sanitation",
    "final_address": "833 Opelousas Ave",
    "address_councildis": "C",
    "status": "Assigned to Contractor",
    "contractor": "Richards Disposal",
    "rowid": "1233803",
    "final_x": "3688092.38607",
    "final_y": "529034.362752",
    "longitude": "-90.04734208395209",
    "latitude": "29.948459226502433",
    "geocoded_column": {
      "latitude": "29.948459226502433",
      "longitude": "-90.04734208395209"
    }
  },
  {
    "service_request": "2025-1233802",
    "request_type": "Trash/Recycling",
    "request_reason": "Request a Large Item Pick Up",
    "date_created": "2025-10-15T19:28:48.000",
    "date_modified": "2025-10-15T19:28:50.000",
    "request_status": "Pending",
    "responsible_agency": "Department of Sanitation",
    "final_address": "85 Audubon Blvd",
    "address_councildis": "A",
    "status": "Assigned to Contractor",
    "contractor": "IV Waste",
    "rowid": "1233802",
    "final_x": "3665940.62266",
    "final_y": "527736.288703",
    "longitude": "-90.11732822040973",
    "latitude": "29.94555495267322",
    "geocoded_column": {
      "latitude": "29.94555495267322",
      "longitude": "-90.11732822040973"
    }
  },
  {
    "service_request": "2025-1233801",
    "request_type": "Roads and Streets",
    "request_reason": "Push-up/Pavement Expansion",
    "date_created": "2025-10-15T19:16:27.000",
    "date_modified": "2025-10-15T19:16:30.000",
    "request_status": "Pending",
    "responsible_agency": "Department of Public Works",
    "final_address": "1920 Rivertree Ct",
    "address_councildis": "C",
    "status": "Pending",
    "rowid": "1233801",
    "final_x": "3701482.75345",
    "final_y": "523824.897659",
    "longitude": "-90.00525404214686",
    "latitude": "29.933715007858442",
    "geocoded_column": {
      "latitude": "29.933715007858442",
      "longitude": "-90.00525404214686"
    }
  },
  {
    "service_request": "2025-1233800",
    "request_type": "Streetlights",
    "request_reason": "Streetlight Outage/Malfunction",
    "date_created": "2025-10-15T19:08:59.000",
    "date_modified": "2025-10-15T19:09:01.000",
    "request_status": "Pending",
    "responsible_agency": "Department of Public Works",
    "final_address": "1410 Madrid St",
    "address_councildis": "D",
    "status": "Pending",
    "rowid": "1233800",
    "final_x": "3677578.97538",
    "final_y": "554471.530968",
    "longitude": "-90.07965858014333",
    "latitude": "30.018722863245213",
    "geocoded_column": {
      "latitude": "30.018722863245213",
      "longitude": "-90.07965858014333"
    }
  },
  {
    "service_request": "2025-1233799",
    "request_type": "Streetlights",
    "request_reason": "Streetlight Outage/Malfunction",
    "date_created": "2025-10-15T18:49:15.000",
    "date_modified": "2025-10-15T18:49:17.000",
    "request_status": "Pending",
    "responsible_agency": "Department of Public Works",
    "final_address": "436 S Cortez St",
    "address_councildis": "B",
    "status": "Pending",
    "rowid": "1233799",
    "final_x": "3671187.05243",
    "final_y": "536367.066247",
    "longitude": "-90.10047029755826",
    "latitude": "29.969132596035525",
    "geocoded_column": {
      "latitude": "29.969132596035525",
      "longitude": "-90.10047029755826"
    }
  },
  {
    "service_request": "2025-1233798",
    "request_type": "Abandoned Vehicles",
    "request_reason": "Abandoned/Junk Vehicles",
    "date_created": "2025-10-15T18:32:38.000",
    "date_modified": "2025-10-15T18:32:40.000",
    "request_status": "Pending",
    "responsible_agency": "Department of Public Works",
    "final_address": "5350 Laurel St",
    "address_councildis": "B",
    "status": "Pending",
    "rowid": "1233798",
    "final_x": "3666936.4178",
    "final_y": "517846.390326",
    "longitude": "-90.11451630326715",
    "latitude": "29.91833178527815",
    "geocoded_column": {
      "latitude": "29.91833178527815",
      "longitude": "-90.11451630326715"
    }
  },
  {
    "service_request": "2025-1233797",
    "request_type": "Trash/Recycling",
    "request_reason": "MIssed Recycling Pick-Up",
    "date_created": "2025-10-15T17:49:39.000",
    "date_modified": "2025-10-15T17:49:41.000",
    "request_status": "Pending",
    "responsible_agency": "Department of Sanitation",
    "final_address": "3600 Inwood Ave",
    "address_councildis": "C",
    "status": "Assigned to Contractor",
    "contractor": "Richards Disposal",
    "rowid": "1233797",
    "final_x": "3703753.27748",
    "final_y": "515258.372787",
    "longitude": "-89.99840123345416",
    "latitude": "29.91008747042939",
    "geocoded_column": {
      "latitude": "29.91008747042939",
      "longitude": "-89.99840123345416"
    }
  },
  {
    "service_request": "2025-1233796",
    "request_type": "Utility Poles",
    "request_reason": "Utility Pole Leaning",
    "date_created": "2025-10-15T17:49:18.000",
    "date_modified": "2025-10-15T17:49:21.000",
    "request_status": "Pending",
    "responsible_agency": "Utility Company Collective",
    "final_address": "248 Audubon Blvd",
    "address_councildis": "A",
    "status": "Pending",
    "rowid": "1233796",
    "final_x": "3666493.25402",
    "final_y": "529020.83136",
    "longitude": "-90.11554027276766",
    "latitude": "29.94907089164075",
    "geocoded_column": {
      "latitude": "29.94907089164075",
      "longitude": "-90.11554027276766"
    }
  },
  {
    "service_request": "2025-1233795",
    "request_type": "Abandoned Vehicles",
    "request_reason": "Abandoned/Junk Vehicles",
    "date_created": "2025-10-15T17:26:00.000",
    "date_modified": "2025-10-15T17:26:02.000",
    "request_status": "Pending",
    "responsible_agency": "Department of Public Works",
    "final_address": "2907 Banks St",
    "address_councildis": "B",
    "status": "Pending",
    "rowid": "1233795",
    "final_x": "3673865.23361",
    "final_y": "534800.996934",
    "longitude": "-90.09206597291343",
    "latitude": "29.964746928056908",
    "geocoded_column": {
      "latitude": "29.964746928056908",
      "longitude": "-90.09206597291343"
    }
  },
  {
    "service_request": "2025-1233794",
    "request_type": "General Services",
    "request_reason": "General Service Request",
    "date_created": "2025-10-15T17:20:01.000",
    "date_modified": "2025-10-15T17:20:04.000",
    "request_status": "Pending",
    "responsible_agency": "Orleans Parish Communication District",
    "final_address": "2721 Valence St",
    "address_councildis": "B",
    "status": "Pending",
    "rowid": "1233794",
    "final_x": "3669383.54721",
    "final_y": "524812.843516",
    "longitude": "-90.10655657783073",
    "latitude": "29.93741550990915",
    "geocoded_column": {
      "latitude": "29.93741550990915",
      "longitude": "-90.10655657783073"
    }
  },
  {
    "service_request": "2025-1233793",
    "request_type": "Roads and Streets",
    "request_reason": "Debris in Driving Lanes",
    "date_created": "2025-10-15T17:15:17.000",
    "date_modified": "2025-10-15T17:15:18.000",
    "request_status": "Pending",
    "responsible_agency": "Department of Public Works",
    "final_address": "2742 St Charles Ave",
    "address_councildis": "B",
    "status": "Pending",
    "rowid": "1233793",
    "final_x": "3676022.74901",
    "final_y": "522469.35577",
    "longitude": "-90.08567670604667",
    "latitude": "29.93077456294261",
    "geocoded_column": {
      "latitude": "29.93077456294261",
      "longitude": "-90.08567670604667"
    }
  },
  {
    "service_request": "2025-1233792",
    "request_type": "Trash/Recycling",
    "request_reason": "Replace Trash Cart",
    "date_created": "2025-10-15T17:13:14.000",
    "date_modified": "2025-10-15T17:13:16.000",
    "request_status": "Pending",
    "responsible_agency": "Department of Sanitation",
    "final_address": "2110 Marais St",
    "address_councildis": "C",
    "status": "Assigned to Contractor",
    "contractor": "IV Waste",
    "rowid": "1233792",
    "final_x": "3684670.90044",
    "final_y": "536608.611079",
    "longitude": "-90.0578789210821",
    "latitude": "29.969390953617566",
    "geocoded_column": {
      "latitude": "29.969390953617566",
      "longitude": "-90.0578789210821"
    }
  },
  {
    "service_request": "2025-1233791",
    "request_type": "Trash/Recycling",
    "request_reason": "MIssed Recycling Pick-Up",
    "date_created": "2025-10-15T16:57:55.000",
    "date_modified": "2025-10-15T16:57:56.000",
    "request_status": "Pending",
    "responsible_agency": "Department of Sanitation",
    "final_address": "2011 Calhoun St",
    "address_councildis": "A",
    "status": "Assigned to Contractor",
    "contractor": "IV Waste",
    "rowid": "1233791",
    "final_x": "3665594.6608",
    "final_y": "524510.149372",
    "longitude": "-90.11852852946802",
    "latitude": "29.936694194676054",
    "geocoded_column": {
      "latitude": "29.936694194676054",
      "longitude": "-90.11852852946802"
    }
  },
  {
    "service_request": "2025-1233790",
    "request_type": "Roads and Streets",
    "request_reason": "Pothole",
    "date_created": "2025-10-15T16:57:53.000",
    "date_modified": "2025-10-15T16:57:54.000",
    "request_status": "Pending",
    "responsible_agency": "Department of Public Works",
    "final_address": "2500 BLK Myrtle St",
    "address_councildis": "D",
    "status": "Pending",
    "rowid": "1233790",
    "final_x": "3686768.1822",
    "final_y": "546030.642634",
    "longitude": "-90.05092253381262",
    "latitude": "29.995233846019083",
    "geocoded_column": {
      "latitude": "29.995233846019083",
      "longitude": "-90.05092253381262"
    }
  },
  {
    "service_request": "2025-1233789",
    "request_type": "Trash/Recycling",
    "request_reason": "Request a Large Item Pick Up",
    "date_created": "2025-10-15T16:51:48.000",
    "date_modified": "2025-10-15T16:51:50.000",
    "request_status": "Pending",
    "responsible_agency": "Department of Sanitation",
    "final_address": "2012 Bienville Ave",
    "address_councildis": "B",
    "status": "Assigned to Contractor",
    "contractor": "IV Waste",
    "rowid": "1233789",
    "final_x": "3677865.06203",
    "final_y": "534090.038917",
    "longitude": "-90.07945934737232",
    "latitude": "29.96267228738823",
    "geocoded_column": {
      "latitude": "29.96267228738823",
      "longitude": "-90.07945934737232"
    }
  },
  {
    "service_request": "2025-1233788",
    "request_type": "Property Maintenance",
    "request_reason": "Property Maintenance",
    "date_created": "2025-10-15T16:46:24.000",
    "date_modified": "2025-10-15T16:46:27.000",
    "request_status": "Pending",
    "responsible_agency": "Department of Code Enforcement",
    "final_address": "9999 Lake Forest Blvd",
    "address_councildis": "E",
    "status": "Pending",
    "rowid": "1233788",
    "final_x": "3710976.71409",
    "final_y": "560035.412509",
    "longitude": "-89.97392616951281",
    "latitude": "30.032974325442808",
    "geocoded_column": {
      "latitude": "30.032974325442808",
      "longitude": "-89.97392616951281"
    }
  },
  {
    "service_request": "2025-1233787",
    "request_type": "General Services",
    "request_reason": "General Service Request",
    "date_created": "2025-10-15T16:41:10.000",
    "date_modified": "2025-10-15T16:53:40.000",
    "case_close_date": "2025-10-15T11:53:39.000",
    "request_status": "Closed",
    "responsible_agency": "Orleans Parish Communication District",
    "final_address": "5725 General Diaz St",
    "address_councildis": "A",
    "status": "Additional information requested from citizen",
    "rowid": "1233787",
    "final_x": "3669398.32666",
    "final_y": "545538.721616",
    "longitude": "-90.10580894181041",
    "latitude": "29.99440433255263",
    "geocoded_column": {
      "latitude": "29.99440433255263",
      "longitude": "-90.10580894181041"
    }
  },
  {
    "service_request": "2025-1233786",
    "request_type": "Trash/Recycling",
    "request_reason": "Repair Trash Cart",
    "date_created": "2025-10-15T16:34:32.000",
    "date_modified": "2025-10-15T17:11:29.000",
    "request_status": "Pending",
    "responsible_agency": "Department of Sanitation",
    "final_address": "11296 Midpoint Dr",
    "address_councildis": "E",
    "status": "Assigned to Contractor",
    "contractor": "Waste Pro",
    "rowid": "1233786",
    "final_x": "3718572.16274",
    "final_y": "559520.196637",
    "longitude": "-89.94994379972407",
    "latitude": "30.031307730624725",
    "geocoded_column": {
      "latitude": "30.031307730624725",
      "longitude": "-89.94994379972407"
    }
  },
  {
    "service_request": "2025-1233785",
    "request_type": "Trash/Recycling",
    "request_reason": "Order Trash Cart",
    "date_created": "2025-10-15T16:33:08.000",
    "date_modified": "2025-10-15T16:33:10.000",
    "request_status": "Pending",
    "responsible_agency": "Department of Sanitation",
    "final_address": "11420 N St Andrews Cir",
    "address_councildis": "E",
    "status": "Assigned to Contractor",
    "contractor": "Waste Pro",
    "rowid": "1233785",
    "final_x": "3719125.13157",
    "final_y": "560212.533661",
    "longitude": "-89.94816997048291",
    "latitude": "30.033193009494102",
    "geocoded_column": {
      "latitude": "30.033193009494102",
      "longitude": "-89.94816997048291"
    }
  },
  {
    "service_request": "2025-1233784",
    "request_type": "Parks & Parkways",
    "request_reason": "Request Grass Cutting Service (City Owned Property)",
    "date_created": "2025-10-15T16:30:51.000",
    "date_modified": "2025-10-15T16:30:52.000",
    "request_status": "Pending",
    "responsible_agency": "Department of Parks & Parkway",
    "final_address": "5057 Dreux Ave",
    "address_councildis": "D",
    "status": "Pending",
    "rowid": "1233784",
    "final_x": "3692300.34806",
    "final_y": "553549.488407",
    "longitude": "-90.03317755911401",
    "latitude": "30.015736496567637",
    "geocoded_column": {
      "latitude": "30.015736496567637",
      "longitude": "-90.03317755911401"
    }
  },
  {
    "service_request": "2025-1233783",
    "request_type": "Trash/Recycling",
    "request_reason": "Request a Large Item Pick Up",
    "date_created": "2025-10-15T16:29:35.000",
    "date_modified": "2025-10-15T16:29:37.000",
    "request_status": "Pending",
    "responsible_agency": "Department of Sanitation",
    "final_address": "10816 Curran Rd",
    "address_councildis": "E",
    "status": "Assigned to Contractor",
    "contractor": "Waste Pro",
    "rowid": "1233783",
    "final_x": "3709925.87198",
    "final_y": "565682.515042",
    "longitude": "-89.97703566673633",
    "latitude": "30.04853583910742",
    "geocoded_column": {
      "latitude": "30.04853583910742",
      "longitude": "-89.97703566673633"
    }
  },
  {
    "service_request": "2025-1233782",
    "request_type": "Roads and Streets",
    "request_reason": "Street Subsidence (Sinking)",
    "date_created": "2025-10-15T16:26:14.000",
    "date_modified": "2025-10-15T16:26:16.000",
    "request_status": "Pending",
    "responsible_agency": "Sewerage & Water Board",
    "final_address": "MARTIN LUTHER KING JR BLVD & S DORGENOIS ST",
    "address_councildis": "B",
    "status": "Pending",
    "rowid": "1233782",
    "final_x": "3672394.7",
    "final_y": "529867.48",
    "longitude": "-90.09687794652353",
    "latitude": "29.951225117181014",
    "geocoded_column": {
      "latitude": "29.951225117181014",
      "longitude": "-90.09687794652353"
    }
  },
  {
    "service_request": "2025-1233781",
    "request_type": "Traffic Signals",
    "request_reason": "Traffic Signal Malfunctioning or Damaged",
    "date_created": "2025-10-15T16:16:29.000",
    "date_modified": "2025-10-15T16:16:30.000",
    "request_status": "Pending",
    "responsible_agency": "Department of Public Works",
    "final_address": "WOODLAND DR & BERKLEY DR",
    "address_councildis": "C",
    "status": "Pending",
    "rowid": "1233781",
    "final_x": "3705489.5",
    "final_y": "518109.58",
    "longitude": "-89.99281612760552",
    "latitude": "29.91787157497775",
    "geocoded_column": {
      "latitude": "29.91787157497775",
      "longitude": "-89.99281612760552"
    }
  },
  {
    "service_request": "2025-1233780",
    "request_type": "General Services",
    "request_reason": "General Service Request",
    "date_created": "2025-10-15T16:14:54.000",
    "date_modified": "2025-10-15T16:56:07.000",
    "case_close_date": "2025-10-15T11:17:56.000",
    "request_status": "Closed",
    "responsible_agency": "Orleans Parish Communication District",
    "final_address": "MARTIN LUTHER KING JR BLVD & S DORGENOIS ST",
    "address_councildis": "B",
    "status": "Referred to Risk Management",
    "rowid": "1233780",
    "final_x": "3672394.7",
    "final_y": "529867.48",
    "longitude": "-90.09687794652353",
    "latitude": "29.951225117181014",
    "geocoded_column": {
      "latitude": "29.951225117181014",
      "longitude": "-90.09687794652353"
    }
  },
  {
    "service_request": "2025-1233779",
    "request_type": "Roads and Streets",
    "request_reason": "Street Subsidence (Sinking)",
    "date_created": "2025-10-15T16:04:27.000",
    "date_modified": "2025-10-15T16:04:28.000",
    "request_status": "Pending",
    "responsible_agency": "Sewerage & Water Board",
    "final_address": "2400 BLK Fern St",
    "address_councildis": "A",
    "status": "Pending",
    "rowid": "1233779",
    "final_x": "3665572.47755",
    "final_y": "531183.931186",
    "longitude": "-90.11837515948015",
    "latitude": "29.955045589811697",
    "geocoded_column": {
      "latitude": "29.955045589811697",
      "longitude": "-90.11837515948015"
    }
  },
  {
    "service_request": "2025-1233778",
    "request_type": "Trash/Recycling",
    "request_reason": "Replace Trash Cart",
    "date_created": "2025-10-15T15:58:20.000",
    "date_modified": "2025-10-15T15:58:21.000",
    "request_status": "Pending",
    "responsible_agency": "Department of Sanitation",
    "final_address": "7818 Hickory St",
    "address_councildis": "A",
    "status": "Assigned to Contractor",
    "contractor": "IV Waste",
    "rowid": "1233778",
    "final_x": "3664063.68295",
    "final_y": "529255.792321",
    "longitude": "-90.12320368892902",
    "latitude": "29.949787735046293",
    "geocoded_column": {
      "latitude": "29.949787735046293",
      "longitude": "-90.12320368892902"
    }
  },
  {
    "service_request": "2025-1233777",
    "request_type": "Trash/Recycling",
    "request_reason": "Request a Large Item Pick Up",
    "date_created": "2025-10-15T15:54:51.000",
    "date_modified": "2025-10-15T15:55:29.000",
    "request_status": "Pending",
    "responsible_agency": "Department of Sanitation",
    "final_address": "6019 Beechcraft St",
    "address_councildis": "D",
    "status": "Assigned to Contractor",
    "contractor": "Waste Pro",
    "rowid": "1233777",
    "final_x": "3696553.50832",
    "final_y": "553205.917463",
    "longitude": "-90.01975201524084",
    "latitude": "30.014658423984173",
    "geocoded_column": {
      "latitude": "30.014658423984173",
      "longitude": "-90.01975201524084"
    }
  },
  {
    "service_request": "2025-1233776",
    "request_type": "Trash/Recycling",
    "request_reason": "Request a Large Item Pick Up",
    "date_created": "2025-10-15T15:45:47.000",
    "date_modified": "2025-10-15T15:47:49.000",
    "request_status": "Pending",
    "responsible_agency": "Department of Sanitation",
    "final_address": "7210 Arbor Dr",
    "address_councildis": "E",
    "status": "Assigned to Contractor",
    "contractor": "Waste Pro",
    "rowid": "1233776",
    "final_x": "3700646.65969",
    "final_y": "557901.136539",
    "longitude": "-90.00664797801572",
    "latitude": "30.02743882331869",
    "geocoded_column": {
      "latitude": "30.02743882331869",
      "longitude": "-90.00664797801572"
    }
  },
  {
    "service_request": "2025-1233775",
    "request_type": "Trash/Recycling",
    "request_reason": "Request a Large Item Pick Up",
    "date_created": "2025-10-15T15:45:19.000",
    "date_modified": "2025-10-15T15:45:20.000",
    "request_status": "Pending",
    "responsible_agency": "Department of Sanitation",
    "final_address": "2724 Upperline St",
    "address_councildis": "B",
    "status": "Assigned to Contractor",
    "contractor": "IV Waste",
    "rowid": "1233775",
    "final_x": "3669162.00564",
    "final_y": "524841.84326",
    "longitude": "-90.10725502206041",
    "latitude": "29.937501769955087",
    "geocoded_column": {
      "latitude": "29.937501769955087",
      "longitude": "-90.10725502206041"
    }
  },
  {
    "service_request": "2025-1233774",
    "request_type": "Trash/Recycling",
    "request_reason": "Request a Large Item Pick Up",
    "date_created": "2025-10-15T15:44:25.000",
    "date_modified": "2025-10-15T15:44:27.000",
    "request_status": "Pending",
    "responsible_agency": "Department of Sanitation",
    "final_address": "968 S Telemachus St",
    "address_councildis": "B",
    "status": "Assigned to Contractor",
    "contractor": "IV Waste",
    "rowid": "1233774",
    "final_x": "3669899.94817",
    "final_y": "534027.647749",
    "longitude": "-90.10461430047121",
    "latitude": "29.962737991561422",
    "geocoded_column": {
      "latitude": "29.962737991561422",
      "longitude": "-90.10461430047121"
    }
  },
  {
    "service_request": "2025-1233773",
    "request_type": "Trash/Recycling",
    "request_reason": "Request a Large Item Pick Up",
    "date_created": "2025-10-15T15:44:02.000",
    "date_modified": "2025-10-15T15:44:43.000",
    "request_status": "Pending",
    "responsible_agency": "Department of Sanitation",
    "final_address": "603 Fats Domino Ave",
    "address_councildis": "E",
    "status": "Assigned to Contractor",
    "contractor": "Waste Pro",
    "rowid": "1233773",
    "final_x": "3697601.45994",
    "final_y": "531965.147139",
    "longitude": "-90.01721185211875",
    "latitude": "29.956220979519568",
    "geocoded_column": {
      "latitude": "29.956220979519568",
      "longitude": "-90.01721185211875"
    }
  },
  {
    "service_request": "2025-1233772",
    "request_type": "Trash/Recycling",
    "request_reason": "Illegal Dumping",
    "date_created": "2025-10-15T15:43:21.000",
    "date_modified": "2025-10-15T15:43:23.000",
    "request_status": "Pending",
    "responsible_agency": "Department of Sanitation",
    "final_address": "2511 St Peter St Apt A",
    "address_councildis": "D",
    "status": "Pending",
    "rowid": "1233772",
    "final_x": "3677405.15758",
    "final_y": "536365.300999",
    "longitude": "-90.08083312738658",
    "latitude": "29.968942315354777",
    "geocoded_column": {
      "latitude": "29.968942315354777",
      "longitude": "-90.08083312738658"
    }
  },
  {
    "service_request": "2025-1233771",
    "request_type": "Safety & Permits",
    "request_reason": "Licenses & Permits",
    "date_created": "2025-10-15T15:41:52.000",
    "date_modified": "2025-10-15T15:41:54.000",
    "request_status": "Pending",
    "responsible_agency": "Safety and Permits",
    "final_address": "21135 Chef Menteur Hwy",
    "address_councildis": "E",
    "status": "Pending",
    "rowid": "1233771",
    "final_x": "3765454.31888",
    "final_y": "574701.902955",
    "longitude": "-89.80115705151728",
    "latitude": "30.071410828363792",
    "geocoded_column": {
      "latitude": "30.071410828363792",
      "longitude": "-89.80115705151728"
    }
  },
  {
    "service_request": "2025-1233770",
    "request_type": "Trash/Recycling",
    "request_reason": "Repair Trash Cart",
    "date_created": "2025-10-15T15:41:28.000",
    "date_modified": "2025-10-15T15:41:30.000",
    "request_status": "Pending",
    "responsible_agency": "Department of Sanitation",
    "final_address": "2920 Banks St",
    "address_councildis": "B",
    "status": "Assigned to Contractor",
    "contractor": "IV Waste",
    "rowid": "1233770",
    "final_x": "3673682.72782",
    "final_y": "534760.16071",
    "longitude": "-90.09264371119154",
    "latitude": "29.96464007712551",
    "geocoded_column": {
      "latitude": "29.96464007712551",
      "longitude": "-90.09264371119154"
    }
  },
  {
    "service_request": "2025-1233769",
    "request_type": "Parks & Parkways",
    "request_reason": "Request Tree Service (Right of Way/Public Property)",
    "date_created": "2025-10-15T15:38:42.000",
    "date_modified": "2025-10-15T15:43:37.000",
    "request_status": "Pending",
    "responsible_agency": "Department of Parks & Parkway",
    "final_address": "4901 Dale St",
    "address_councildis": "E",
    "status": "Pending",
    "rowid": "1233769",
    "final_x": "3699486.45079",
    "final_y": "555286.932825",
    "longitude": "-90.01040949274649",
    "latitude": "30.020287648780528",
    "geocoded_column": {
      "latitude": "30.020287648780528",
      "longitude": "-90.01040949274649"
    }
  },
  {
    "service_request": "2025-1233768",
    "request_type": "Trash/Recycling",
    "request_reason": "Repair Trash Cart",
    "date_created": "2025-10-15T15:36:18.000",
    "date_modified": "2025-10-15T15:36:20.000",
    "request_status": "Pending",
    "responsible_agency": "Department of Sanitation",
    "final_address": "603 Hendee St",
    "address_councildis": "C",
    "status": "Assigned to Contractor",
    "contractor": "Richards Disposal",
    "rowid": "1233768",
    "final_x": "3690824.14364",
    "final_y": "529298.335297",
    "longitude": "-90.0387073992152",
    "latitude": "29.949100475855722",
    "geocoded_column": {
      "latitude": "29.949100475855722",
      "longitude": "-90.0387073992152"
    }
  },
  {
    "service_request": "2025-1233767",
    "request_type": "Trash/Recycling",
    "request_reason": "Request a Large Item Pick Up",
    "date_created": "2025-10-15T15:35:56.000",
    "date_modified": "2025-10-15T15:36:00.000",
    "request_status": "Pending",
    "responsible_agency": "Department of Sanitation",
    "final_address": "1216 Louisa St",
    "address_councildis": "C",
    "status": "Assigned to Contractor",
    "contractor": "IV Waste",
    "rowid": "1233767",
    "final_x": "3689649.85692",
    "final_y": "536374.220935",
    "longitude": "-90.04216337142192",
    "latitude": "29.96859313338487",
    "geocoded_column": {
      "latitude": "29.96859313338487",
      "longitude": "-90.04216337142192"
    }
  },
  {
    "service_request": "2025-1233766",
    "request_type": "Trash/Recycling",
    "request_reason": "Order Second Trash Cart",
    "date_created": "2025-10-15T15:33:53.000",
    "date_modified": "2025-10-15T15:33:54.000",
    "request_status": "Pending",
    "responsible_agency": "Department of Sanitation",
    "final_address": "300 Walker St",
    "address_councildis": "A",
    "status": "Assigned to Contractor",
    "contractor": "IV Waste",
    "rowid": "1233766",
    "final_x": "3667780.46804",
    "final_y": "554050.655",
    "longitude": "-90.11063264932325",
    "latitude": "30.01785674215003",
    "geocoded_column": {
      "latitude": "30.01785674215003",
      "longitude": "-90.11063264932325"
    }
  },
  {
    "service_request": "2025-1233765",
    "request_type": "Streetlights",
    "request_reason": "Streetlight Outage/Malfunction",
    "date_created": "2025-10-15T15:33:31.000",
    "date_modified": "2025-10-15T15:37:41.000",
    "request_status": "Pending",
    "responsible_agency": "Department of Public Works",
    "final_address": "5300 Berkley Dr",
    "address_councildis": "C",
    "status": "Pending",
    "rowid": "1233765",
    "final_x": "3703359.75998",
    "final_y": "518294.021686",
    "longitude": "-89.99953171787156",
    "latitude": "29.91844706456825",
    "geocoded_column": {
      "latitude": "29.91844706456825",
      "longitude": "-89.99953171787156"
    }
  },
  {
    "service_request": "2025-1233764",
    "request_type": "Trash/Recycling",
    "request_reason": "Request a Large Item Pick Up",
    "date_created": "2025-10-15T15:33:16.000",
    "date_modified": "2025-10-15T15:33:17.000",
    "request_status": "Pending",
    "responsible_agency": "Department of Sanitation",
    "final_address": "3285 Elmwood Park Dr",
    "address_councildis": "C",
    "status": "Assigned to Contractor",
    "contractor": "Richards Disposal",
    "rowid": "1233764",
    "final_x": "3695268.92234",
    "final_y": "517967.612406",
    "longitude": "-90.0250818256429",
    "latitude": "29.917806034977218",
    "geocoded_column": {
      "latitude": "29.917806034977218",
      "longitude": "-90.0250818256429"
    }
  },
  {
    "service_request": "2025-1233763",
    "request_type": "Roads and Streets",
    "request_reason": "Pothole",
    "date_created": "2025-10-15T15:30:11.000",
    "date_modified": "2025-10-15T15:30:13.000",
    "request_status": "Pending",
    "responsible_agency": "Department of Public Works",
    "final_address": "1500 BLK Leda St",
    "address_councildis": "A",
    "status": "Pending",
    "rowid": "1233763",
    "final_x": "3675688.34019",
    "final_y": "541685.672978",
    "longitude": "-90.08607206190293",
    "latitude": "29.983623005629624",
    "geocoded_column": {
      "latitude": "29.983623005629624",
      "longitude": "-90.08607206190293"
    }
  },
  {
    "service_request": "2025-1233762",
    "request_type": "Trash/Recycling",
    "request_reason": "Illegal Dumping",
    "date_created": "2025-10-15T15:30:06.000",
    "date_modified": "2025-10-15T15:30:08.000",
    "request_status": "Pending",
    "responsible_agency": "Department of Sanitation",
    "final_address": "8600 BLK Stroelitz St",
    "address_councildis": "A",
    "status": "Pending",
    "rowid": "1233762",
    "final_x": "3666510.60198",
    "final_y": "536265.49681",
    "longitude": "-90.11524232797963",
    "latitude": "29.968990837342105",
    "geocoded_column": {
      "latitude": "29.968990837342105",
      "longitude": "-90.11524232797963"
    }
  },
  {
    "service_request": "2025-1233761",
    "request_type": "Trash/Recycling",
    "request_reason": "Request a Large Item Pick Up",
    "date_created": "2025-10-15T15:29:47.000",
    "date_modified": "2025-10-15T15:29:50.000",
    "request_status": "Pending",
    "responsible_agency": "Department of Sanitation",
    "final_address": "8415 Colapissa St",
    "address_councildis": "A",
    "status": "Assigned to Contractor",
    "contractor": "IV Waste",
    "rowid": "1233761",
    "final_x": "3665670.25818",
    "final_y": "534243.449669",
    "longitude": "-90.11796393321049",
    "latitude": "29.963455412332355",
    "geocoded_column": {
      "latitude": "29.963455412332355",
      "longitude": "-90.11796393321049"
    }
  },
  {
    "service_request": "2025-1233760",
    "request_type": "Trash/Recycling",
    "request_reason": "Request a Large Item Pick Up",
    "date_created": "2025-10-15T15:29:34.000",
    "date_modified": "2025-10-15T15:29:36.000",
    "request_status": "Pending",
    "responsible_agency": "Department of Sanitation",
    "final_address": "15 Vivian Ct",
    "address_councildis": "C",
    "status": "Assigned to Contractor",
    "contractor": "Richards Disposal",
    "rowid": "1233760",
    "final_x": "3702132.80381",
    "final_y": "521277.857977",
    "longitude": "-90.0032952142542",
    "latitude": "29.926690800471036",
    "geocoded_column": {
      "latitude": "29.926690800471036",
      "longitude": "-90.0032952142542"
    }
  },
  {
    "service_request": "2025-1233759",
    "request_type": "Roads and Streets",
    "request_reason": "Pothole",
    "date_created": "2025-10-15T15:29:34.000",
    "date_modified": "2025-10-15T15:29:35.000",
    "request_status": "Pending",
    "responsible_agency": "Department of Public Works",
    "final_address": "3011 Dauphine St",
    "address_councildis": "C",
    "status": "Pending",
    "rowid": "1233759",
    "final_x": "3688262.0438",
    "final_y": "534998.617158",
    "longitude": "-90.04659493272945",
    "latitude": "29.964853630314995",
    "geocoded_column": {
      "latitude": "29.964853630314995",
      "longitude": "-90.04659493272945"
    }
  },
  {
    "service_request": "2025-1233758",
    "request_type": "Trash/Recycling",
    "request_reason": "Request a Large Item Pick Up",
    "date_created": "2025-10-15T15:26:28.000",
    "date_modified": "2025-10-15T15:26:30.000",
    "request_status": "Pending",
    "responsible_agency": "Department of Sanitation",
    "final_address": "1918 Washington Ave",
    "address_councildis": "B",
    "status": "Assigned to Contractor",
    "contractor": "IV Waste",
    "rowid": "1233758",
    "final_x": "3675194.17531",
    "final_y": "523559.960571",
    "longitude": "-90.08825498797992",
    "latitude": "29.933798152998662",
    "geocoded_column": {
      "latitude": "29.933798152998662",
      "longitude": "-90.08825498797992"
    }
  },
  {
    "service_request": "2025-1233757",
    "request_type": "Trash/Recycling",
    "request_reason": "Request a Large Item Pick Up",
    "date_created": "2025-10-15T15:24:34.000",
    "date_modified": "2025-10-15T15:24:38.000",
    "request_status": "Pending",
    "responsible_agency": "Department of Sanitation",
    "final_address": "6241 Kingston Ct",
    "address_councildis": "C",
    "status": "Assigned to Contractor",
    "contractor": "Richards Disposal",
    "rowid": "1233757",
    "final_x": "3707160.04561",
    "final_y": "517745.210038",
    "longitude": "-89.98755668816732",
    "latitude": "29.916815839726723",
    "geocoded_column": {
      "latitude": "29.916815839726723",
      "longitude": "-89.98755668816732"
    }
  },
  {
    "service_request": "2025-1233756",
    "request_type": "Trash/Recycling",
    "request_reason": "Request a Large Item Pick Up",
    "date_created": "2025-10-15T15:16:31.000",
    "date_modified": "2025-10-15T15:16:33.000",
    "request_status": "Pending",
    "responsible_agency": "Department of Sanitation",
    "final_address": "2700 Dauphine St",
    "address_councildis": "C",
    "status": "Assigned to Contractor",
    "contractor": "IV Waste",
    "rowid": "1233756",
    "final_x": "3687145.17705",
    "final_y": "535218.97799",
    "longitude": "-90.05011412474414",
    "latitude": "29.965493984992246",
    "geocoded_column": {
      "latitude": "29.965493984992246",
      "longitude": "-90.05011412474414"
    }
  },
  {
    "service_request": "2025-1233755",
    "request_type": "Parks & Parkways",
    "request_reason": "Request Tree Service (Right of Way/Public Property)",
    "date_created": "2025-10-15T15:15:16.000",
    "date_modified": "2025-10-15T15:19:37.000",
    "request_status": "Pending",
    "responsible_agency": "Department of Parks & Parkway",
    "final_address": "1601 Casa Calvo St",
    "address_councildis": "C",
    "status": "Pending",
    "rowid": "1233755",
    "final_x": "3691969.93821",
    "final_y": "525402.967869",
    "longitude": "-90.03522897606676",
    "latitude": "29.93835390734296",
    "geocoded_column": {
      "latitude": "29.93835390734296",
      "longitude": "-90.03522897606676"
    }
  },
  {
    "service_request": "2025-1233754",
    "request_type": "Roads and Streets",
    "request_reason": "Sidewalk Damaged or Missing",
    "date_created": "2025-10-15T15:07:22.000",
    "date_modified": "2025-10-15T15:07:57.000",
    "request_status": "Pending",
    "responsible_agency": "Department of Public Works",
    "final_address": "CANAL ST & BASIN ST & ELK PL",
    "address_councildis": "B",
    "status": "Pending",
    "rowid": "1233754",
    "final_x": "3679822.4",
    "final_y": "531657.68",
    "longitude": "-90.07336279679207",
    "latitude": "29.955925085622518",
    "geocoded_column": {
      "latitude": "29.955925085622518",
      "longitude": "-90.07336279679207"
    }
  },
  {
    "service_request": "2025-1233753",
    "request_type": "Trash/Recycling",
    "request_reason": "Request a Large Item Pick Up",
    "date_created": "2025-10-15T15:06:37.000",
    "date_modified": "2025-10-15T15:06:38.000",
    "request_status": "Pending",
    "responsible_agency": "Department of Sanitation",
    "final_address": "2125 Willow St",
    "address_councildis": "B",
    "status": "Assigned to Contractor",
    "contractor": "IV Waste",
    "rowid": "1233753",
    "final_x": "3674955.18568",
    "final_y": "527465.695295",
    "longitude": "-90.08887555373869",
    "latitude": "29.94454478271209",
    "geocoded_column": {
      "latitude": "29.94454478271209",
      "longitude": "-90.08887555373869"
    }
  },
  {
    "service_request": "2025-1233752",
    "request_type": "Trash/Recycling",
    "request_reason": "Missed Trash Pick-Up",
    "date_created": "2025-10-15T15:01:56.000",
    "date_modified": "2025-10-15T15:49:23.000",
    "case_close_date": "2025-10-15T10:49:21.000",
    "request_status": "Closed",
    "responsible_agency": "Department of Sanitation",
    "final_address": "2639 Elder St",
    "address_councildis": "D",
    "status": "Invalid Request",
    "contractor": "IV Waste",
    "contractor_action": "Invalid",
    "rowid": "1233752",
    "final_x": "3687578.97762",
    "final_y": "545847.0756",
    "longitude": "-90.04836782328536",
    "latitude": "29.994704126673",
    "geocoded_column": {
      "latitude": "29.994704126673",
      "longitude": "-90.04836782328536"
    }
  },
  {
    "service_request": "2025-1233751",
    "request_type": "Abandoned Vehicles",
    "request_reason": "Abandoned/Junk Vehicles",
    "date_created": "2025-10-15T15:01:49.000",
    "date_modified": "2025-10-15T15:01:50.000",
    "request_status": "Pending",
    "responsible_agency": "Department of Public Works",
    "final_address": "6041 Laurel St",
    "address_councildis": "A",
    "status": "Pending",
    "rowid": "1233751",
    "final_x": "3664058.74855",
    "final_y": "518375.71647",
    "longitude": "-90.12358196478039",
    "latitude": "29.919871119834415",
    "geocoded_column": {
      "latitude": "29.919871119834415",
      "longitude": "-90.12358196478039"
    }
  },
  {
    "service_request": "2025-1233750",
    "request_type": "General Services",
    "request_reason": "General Service Request",
    "date_created": "2025-10-15T14:58:19.000",
    "date_modified": "2025-10-15T15:05:18.000",
    "case_close_date": "2025-10-15T10:05:17.000",
    "request_status": "Closed",
    "responsible_agency": "Orleans Parish Communication District",
    "final_address": "8358 Lake Forest Blvd",
    "address_councildis": "E",
    "status": "Referred to Risk Management",
    "rowid": "1233750",
    "final_x": "3705141.50225",
    "final_y": "557377.188699",
    "longitude": "-89.99246413392237",
    "latitude": "30.025854307032095",
    "geocoded_column": {
      "latitude": "30.025854307032095",
      "longitude": "-89.99246413392237"
    }
  },
  {
    "service_request": "2025-1233749",
    "request_type": "Trash/Recycling",
    "request_reason": "Request a Large Item Pick Up",
    "date_created": "2025-10-15T14:58:07.000",
    "date_modified": "2025-10-15T14:58:09.000",
    "request_status": "Pending",
    "responsible_agency": "Department of Sanitation",
    "final_address": "1447 Filmore Ave",
    "address_councildis": "D",
    "status": "Assigned to Contractor",
    "contractor": "IV Waste",
    "rowid": "1233749",
    "final_x": "3677832.17288",
    "final_y": "551902.642134",
    "longitude": "-90.07894742312457",
    "latitude": "30.01165172514108",
    "geocoded_column": {
      "latitude": "30.01165172514108",
      "longitude": "-90.07894742312457"
    }
  },
  {
    "service_request": "2025-1233748",
    "request_type": "Drainage",
    "request_reason": "Catch Basin Not Draining",
    "date_created": "2025-10-15T14:57:48.000",
    "date_modified": "2025-10-15T14:57:50.000",
    "request_status": "Pending",
    "responsible_agency": "Sewerage & Water Board",
    "final_address": "3600 BLK Calhoun St",
    "address_councildis": "A",
    "status": "Pending",
    "rowid": "1233748",
    "final_x": "3667901.24782",
    "final_y": "529855.84001",
    "longitude": "-90.11106648318552",
    "latitude": "29.951325671953693",
    "geocoded_column": {
      "latitude": "29.951325671953693",
      "longitude": "-90.11106648318552"
    }
  },
  {
    "service_request": "2025-1233747",
    "request_type": "Roads and Streets",
    "request_reason": "Push-up/Pavement Expansion",
    "date_created": "2025-10-15T14:57:16.000",
    "date_modified": "2025-10-15T14:57:18.000",
    "request_status": "Pending",
    "responsible_agency": "Department of Public Works",
    "final_address": "8358 Lake Forest Blvd",
    "address_councildis": "E",
    "status": "Pending",
    "rowid": "1233747",
    "final_x": "3705141.50225",
    "final_y": "557377.188699",
    "longitude": "-89.99246413392237",
    "latitude": "30.025854307032095",
    "geocoded_column": {
      "latitude": "30.025854307032095",
      "longitude": "-89.99246413392237"
    }
  },
  {
    "service_request": "2025-1233746",
    "request_type": "Roads and Streets",
    "request_reason": "Abandoned Service Cut",
    "date_created": "2025-10-15T14:55:34.000",
    "date_modified": "2025-10-15T15:13:57.000",
    "request_status": "Pending",
    "responsible_agency": "Department of Public Works",
    "final_address": "1206 Second St",
    "address_councildis": "B",
    "status": "Pending",
    "rowid": "1233746",
    "final_x": "3677533.16629",
    "final_y": "521663.045881",
    "longitude": "-90.08093635205609",
    "latitude": "29.928512165403795",
    "geocoded_column": {
      "latitude": "29.928512165403795",
      "longitude": "-90.08093635205609"
    }
  },
  {
    "service_request": "2025-1233745",
    "request_type": "Trash/Recycling",
    "request_reason": "Request a Large Item Pick Up",
    "date_created": "2025-10-15T14:52:52.000",
    "date_modified": "2025-10-15T14:52:55.000",
    "request_status": "Pending",
    "responsible_agency": "Department of Sanitation",
    "final_address": "2427 Pauline St",
    "address_councildis": "D",
    "status": "Assigned to Contractor",
    "contractor": "IV Waste",
    "rowid": "1233745",
    "final_x": "3692522.79203",
    "final_y": "540549.767499",
    "longitude": "-90.03294087139993",
    "latitude": "29.979985073142196",
    "geocoded_column": {
      "latitude": "29.979985073142196",
      "longitude": "-90.03294087139993"
    }
  },
  {
    "service_request": "2025-1233744",
    "request_type": "Safety & Permits",
    "request_reason": "Zoning Enforcement",
    "date_created": "2025-10-15T14:48:38.000",
    "date_modified": "2025-10-15T14:49:30.000",
    "request_status": "Pending",
    "responsible_agency": "Safety and Permits",
    "final_address": "2738 Valence St",
    "address_councildis": "B",
    "status": "Pending",
    "rowid": "1233744",
    "final_x": "3669280.44538",
    "final_y": "524935.871485",
    "longitude": "-90.1068779209339",
    "latitude": "29.937756831980487",
    "geocoded_column": {
      "latitude": "29.937756831980487",
      "longitude": "-90.1068779209339"
    }
  },
  {
    "service_request": "2025-1233743",
    "request_type": "Trash/Recycling",
    "request_reason": "Request a Large Item Pick Up",
    "date_created": "2025-10-15T14:45:11.000",
    "date_modified": "2025-10-15T14:45:13.000",
    "request_status": "Pending",
    "responsible_agency": "Department of Sanitation",
    "final_address": "2119 Humanity St",
    "address_councildis": "D",
    "status": "Assigned to Contractor",
    "contractor": "IV Waste",
    "rowid": "1233743",
    "final_x": "3683698.88604",
    "final_y": "544794.136847",
    "longitude": "-90.06066149680093",
    "latitude": "29.99192799202932",
    "geocoded_column": {
      "latitude": "29.99192799202932",
      "longitude": "-90.06066149680093"
    }
  },
  {
    "service_request": "2025-1233742",
    "request_type": "Streetlights",
    "request_reason": "Streetlight Outage/Malfunction",
    "date_created": "2025-10-15T14:43:36.000",
    "date_modified": "2025-10-15T14:43:38.000",
    "request_status": "Pending",
    "responsible_agency": "Department of Public Works",
    "final_address": "1206 Second St",
    "address_councildis": "B",
    "status": "Pending",
    "rowid": "1233742",
    "final_x": "3677533.16629",
    "final_y": "521663.045881",
    "longitude": "-90.08093635205609",
    "latitude": "29.928512165403795",
    "geocoded_column": {
      "latitude": "29.928512165403795",
      "longitude": "-90.08093635205609"
    }
  },
  {
    "service_request": "2025-1233741",
    "request_type": "Trash/Recycling",
    "request_reason": "Request a Large Item Pick Up",
    "date_created": "2025-10-15T14:40:41.000",
    "date_modified": "2025-10-15T14:40:46.000",
    "request_status": "Pending",
    "responsible_agency": "Department of Sanitation",
    "final_address": "4445 Francis Dr",
    "address_councildis": "D",
    "status": "Assigned to Contractor",
    "contractor": "Waste Pro",
    "rowid": "1233741",
    "final_x": "3698419.12784",
    "final_y": "552824.68943",
    "longitude": "-90.01387147126064",
    "latitude": "30.01355125161621",
    "geocoded_column": {
      "latitude": "30.01355125161621",
      "longitude": "-90.01387147126064"
    }
  },
  {
    "service_request": "2025-1233740",
    "request_type": "Trash/Recycling",
    "request_reason": "Missed Trash Pick-Up",
    "date_created": "2025-10-15T14:40:05.000",
    "date_modified": "2025-10-15T15:45:14.000",
    "case_close_date": "2025-10-15T10:45:13.000",
    "request_status": "Closed",
    "responsible_agency": "Department of Sanitation",
    "final_address": "524 S Genois St",
    "address_councildis": "B",
    "status": "Invalid Request",
    "contractor": "IV Waste",
    "contractor_action": "Invalid",
    "rowid": "1233740",
    "final_x": "3671522.84654",
    "final_y": "535713.974535",
    "longitude": "-90.0994320435359",
    "latitude": "29.967326874426597",
    "geocoded_column": {
      "latitude": "29.967326874426597",
      "longitude": "-90.0994320435359"
    }
  },
  {
    "service_request": "2025-1233739",
    "request_type": "Parks & Parkways",
    "request_reason": "Request Grass Cutting Service (City Owned Property)",
    "date_created": "2025-10-15T14:39:51.000",
    "date_modified": "2025-10-15T14:39:52.000",
    "request_status": "Pending",
    "responsible_agency": "Department of Parks & Parkway",
    "final_address": "1112 Monroe St",
    "address_councildis": "A",
    "status": "Pending",
    "rowid": "1233739",
    "final_x": "3660165.7872",
    "final_y": "529616.715137",
    "longitude": "-90.13549929222927",
    "latitude": "29.950892774487162",
    "geocoded_column": {
      "latitude": "29.950892774487162",
      "longitude": "-90.13549929222927"
    }
  },
  {
    "service_request": "2025-1233738",
    "request_type": "Streetlights",
    "request_reason": "Streetlight Outage/Malfunction",
    "date_created": "2025-10-15T14:39:30.000",
    "date_modified": "2025-10-15T14:39:31.000",
    "request_status": "Pending",
    "responsible_agency": "Department of Public Works",
    "final_address": "CALLIOPE ST & CLIO ST",
    "address_councildis": "B",
    "status": "Pending",
    "rowid": "1233738",
    "final_x": "3680538.47",
    "final_y": "526038.31",
    "longitude": "-90.07129713053992",
    "latitude": "29.940452033360483",
    "geocoded_column": {
      "latitude": "29.940452033360483",
      "longitude": "-90.07129713053992"
    }
  },
  {
    "service_request": "2025-1233737",
    "request_type": "Trash/Recycling",
    "request_reason": "Request a Large Item Pick Up",
    "date_created": "2025-10-15T14:39:03.000",
    "date_modified": "2025-10-15T14:39:05.000",
    "request_status": "Pending",
    "responsible_agency": "Department of Sanitation",
    "final_address": "7410 Seven Oaks Rd",
    "address_councildis": "E",
    "status": "Assigned to Contractor",
    "contractor": "Waste Pro",
    "rowid": "1233737",
    "final_x": "3712512.35531",
    "final_y": "565264.08605",
    "longitude": "-89.96887669617963",
    "latitude": "30.04730089452421",
    "geocoded_column": {
      "latitude": "30.04730089452421",
      "longitude": "-89.96887669617963"
    }
  },
  {
    "service_request": "2025-1233736",
    "request_type": "Trash/Recycling",
    "request_reason": "Request a Large Item Pick Up",
    "date_created": "2025-10-15T14:38:53.000",
    "date_modified": "2025-10-15T14:38:57.000",
    "request_status": "Pending",
    "responsible_agency": "Department of Sanitation",
    "final_address": "7660 Morel St",
    "address_councildis": "E",
    "status": "Assigned to Contractor",
    "contractor": "Waste Pro",
    "rowid": "1233736",
    "final_x": "3718619.00441",
    "final_y": "571979.280936",
    "longitude": "-89.94932023347494",
    "latitude": "30.065563537501262",
    "geocoded_column": {
      "latitude": "30.065563537501262",
      "longitude": "-89.94932023347494"
    }
  },
  {
    "service_request": "2025-1233735",
    "request_type": "Streetlights",
    "request_reason": "Streetlight Outage/Malfunction",
    "date_created": "2025-10-15T14:37:46.000",
    "date_modified": "2025-10-15T14:37:48.000",
    "request_status": "Pending",
    "responsible_agency": "Department of Public Works",
    "final_address": "2617 Athis St",
    "address_councildis": "D",
    "status": "Pending",
    "rowid": "1233735",
    "final_x": "3686692.58607",
    "final_y": "554513.692632",
    "longitude": "-90.05086140986762",
    "latitude": "30.018561469380344",
    "geocoded_column": {
      "latitude": "30.018561469380344",
      "longitude": "-90.05086140986762"
    }
  },
  {
    "service_request": "2025-1233734",
    "request_type": "Mosquito, Termite & Rodent Control",
    "request_reason": "Rodent Complaint (Mice & Rats)",
    "date_created": "2025-10-15T14:37:31.000",
    "date_modified": "2025-10-15T14:37:33.000",
    "request_status": "Pending",
    "responsible_agency": "Mosquito, Termite & Rodent Control Board",
    "final_address": "6073 Wilton Dr",
    "address_councildis": "D",
    "status": "Pending",
    "rowid": "1233734",
    "final_x": "3681741.77455",
    "final_y": "555232.030745",
    "longitude": "-90.0664790693951",
    "latitude": "30.020688068853044",
    "geocoded_column": {
      "latitude": "30.020688068853044",
      "longitude": "-90.0664790693951"
    }
  },
  {
    "service_request": "2025-1233733",
    "request_type": "Street and Traffic Signs",
    "request_reason": "Additional Signage Request",
    "date_created": "2025-10-15T14:35:29.000",
    "date_modified": "2025-10-15T14:41:32.000",
    "request_status": "Pending",
    "responsible_agency": "Department of Public Works",
    "final_address": "0 BLK Westpark Ct",
    "address_councildis": "C",
    "status": "Pending",
    "rowid": "1233733",
    "final_x": "3695829.76119",
    "final_y": "522028.752974",
    "longitude": "-90.02316500493308",
    "latitude": "29.928955174222477",
    "geocoded_column": {
      "latitude": "29.928955174222477",
      "longitude": "-90.02316500493308"
    }
  },
  {
    "service_request": "2025-1233732",
    "request_type": "Roads and Streets",
    "request_reason": "Sidewalk Damaged or Missing",
    "date_created": "2025-10-15T14:33:59.000",
    "date_modified": "2025-10-15T15:10:16.000",
    "request_status": "Pending",
    "responsible_agency": "Department of Public Works",
    "final_address": "1617 N Broad St",
    "address_councildis": "D",
    "status": "Pending",
    "rowid": "1233732",
    "final_x": "3679144.31528",
    "final_y": "540328.079755",
    "longitude": "-90.07520334229622",
    "latitude": "29.979786204926164",
    "geocoded_column": {
      "latitude": "29.979786204926164",
      "longitude": "-90.07520334229622"
    }
  },
  {
    "service_request": "2025-1233731",
    "request_type": "Property Maintenance",
    "request_reason": "Property Maintenance",
    "date_created": "2025-10-15T14:33:57.000",
    "date_modified": "2025-10-15T14:33:59.000",
    "request_status": "Pending",
    "responsible_agency": "Department of Code Enforcement",
    "final_address": "1568 N Rocheblave St",
    "address_councildis": "D",
    "status": "Pending",
    "rowid": "1233731",
    "final_x": "3679875.85563",
    "final_y": "539373.957706",
    "longitude": "-90.07292598750266",
    "latitude": "29.977140593822085",
    "geocoded_column": {
      "latitude": "29.977140593822085",
      "longitude": "-90.07292598750266"
    }
  },
  {
    "service_request": "2025-1233730",
    "request_type": "Trash/Recycling",
    "request_reason": "Start Trash Service",
    "date_created": "2025-10-15T14:32:32.000",
    "date_modified": "2025-10-15T14:32:33.000",
    "request_status": "Pending",
    "responsible_agency": "Department of Sanitation",
    "final_address": "1532 Euterpe St",
    "address_councildis": "B",
    "status": "Assigned to Contractor",
    "contractor": "IV Waste",
    "rowid": "1233730",
    "final_x": "3679076.46991",
    "final_y": "524852.255804",
    "longitude": "-90.07595399548345",
    "latitude": "29.937234972415446",
    "geocoded_column": {
      "latitude": "29.937234972415446",
      "longitude": "-90.07595399548345"
    }
  },
  {
    "service_request": "2025-1233729",
    "request_type": "Trash/Recycling",
    "request_reason": "Illegal Dumping",
    "date_created": "2025-10-15T14:28:28.000",
    "date_modified": "2025-10-15T14:30:05.000",
    "request_status": "Pending",
    "responsible_agency": "Department of Sanitation",
    "final_address": "2639 Elder St",
    "address_councildis": "D",
    "status": "Pending",
    "rowid": "1233729",
    "final_x": "3687578.97762",
    "final_y": "545847.0756",
    "longitude": "-90.04836782328536",
    "latitude": "29.994704126673",
    "geocoded_column": {
      "latitude": "29.994704126673",
      "longitude": "-90.04836782328536"
    }
  },
  {
    "service_request": "2025-1233728",
    "request_type": "Trash/Recycling",
    "request_reason": "Replace Trash Cart",
    "date_created": "2025-10-15T14:26:06.000",
    "date_modified": "2025-10-15T14:26:08.000",
    "request_status": "Pending",
    "responsible_agency": "Department of Sanitation",
    "final_address": "2538 Chartres St",
    "address_councildis": "C",
    "status": "Assigned to Contractor",
    "contractor": "IV Waste",
    "rowid": "1233728",
    "final_x": "3686594.81206",
    "final_y": "534600.02887",
    "longitude": "-90.05187400896696",
    "latitude": "29.96380902567455",
    "geocoded_column": {
      "latitude": "29.96380902567455",
      "longitude": "-90.05187400896696"
    }
  },
  {
    "service_request": "2025-1233727",
    "request_type": "Trash/Recycling",
    "request_reason": "Request a Large Item Pick Up",
    "date_created": "2025-10-15T14:24:55.000",
    "date_modified": "2025-10-15T14:27:21.000",
    "request_status": "Pending",
    "responsible_agency": "Department of Sanitation",
    "final_address": "5530 Atlanta St",
    "address_councildis": "A",
    "status": "Assigned to Contractor",
    "contractor": "IV Waste",
    "rowid": "1233727",
    "final_x": "3666659.05831",
    "final_y": "520907.853817",
    "longitude": "-90.11528905848313",
    "latitude": "29.92675795563615",
    "geocoded_column": {
      "latitude": "29.92675795563615",
      "longitude": "-90.11528905848313"
    }
  },
  {
    "service_request": "2025-1233726",
    "request_type": "Streetlights",
    "request_reason": "Streetlight Outage/Malfunction",
    "date_created": "2025-10-15T14:23:34.000",
    "date_modified": "2025-10-15T14:23:35.000",
    "request_status": "Pending",
    "responsible_agency": "Department of Public Works",
    "final_address": "3300 BLK Belfort St",
    "address_councildis": "A",
    "status": "Pending",
    "rowid": "1233726",
    "final_x": "3677302.66373",
    "final_y": "542563.617744",
    "longitude": "-90.08094286069698",
    "latitude": "29.98598863298689",
    "geocoded_column": {
      "latitude": "29.98598863298689",
      "longitude": "-90.08094286069698"
    }
  },
  {
    "service_request": "2025-1233725",
    "request_type": "Trash/Recycling",
    "request_reason": "Order Second Trash Cart",
    "date_created": "2025-10-15T14:21:15.000",
    "date_modified": "2025-10-15T15:58:59.000",
    "case_close_date": "2025-10-15T10:58:57.000",
    "request_status": "Closed",
    "responsible_agency": "Department of Sanitation",
    "final_address": "4821 Sherwood Dr",
    "address_councildis": "E",
    "status": "Assigned to Contractor",
    "contractor": "Waste Pro",
    "contractor_action": "Duplicate",
    "rowid": "1233725",
    "final_x": "3718029.55225",
    "final_y": "557365.478171",
    "longitude": "-89.95174054861263",
    "latitude": "30.025401121060813",
    "geocoded_column": {
      "latitude": "30.025401121060813",
      "longitude": "-89.95174054861263"
    }
  },
  {
    "service_request": "2025-1233724",
    "request_type": "Trash/Recycling",
    "request_reason": "Request a Large Item Pick Up",
    "date_created": "2025-10-15T14:19:04.000",
    "date_modified": "2025-10-15T14:21:17.000",
    "request_status": "Pending",
    "responsible_agency": "Department of Sanitation",
    "final_address": "1208 Hillary St",
    "address_councildis": "A",
    "status": "Assigned to Contractor",
    "contractor": "IV Waste",
    "rowid": "1233724",
    "final_x": "3663335.54336",
    "final_y": "527266.528319",
    "longitude": "-90.1255689756006",
    "latitude": "29.94433902233611",
    "geocoded_column": {
      "latitude": "29.94433902233611",
      "longitude": "-90.1255689756006"
    }
  },
  {
    "service_request": "2025-1233723",
    "request_type": "Trash/Recycling",
    "request_reason": "Replace Recycling Cart",
    "date_created": "2025-10-15T14:18:43.000",
    "date_modified": "2025-10-15T14:18:44.000",
    "request_status": "Pending",
    "responsible_agency": "Department of Sanitation",
    "final_address": "2538 Chartres St",
    "address_councildis": "C",
    "status": "Pending",
    "rowid": "1233723",
    "final_x": "3686594.81206",
    "final_y": "534600.02887",
    "longitude": "-90.05187400896696",
    "latitude": "29.96380902567455",
    "geocoded_column": {
      "latitude": "29.96380902567455",
      "longitude": "-90.05187400896696"
    }
  },
  {
    "service_request": "2025-1233722",
    "request_type": "Trash/Recycling",
    "request_reason": "Request a Large Item Pick Up",
    "date_created": "2025-10-15T14:18:07.000",
    "date_modified": "2025-10-15T14:18:09.000",
    "request_status": "Pending",
    "responsible_agency": "Department of Sanitation",
    "final_address": "4136 Erato St Unit A",
    "address_councildis": "B",
    "status": "Assigned to Contractor",
    "contractor": "IV Waste",
    "rowid": "1233722",
    "final_x": "3671146.53121",
    "final_y": "531285.775874",
    "longitude": "-90.10077088279648",
    "latitude": "29.955161938857803",
    "geocoded_column": {
      "latitude": "29.955161938857803",
      "longitude": "-90.10077088279648"
    }
  },
  {
    "service_request": "2025-1233721",
    "request_type": "Trash/Recycling",
    "request_reason": "Request a Large Item Pick Up",
    "date_created": "2025-10-15T14:17:34.000",
    "date_modified": "2025-10-15T14:17:37.000",
    "request_status": "Pending",
    "responsible_agency": "Department of Sanitation",
    "final_address": "5729 St Anthony Ave",
    "address_councildis": "D",
    "status": "Assigned to Contractor",
    "contractor": "IV Waste",
    "rowid": "1233721",
    "final_x": "3682175.25884",
    "final_y": "554120.894744",
    "longitude": "-90.06514824581801",
    "latitude": "30.017619666076154",
    "geocoded_column": {
      "latitude": "30.017619666076154",
      "longitude": "-90.06514824581801"
    }
  },
  {
    "service_request": "2025-1233720",
    "request_type": "Parks & Parkways",
    "request_reason": "Request Tree Service (Right of Way/Public Property)",
    "date_created": "2025-10-15T14:17:31.000",
    "date_modified": "2025-10-15T14:19:11.000",
    "request_status": "Pending",
    "responsible_agency": "Department of Parks & Parkway",
    "final_address": "2122 Lawrence St",
    "address_councildis": "C",
    "status": "Pending",
    "rowid": "1233720",
    "final_x": "3691991.42313",
    "final_y": "525502.137981",
    "longitude": "-90.03515759920995",
    "latitude": "29.938625921992806",
    "geocoded_column": {
      "latitude": "29.938625921992806",
      "longitude": "-90.03515759920995"
    }
  },
  {
    "service_request": "2025-1233719",
    "request_type": "Property Maintenance",
    "request_reason": "Property Maintenance",
    "date_created": "2025-10-15T14:16:39.000",
    "date_modified": "2025-10-15T14:16:40.000",
    "request_status": "Pending",
    "responsible_agency": "Department of Code Enforcement",
    "final_address": "1733 Charbonnet St",
    "address_councildis": "E",
    "status": "Pending",
    "rowid": "1233719",
    "final_x": "3699339.40394",
    "final_y": "536099.968839",
    "longitude": "-90.01157343657482",
    "latitude": "29.967535260351",
    "geocoded_column": {
      "latitude": "29.967535260351",
      "longitude": "-90.01157343657482"
    }
  },
  {
    "service_request": "2025-1233718",
    "request_type": "Trash/Recycling",
    "request_reason": "Replace Trash Cart",
    "date_created": "2025-10-15T14:14:02.000",
    "date_modified": "2025-10-15T14:14:03.000",
    "request_status": "Pending",
    "responsible_agency": "Department of Sanitation",
    "final_address": "1926 Annette St",
    "address_councildis": "D",
    "status": "Assigned to Contractor",
    "contractor": "IV Waste",
    "rowid": "1233718",
    "final_x": "3682859.51471",
    "final_y": "539327.38689",
    "longitude": "-90.06350426315102",
    "latitude": "29.976921959871156",
    "geocoded_column": {
      "latitude": "29.976921959871156",
      "longitude": "-90.06350426315102"
    }
  },
  {
    "service_request": "2025-1233717",
    "request_type": "Property Maintenance",
    "request_reason": "Property Maintenance",
    "date_created": "2025-10-15T14:13:52.000",
    "date_modified": "2025-10-15T14:14:55.000",
    "request_status": "Pending",
    "responsible_agency": "Department of Code Enforcement",
    "final_address": "1733 Charbonnet St",
    "address_councildis": "E",
    "status": "Pending",
    "rowid": "1233717",
    "final_x": "3699339.40394",
    "final_y": "536099.968839",
    "longitude": "-90.01157343657482",
    "latitude": "29.967535260351",
    "geocoded_column": {
      "latitude": "29.967535260351",
      "longitude": "-90.01157343657482"
    }
  },
  {
    "service_request": "2025-1233716",
    "request_type": "Property Maintenance",
    "request_reason": "Property Maintenance",
    "date_created": "2025-10-15T14:12:51.000",
    "date_modified": "2025-10-15T14:13:14.000",
    "request_status": "Pending",
    "responsible_agency": "Department of Code Enforcement",
    "final_address": "1711 Charbonnet St",
    "address_councildis": "E",
    "status": "Pending",
    "rowid": "1233716",
    "final_x": "3699294.94916",
    "final_y": "535932.081095",
    "longitude": "-90.0117199400619",
    "latitude": "29.967075039251586",
    "geocoded_column": {
      "latitude": "29.967075039251586",
      "longitude": "-90.0117199400619"
    }
  },
  {
    "service_request": "2025-1233715",
    "request_type": "Trash/Recycling",
    "request_reason": "Dead Animal Pick Up",
    "date_created": "2025-10-15T14:12:38.000",
    "date_modified": "2025-10-15T15:11:59.000",
    "request_status": "Pending",
    "responsible_agency": "Department of Sanitation",
    "final_address": "MICHOUD BLVD & SIX FLAGS PKWY",
    "address_councildis": "E",
    "status": "Assigned to Contractor",
    "contractor": "Waste Pro",
    "rowid": "1233715",
    "final_x": "3724634.1",
    "final_y": "566081.38",
    "longitude": "-89.9305342809073",
    "latitude": "30.04914564884181",
    "geocoded_column": {
      "latitude": "30.04914564884181",
      "longitude": "-89.9305342809073"
    }
  },
  {
    "service_request": "2025-1233714",
    "request_type": "Trash/Recycling",
    "request_reason": "Illegal Dumping",
    "date_created": "2025-10-15T14:11:40.000",
    "date_modified": "2025-10-15T14:12:08.000",
    "case_close_date": "2025-10-15T09:12:07.000",
    "request_status": "Closed",
    "responsible_agency": "Department of Sanitation",
    "final_address": "2755 Treasure St",
    "address_councildis": "D",
    "status": "Resolved",
    "rowid": "1233714",
    "final_x": "3688489.99395",
    "final_y": "544401.710991",
    "longitude": "-90.04554135281245",
    "latitude": "29.990701771431148",
    "geocoded_column": {
      "latitude": "29.990701771431148",
      "longitude": "-90.04554135281245"
    }
  },
  {
    "service_request": "2025-1233713",
    "request_type": "Trash/Recycling",
    "request_reason": "Order Second Trash Cart",
    "date_created": "2025-10-15T14:10:29.000",
    "date_modified": "2025-10-15T14:10:31.000",
    "request_status": "Pending",
    "responsible_agency": "Department of Sanitation",
    "final_address": "4821 Sherwood Dr",
    "address_councildis": "E",
    "status": "Assigned to Contractor",
    "contractor": "Waste Pro",
    "rowid": "1233713",
    "final_x": "3718029.55225",
    "final_y": "557365.478171",
    "longitude": "-89.95174054861263",
    "latitude": "30.025401121060813",
    "geocoded_column": {
      "latitude": "30.025401121060813",
      "longitude": "-89.95174054861263"
    }
  },
  {
    "service_request": "2025-1233712",
    "request_type": "Trash/Recycling",
    "request_reason": "Illegal Dumping",
    "date_created": "2025-10-15T14:10:24.000",
    "date_modified": "2025-10-15T14:10:57.000",
    "case_close_date": "2025-10-15T09:10:56.000",
    "request_status": "Closed",
    "responsible_agency": "Department of Sanitation",
    "final_address": "2703 Edge St",
    "address_councildis": "D",
    "status": "Resolved",
    "rowid": "1233712",
    "final_x": "3687919.73347",
    "final_y": "545119.305487",
    "longitude": "-90.04731722073876",
    "latitude": "29.992692509073272",
    "geocoded_column": {
      "latitude": "29.992692509073272",
      "longitude": "-90.04731722073876"
    }
  },
  {
    "service_request": "2025-1233711",
    "request_type": "Parks & Parkways",
    "request_reason": "Request Tree Service (Right of Way/Public Property)",
    "date_created": "2025-10-15T14:10:04.000",
    "date_modified": "2025-10-15T14:10:06.000",
    "request_status": "Pending",
    "responsible_agency": "Department of Parks & Parkway",
    "final_address": "4439 Banks St",
    "address_councildis": "A",
    "status": "Pending",
    "rowid": "1233711",
    "final_x": "3669052.54266",
    "final_y": "538461.263177",
    "longitude": "-90.1071404781968",
    "latitude": "29.974953911974616",
    "geocoded_column": {
      "latitude": "29.974953911974616",
      "longitude": "-90.1071404781968"
    }
  },
  {
    "service_request": "2025-1233710",
    "request_type": "Trash/Recycling",
    "request_reason": "Illegal Dumping",
    "date_created": "2025-10-15T14:08:58.000",
    "date_modified": "2025-10-15T14:09:33.000",
    "case_close_date": "2025-10-15T09:09:32.000",
    "request_status": "Closed",
    "responsible_agency": "Department of Sanitation",
    "final_address": "1741 Touro St",
    "address_councildis": "D",
    "status": "Resolved",
    "rowid": "1233710",
    "final_x": "3684060.29212",
    "final_y": "538790.298313",
    "longitude": "-90.05973068618486",
    "latitude": "29.975408509335963",
    "geocoded_column": {
      "latitude": "29.975408509335963",
      "longitude": "-90.05973068618486"
    }
  },
  {
    "service_request": "2025-1233709",
    "request_type": "Trash/Recycling",
    "request_reason": "Order Trash Cart",
    "date_created": "2025-10-15T14:07:34.000",
    "date_modified": "2025-10-15T14:07:35.000",
    "request_status": "Pending",
    "responsible_agency": "Department of Sanitation",
    "final_address": "1915 Eagle St",
    "address_councildis": "A",
    "status": "Assigned to Contractor",
    "contractor": "IV Waste",
    "rowid": "1233709",
    "final_x": "3661901.51981",
    "final_y": "531936.125699",
    "longitude": "-90.12994178472543",
    "latitude": "29.957220398762953",
    "geocoded_column": {
      "latitude": "29.957220398762953",
      "longitude": "-90.12994178472543"
    }
  },
  {
    "service_request": "2025-1233708",
    "request_type": "Property Maintenance",
    "request_reason": "Property Maintenance",
    "date_created": "2025-10-15T14:05:48.000",
    "date_modified": "2025-10-15T14:05:49.000",
    "request_status": "Pending",
    "responsible_agency": "Department of Code Enforcement",
    "final_address": "4324 Sybil St",
    "address_councildis": "D",
    "status": "Pending",
    "rowid": "1233708",
    "final_x": "3679016.30555",
    "final_y": "548304.89589",
    "longitude": "-90.07533104742947",
    "latitude": "30.00172351308044",
    "geocoded_column": {
      "latitude": "30.00172351308044",
      "longitude": "-90.07533104742947"
    }
  },
  {
    "service_request": "2025-1233707",
    "request_type": "Abandoned Vehicles",
    "request_reason": "Abandoned/Junk Vehicles",
    "date_created": "2025-10-15T14:05:41.000",
    "date_modified": "2025-10-15T14:07:03.000",
    "request_status": "Pending",
    "responsible_agency": "Department of Public Works",
    "final_address": "918 Joseph St",
    "address_councildis": "A",
    "status": "Inspected",
    "rowid": "1233707",
    "final_x": "3666181.29319",
    "final_y": "519364.548087",
    "longitude": "-90.11684896189645",
    "latitude": "29.922528307331394",
    "geocoded_column": {
      "latitude": "29.922528307331394",
      "longitude": "-90.11684896189645"
    }
  },
  {
    "service_request": "2025-1233706",
    "request_type": "Trash/Recycling",
    "request_reason": "Request a Large Item Pick Up",
    "date_created": "2025-10-15T14:04:10.000",
    "date_modified": "2025-10-15T14:04:12.000",
    "request_status": "Pending",
    "responsible_agency": "Department of Sanitation",
    "final_address": "2306 St Bernard Ave",
    "address_councildis": "D",
    "status": "Assigned to Contractor",
    "contractor": "IV Waste",
    "rowid": "1233706",
    "final_x": "3680817.61365",
    "final_y": "540309.383947",
    "longitude": "-90.06991903588064",
    "latitude": "29.979684173098345",
    "geocoded_column": {
      "latitude": "29.979684173098345",
      "longitude": "-90.06991903588064"
    }
  },
  {
    "service_request": "2025-1233705",
    "request_type": "Trash/Recycling",
    "request_reason": "Request a Large Item Pick Up",
    "date_created": "2025-10-15T14:01:47.000",
    "date_modified": "2025-10-15T14:01:49.000",
    "request_status": "Pending",
    "responsible_agency": "Department of Sanitation",
    "final_address": "2211 Marengo St",
    "address_councildis": "B",
    "status": "Assigned to Contractor",
    "contractor": "IV Waste",
    "rowid": "1233705",
    "final_x": "3671780.93467",
    "final_y": "523199.766139",
    "longitude": "-90.09904270296897",
    "latitude": "29.93290927454694",
    "geocoded_column": {
      "latitude": "29.93290927454694",
      "longitude": "-90.09904270296897"
    }
  },
  {
    "service_request": "2025-1233704",
    "request_type": "Trash/Recycling",
    "request_reason": "Order Trash Cart",
    "date_created": "2025-10-15T14:00:53.000",
    "date_modified": "2025-10-15T14:00:57.000",
    "request_status": "Pending",
    "responsible_agency": "Department of Sanitation",
    "final_address": "5217 Elysian Fields Ave",
    "address_councildis": "D",
    "status": "Assigned to Contractor",
    "contractor": "IV Waste",
    "rowid": "1233704",
    "final_x": "3683853.02703",
    "final_y": "552172.733526",
    "longitude": "-90.05991557311796",
    "latitude": "30.01221176946314",
    "geocoded_column": {
      "latitude": "30.01221176946314",
      "longitude": "-90.05991557311796"
    }
  },
  {
    "service_request": "2025-1233703",
    "request_type": "Trash/Recycling",
    "request_reason": "Request a Large Item Pick Up",
    "date_created": "2025-10-15T13:58:57.000",
    "date_modified": "2025-10-15T13:58:59.000",
    "request_status": "Pending",
    "responsible_agency": "Department of Sanitation",
    "final_address": "1514 N Villere St",
    "address_councildis": "C",
    "status": "Assigned to Contractor",
    "contractor": "IV Waste",
    "rowid": "1233703",
    "final_x": "3682393.49288",
    "final_y": "536853.393032",
    "longitude": "-90.06506259214314",
    "latitude": "29.97013352727141",
    "geocoded_column": {
      "latitude": "29.97013352727141",
      "longitude": "-90.06506259214314"
    }
  },
  {
    "service_request": "2025-1233702",
    "request_type": "Street and Traffic Signs",
    "request_reason": "Additional Signage Request",
    "date_created": "2025-10-15T13:55:49.000",
    "date_modified": "2025-10-15T13:55:50.000",
    "request_status": "Pending",
    "responsible_agency": "Department of Public Works",
    "final_address": "4401 Elysian Fields Ave",
    "address_councildis": "D",
    "status": "Pending",
    "rowid": "1233702",
    "final_x": "3684342.43996",
    "final_y": "549188.790547",
    "longitude": "-90.05847419785306",
    "latitude": "30.003992044360253",
    "geocoded_column": {
      "latitude": "30.003992044360253",
      "longitude": "-90.05847419785306"
    }
  },
  {
    "service_request": "2025-1233701",
    "request_type": "Trash/Recycling",
    "request_reason": "Order Recycling Cart",
    "date_created": "2025-10-15T13:55:06.000",
    "date_modified": "2025-10-15T13:55:08.000",
    "request_status": "Pending",
    "responsible_agency": "Department of Sanitation",
    "final_address": "315 S Alexander St",
    "address_councildis": "A",
    "status": "Pending",
    "rowid": "1233701",
    "final_x": "3669411.18574",
    "final_y": "538461.739721",
    "longitude": "-90.1060077722068",
    "latitude": "29.974944664440365",
    "geocoded_column": {
      "latitude": "29.974944664440365",
      "longitude": "-90.1060077722068"
    }
  },
  {
    "service_request": "2025-1233700",
    "request_type": "Trash/Recycling",
    "request_reason": "Damaged Caused By Contractor",
    "date_created": "2025-10-15T13:52:34.000",
    "date_modified": "2025-10-15T13:52:36.000",
    "request_status": "Pending",
    "responsible_agency": "Department of Sanitation",
    "final_address": "7700 Nelson St",
    "address_councildis": "A",
    "status": "Assigned to Contractor",
    "contractor": "IV Waste",
    "rowid": "1233700",
    "final_x": "3666146.38298",
    "final_y": "530844.74381",
    "longitude": "-90.11657434708667",
    "latitude": "29.95409619029235",
    "geocoded_column": {
      "latitude": "29.95409619029235",
      "longitude": "-90.11657434708667"
    }
  },
  {
    "service_request": "2025-1233699",
    "request_type": "Streetlights",
    "request_reason": "Streetlight Outage/Malfunction",
    "date_created": "2025-10-15T13:49:55.000",
    "date_modified": "2025-10-15T13:49:57.000",
    "request_status": "Pending",
    "responsible_agency": "Department of Public Works",
    "final_address": "3913 Clematis St",
    "address_councildis": "D",
    "status": "Pending",
    "rowid": "1233699",
    "final_x": "3685749.95689",
    "final_y": "547223.657745",
    "longitude": "-90.05409692360178",
    "latitude": "29.998545504241488",
    "geocoded_column": {
      "latitude": "29.998545504241488",
      "longitude": "-90.05409692360178"
    }
  },
  {
    "service_request": "2025-1233698",
    "request_type": "Trash/Recycling",
    "request_reason": "Request a Large Item Pick Up",
    "date_created": "2025-10-15T13:48:02.000",
    "date_modified": "2025-10-15T13:48:04.000",
    "request_status": "Pending",
    "responsible_agency": "Department of Sanitation",
    "final_address": "13413 N Nemours St",
    "address_councildis": "E",
    "status": "Assigned to Contractor",
    "contractor": "Waste Pro",
    "rowid": "1233698",
    "final_x": "3725226.45171",
    "final_y": "562714.411232",
    "longitude": "-89.92879256022596",
    "latitude": "30.039867929469775",
    "geocoded_column": {
      "latitude": "30.039867929469775",
      "longitude": "-89.92879256022596"
    }
  },
  {
    "service_request": "2025-1233697",
    "request_type": "Trash/Recycling",
    "request_reason": "Request a Large Item Pick Up",
    "date_created": "2025-10-15T13:47:48.000",
    "date_modified": "2025-10-15T13:47:49.000",
    "request_status": "Pending",
    "responsible_agency": "Department of Sanitation",
    "final_address": "7033 Warfield St",
    "address_councildis": "E",
    "status": "Assigned to Contractor",
    "contractor": "Waste Pro",
    "rowid": "1233697",
    "final_x": "3701066.25207",
    "final_y": "552879.169879",
    "longitude": "-90.00550600292407",
    "latitude": "30.013616971528556",
    "geocoded_column": {
      "latitude": "30.013616971528556",
      "longitude": "-90.00550600292407"
    }
  },
  {
    "service_request": "2025-1233696",
    "request_type": "Trash/Recycling",
    "request_reason": "Return Recycling Cart",
    "date_created": "2025-10-15T13:46:39.000",
    "date_modified": "2025-10-15T13:46:40.000",
    "request_status": "Pending",
    "responsible_agency": "Department of Sanitation",
    "final_address": "6326 Cartwright Dr",
    "address_councildis": "D",
    "status": "Pending",
    "rowid": "1233696",
    "final_x": "3678699.70517",
    "final_y": "556769.77929",
    "longitude": "-90.0760377952173",
    "latitude": "30.02500844581126",
    "geocoded_column": {
      "latitude": "30.02500844581126",
      "longitude": "-90.0760377952173"
    }
  },
  {
    "service_request": "2025-1233695",
    "request_type": "Trash/Recycling",
    "request_reason": "Request a Large Item Pick Up",
    "date_created": "2025-10-15T13:44:24.000",
    "date_modified": "2025-10-15T13:44:26.000",
    "request_status": "Pending",
    "responsible_agency": "Department of Sanitation",
    "final_address": "11440 Zenith St",
    "address_councildis": "E",
    "status": "Assigned to Contractor",
    "contractor": "Waste Pro",
    "rowid": "1233695",
    "final_x": "3712007.28658",
    "final_y": "566309.436707",
    "longitude": "-89.9704336760293",
    "latitude": "30.050191712802423",
    "geocoded_column": {
      "latitude": "30.050191712802423",
      "longitude": "-89.9704336760293"
    }
  },
  {
    "service_request": "2025-1233694",
    "request_type": "Trash/Recycling",
    "request_reason": "Request a Large Item Pick Up",
    "date_created": "2025-10-15T13:41:21.000",
    "date_modified": "2025-10-15T13:41:22.000",
    "request_status": "Pending",
    "responsible_agency": "Department of Sanitation",
    "final_address": "4501 Skyview Dr",
    "address_councildis": "D",
    "status": "Assigned to Contractor",
    "contractor": "Waste Pro",
    "rowid": "1233694",
    "final_x": "3696871.33674",
    "final_y": "552914.195607",
    "longitude": "-90.01875841195877",
    "latitude": "30.01384627634226",
    "geocoded_column": {
      "latitude": "30.01384627634226",
      "longitude": "-90.01875841195877"
    }
  },
  {
    "service_request": "2025-1233693",
    "request_type": "Roads and Streets",
    "request_reason": "Debris in Driving Lanes",
    "date_created": "2025-10-15T13:38:49.000",
    "date_modified": "2025-10-15T13:38:50.000",
    "request_status": "Pending",
    "responsible_agency": "Department of Public Works",
    "final_address": "PLEASANT ST & ST THOMAS ST",
    "address_councildis": "B",
    "status": "Pending",
    "rowid": "1233693",
    "final_x": "3676365.1",
    "final_y": "518293.58",
    "longitude": "-90.08473959628544",
    "latitude": "29.919282276139416",
    "geocoded_column": {
      "latitude": "29.919282276139416",
      "longitude": "-90.08473959628544"
    }
  },
  {
    "service_request": "2025-1233692",
    "request_type": "Trash/Recycling",
    "request_reason": "Missed Trash Pick-Up",
    "date_created": "2025-10-15T13:38:09.000",
    "date_modified": "2025-10-15T15:50:28.000",
    "case_close_date": "2025-10-15T10:50:26.000",
    "request_status": "Closed",
    "responsible_agency": "Department of Sanitation",
    "final_address": "20824 Chef Menteur Hwy",
    "address_councildis": "E",
    "status": "Invalid Request",
    "contractor": "Waste Pro",
    "contractor_action": "Invalid Request",
    "rowid": "1233692",
    "final_x": "3763424.73462",
    "final_y": "572104.276904",
    "longitude": "-89.8076823571905",
    "latitude": "30.06434302441401",
    "geocoded_column": {
      "latitude": "30.06434302441401",
      "longitude": "-89.8076823571905"
    }
  },
  {
    "service_request": "2025-1233691",
    "request_type": "Trash/Recycling",
    "request_reason": "Replace Trash Cart",
    "date_created": "2025-10-15T13:34:23.000",
    "date_modified": "2025-10-15T13:34:25.000",
    "request_status": "Pending",
    "responsible_agency": "Department of Sanitation",
    "final_address": "2505 Peniston St",
    "address_councildis": "B",
    "status": "Assigned to Contractor",
    "contractor": "IV Waste",
    "rowid": "1233691",
    "final_x": "3672165.85838",
    "final_y": "524294.24294",
    "longitude": "-90.09779026822504",
    "latitude": "29.935907324948882",
    "geocoded_column": {
      "latitude": "29.935907324948882",
      "longitude": "-90.09779026822504"
    }
  },
  {
    "service_request": "2025-1233690",
    "request_type": "Trash/Recycling",
    "request_reason": "Repair Trash Cart",
    "date_created": "2025-10-15T13:34:05.000",
    "date_modified": "2025-10-15T13:34:07.000",
    "request_status": "Pending",
    "responsible_agency": "Department of Sanitation",
    "final_address": "8130 Pritchard Pl",
    "address_councildis": "A",
    "status": "Assigned to Contractor",
    "contractor": "IV Waste",
    "rowid": "1233690",
    "final_x": "3665840.43828",
    "final_y": "533029.283076",
    "longitude": "-90.11746720604998",
    "latitude": "29.9601118888279",
    "geocoded_column": {
      "latitude": "29.9601118888279",
      "longitude": "-90.11746720604998"
    }
  },
  {
    "service_request": "2025-1233689",
    "request_type": "Street and Traffic Signs",
    "request_reason": "Stop Sign Missing or Damaged",
    "date_created": "2025-10-15T13:33:09.000",
    "date_modified": "2025-10-15T13:33:12.000",
    "request_status": "Pending",
    "responsible_agency": "Department of Public Works",
    "final_address": "BARONNE ST & CALLIOPE ST",
    "address_councildis": "B",
    "status": "Pending",
    "rowid": "1233689",
    "final_x": "3679060.1",
    "final_y": "527019.36",
    "longitude": "-90.07593059822653",
    "latitude": "29.94319428493894",
    "geocoded_column": {
      "latitude": "29.94319428493894",
      "longitude": "-90.07593059822653"
    }
  },
  {
    "service_request": "2025-1233688",
    "request_type": "Trash/Recycling",
    "request_reason": "Order Second Trash Cart",
    "date_created": "2025-10-15T13:31:20.000",
    "date_modified": "2025-10-15T13:31:23.000",
    "request_status": "Pending",
    "responsible_agency": "Department of Sanitation",
    "final_address": "6271 Eastover Dr",
    "address_councildis": "E",
    "status": "Assigned to Contractor",
    "contractor": "Waste Pro",
    "rowid": "1233688",
    "final_x": "3717619.05484",
    "final_y": "564369.677537",
    "longitude": "-89.9527709857951",
    "latitude": "30.044673443488524",
    "geocoded_column": {
      "latitude": "30.044673443488524",
      "longitude": "-89.9527709857951"
    }
  },
  {
    "service_request": "2025-1233687",
    "request_type": "Streetlights",
    "request_reason": "Streetlight Outage/Malfunction",
    "date_created": "2025-10-15T13:28:43.000",
    "date_modified": "2025-10-15T13:28:44.000",
    "request_status": "Pending",
    "responsible_agency": "Department of Public Works",
    "final_address": "PARC BRITTANY BLVD & N CORONET CT",
    "address_councildis": "E",
    "status": "Pending",
    "rowid": "1233687",
    "final_x": "3702793.6",
    "final_y": "557595.38",
    "longitude": "-89.99987511638795",
    "latitude": "30.026529586546896",
    "geocoded_column": {
      "latitude": "30.026529586546896",
      "longitude": "-89.99987511638795"
    }
  },
  {
    "service_request": "2025-1233686",
    "request_type": "Trash/Recycling",
    "request_reason": "Repair Trash Cart",
    "date_created": "2025-10-15T13:28:08.000",
    "date_modified": "2025-10-15T13:28:09.000",
    "request_status": "Pending",
    "responsible_agency": "Department of Sanitation",
    "final_address": "1846 E Homestead Dr",
    "address_councildis": "C",
    "status": "Assigned to Contractor",
    "contractor": "Richards Disposal",
    "rowid": "1233686",
    "final_x": "3697189.38275",
    "final_y": "525015.790973",
    "longitude": "-90.01876479523774",
    "latitude": "29.937125684413207",
    "geocoded_column": {
      "latitude": "29.937125684413207",
      "longitude": "-90.01876479523774"
    }
  },
  {
    "service_request": "2025-1233685",
    "request_type": "Abandoned Vehicles",
    "request_reason": "Abandoned/Junk Vehicles",
    "date_created": "2025-10-15T13:26:22.000",
    "date_modified": "2025-10-15T13:26:23.000",
    "request_status": "Pending",
    "responsible_agency": "Department of Public Works",
    "final_address": "5335 Laurel St",
    "address_councildis": "B",
    "status": "Pending",
    "rowid": "1233685",
    "final_x": "3667092.05844",
    "final_y": "517924.304438",
    "longitude": "-90.11402241032579",
    "latitude": "29.918541471552334",
    "geocoded_column": {
      "latitude": "29.918541471552334",
      "longitude": "-90.11402241032579"
    }
  },
  {
    "service_request": "2025-1233684",
    "request_type": "Mosquito, Termite & Rodent Control",
    "request_reason": "Mosquito Complaint",
    "date_created": "2025-10-15T13:25:20.000",
    "date_modified": "2025-10-15T14:55:01.000",
    "request_status": "Pending",
    "responsible_agency": "Mosquito, Termite & Rodent Control Board",
    "final_address": "26258 US Hwy 90, New Orleans, Louisiana, 70129",
    "address_councildis": "E",
    "status": "Pending",
    "rowid": "1233684",
    "final_x": "3785060.3541",
    "final_y": "603692.518022",
    "longitude": "-89.73790245327567",
    "latitude": "30.15038489812685",
    "geocoded_column": {
      "latitude": "30.15038489812685",
      "longitude": "-89.73790245327567"
    }
  },
  {
    "service_request": "2025-1233683",
    "request_type": "New Orleans Recreation Development Commission (NORDC)",
    "request_reason": "Facilities and Parks Maintenance/Clean Up",
    "date_created": "2025-10-15T13:23:25.000",
    "date_modified": "2025-10-15T13:23:27.000",
    "request_status": "Pending",
    "responsible_agency": "New Orleans Recreation Development Commission",
    "final_address": "9204 Edinburgh St",
    "address_councildis": "A",
    "status": "Pending",
    "rowid": "1233683",
    "final_x": "3664560.55732",
    "final_y": "537046.577288",
    "longitude": "-90.12137463593447",
    "latitude": "29.971195406696545",
    "geocoded_column": {
      "latitude": "29.971195406696545",
      "longitude": "-90.12137463593447"
    }
  },
  {
    "service_request": "2025-1233682",
    "request_type": "Trash/Recycling",
    "request_reason": "Illegal Dumping",
    "date_created": "2025-10-15T13:23:22.000",
    "date_modified": "2025-10-15T13:23:23.000",
    "request_status": "Pending",
    "responsible_agency": "Department of Sanitation",
    "final_address": "3225 St Thomas St",
    "address_councildis": "B",
    "status": "Pending",
    "rowid": "1233682",
    "final_x": "3676401.85909",
    "final_y": "518334.77375",
    "longitude": "-90.08462214930795",
    "latitude": "29.91939444425959",
    "geocoded_column": {
      "latitude": "29.91939444425959",
      "longitude": "-90.08462214930795"
    }
  },
  {
    "service_request": "2025-1233681",
    "request_type": "Abandoned Vehicles",
    "request_reason": "Abandoned/Junk Vehicles",
    "date_created": "2025-10-15T13:23:10.000",
    "date_modified": "2025-10-15T13:23:11.000",
    "request_status": "Pending",
    "responsible_agency": "Department of Public Works",
    "final_address": "5335 Laurel St",
    "address_councildis": "B",
    "status": "Pending",
    "rowid": "1233681",
    "final_x": "3667092.05844",
    "final_y": "517924.304438",
    "longitude": "-90.11402241032579",
    "latitude": "29.918541471552334",
    "geocoded_column": {
      "latitude": "29.918541471552334",
      "longitude": "-90.11402241032579"
    }
  },
  {
    "service_request": "2025-1233680",
    "request_type": "Trash/Recycling",
    "request_reason": "Repair Trash Cart",
    "date_created": "2025-10-15T13:21:48.000",
    "date_modified": "2025-10-15T13:21:54.000",
    "request_status": "Pending",
    "responsible_agency": "Department of Sanitation",
    "final_address": "1846 E Homestead Dr, New Orleans, Louisiana, 70114",
    "address_councildis": "C",
    "status": "Assigned to Contractor",
    "contractor": "Richards Disposal",
    "rowid": "1233680",
    "final_x": "3697189.38275",
    "final_y": "525015.790973",
    "longitude": "-90.01876479523774",
    "latitude": "29.937125684413207",
    "geocoded_column": {
      "latitude": "29.937125684413207",
      "longitude": "-90.01876479523774"
    }
  },
  {
    "service_request": "2025-1233679",
    "request_type": "Trash/Recycling",
    "request_reason": "Request a Large Item Pick Up",
    "date_created": "2025-10-15T13:21:08.000",
    "date_modified": "2025-10-15T13:21:28.000",
    "request_status": "Pending",
    "responsible_agency": "Department of Sanitation",
    "final_address": "2700 Constance St",
    "address_councildis": "B",
    "status": "Assigned to Contractor",
    "contractor": "IV Waste",
    "rowid": "1233679",
    "final_x": "3677519.73352",
    "final_y": "520634.542712",
    "longitude": "-90.08101424121128",
    "latitude": "29.92568451988331",
    "geocoded_column": {
      "latitude": "29.92568451988331",
      "longitude": "-90.08101424121128"
    }
  },
  {
    "service_request": "2025-1233678",
    "request_type": "Abandoned Vehicles",
    "request_reason": "Abandoned/Junk Vehicles",
    "date_created": "2025-10-15T13:20:45.000",
    "date_modified": "2025-10-15T13:21:52.000",
    "request_status": "Pending",
    "responsible_agency": "Department of Public Works",
    "final_address": "219 Nashville Ave",
    "address_councildis": "A",
    "status": "Inspected",
    "rowid": "1233678",
    "final_x": "3665175.78247",
    "final_y": "517092.525941",
    "longitude": "-90.12009890429549",
    "latitude": "29.91631027090209",
    "geocoded_column": {
      "latitude": "29.91631027090209",
      "longitude": "-90.12009890429549"
    }
  },