[
  {
    "service_request": "2022-936463",
    "request_type": "Trash/Recycling",
    "request_reason": "Order Recycling Cart",
    "date_created": "2022-11-03T02:03:38.000",
    "date_modified": "2022-11-03T02:03:38.000",
    "request_status": "Pending",
    "responsible_agency": "Department of Sanitation",
    "final_address": "6202 Curie St",
    "address_councildis": "D",
    "status": "Pending",
    "rowid": "936463",
    "final_x": "3682448.50594",
    "final_y": "555732.374873",
    "longitude": "-90.06422849949627",
    "latitude": "30.022042327838676",
    "geocoded_column": {
      "latitude": "30.022042327838676",
      "longitude": "-90.06422849949627"
    }
  },
  {
    "service_request": "2022-936462",
    "request_type": "Property Maintenance",
    "request_reason": "Property Maintenance",
    "date_created": "2022-11-03T01:34:36.000",
    "date_modified": "2022-11-03T01:34:36.000",
    "request_status": "Pending",
    "responsible_agency": "Department of Code Enforcement",
    "final_address": "2525 Memorial Park Dr",
    "address_councildis": "C",
    "status": "Pending",
    "rowid": "936462",
    "final_x": "3692766.18371",
    "final_y": "521079.566969",
    "longitude": "-90.03287007438414",
    "latitude": "29.92644119738659",
    "geocoded_column": {
      "latitude": "29.92644119738659",
      "longitude": "-90.03287007438414"
    }
  },
  {
    "service_request": "2022-936461",
    "request_type": "Trash/Recycling",
    "request_reason": "Order Recycling Cart",
    "date_created": "2022-11-03T00:34:56.000",
    "date_modified": "2022-11-03T00:34:56.000",
    "request_status": "Pending",
    "responsible_agency": "Department of Sanitation",
    "final_address": "6928 Pontchartrain Blvd",
    "address_councildis": "A",
    "status": "Pending",
    "rowid": "936461",
    "final_x": "3666376.01005",
    "final_y": "553818.550231",
    "longitude": "-90.11507800896625",
    "latitude": "30.017259668894013",
    "geocoded_column": {
      "latitude": "30.017259668894013",
      "longitude": "-90.11507800896625"
    }
  },
  {
    "service_request": "2022-936460",
    "request_type": "Trash/Recycling",
    "request_reason": "Order Recycling Cart",
    "date_created": "2022-11-03T00:07:51.000",
    "date_modified": "2022-11-03T00:07:51.000",
    "request_status": "Pending",
    "responsible_agency": "Department of Sanitation",
    "final_address": "7121 Read Blvd",
    "address_councildis": "E",
    "status": "Pending",
    "rowid": "936460",
    "final_x": "3709664.32619",
    "final_y": "562663.278816",
    "longitude": "-89.97797517078331",
    "latitude": "30.040242659727653",
    "geocoded_column": {
      "latitude": "30.040242659727653",
      "longitude": "-89.97797517078331"
    }
  },
  {
    "service_request": "2022-936459",
    "request_type": "Trash/Recycling",
    "request_reason": "Replace Trash Cart",
    "date_created": "2022-11-02T23:43:57.000",
    "date_modified": "2022-11-02T23:43:58.000",
    "request_status": "Pending",
    "responsible_agency": "Department of Sanitation",
    "final_address": "1670 Industry St",
    "address_councildis": "D",
    "status": "Assigned to Contractor",
    "contractor": "Metro Disposal",
    "rowid": "936459",
    "final_x": "3680560.80258",
    "final_y": "542592.415117",
    "longitude": "-90.07065068880894",
    "latitude": "29.98596949531808",
    "geocoded_column": {
      "latitude": "29.98596949531808",
      "longitude": "-90.07065068880894"
    }
  },
  {
    "service_request": "2022-936458",
    "request_type": "Trash/Recycling",
    "request_reason": "Order Recycling Cart",
    "date_created": "2022-11-02T23:40:47.000",
    "date_modified": "2022-11-02T23:40:47.000",
    "request_status": "Pending",
    "responsible_agency": "Department of Sanitation",
    "final_address": "1926 Franklin Ave",
    "address_councildis": "D",
    "status": "Pending",
    "rowid": "936458",
    "final_x": "3687595.91279",
    "final_y": "539695.912202",
    "longitude": "-90.04853219948929",
    "latitude": "29.977790097502492",
    "geocoded_column": {
      "latitude": "29.977790097502492",
      "longitude": "-90.04853219948929"
    }
  },
  {
    "service_request": "2022-936457",
    "request_type": "Trash/Recycling",
    "request_reason": "Order Recycling Cart",
    "date_created": "2022-11-02T23:35:53.000",
    "date_modified": "2022-11-02T23:35:53.000",
    "request_status": "Pending",
    "responsible_agency": "Department of Sanitation",
    "final_address": "8021 Mercier St",
    "address_councildis": "E",
    "status": "Pending",
    "rowid": "936457",
    "final_x": "3710769.03294",
    "final_y": "567557.457636",
    "longitude": "-89.97430052548572",
    "latitude": "30.05366370309794",
    "geocoded_column": {
      "latitude": "30.05366370309794",
      "longitude": "-89.97430052548572"
    }
  },
  {
    "service_request": "2022-936456",
    "request_type": "Trash/Recycling",
    "request_reason": "Order Recycling Cart",
    "date_created": "2022-11-02T23:31:10.000",
    "date_modified": "2022-11-02T23:31:10.000",
    "request_status": "Pending",
    "responsible_agency": "Department of Sanitation",
    "final_address": "7548 Scottwood Dr",
    "address_councildis": "E",
    "status": "Pending",
    "rowid": "936456",
    "final_x": "3717450.40236",
    "final_y": "570361.274855",
    "longitude": "-89.95307589815656",
    "latitude": "30.061153454238198",
    "geocoded_column": {
      "latitude": "30.061153454238198",
      "longitude": "-89.95307589815656"
    }
  },
  {
    "service_request": "2022-936455",
    "request_type": "Trash/Recycling",
    "request_reason": "Repair Recycling Cart",
    "date_created": "2022-11-02T23:25:00.000",
    "date_modified": "2022-11-02T23:25:00.000",
    "request_status": "Pending",
    "responsible_agency": "Department of Sanitation",
    "final_address": "414 Octavia St",
    "address_councildis": "A",
    "status": "Pending",
    "rowid": "936455",
    "final_x": "3666141.45364",
    "final_y": "517691.183286",
    "longitude": "-90.1170307894382",
    "latitude": "29.917928241654256",
    "geocoded_column": {
      "latitude": "29.917928241654256",
      "longitude": "-90.1170307894382"
    }
  },
  {
    "service_request": "2022-936454",
    "request_type": "Trash/Recycling",
    "request_reason": "Order Recycling Cart",
    "date_created": "2022-11-02T23:10:46.000",
    "date_modified": "2022-11-02T23:10:46.000",
    "request_status": "Pending",
    "responsible_agency": "Department of Sanitation",
    "final_address": "801 Jewel St",
    "address_councildis": "D",
    "status": "Pending",
    "rowid": "936454",
    "final_x": "3670427.57524",
    "final_y": "556029.760281",
    "longitude": "-90.10220160279586",
    "latitude": "30.02322064200397",
    "geocoded_column": {
      "latitude": "30.02322064200397",
      "longitude": "-90.10220160279586"
    }
  },
  {
    "service_request": "2022-936452",
    "request_type": "Traffic Signals/Signs/Striping/Streetlights",
    "request_reason": "Traffic Signal Malfunctioning/Damaged",
    "date_created": "2022-11-02T22:50:35.000",
    "date_modified": "2022-11-02T22:50:35.000",
    "request_status": "Pending",
    "responsible_agency": "Department of Public Works",
    "final_address": "DESIRE PKWY & CHEF MENTEUR HWY",
    "address_councildis": "D",
    "status": "Pending",
    "rowid": "936452",
    "final_x": "3692027.1",
    "final_y": "550101.18",
    "longitude": "-90.03416442567848",
    "latitude": "30.00626344869749",
    "geocoded_column": {
      "latitude": "30.00626344869749",
      "longitude": "-90.03416442567848"
    }
  },
  {
    "service_request": "2022-936451",
    "request_type": "Trash/Recycling",
    "request_reason": "Order Recycling Cart",
    "date_created": "2022-11-02T22:47:03.000",
    "date_modified": "2022-11-02T22:47:03.000",
    "request_status": "Pending",
    "responsible_agency": "Department of Sanitation",
    "final_address": "2725 N Robertson St",
    "address_councildis": "C",
    "status": "Pending",
    "rowid": "936451",
    "final_x": "3688009.79823",
    "final_y": "537865.350729",
    "longitude": "-90.04728989938761",
    "latitude": "29.972743931338748",
    "geocoded_column": {
      "latitude": "29.972743931338748",
      "longitude": "-90.04728989938761"
    }
  },
  {
    "service_request": "2022-936450",
    "request_type": "Trash/Recycling",
    "request_reason": "Order Recycling Cart",
    "date_created": "2022-11-02T22:45:56.000",
    "date_modified": "2022-11-02T22:45:56.000",
    "request_status": "Pending",
    "responsible_agency": "Department of Sanitation",
    "final_address": "1616 Mirabeau Ave",
    "address_councildis": "D",
    "status": "Pending",
    "rowid": "936450",
    "final_x": "3680090.36635",
    "final_y": "550269.410516",
    "longitude": "-90.07186965593111",
    "latitude": "30.007092758263656",
    "geocoded_column": {
      "latitude": "30.007092758263656",
      "longitude": "-90.07186965593111"
    }
  },
  {
    "service_request": "2022-936449",
    "request_type": "Trash/Recycling",
    "request_reason": "Order Recycling Cart",
    "date_created": "2022-11-02T22:45:31.000",
    "date_modified": "2022-11-02T22:45:31.000",
    "request_status": "Pending",
    "responsible_agency": "Department of Sanitation",
    "final_address": "423 Country Club Dr",
    "address_councildis": "A",
    "status": "Pending",
    "rowid": "936449",
    "final_x": "3664261.56429",
    "final_y": "544377.351503",
    "longitude": "-90.12207416695989",
    "latitude": "29.991361271276944",
    "geocoded_column": {
      "latitude": "29.991361271276944",
      "longitude": "-90.12207416695989"
    }
  },
  {
    "service_request": "2022-936448",
    "request_type": "Trash/Recycling",
    "request_reason": "Order Recycling Cart",
    "date_created": "2022-11-02T22:43:56.000",
    "date_modified": "2022-11-02T22:43:56.000",
    "request_status": "Pending",
    "responsible_agency": "Department of Sanitation",
    "final_address": "6714 Argonne Blvd",
    "address_councildis": "A",
    "status": "Pending",
    "rowid": "936448",
    "final_x": "3670543.11303",
    "final_y": "552006.949398",
    "longitude": "-90.1019731266319",
    "latitude": "30.012155928308776",
    "geocoded_column": {
      "latitude": "30.012155928308776",
      "longitude": "-90.1019731266319"
    }
  },
  {
    "service_request": "2022-936446",
    "request_type": "Trash/Recycling",
    "request_reason": "MIssed Recycling Pick-Up",
    "date_created": "2022-11-02T22:32:33.000",
    "date_modified": "2022-11-02T22:32:34.000",
    "request_status": "Pending",
    "responsible_agency": "Department of Sanitation",
    "final_address": "1431 Constance St",
    "address_councildis": "B",
    "status": "Assigned to Contractor",
    "contractor": "Richards Disposal",
    "rowid": "936446",
    "final_x": "3680635.16514",
    "final_y": "524194.270716",
    "longitude": "-90.07105598366722",
    "latitude": "29.935378608323525",
    "geocoded_column": {
      "latitude": "29.935378608323525",
      "longitude": "-90.07105598366722"
    }
  },
  {
    "service_request": "2022-936445",
    "request_type": "Trash/Recycling",
    "request_reason": "Order Recycling Cart",
    "date_created": "2022-11-02T22:25:46.000",
    "date_modified": "2022-11-02T22:25:46.000",
    "request_status": "Pending",
    "responsible_agency": "Department of Sanitation",
    "final_address": "4608 Dodt Ave",
    "address_councildis": "E",
    "status": "Pending",
    "rowid": "936445",
    "final_x": "3705440.67486",
    "final_y": "554493.74588",
    "longitude": "-89.99162548314436",
    "latitude": "30.017916325625272",
    "geocoded_column": {
      "latitude": "30.017916325625272",
      "longitude": "-89.99162548314436"
    }
  },
  {
    "service_request": "2022-936444",
    "request_type": "Trash/Recycling",
    "request_reason": "Change Size of Trash Cart",
    "date_created": "2022-11-02T22:18:28.000",
    "date_modified": "2022-11-02T22:18:29.000",
    "request_status": "Pending",
    "responsible_agency": "Department of Sanitation",
    "final_address": "8223 Plum St",
    "address_councildis": "A",
    "status": "Assigned to Contractor",
    "contractor": "Richards Disposal",
    "rowid": "936444",
    "final_x": "3661824.85741",
    "final_y": "529024.229056",
    "longitude": "-90.13028040243043",
    "latitude": "29.94921583468819",
    "geocoded_column": {
      "latitude": "29.94921583468819",
      "longitude": "-90.13028040243043"
    }
  },
  {
    "service_request": "2022-936443",
    "request_type": "Trash/Recycling",
    "request_reason": "Replace Recycling Cart",
    "date_created": "2022-11-02T22:17:38.000",
    "date_modified": "2022-11-02T22:17:38.000",
    "request_status": "Pending",
    "responsible_agency": "Department of Sanitation",
    "final_address": "8223 Plum St",
    "address_councildis": "A",
    "status": "Pending",
    "rowid": "936443",
    "final_x": "3661824.85741",
    "final_y": "529024.229056",
    "longitude": "-90.13028040243043",
    "latitude": "29.94921583468819",
    "geocoded_column": {
      "latitude": "29.94921583468819",
      "longitude": "-90.13028040243043"
    }
  },
  {
    "service_request": "2022-936442",
    "request_type": "Trash/Recycling",
    "request_reason": "Order Recycling Cart",
    "date_created": "2022-11-02T22:15:34.000",
    "date_modified": "2022-11-02T22:15:34.000",
    "request_status": "Pending",
    "responsible_agency": "Department of Sanitation",
    "final_address": "622 Napoleon Ave",
    "address_councildis": "B",
    "status": "Pending",
    "rowid": "936442",
    "final_x": "3671050.15284",
    "final_y": "517934.596918",
    "longitude": "-90.10152842011257",
    "latitude": "29.91845336596243",
    "geocoded_column": {
      "latitude": "29.91845336596243",
      "longitude": "-90.10152842011257"
    }
  },
  {
    "service_request": "2022-936441",
    "request_type": "Trash/Recycling",
    "request_reason": "Replace Recycling Cart",
    "date_created": "2022-11-02T22:11:58.000",
    "date_modified": "2022-11-02T22:11:58.000",
    "request_status": "Pending",
    "responsible_agency": "Department of Sanitation",
    "final_address": "1809 Deslonde St",
    "address_councildis": "E",
    "status": "Pending",
    "rowid": "936441",
    "final_x": "3696175.17744",
    "final_y": "537083.686664",
    "longitude": "-90.02153051201125",
    "latitude": "29.970340117015585",
    "geocoded_column": {
      "latitude": "29.970340117015585",
      "longitude": "-90.02153051201125"
    }
  },
  {
    "service_request": "2022-936440",
    "request_type": "Trash/Recycling",
    "request_reason": "Order Recycling Cart",
    "date_created": "2022-11-02T22:02:14.000",
    "date_modified": "2022-11-02T22:02:14.000",
    "request_status": "Pending",
    "responsible_agency": "Department of Sanitation",
    "final_address": "1921 Humanity St",
    "address_councildis": "D",
    "status": "Pending",
    "rowid": "936440",
    "final_x": "3682256.25084",
    "final_y": "544659.861711",
    "longitude": "-90.0652231727398",
    "latitude": "29.99160276218772",
    "geocoded_column": {
      "latitude": "29.99160276218772",
      "longitude": "-90.0652231727398"
    }
  },
  {
    "service_request": "2022-936439",
    "request_type": "Trash/Recycling",
    "request_reason": "Repair Recycling Cart",
    "date_created": "2022-11-02T22:00:03.000",
    "date_modified": "2022-11-02T22:00:03.000",
    "request_status": "Pending",
    "responsible_agency": "Department of Sanitation",
    "final_address": "700 Octavia St",
    "address_councildis": "A",
    "status": "Pending",
    "rowid": "936439",
    "final_x": "3666324.39373",
    "final_y": "518518.087799",
    "longitude": "-90.11642562597311",
    "latitude": "29.920196629191075",
    "geocoded_column": {
      "latitude": "29.920196629191075",
      "longitude": "-90.11642562597311"
    }
  },
  {
    "service_request": "2022-936438",
    "request_type": "Trash/Recycling",
    "request_reason": "Order Recycling Cart",
    "date_created": "2022-11-02T21:54:22.000",
    "date_modified": "2022-11-02T21:54:22.000",
    "request_status": "Pending",
    "responsible_agency": "Department of Sanitation",
    "final_address": "2728 Spain St",
    "address_councildis": "D",
    "status": "Pending",
    "rowid": "936438",
    "final_x": "3685567.0079",
    "final_y": "542919.651981",
    "longitude": "-90.05482656437084",
    "latitude": "29.98671664111775",
    "geocoded_column": {
      "latitude": "29.98671664111775",
      "longitude": "-90.05482656437084"
    }
  },
  {
    "service_request": "2022-936437",
    "request_type": "Trash/Recycling",
    "request_reason": "Order Recycling Cart",
    "date_created": "2022-11-02T21:50:59.000",
    "date_modified": "2022-11-02T21:50:59.000",
    "request_status": "Pending",
    "responsible_agency": "Department of Sanitation",
    "final_address": "38 Lark St",
    "address_councildis": "D",
    "status": "Pending",
    "rowid": "936437",
    "final_x": "3675663.16309",
    "final_y": "556475.194906",
    "longitude": "-90.08564293116294",
    "latitude": "30.024289711242716",
    "geocoded_column": {
      "latitude": "30.024289711242716",
      "longitude": "-90.08564293116294"
    }
  },
  {
    "service_request": "2022-936436",
    "request_type": "Trash/Recycling",
    "request_reason": "Order Recycling Cart",
    "date_created": "2022-11-02T21:46:05.000",
    "date_modified": "2022-11-02T21:46:05.000",
    "request_status": "Pending",
    "responsible_agency": "Department of Sanitation",
    "final_address": "930 Turquoise St",
    "address_councildis": "D",
    "status": "Pending",
    "rowid": "936436",
    "final_x": "3670937.65537",
    "final_y": "555038.557337",
    "longitude": "-90.10062354997896",
    "latitude": "30.020480109186412",
    "geocoded_column": {
      "latitude": "30.020480109186412",
      "longitude": "-90.10062354997896"
    }
  },
  {
    "service_request": "2022-936435",
    "request_type": "Trash/Recycling",
    "request_reason": "Order Recycling Cart",
    "date_created": "2022-11-02T21:37:13.000",
    "date_modified": "2022-11-02T21:37:13.000",
    "request_status": "Pending",
    "responsible_agency": "Department of Sanitation",
    "final_address": "7400 Malvern Dr",
    "address_councildis": "E",
    "status": "Pending",
    "rowid": "936435",
    "final_x": "3702638.90922",
    "final_y": "560854.263838",
    "longitude": "-90.00024411357406",
    "latitude": "30.035495199628862",
    "geocoded_column": {
      "latitude": "30.035495199628862",
      "longitude": "-90.00024411357406"
    }
  },
  {
    "service_request": "2022-936433",
    "request_type": "Trash/Recycling",
    "request_reason": "Order Recycling Cart",
    "date_created": "2022-11-02T21:23:47.000",
    "date_modified": "2022-11-02T21:23:47.000",
    "request_status": "Pending",
    "responsible_agency": "Department of Sanitation",
    "final_address": "211 Stafford Pl",
    "address_councildis": "A",
    "status": "Pending",
    "rowid": "936433",
    "final_x": "3665914.0873",
    "final_y": "554005.573464",
    "longitude": "-90.11653122860089",
    "latitude": "30.017787412835595",
    "geocoded_column": {
      "latitude": "30.017787412835595",
      "longitude": "-90.11653122860089"
    }
  },
  {
    "service_request": "2022-936432",
    "request_type": "Trash/Recycling",
    "request_reason": "Order Recycling Cart",
    "date_created": "2022-11-02T21:21:39.000",
    "date_modified": "2022-11-02T21:21:39.000",
    "request_status": "Pending",
    "responsible_agency": "Department of Sanitation",
    "final_address": "1812 Bartholomew St",
    "address_councildis": "D",
    "status": "Pending",
    "rowid": "936432",
    "final_x": "3692428.94115",
    "final_y": "538072.030857",
    "longitude": "-90.03332607640027",
    "latitude": "29.973175109304943",
    "geocoded_column": {
      "latitude": "29.973175109304943",
      "longitude": "-90.03332607640027"
    }
  },
  {
    "service_request": "2022-936431",
    "request_type": "Trash/Recycling",
    "request_reason": "Missed Trash Pick-Up",
    "date_created": "2022-11-02T21:19:55.000",
    "date_modified": "2022-11-02T21:19:56.000",
    "request_status": "Pending",
    "responsible_agency": "Department of Sanitation",
    "final_address": "2211 Burdette St",
    "address_councildis": "A",
    "status": "Assigned to Contractor",
    "contractor": "Richards Disposal",
    "rowid": "936431",
    "final_x": "3665301.43386",
    "final_y": "530242.914689",
    "longitude": "-90.119262500693",
    "latitude": "29.952465999976287",
    "geocoded_column": {
      "latitude": "29.952465999976287",
      "longitude": "-90.119262500693"
    }
  },
  {
    "service_request": "2022-936430",
    "request_type": "Trash/Recycling",
    "request_reason": "Order Recycling Cart",
    "date_created": "2022-11-02T21:10:53.000",
    "date_modified": "2022-11-02T21:10:53.000",
    "request_status": "Pending",
    "responsible_agency": "Department of Sanitation",
    "final_address": "5714 Vicksburg St",
    "address_councildis": "A",
    "status": "Pending",
    "rowid": "936430",
    "final_x": "3668620.47988",
    "final_y": "545529.907152",
    "longitude": "-90.10826636529448",
    "latitude": "29.994402985640416",
    "geocoded_column": {
      "latitude": "29.994402985640416",
      "longitude": "-90.10826636529448"
    }
  },
  {
    "service_request": "2022-936429",
    "request_type": "Trash/Recycling",
    "request_reason": "Order Recycling Cart",
    "date_created": "2022-11-02T21:09:04.000",
    "date_modified": "2022-11-02T21:09:04.000",
    "request_status": "Pending",
    "responsible_agency": "Department of Sanitation",
    "final_address": "3408 St Ferdinand St",
    "address_councildis": "D",
    "status": "Pending",
    "rowid": "936429",
    "final_x": "3689945.74524",
    "final_y": "545466.204048",
    "longitude": "-90.040905081098",
    "latitude": "29.993583676074604",
    "geocoded_column": {
      "latitude": "29.993583676074604",
      "longitude": "-90.040905081098"
    }
  },
  {
    "service_request": "2022-936428",
    "request_type": "Trash/Recycling",
    "request_reason": "Order Recycling Cart",
    "date_created": "2022-11-02T21:08:12.000",
    "date_modified": "2022-11-02T21:08:12.000",
    "request_status": "Pending",
    "responsible_agency": "Department of Sanitation",
    "final_address": "1963 Humanity St",
    "address_councildis": "D",
    "status": "Pending",
    "rowid": "936428",
    "final_x": "3682669.53013",
    "final_y": "544687.218191",
    "longitude": "-90.06391675728217",
    "latitude": "29.99166540001966",
    "geocoded_column": {
      "latitude": "29.99166540001966",
      "longitude": "-90.06391675728217"
    }
  },
  {
    "service_request": "2022-936427",
    "request_type": "Trash/Recycling",
    "request_reason": "Order Recycling Cart",
    "date_created": "2022-11-02T21:06:15.000",
    "date_modified": "2022-11-02T21:06:15.000",
    "request_status": "Pending",
    "responsible_agency": "Department of Sanitation",
    "final_address": "4618 Gaines St",
    "address_councildis": "D",
    "status": "Pending",
    "rowid": "936427",
    "final_x": "3691040.66761",
    "final_y": "551217.316629",
    "longitude": "-90.03724091272592",
    "latitude": "30.009363129168946",
    "geocoded_column": {
      "latitude": "30.009363129168946",
      "longitude": "-90.03724091272592"
    }
  },
  {
    "service_request": "2022-936426",
    "request_type": "Traffic Signals/Signs/Striping/Streetlights",
    "request_reason": "Street Light Outage/Malfunction",
    "date_created": "2022-11-02T21:05:41.000",
    "date_modified": "2022-11-02T21:05:41.000",
    "request_status": "Pending",
    "responsible_agency": "Department of Public Works",
    "final_address": "2821 Amazon St",
    "address_councildis": "C",
    "status": "Pending",
    "contractor": "Legacy Professional Services",
    "rowid": "936426",
    "final_x": "3693667.57264",
    "final_y": "521413.787833",
    "longitude": "-90.03001265341067",
    "latitude": "29.927332030957782",
    "geocoded_column": {
      "latitude": "29.927332030957782",
      "longitude": "-90.03001265341067"
    }
  },
  {
    "service_request": "2022-936425",
    "request_type": "Trash/Recycling",
    "request_reason": "Order Recycling Cart",
    "date_created": "2022-11-02T21:05:40.000",
    "date_modified": "2022-11-02T21:05:40.000",
    "request_status": "Pending",
    "responsible_agency": "Department of Sanitation",
    "final_address": "4410 Camelot Dr",
    "address_councildis": "E",
    "status": "Pending",
    "rowid": "936425",
    "final_x": "3708480.23371",
    "final_y": "553802.919639",
    "longitude": "-89.98204747298533",
    "latitude": "30.01591860794759",
    "geocoded_column": {
      "latitude": "30.01591860794759",
      "longitude": "-89.98204747298533"
    }
  },
  {
    "service_request": "2022-936424",
    "request_type": "Trash/Recycling",
    "request_reason": "Order Recycling Cart",
    "date_created": "2022-11-02T21:04:59.000",
    "date_modified": "2022-11-02T21:04:59.000",
    "request_status": "Pending",
    "responsible_agency": "Department of Sanitation",
    "final_address": "2318 Onzaga St",
    "address_councildis": "D",
    "status": "Pending",
    "rowid": "936424",
    "final_x": "3680252.34888",
    "final_y": "539626.667274",
    "longitude": "-90.0717281121157",
    "latitude": "29.97782406482346",
    "geocoded_column": {
      "latitude": "29.97782406482346",
      "longitude": "-90.0717281121157"
    }
  },
  {
    "service_request": "2022-936423",
    "request_type": "Traffic Signals/Signs/Striping/Streetlights",
    "request_reason": "Street Light Knocked Down/Leaning",
    "date_created": "2022-11-02T21:03:50.000",
    "date_modified": "2022-11-02T21:03:51.000",
    "request_status": "Pending",
    "responsible_agency": "Department of Public Works",
    "final_address": "2821 Amazon St",
    "address_councildis": "C",
    "status": "Pending",
    "contractor": "Legacy Professional Services",
    "rowid": "936423",
    "final_x": "3693667.57264",
    "final_y": "521413.787833",
    "longitude": "-90.03001265341067",
    "latitude": "29.927332030957782",
    "geocoded_column": {
      "latitude": "29.927332030957782",
      "longitude": "-90.03001265341067"
    }
  },
  {
    "service_request": "2022-936422",
    "request_type": "Trash/Recycling",
    "request_reason": "Repair Recycling Cart",
    "date_created": "2022-11-02T20:59:56.000",
    "date_modified": "2022-11-02T20:59:56.000",
    "request_status": "Pending",
    "responsible_agency": "Department of Sanitation",
    "final_address": "2821 Amazon St",
    "address_councildis": "C",
    "status": "Pending",
    "rowid": "936422",
    "final_x": "3693667.57264",
    "final_y": "521413.787833",
    "longitude": "-90.03001265341067",
    "latitude": "29.927332030957782",
    "geocoded_column": {
      "latitude": "29.927332030957782",
      "longitude": "-90.03001265341067"
    }
  },
  {
    "service_request": "2022-936421",
    "request_type": "Trash/Recycling",
    "request_reason": "Order Recycling Cart",
    "date_created": "2022-11-02T20:59:42.000",
    "date_modified": "2022-11-02T20:59:42.000",
    "request_status": "Pending",
    "responsible_agency": "Department of Sanitation",
    "final_address": "11287 Midpoint Dr",
    "address_councildis": "E",
    "status": "Pending",
    "rowid": "936421",
    "final_x": "3718365.11551",
    "final_y": "559569.578461",
    "longitude": "-89.95059618611316",
    "latitude": "30.03145038237408",
    "geocoded_column": {
      "latitude": "30.03145038237408",
      "longitude": "-89.95059618611316"
    }
  },
  {
    "service_request": "2022-936420",
    "request_type": "Trash/Recycling",
    "request_reason": "Replace Recycling Cart",
    "date_created": "2022-11-02T20:48:53.000",
    "date_modified": "2022-11-02T20:48:53.000",
    "request_status": "Pending",
    "responsible_agency": "Department of Sanitation",
    "final_address": "2928 Grand Route St John St",
    "address_councildis": "A",
    "status": "Pending",
    "rowid": "936420",
    "final_x": "3677446.98472",
    "final_y": "540245.171787",
    "longitude": "-90.08056707163013",
    "latitude": "29.97960937178567",
    "geocoded_column": {
      "latitude": "29.97960937178567",
      "longitude": "-90.08056707163013"
    }
  },
  {
    "service_request": "2022-936419",
    "request_type": "Trash/Recycling",
    "request_reason": "Replace Trash Cart",
    "date_created": "2022-11-02T20:44:14.000",
    "date_modified": "2022-11-02T20:44:15.000",
    "request_status": "Pending",
    "responsible_agency": "Department of Sanitation",
    "final_address": "5430 Stillwater Dr",
    "address_councildis": "E",
    "status": "Assigned to Contractor",
    "contractor": "Metro Disposal",
    "rowid": "936419",
    "final_x": "3716744.33093",
    "final_y": "560390.389662",
    "longitude": "-89.95568669215604",
    "latitude": "30.033760962719892",
    "geocoded_column": {
      "latitude": "30.033760962719892",
      "longitude": "-89.95568669215604"
    }
  },
  {
    "service_request": "2022-936418",
    "request_type": "Abandoned Vehicles",
    "request_reason": "Abandoned/Junk Vehicles",
    "date_created": "2022-11-02T20:42:20.000",
    "date_modified": "2022-11-02T20:42:20.000",
    "request_status": "Pending",
    "responsible_agency": "Department of Public Works",
    "final_address": "1042 Mazant St, New Orleans, Louisiana, 70117",
    "address_councildis": "C",
    "status": "Pending",
    "rowid": "936418",
    "final_x": "3692058.02096",
    "final_y": "535137.002246",
    "longitude": "-90.03460257385386",
    "latitude": "29.965116383740177",
    "geocoded_column": {
      "latitude": "29.965116383740177",
      "longitude": "-90.03460257385386"
    }
  },
  {
    "service_request": "2022-936417",
    "request_type": "Trash/Recycling",
    "request_reason": "Order Recycling Cart",
    "date_created": "2022-11-02T20:41:19.000",
    "date_modified": "2022-11-02T20:41:19.000",
    "request_status": "Pending",
    "responsible_agency": "Department of Sanitation",
    "final_address": "5610 Ada Pl",
    "address_councildis": "A",
    "status": "Pending",
    "rowid": "936417",
    "final_x": "3668564.96391",
    "final_y": "544738.950863",
    "longitude": "-90.10846844213106",
    "latitude": "29.992229759480075",
    "geocoded_column": {
      "latitude": "29.992229759480075",
      "longitude": "-90.10846844213106"
    }
  },
  {
    "service_request": "2022-936416",
    "request_type": "Trash/Recycling",
    "request_reason": "Illegal Dumping",
    "date_created": "2022-11-02T20:40:44.000",
    "date_modified": "2022-11-02T20:40:44.000",
    "request_status": "Pending",
    "responsible_agency": "Department of Sanitation",
    "final_address": "4950 Gilbert St",
    "address_councildis": "E",
    "status": "Pending",
    "rowid": "936416",
    "final_x": "3729283.26707",
    "final_y": "562795.192928",
    "longitude": "-89.91596880764355",
    "latitude": "30.039952690388645",
    "geocoded_column": {
      "latitude": "30.039952690388645",
      "longitude": "-89.91596880764355"
    }
  },
  {
    "service_request": "2022-936415",
    "request_type": "Trash/Recycling",
    "request_reason": "Order Recycling Cart",
    "date_created": "2022-11-02T20:39:29.000",
    "date_modified": "2022-11-02T20:39:29.000",
    "request_status": "Pending",
    "responsible_agency": "Department of Sanitation",
    "final_address": "6143 Milne Blvd",
    "address_councildis": "A",
    "status": "Pending",
    "rowid": "936415",
    "final_x": "3667173.07341",
    "final_y": "548410.033618",
    "longitude": "-90.11274163780057",
    "latitude": "30.002364812163187",
    "geocoded_column": {
      "latitude": "30.002364812163187",
      "longitude": "-90.11274163780057"
    }
  },
  {
    "service_request": "2022-936414",
    "request_type": "Trash/Recycling",
    "request_reason": "Order Recycling Cart",
    "date_created": "2022-11-02T20:37:13.000",
    "date_modified": "2022-11-02T20:37:13.000",
    "request_status": "Pending",
    "responsible_agency": "Department of Sanitation",
    "final_address": "1449 Pauger St",
    "address_councildis": "C",
    "status": "Pending",
    "rowid": "936414",
    "final_x": "3683999.48949",
    "final_y": "534991.33735",
    "longitude": "-90.06005604238473",
    "latitude": "29.964964542702376",
    "geocoded_column": {
      "latitude": "29.964964542702376",
      "longitude": "-90.06005604238473"
    }
  },
  {
    "service_request": "2022-936413",
    "request_type": "Traffic Signals/Signs/Striping/Streetlights",
    "request_reason": "Street Light Outage/Malfunction",
    "date_created": "2022-11-02T20:34:44.000",
    "date_modified": "2022-11-02T20:34:45.000",
    "request_status": "Pending",
    "responsible_agency": "Department of Public Works",
    "final_address": "2538 Chartres St",
    "address_councildis": "C",
    "status": "Pending",
    "contractor": "Legacy Professional Services",
    "rowid": "936413",
    "final_x": "3686594.81206",
    "final_y": "534600.02887",
    "longitude": "-90.05187400896696",
    "latitude": "29.96380902567455",
    "geocoded_column": {
      "latitude": "29.96380902567455",
      "longitude": "-90.05187400896696"
    }
  },
  {
    "service_request": "2022-936412",
    "request_type": "Trash/Recycling",
    "request_reason": "Order Recycling Cart",
    "date_created": "2022-11-02T20:34:24.000",
    "date_modified": "2022-11-02T20:34:24.000",
    "request_status": "Pending",
    "responsible_agency": "Department of Sanitation",
    "final_address": "92 N Wren St",
    "address_councildis": "D",
    "status": "Pending",
    "rowid": "936412",
    "final_x": "3673067.02081",
    "final_y": "556259.688858",
    "longitude": "-90.09385364985908",
    "latitude": "30.023774621326613",
    "geocoded_column": {
      "latitude": "30.023774621326613",
      "longitude": "-90.09385364985908"
    }
  },
  {
    "service_request": "2022-936411",
    "request_type": "Trash/Recycling",
    "request_reason": "Order Recycling Cart",
    "date_created": "2022-11-02T20:32:00.000",
    "date_modified": "2022-11-02T20:32:00.000",
    "request_status": "Pending",
    "responsible_agency": "Department of Sanitation",
    "final_address": "7001 Derbes St",
    "address_councildis": "A",
    "status": "Pending",
    "rowid": "936411",
    "final_x": "3665938.57664",
    "final_y": "554274.614488",
    "longitude": "-90.11644482373002",
    "latitude": "30.018526465865705",
    "geocoded_column": {
      "latitude": "30.018526465865705",
      "longitude": "-90.11644482373002"
    }
  },
  {
    "service_request": "2022-936409",
    "request_type": "Trash/Recycling",
    "request_reason": "Order Recycling Cart",
    "date_created": "2022-11-02T20:28:42.000",
    "date_modified": "2022-11-02T20:28:42.000",
    "request_status": "Pending",
    "responsible_agency": "Department of Sanitation",
    "final_address": "7711 Mullet St",
    "address_councildis": "E",
    "status": "Pending",
    "rowid": "936409",
    "final_x": "3699090.69495",
    "final_y": "560529.949342",
    "longitude": "-90.01146883937164",
    "latitude": "30.034716488844943",
    "geocoded_column": {
      "latitude": "30.034716488844943",
      "longitude": "-90.01146883937164"
    }
  },
  {
    "service_request": "2022-936408",
    "request_type": "Trash/Recycling",
    "request_reason": "Order Recycling Cart",
    "date_created": "2022-11-02T20:25:33.000",
    "date_modified": "2022-11-02T20:25:33.000",
    "request_status": "Pending",
    "responsible_agency": "Department of Sanitation",
    "final_address": "1535 Port St",
    "address_councildis": "C",
    "status": "Pending",
    "rowid": "936408",
    "final_x": "3687917.45225",
    "final_y": "538185.675337",
    "longitude": "-90.04757019257639",
    "latitude": "29.97362756100885",
    "geocoded_column": {
      "latitude": "29.97362756100885",
      "longitude": "-90.04757019257639"
    }
  },
  {
    "service_request": "2022-936407",
    "request_type": "Trash/Recycling",
    "request_reason": "Order Recycling Cart",
    "date_created": "2022-11-02T20:24:26.000",
    "date_modified": "2022-11-02T20:24:26.000",
    "request_status": "Pending",
    "responsible_agency": "Department of Sanitation",
    "final_address": "13009 Deauville Ct",
    "address_councildis": "E",
    "status": "Pending",
    "rowid": "936407",
    "final_x": "3723878.4583",
    "final_y": "560722.478878",
    "longitude": "-89.93312950420571",
    "latitude": "30.03443629729148",
    "geocoded_column": {
      "latitude": "30.03443629729148",
      "longitude": "-89.93312950420571"
    }
  },
  {
    "service_request": "2022-936406",
    "request_type": "Property Maintenance",
    "request_reason": "Property Maintenance",
    "date_created": "2022-11-02T20:23:25.000",
    "date_modified": "2022-11-02T20:23:25.000",
    "request_status": "Pending",
    "responsible_agency": "Department of Code Enforcement",
    "final_address": "4950 Gilbert St",
    "address_councildis": "E",
    "status": "Pending",
    "rowid": "936406",
    "final_x": "3729283.26707",
    "final_y": "562795.192928",
    "longitude": "-89.91596880764355",
    "latitude": "30.039952690388645",
    "geocoded_column": {
      "latitude": "30.039952690388645",
      "longitude": "-89.91596880764355"
    }
  },
  {
    "service_request": "2022-936405",
    "request_type": "Trash/Recycling",
    "request_reason": "Order Recycling Cart",
    "date_created": "2022-11-02T20:22:35.000",
    "date_modified": "2022-11-02T20:22:35.000",
    "request_status": "Pending",
    "responsible_agency": "Department of Sanitation",
    "final_address": "3439 Bruxelles St, New Orleans, Louisiana, 70122",
    "address_councildis": "D",
    "status": "Pending",
    "rowid": "936405",
    "final_x": "3680159.76475",
    "final_y": "545138.536015",
    "longitude": "-90.0718288684289",
    "latitude": "29.992982578381707",
    "geocoded_column": {
      "latitude": "29.992982578381707",
      "longitude": "-90.0718288684289"
    }
  },
  {
    "service_request": "2022-936403",
    "request_type": "Trash/Recycling",
    "request_reason": "Order Trash Cart",
    "date_created": "2022-11-02T20:21:49.000",
    "date_modified": "2022-11-02T20:21:49.000",
    "request_status": "Pending",
    "responsible_agency": "Department of Sanitation",
    "final_address": "3439 Bruxelles St, New Orleans, Louisiana, 70122",
    "address_councildis": "D",
    "status": "Assigned to Contractor",
    "contractor": "Metro Disposal",
    "rowid": "936403",
    "final_x": "3680159.76475",
    "final_y": "545138.536015",
    "longitude": "-90.0718288684289",
    "latitude": "29.992982578381707",
    "geocoded_column": {
      "latitude": "29.992982578381707",
      "longitude": "-90.0718288684289"
    }
  },
  {
    "service_request": "2022-936402",
    "request_type": "Trash/Recycling",
    "request_reason": "Order Trash Cart",
    "date_created": "2022-11-02T20:21:40.000",
    "date_modified": "2022-11-02T20:21:41.000",
    "request_status": "Pending",
    "responsible_agency": "Department of Sanitation",
    "final_address": "246 20th Street",
    "address_councildis": "A",
    "status": "Assigned to Contractor",
    "contractor": "Metro Disposal",
    "rowid": "936402",
    "final_x": "3665377.71348",
    "final_y": "548960.844307",
    "longitude": "-90.11839497490818",
    "latitude": "30.00393181587291",
    "geocoded_column": {
      "latitude": "30.00393181587291",
      "longitude": "-90.11839497490818"
    }
  },
  {
    "service_request": "2022-936401",
    "request_type": "Trash/Recycling",
    "request_reason": "Order Recycling Cart",
    "date_created": "2022-11-02T20:20:36.000",
    "date_modified": "2022-11-02T20:20:36.000",
    "request_status": "Pending",
    "responsible_agency": "Department of Sanitation",
    "final_address": "4512 Perrier St",
    "address_councildis": "B",
    "status": "Pending",
    "rowid": "936401",
    "final_x": "3670382.29601",
    "final_y": "519973.703672",
    "longitude": "-90.1035674165112",
    "latitude": "29.924079987282614",
    "geocoded_column": {
      "latitude": "29.924079987282614",
      "longitude": "-90.1035674165112"
    }
  },
  {
    "service_request": "2022-936400",
    "request_type": "Trash/Recycling",
    "request_reason": "Order Recycling Cart",
    "date_created": "2022-11-02T20:13:25.000",
    "date_modified": "2022-11-02T20:13:25.000",
    "request_status": "Pending",
    "responsible_agency": "Department of Sanitation",
    "final_address": "3013 Orleans Ave",
    "address_councildis": "A",
    "status": "Pending",
    "rowid": "936400",
    "final_x": "3675713.96033",
    "final_y": "537886.008201",
    "longitude": "-90.08612177089002",
    "latitude": "29.97317446497651",
    "geocoded_column": {
      "latitude": "29.97317446497651",
      "longitude": "-90.08612177089002"
    }
  },
  {
    "service_request": "2022-936399",
    "request_type": "Trash/Recycling",
    "request_reason": "Order Recycling Cart",
    "date_created": "2022-11-02T20:12:00.000",
    "date_modified": "2022-11-02T20:12:00.000",
    "request_status": "Pending",
    "responsible_agency": "Department of Sanitation",
    "final_address": "1756 N Rampart St",
    "address_councildis": "C",
    "status": "Pending",
    "rowid": "936399",
    "final_x": "3683464.93621",
    "final_y": "535789.356423",
    "longitude": "-90.06171615992022",
    "latitude": "29.96717514223848",
    "geocoded_column": {
      "latitude": "29.96717514223848",
      "longitude": "-90.06171615992022"
    }
  },
  {
    "service_request": "2022-936398",
    "request_type": "Trash/Recycling",
    "request_reason": "Order Recycling Cart",
    "date_created": "2022-11-02T20:10:03.000",
    "date_modified": "2022-11-02T20:10:03.000",
    "request_status": "Pending",
    "responsible_agency": "Department of Sanitation",
    "final_address": "4621 Bright Dr",
    "address_councildis": "E",
    "status": "Pending",
    "rowid": "936398",
    "final_x": "3715941.24639",
    "final_y": "556437.60777",
    "longitude": "-89.95837439387591",
    "latitude": "30.0229189155447",
    "geocoded_column": {
      "latitude": "30.0229189155447",
      "longitude": "-89.95837439387591"
    }
  },
  {
    "service_request": "2022-936397",
    "request_type": "Trash/Recycling",
    "request_reason": "Order Trash Cart",
    "date_created": "2022-11-02T20:08:27.000",
    "date_modified": "2022-11-02T20:08:28.000",
    "request_status": "Pending",
    "responsible_agency": "Department of Sanitation",
    "final_address": "5335 Canal Blvd",
    "address_councildis": "A",
    "status": "Assigned to Contractor",
    "contractor": "Metro Disposal",
    "rowid": "936397",
    "final_x": "3668208.10381",
    "final_y": "542953.730573",
    "longitude": "-90.10965591879895",
    "latitude": "29.987331498130114",
    "geocoded_column": {
      "latitude": "29.987331498130114",
      "longitude": "-90.10965591879895"
    }
  },
  {
    "service_request": "2022-936396",
    "request_type": "Trash/Recycling",
    "request_reason": "Order Recycling Cart",
    "date_created": "2022-11-02T20:06:28.000",
    "date_modified": "2022-11-02T20:06:28.000",
    "request_status": "Pending",
    "responsible_agency": "Department of Sanitation",
    "final_address": "7009 West End Blvd",
    "address_councildis": "A",
    "status": "Pending",
    "rowid": "936396",
    "final_x": "3666918.88186",
    "final_y": "554239.960728",
    "longitude": "-90.11334857095348",
    "latitude": "30.01840251761013",
    "geocoded_column": {
      "latitude": "30.01840251761013",
      "longitude": "-90.11334857095348"
    }
  },
  {
    "service_request": "2022-936395",
    "request_type": "Trash/Recycling",
    "request_reason": "Order Recycling Cart",
    "date_created": "2022-11-02T20:04:41.000",
    "date_modified": "2022-11-02T20:04:41.000",
    "request_status": "Pending",
    "responsible_agency": "Department of Sanitation",
    "final_address": "11300 Notaway Ln",
    "address_councildis": "E",
    "status": "Pending",
    "rowid": "936395",
    "final_x": "3718505.63397",
    "final_y": "559818.965277",
    "longitude": "-89.95014263388279",
    "latitude": "30.032131432284153",
    "geocoded_column": {
      "latitude": "30.032131432284153",
      "longitude": "-89.95014263388279"
    }
  },
  {
    "service_request": "2022-936394",
    "request_type": "Trash/Recycling",
    "request_reason": "Order Recycling Cart",
    "date_created": "2022-11-02T20:04:22.000",
    "date_modified": "2022-11-02T20:04:22.000",
    "request_status": "Pending",
    "responsible_agency": "Department of Sanitation",
    "final_address": "6538 General Diaz St",
    "address_councildis": "A",
    "status": "Pending",
    "rowid": "936394",
    "final_x": "3669752.23905",
    "final_y": "550923.437653",
    "longitude": "-90.10450855972134",
    "latitude": "30.00919999773263",
    "geocoded_column": {
      "latitude": "30.00919999773263",
      "longitude": "-90.10450855972134"
    }
  },
  {
    "service_request": "2022-936393",
    "request_type": "Trash/Recycling",
    "request_reason": "Order Recycling Cart",
    "date_created": "2022-11-02T20:00:42.000",
    "date_modified": "2022-11-02T20:00:42.000",
    "request_status": "Pending",
    "responsible_agency": "Department of Sanitation",
    "final_address": "7809 Primrose Dr",
    "address_councildis": "E",
    "status": "Pending",
    "rowid": "936393",
    "final_x": "3701615.74199",
    "final_y": "561789.042527",
    "longitude": "-90.00344319117895",
    "latitude": "30.038098167141584",
    "geocoded_column": {
      "latitude": "30.038098167141584",
      "longitude": "-90.00344319117895"
    }
  },
  {
    "service_request": "2022-936392",
    "request_type": "Trash/Recycling",
    "request_reason": "Replace Recycling Cart",
    "date_created": "2022-11-02T20:00:08.000",
    "date_modified": "2022-11-02T20:00:08.000",
    "request_status": "Pending",
    "responsible_agency": "Department of Sanitation",
    "final_address": "2482 Dreux Ave",
    "address_councildis": "D",
    "status": "Pending",
    "rowid": "936392",
    "final_x": "3685968.65308",
    "final_y": "552098.058006",
    "longitude": "-90.0532340386648",
    "latitude": "30.011941620521377",
    "geocoded_column": {
      "latitude": "30.011941620521377",
      "longitude": "-90.0532340386648"
    }
  },
  {
    "service_request": "2022-936391",
    "request_type": "Trash/Recycling",
    "request_reason": "Order Recycling Cart",
    "date_created": "2022-11-02T19:54:43.000",
    "date_modified": "2022-11-02T19:54:43.000",
    "request_status": "Pending",
    "responsible_agency": "Department of Sanitation",
    "final_address": "3500 Nashville Ave",
    "address_councildis": "A",
    "status": "Pending",
    "rowid": "936391",
    "final_x": "3668090.92346",
    "final_y": "528521.980224",
    "longitude": "-90.11051252513589",
    "latitude": "29.94765242738636",
    "geocoded_column": {
      "latitude": "29.94765242738636",
      "longitude": "-90.11051252513589"
    }
  },
  {
    "service_request": "2022-936390",
    "request_type": "Trash/Recycling",
    "request_reason": "Replace Trash Cart",
    "date_created": "2022-11-02T19:54:04.000",
    "date_modified": "2022-11-02T19:54:04.000",
    "request_status": "Pending",
    "responsible_agency": "Department of Sanitation",
    "final_address": "2482 Dreux Ave",
    "address_councildis": "D",
    "status": "Assigned to Contractor",
    "contractor": "Metro Disposal",
    "rowid": "936390",
    "final_x": "3685968.65308",
    "final_y": "552098.058006",
    "longitude": "-90.0532340386648",
    "latitude": "30.011941620521377",
    "geocoded_column": {
      "latitude": "30.011941620521377",
      "longitude": "-90.0532340386648"
    }
  },
  {
    "service_request": "2022-936389",
    "request_type": "Traffic Signals/Signs/Striping/Streetlights",
    "request_reason": "Street Light Outage/Malfunction",
    "date_created": "2022-11-02T19:53:40.000",
    "date_modified": "2022-11-02T19:53:40.000",
    "request_status": "Pending",
    "responsible_agency": "Department of Public Works",
    "final_address": "11931 Curran Rd",
    "address_councildis": "E",
    "status": "Pending",
    "contractor": "Legacy Professional Services",
    "rowid": "936389",
    "final_x": "3713051.55083",
    "final_y": "567872.578212",
    "longitude": "-89.96707426012453",
    "latitude": "30.054455520974",
    "geocoded_column": {
      "latitude": "30.054455520974",
      "longitude": "-89.96707426012453"
    }
  },
  {
    "service_request": "2022-936388",
    "request_type": "Traffic Signals/Signs/Striping/Streetlights",
    "request_reason": "Street Light Outage/Malfunction",
    "date_created": "2022-11-02T19:42:59.000",
    "date_modified": "2022-11-02T19:42:59.000",
    "request_status": "Pending",
    "responsible_agency": "Department of Public Works",
    "final_address": "429 Amethyst St",
    "address_councildis": "D",
    "status": "Pending",
    "contractor": "Legacy Professional Services",
    "rowid": "936388",
    "final_x": "3667631.67284",
    "final_y": "556678.378138",
    "longitude": "-90.11101421883531",
    "latitude": "30.025086413441702",
    "geocoded_column": {
      "latitude": "30.025086413441702",
      "longitude": "-90.11101421883531"
    }
  },
  {
    "service_request": "2022-936387",
    "request_type": "Trash/Recycling",
    "request_reason": "Order Recycling Cart",
    "date_created": "2022-11-02T19:38:21.000",
    "date_modified": "2022-11-02T19:38:21.000",
    "request_status": "Pending",
    "responsible_agency": "Department of Sanitation",
    "final_address": "6357 General Diaz St",
    "address_councildis": "A",
    "status": "Pending",
    "rowid": "936387",
    "final_x": "3669768.74996",
    "final_y": "549690.472148",
    "longitude": "-90.10449817106577",
    "latitude": "30.005809287829674",
    "geocoded_column": {
      "latitude": "30.005809287829674",
      "longitude": "-90.10449817106577"
    }
  },
  {
    "service_request": "2022-936386",
    "request_type": "Trash/Recycling",
    "request_reason": "MIssed Recycling Pick-Up",
    "date_created": "2022-11-02T19:35:03.000",
    "date_modified": "2022-11-02T19:35:04.000",
    "request_status": "Pending",
    "responsible_agency": "Department of Sanitation",
    "final_address": "2233 Washington Ave",
    "address_councildis": "B",
    "status": "Assigned to Contractor",
    "contractor": "Richards Disposal",
    "rowid": "936386",
    "final_x": "3674625.65736",
    "final_y": "524567.716476",
    "longitude": "-90.09001525431059",
    "latitude": "29.936586127445302",
    "geocoded_column": {
      "latitude": "29.936586127445302",
      "longitude": "-90.09001525431059"
    }
  },
  {
    "service_request": "2022-936385",
    "request_type": "Trash/Recycling",
    "request_reason": "Order Recycling Cart",
    "date_created": "2022-11-02T19:34:27.000",
    "date_modified": "2022-11-02T19:34:27.000",
    "request_status": "Pending",
    "responsible_agency": "Department of Sanitation",
    "final_address": "2337 Gallier St",
    "address_councildis": "D",
    "status": "Pending",
    "rowid": "936385",
    "final_x": "3691694.9558",
    "final_y": "540439.364683",
    "longitude": "-90.03555946102934",
    "latitude": "29.97970731171094",
    "geocoded_column": {
      "latitude": "29.97970731171094",
      "longitude": "-90.03555946102934"
    }
  },
  {
    "service_request": "2022-936384",
    "request_type": "Trash/Recycling",
    "request_reason": "Order Recycling Cart",
    "date_created": "2022-11-02T19:33:20.000",
    "date_modified": "2022-11-02T19:33:20.000",
    "request_status": "Pending",
    "responsible_agency": "Department of Sanitation",
    "final_address": "2667 Lepage St",
    "address_councildis": "A",
    "status": "Pending",
    "rowid": "936384",
    "final_x": "3678028.37237",
    "final_y": "539702.530954",
    "longitude": "-90.0787495797375",
    "latitude": "29.97809980617669",
    "geocoded_column": {
      "latitude": "29.97809980617669",
      "longitude": "-90.0787495797375"
    }
  },
  {
    "service_request": "2022-936383",
    "request_type": "Trash/Recycling",
    "request_reason": "Order Recycling Cart",
    "date_created": "2022-11-02T19:32:57.000",
    "date_modified": "2022-11-02T19:32:57.000",
    "request_status": "Pending",
    "responsible_agency": "Department of Sanitation",
    "final_address": "4737 Bright Dr",
    "address_councildis": "E",
    "status": "Pending",
    "rowid": "936383",
    "final_x": "3715897.24428",
    "final_y": "556961.224922",
    "longitude": "-89.9584935773793",
    "latitude": "30.024360106471935",
    "geocoded_column": {
      "latitude": "30.024360106471935",
      "longitude": "-89.9584935773793"
    }
  },
  {
    "service_request": "2022-936382",
    "request_type": "Trash/Recycling",
    "request_reason": "Order Recycling Cart",
    "date_created": "2022-11-02T19:32:35.000",
    "date_modified": "2022-11-02T19:32:35.000",
    "request_status": "Pending",
    "responsible_agency": "Department of Sanitation",
    "final_address": "5409 Mandeville St",
    "address_councildis": "D",
    "status": "Pending",
    "rowid": "936382",
    "final_x": "3684509.98268",
    "final_y": "552841.473111",
    "longitude": "-90.05781644796946",
    "latitude": "30.014030467679675",
    "geocoded_column": {
      "latitude": "30.014030467679675",
      "longitude": "-90.05781644796946"
    }
  },
  {
    "service_request": "2022-936381",
    "request_type": "Trash/Recycling",
    "request_reason": "Replace Recycling Cart",
    "date_created": "2022-11-02T19:31:17.000",
    "date_modified": "2022-11-02T19:31:17.000",
    "request_status": "Pending",
    "responsible_agency": "Department of Sanitation",
    "final_address": "7718 Scottwood Dr",
    "address_councildis": "E",
    "status": "Pending",
    "rowid": "936381",
    "final_x": "3716940.83192",
    "final_y": "571113.100776",
    "longitude": "-89.95465803010372",
    "latitude": "30.063237530664505",
    "geocoded_column": {
      "latitude": "30.063237530664505",
      "longitude": "-89.95465803010372"
    }
  },
  {
    "service_request": "2022-936380",
    "request_type": "Trash/Recycling",
    "request_reason": "Order Recycling Cart",
    "date_created": "2022-11-02T19:28:57.000",
    "date_modified": "2022-11-02T19:28:57.000",
    "request_status": "Pending",
    "responsible_agency": "Department of Sanitation",
    "final_address": "5749 Alfred St",
    "address_councildis": "D",
    "status": "Pending",
    "rowid": "936380",
    "final_x": "3677292.28507",
    "final_y": "553722.200087",
    "longitude": "-90.08059030441866",
    "latitude": "30.01667109555022",
    "geocoded_column": {
      "latitude": "30.01667109555022",
      "longitude": "-90.08059030441866"
    }
  },
  {
    "service_request": "2022-936378",
    "request_type": "Trash/Recycling",
    "request_reason": "Order Recycling Cart",
    "date_created": "2022-11-02T19:28:03.000",
    "date_modified": "2022-11-02T19:28:03.000",
    "request_status": "Pending",
    "responsible_agency": "Department of Sanitation",
    "final_address": "6 Fontainebleau Dr",
    "address_councildis": "A",
    "status": "Pending",
    "rowid": "936378",
    "final_x": "3665549.65671",
    "final_y": "531845.766531",
    "longitude": "-90.11842506144463",
    "latitude": "29.95686608646346",
    "geocoded_column": {
      "latitude": "29.95686608646346",
      "longitude": "-90.11842506144463"
    }
  },
  {
    "service_request": "2022-936377",
    "request_type": "Trash/Recycling",
    "request_reason": "Order Recycling Cart",
    "date_created": "2022-11-02T19:25:03.000",
    "date_modified": "2022-11-02T19:25:03.000",
    "request_status": "Pending",
    "responsible_agency": "Department of Sanitation",
    "final_address": "4110 Piedmont Dr",
    "address_councildis": "D",
    "status": "Pending",
    "rowid": "936377",
    "final_x": "3684953.72642",
    "final_y": "547746.27701",
    "longitude": "-90.05659381776954",
    "latitude": "30.000006937559537",
    "geocoded_column": {
      "latitude": "30.000006937559537",
      "longitude": "-90.05659381776954"
    }
  },
  {
    "service_request": "2022-936376",
    "request_type": "Trash/Recycling",
    "request_reason": "Order Recycling Cart",
    "date_created": "2022-11-02T19:24:51.000",
    "date_modified": "2022-11-02T19:24:51.000",
    "request_status": "Pending",
    "responsible_agency": "Department of Sanitation",
    "final_address": "5661 Catina St",
    "address_councildis": "A",
    "status": "Pending",
    "rowid": "936376",
    "final_x": "3666704.69473",
    "final_y": "545226.211919",
    "longitude": "-90.11432831278773",
    "latitude": "29.993624108255926",
    "geocoded_column": {
      "latitude": "29.993624108255926",
      "longitude": "-90.11432831278773"
    }
  },
  {
    "service_request": "2022-936374",
    "request_type": "Trash/Recycling",
    "request_reason": "Order Recycling Cart",
    "date_created": "2022-11-02T19:22:45.000",
    "date_modified": "2022-11-02T19:22:45.000",
    "request_status": "Pending",
    "responsible_agency": "Department of Sanitation",
    "final_address": "5941 Lafaye St",
    "address_councildis": "D",
    "status": "Pending",
    "rowid": "936374",
    "final_x": "3687187.35094",
    "final_y": "555208.331481",
    "longitude": "-90.04927354090181",
    "latitude": "30.02045623341242",
    "geocoded_column": {
      "latitude": "30.02045623341242",
      "longitude": "-90.04927354090181"
    }
  },
  {
    "service_request": "2022-936373",
    "request_type": "Trash/Recycling",
    "request_reason": "Order Recycling Cart",
    "date_created": "2022-11-02T19:21:15.000",
    "date_modified": "2022-11-02T19:21:15.000",
    "request_status": "Pending",
    "responsible_agency": "Department of Sanitation",
    "final_address": "5216 Hawthorne Pl",
    "address_councildis": "A",
    "status": "Pending",
    "rowid": "936373",
    "final_x": "3667786.61447",
    "final_y": "543122.278733",
    "longitude": "-90.11098158026614",
    "latitude": "29.987807318212916",
    "geocoded_column": {
      "latitude": "29.987807318212916",
      "longitude": "-90.11098158026614"
    }
  },
  {
    "service_request": "2022-936372",
    "request_type": "Trash/Recycling",
    "request_reason": "Order Recycling Cart",
    "date_created": "2022-11-02T19:20:06.000",
    "date_modified": "2022-11-02T19:20:06.000",
    "request_status": "Pending",
    "responsible_agency": "Department of Sanitation",
    "final_address": "7918 Mackenzie St",
    "address_councildis": "E",
    "status": "Pending",
    "rowid": "936372",
    "final_x": "3710360.33003",
    "final_y": "567006.39434",
    "longitude": "-89.97561295858932",
    "latitude": "30.052161824758713",
    "geocoded_column": {
      "latitude": "30.052161824758713",
      "longitude": "-89.97561295858932"
    }
  },
  {
    "service_request": "2022-936371",
    "request_type": "Trash/Recycling",
    "request_reason": "Order Recycling Cart",
    "date_created": "2022-11-02T19:19:47.000",
    "date_modified": "2022-11-02T19:19:47.000",
    "request_status": "Pending",
    "responsible_agency": "Department of Sanitation",
    "final_address": "115 Ringold St",
    "address_councildis": "A",
    "status": "Pending",
    "rowid": "936371",
    "final_x": "3666752.58791",
    "final_y": "548585.125395",
    "longitude": "-90.11406412255671",
    "latitude": "30.00285856340555",
    "geocoded_column": {
      "latitude": "30.00285856340555",
      "longitude": "-90.11406412255671"
    }
  },
  {
    "service_request": "2022-936370",
    "request_type": "Trash/Recycling",
    "request_reason": "Order Recycling Cart",
    "date_created": "2022-11-02T19:17:14.000",
    "date_modified": "2022-11-02T19:17:14.000",
    "request_status": "Pending",
    "responsible_agency": "Department of Sanitation",
    "final_address": "7908 Mackenzie St",
    "address_councildis": "E",
    "status": "Pending",
    "rowid": "936370",
    "final_x": "3710402.71755",
    "final_y": "566944.736036",
    "longitude": "-89.97548129502232",
    "latitude": "30.051990908327316",
    "geocoded_column": {
      "latitude": "30.051990908327316",
      "longitude": "-89.97548129502232"
    }
  },
  {
    "service_request": "2022-936369",
    "request_type": "Trash/Recycling",
    "request_reason": "Order Recycling Cart",
    "date_created": "2022-11-02T19:16:47.000",
    "date_modified": "2022-11-02T19:16:47.000",
    "request_status": "Pending",
    "responsible_agency": "Department of Sanitation",
    "final_address": "1612 Lisbon St",
    "address_councildis": "D",
    "status": "Pending",
    "rowid": "936369",
    "final_x": "3679117.97775",
    "final_y": "556126.199962",
    "longitude": "-90.0747384575916",
    "latitude": "30.023226211512913",
    "geocoded_column": {
      "latitude": "30.023226211512913",
      "longitude": "-90.0747384575916"
    }
  },
  {
    "service_request": "2022-936368",
    "request_type": "Trash/Recycling",
    "request_reason": "Order Recycling Cart",
    "date_created": "2022-11-02T19:11:49.000",
    "date_modified": "2022-11-02T19:11:49.000",
    "request_status": "Pending",
    "responsible_agency": "Department of Sanitation",
    "final_address": "5864 Orleans Ave ",
    "address_councildis": "A",
    "status": "Pending",
    "rowid": "936368",
    "final_x": "3670755.19655",
    "final_y": "546261.810256",
    "longitude": "-90.1014981976467",
    "latitude": "29.996352537392404",
    "geocoded_column": {
      "latitude": "29.996352537392404",
      "longitude": "-90.1014981976467"
    }
  },
  {
    "service_request": "2022-936367",
    "request_type": "Trash/Recycling",
    "request_reason": "Order Recycling Cart",
    "date_created": "2022-11-02T19:11:24.000",
    "date_modified": "2022-11-02T19:11:24.000",
    "request_status": "Pending",
    "responsible_agency": "Department of Sanitation",
    "final_address": "6939 General Haig St",
    "address_councildis": "A",
    "status": "Pending",
    "rowid": "936367",
    "final_x": "3671210.37467",
    "final_y": "553441.375127",
    "longitude": "-90.09981616514348",
    "latitude": "30.016080357051052",
    "geocoded_column": {
      "latitude": "30.016080357051052",
      "longitude": "-90.09981616514348"
    }
  },
  {
    "service_request": "2022-936366",
    "request_type": "Abandoned Vehicles",
    "request_reason": "Abandoned/Junk Vehicles",
    "date_created": "2022-11-02T19:09:51.000",
    "date_modified": "2022-11-02T19:09:51.000",
    "request_status": "Pending",
    "responsible_agency": "Department of Public Works",
    "final_address": "4407 Paris Ave",
    "address_councildis": "D",
    "status": "Pending",
    "rowid": "936366",
    "final_x": "3679553.06056",
    "final_y": "548644.164371",
    "longitude": "-90.07362360015509",
    "latitude": "30.002640166075192",
    "geocoded_column": {
      "latitude": "30.002640166075192",
      "longitude": "-90.07362360015509"
    }
  },
  {
    "service_request": "2022-936365",
    "request_type": "Trash/Recycling",
    "request_reason": "Missed Trash Pick-Up",
    "date_created": "2022-11-02T19:04:53.000",
    "date_modified": "2022-11-02T19:04:54.000",
    "request_status": "Pending",
    "responsible_agency": "Department of Sanitation",
    "final_address": "5102 Royal St",
    "address_councildis": "E",
    "status": "Assigned to Contractor",
    "contractor": "Metro Disposal",
    "rowid": "936365",
    "final_x": "3695863.49053",
    "final_y": "532681.526148",
    "longitude": "-90.02267387071183",
    "latitude": "29.958245545110078",
    "geocoded_column": {
      "latitude": "29.958245545110078",
      "longitude": "-90.02267387071183"
    }
  },
  {
    "service_request": "2022-936364",
    "request_type": "Trash/Recycling",
    "request_reason": "Order Recycling Cart",
    "date_created": "2022-11-02T19:04:03.000",
    "date_modified": "2022-11-02T19:04:03.000",
    "request_status": "Pending",
    "responsible_agency": "Department of Sanitation",
    "final_address": "4932 Tynecastle Dr",
    "address_councildis": "E",
    "status": "Pending",
    "rowid": "936364",
    "final_x": "3718339.8629",
    "final_y": "558063.062043",
    "longitude": "-89.95073342758768",
    "latitude": "30.027308905703944",
    "geocoded_column": {
      "latitude": "30.027308905703944",
      "longitude": "-89.95073342758768"
    }
  },
  {
    "service_request": "2022-936363",
    "request_type": "Trash/Recycling",
    "request_reason": "Replace Recycling Cart",
    "date_created": "2022-11-02T19:02:09.000",
    "date_modified": "2022-11-02T19:02:09.000",
    "request_status": "Pending",
    "responsible_agency": "Department of Sanitation",
    "final_address": "7620 Hickman St",
    "address_councildis": "E",
    "status": "Pending",
    "rowid": "936363",
    "final_x": "3706105.29956",
    "final_y": "563269.538656",
    "longitude": "-89.98920027673803",
    "latitude": "30.04202490713701",
    "geocoded_column": {
      "latitude": "30.04202490713701",
      "longitude": "-89.98920027673803"
    }
  },
  {
    "service_request": "2022-936361",
    "request_type": "Trash/Recycling",
    "request_reason": "Order Recycling Cart",
    "date_created": "2022-11-02T18:59:15.000",
    "date_modified": "2022-11-02T18:59:15.000",
    "request_status": "Pending",
    "responsible_agency": "Department of Sanitation",
    "final_address": "13050 N Lake Carmel Dr",
    "address_councildis": "E",
    "status": "Pending",
    "rowid": "936361",
    "final_x": "3716817.96018",
    "final_y": "568859.008293",
    "longitude": "-89.95513213137075",
    "latitude": "30.057043775572367",
    "geocoded_column": {
      "latitude": "30.057043775572367",
      "longitude": "-89.95513213137075"
    }
  },
  {
    "service_request": "2022-936360",
    "request_type": "Trash/Recycling",
    "request_reason": "Order Recycling Cart",
    "date_created": "2022-11-02T18:58:21.000",
    "date_modified": "2022-11-02T18:58:21.000",
    "request_status": "Pending",
    "responsible_agency": "Department of Sanitation",
    "final_address": "5425 Vicksburg St",
    "address_councildis": "A",
    "status": "Pending",
    "rowid": "936360",
    "final_x": "3668666.04046",
    "final_y": "543050.316173",
    "longitude": "-90.10820619186633",
    "latitude": "29.987583620607044",
    "geocoded_column": {
      "latitude": "29.987583620607044",
      "longitude": "-90.10820619186633"
    }
  },
  {
    "service_request": "2022-936359",
    "request_type": "Trash/Recycling",
    "request_reason": "Order Recycling Cart",
    "date_created": "2022-11-02T18:55:09.000",
    "date_modified": "2022-11-02T18:55:59.000",
    "request_status": "Pending",
    "responsible_agency": "Department of Sanitation",
    "final_address": "3052 Grand Route St John St",
    "address_councildis": "A",
    "status": "Pending",
    "rowid": "936359",
    "final_x": "3676763.73134",
    "final_y": "540263.097035",
    "longitude": "-90.08272444487677",
    "latitude": "29.979679182598694",
    "geocoded_column": {
      "latitude": "29.979679182598694",
      "longitude": "-90.08272444487677"
    }
  },
  {
    "service_request": "2022-936358",
    "request_type": "Trash/Recycling",
    "request_reason": "Repair Recycling Cart",
    "date_created": "2022-11-02T18:53:53.000",
    "date_modified": "2022-11-02T18:53:53.000",
    "request_status": "Pending",
    "responsible_agency": "Department of Sanitation",
    "final_address": "14 Winners Cir",
    "address_councildis": "E",
    "status": "Pending",
    "rowid": "936358",
    "final_x": "3715774.22047",
    "final_y": "570367.028583",
    "longitude": "-89.95837400696394",
    "latitude": "30.061224685270144",
    "geocoded_column": {
      "latitude": "30.061224685270144",
      "longitude": "-89.95837400696394"
    }
  },
  {
    "service_request": "2022-936357",
    "request_type": "Trash/Recycling",
    "request_reason": "Order Recycling Cart",
    "date_created": "2022-11-02T18:53:16.000",
    "date_modified": "2022-11-02T18:53:16.000",
    "request_status": "Pending",
    "responsible_agency": "Department of Sanitation",
    "final_address": "5323 Dauphine St",
    "address_councildis": "E",
    "status": "Pending",
    "rowid": "936357",
    "final_x": "3696681.07178",
    "final_y": "532924.958212",
    "longitude": "-90.02008337637163",
    "latitude": "29.9588891576537",
    "geocoded_column": {
      "latitude": "29.9588891576537",
      "longitude": "-90.02008337637163"
    }
  },
  {
    "service_request": "2022-936356",
    "request_type": "Trash/Recycling",
    "request_reason": "Order Recycling Cart",
    "date_created": "2022-11-02T18:53:15.000",
    "date_modified": "2022-11-02T18:53:15.000",
    "request_status": "Pending",
    "responsible_agency": "Department of Sanitation",
    "final_address": "2065 Wagner St",
    "address_councildis": "C",
    "status": "Pending",
    "rowid": "936356",
    "final_x": "3690246.895",
    "final_y": "522909.800699",
    "longitude": "-90.04075756466885",
    "latitude": "29.931552103534013",
    "geocoded_column": {
      "latitude": "29.931552103534013",
      "longitude": "-90.04075756466885"
    }
  },
  {
    "service_request": "2022-936355",
    "request_type": "Trash/Recycling",
    "request_reason": "Order Recycling Cart",
    "date_created": "2022-11-02T18:53:09.000",
    "date_modified": "2022-11-02T18:53:10.000",
    "request_status": "Pending",
    "responsible_agency": "Department of Sanitation",
    "final_address": "1504 Seville Dr",
    "address_councildis": "D",
    "status": "Pending",
    "rowid": "936355",
    "final_x": "3678709.52226",
    "final_y": "551147.753109",
    "longitude": "-90.0762016760692",
    "latitude": "30.009549613041763",
    "geocoded_column": {
      "latitude": "30.009549613041763",
      "longitude": "-90.0762016760692"
    }
  },
  {
    "service_request": "2022-936354",
    "request_type": "Trash/Recycling",
    "request_reason": "Replace Trash Cart",
    "date_created": "2022-11-02T18:53:07.000",
    "date_modified": "2022-11-02T18:53:08.000",
    "request_status": "Pending",
    "responsible_agency": "Department of Sanitation",
    "final_address": "37 Vivian Ct",
    "address_councildis": "C",
    "status": "Assigned to Contractor",
    "contractor": "Richards Disposal",
    "rowid": "936354",
    "final_x": "3702175.93853",
    "final_y": "521113.822073",
    "longitude": "-90.0031650617666",
    "latitude": "29.926238381704326",
    "geocoded_column": {
      "latitude": "29.926238381704326",
      "longitude": "-90.0031650617666"
    }
  },
  {
    "service_request": "2022-936353",
    "request_type": "Trash/Recycling",
    "request_reason": "Order Recycling Cart",
    "date_created": "2022-11-02T18:52:28.000",
    "date_modified": "2022-11-02T18:52:28.000",
    "request_status": "Pending",
    "responsible_agency": "Department of Sanitation",
    "final_address": "819 Greenwood St",
    "address_councildis": "A",
    "status": "Pending",
    "rowid": "936353",
    "final_x": "3668799.79975",
    "final_y": "542896.351949",
    "longitude": "-90.10778889251785",
    "latitude": "29.98715633844395",
    "geocoded_column": {
      "latitude": "29.98715633844395",
      "longitude": "-90.10778889251785"
    }
  },
  {
    "service_request": "2022-936352",
    "request_type": "Trash/Recycling",
    "request_reason": "Order Recycling Cart",
    "date_created": "2022-11-02T18:51:06.000",
    "date_modified": "2022-11-02T18:51:06.000",
    "request_status": "Pending",
    "responsible_agency": "Department of Sanitation",
    "final_address": "5313 Wingate Dr",
    "address_councildis": "D",
    "status": "Pending",
    "rowid": "936352",
    "final_x": "3681487.88853",
    "final_y": "552490.236886",
    "longitude": "-90.06737698757512",
    "latitude": "30.01315685007651",
    "geocoded_column": {
      "latitude": "30.01315685007651",
      "longitude": "-90.06737698757512"
    }
  },
  {
    "service_request": "2022-936351",
    "request_type": "Trash/Recycling",
    "request_reason": "Order Recycling Cart",
    "date_created": "2022-11-02T18:50:49.000",
    "date_modified": "2022-11-02T18:50:49.000",
    "request_status": "Pending",
    "responsible_agency": "Department of Sanitation",
    "final_address": "4701 Marjorie Ln",
    "address_councildis": "D",
    "status": "Pending",
    "rowid": "936351",
    "final_x": "3678513.44981",
    "final_y": "549811.811732",
    "longitude": "-90.07686741990159",
    "latitude": "30.005882165656818",
    "geocoded_column": {
      "latitude": "30.005882165656818",
      "longitude": "-90.07686741990159"
    }
  },
  {
    "service_request": "2022-936350",
    "request_type": "Trash/Recycling",
    "request_reason": "Order Recycling Cart",
    "date_created": "2022-11-02T18:49:34.000",
    "date_modified": "2022-11-02T18:49:35.000",
    "request_status": "Pending",
    "responsible_agency": "Department of Sanitation",
    "final_address": "11284 Fernley Dr",
    "address_councildis": "E",
    "status": "Pending",
    "rowid": "936350",
    "final_x": "3717935.65644",
    "final_y": "560093.896669",
    "longitude": "-89.95193330464164",
    "latitude": "30.03290628905945",
    "geocoded_column": {
      "latitude": "30.03290628905945",
      "longitude": "-89.95193330464164"
    }
  },
  {
    "service_request": "2022-936349",
    "request_type": "Trash/Recycling",
    "request_reason": "MIssed Recycling Pick-Up",
    "date_created": "2022-11-02T18:49:11.000",
    "date_modified": "2022-11-02T18:49:12.000",
    "request_status": "Pending",
    "responsible_agency": "Department of Sanitation",
    "final_address": "1522 Simon Bolivar Ave",
    "address_councildis": "B",
    "status": "Assigned to Contractor",
    "contractor": "Richards Disposal",
    "rowid": "936349",
    "final_x": "3677250.9261",
    "final_y": "526494.983358",
    "longitude": "-90.08166070222862",
    "latitude": "29.941806888272563",
    "geocoded_column": {
      "latitude": "29.941806888272563",
      "longitude": "-90.08166070222862"
    }
  },
  {
    "service_request": "2022-936348",
    "request_type": "Trash/Recycling",
    "request_reason": "Order Recycling Cart",
    "date_created": "2022-11-02T18:46:49.000",
    "date_modified": "2022-11-02T18:46:49.000",
    "request_status": "Pending",
    "responsible_agency": "Department of Sanitation",
    "final_address": "141 Middle Park Pl",
    "address_councildis": "A",
    "status": "Pending",
    "rowid": "936348",
    "final_x": "3670231.92967",
    "final_y": "544328.643983",
    "longitude": "-90.10321672619159",
    "latitude": "29.991052454594815",
    "geocoded_column": {
      "latitude": "29.991052454594815",
      "longitude": "-90.10321672619159"
    }
  },
  {
    "service_request": "2022-936347",
    "request_type": "Trash/Recycling",
    "request_reason": "Order Recycling Cart",
    "date_created": "2022-11-02T18:45:23.000",
    "date_modified": "2022-11-02T18:45:23.000",
    "request_status": "Pending",
    "responsible_agency": "Department of Sanitation",
    "final_address": "4431 Eastern St",
    "address_councildis": "D",
    "status": "Pending",
    "rowid": "936347",
    "final_x": "3688163.78511",
    "final_y": "549416.029907",
    "longitude": "-90.04639386950308",
    "latitude": "30.004499412020817",
    "geocoded_column": {
      "latitude": "30.004499412020817",
      "longitude": "-90.04639386950308"
    }
  },
  {
    "service_request": "2022-936346",
    "request_type": "Trash/Recycling",
    "request_reason": "Missed Trash Pick-Up",
    "date_created": "2022-11-02T18:45:21.000",
    "date_modified": "2022-11-02T18:45:22.000",
    "request_status": "Pending",
    "responsible_agency": "Department of Sanitation",
    "final_address": "7903 Plum St",
    "address_councildis": "A",
    "status": "Assigned to Contractor",
    "contractor": "Richards Disposal",
    "rowid": "936346",
    "final_x": "3662757.28013",
    "final_y": "528177.268416",
    "longitude": "-90.1273644637923",
    "latitude": "29.946860013110612",
    "geocoded_column": {
      "latitude": "29.946860013110612",
      "longitude": "-90.1273644637923"
    }
  },
  {
    "service_request": "2022-936345",
    "request_type": "Property Maintenance",
    "request_reason": "Property Maintenance",
    "date_created": "2022-11-02T18:44:53.000",
    "date_modified": "2022-11-02T18:44:53.000",
    "request_status": "Pending",
    "responsible_agency": "Department of Code Enforcement",
    "final_address": "4901 Cardenas Dr",
    "address_councildis": "E",
    "status": "Pending",
    "rowid": "936345",
    "final_x": "3713656.21951",
    "final_y": "557293.050459",
    "longitude": "-89.96556222012688",
    "latitude": "30.025346239619385",
    "geocoded_column": {
      "latitude": "30.025346239619385",
      "longitude": "-89.96556222012688"
    }
  },
  {
    "service_request": "2022-936344",
    "request_type": "Trash/Recycling",
    "request_reason": "Missed Trash Pick-Up",
    "date_created": "2022-11-02T18:44:49.000",
    "date_modified": "2022-11-02T18:44:49.000",
    "request_status": "Pending",
    "responsible_agency": "Department of Sanitation",
    "final_address": "6696 Bellaire Dr",
    "address_councildis": "A",
    "status": "Assigned to Contractor",
    "contractor": "Metro Disposal",
    "rowid": "936344",
    "final_x": "3664516.46573",
    "final_y": "552748.033558",
    "longitude": "-90.12098922950027",
    "latitude": "30.014370353602764",
    "geocoded_column": {
      "latitude": "30.014370353602764",
      "longitude": "-90.12098922950027"
    }
  },
  {
    "service_request": "2022-936343",
    "request_type": "Trash/Recycling",
    "request_reason": "Order Recycling Cart",
    "date_created": "2022-11-02T18:44:16.000",
    "date_modified": "2022-11-02T18:44:16.000",
    "request_status": "Pending",
    "responsible_agency": "Department of Sanitation",
    "final_address": "300 40Th St",
    "address_councildis": "A",
    "status": "Pending",
    "rowid": "936343",
    "final_x": "3665341.97472",
    "final_y": "553287.090647",
    "longitude": "-90.11836296080605",
    "latitude": "30.015828530059025",
    "geocoded_column": {
      "latitude": "30.015828530059025",
      "longitude": "-90.11836296080605"
    }
  },
  {
    "service_request": "2022-936342",
    "request_type": "Trash/Recycling",
    "request_reason": "Replace Trash Cart",
    "date_created": "2022-11-02T18:44:13.000",
    "date_modified": "2022-11-02T18:44:14.000",
    "request_status": "Pending",
    "responsible_agency": "Department of Sanitation",
    "final_address": "4431 Eastern St",
    "address_councildis": "D",
    "status": "Assigned to Contractor",
    "contractor": "Metro Disposal",
    "rowid": "936342",
    "final_x": "3688163.78511",
    "final_y": "549416.029907",
    "longitude": "-90.04639386950308",
    "latitude": "30.004499412020817",
    "geocoded_column": {
      "latitude": "30.004499412020817",
      "longitude": "-90.04639386950308"
    }
  },
  {
    "service_request": "2022-936341",
    "request_type": "Trash/Recycling",
    "request_reason": "Replace Trash Cart",
    "date_created": "2022-11-02T18:41:37.000",
    "date_modified": "2022-11-02T18:41:38.000",
    "request_status": "Pending",
    "responsible_agency": "Department of Sanitation",
    "final_address": "2527 Danneel St",
    "address_councildis": "B",
    "status": "Assigned to Contractor",
    "contractor": "Richards Disposal",
    "rowid": "936341",
    "final_x": "3675695.06344",
    "final_y": "524143.640508",
    "longitude": "-90.08665365763996",
    "latitude": "29.93538810719014",
    "geocoded_column": {
      "latitude": "29.93538810719014",
      "longitude": "-90.08665365763996"
    }
  },
  {
    "service_request": "2022-936340",
    "request_type": "Trash/Recycling",
    "request_reason": "Missed Trash Pick-Up",
    "date_created": "2022-11-02T18:41:35.000",
    "date_modified": "2022-11-02T18:41:36.000",
    "request_status": "Pending",
    "responsible_agency": "Department of Sanitation",
    "final_address": "7015 Green St",
    "address_councildis": "A",
    "status": "Assigned to Contractor",
    "contractor": "Richards Disposal",
    "rowid": "936340",
    "final_x": "3665602.57709",
    "final_y": "527799.287679",
    "longitude": "-90.11839343555381",
    "latitude": "29.94573803954166",
    "geocoded_column": {
      "latitude": "29.94573803954166",
      "longitude": "-90.11839343555381"
    }
  },
  {
    "service_request": "2022-936339",
    "request_type": "Trash/Recycling",
    "request_reason": "Order Recycling Cart",
    "date_created": "2022-11-02T18:40:47.000",
    "date_modified": "2022-11-02T18:40:47.000",
    "request_status": "Pending",
    "responsible_agency": "Department of Sanitation",
    "final_address": "2527 Danneel St",
    "address_councildis": "B",
    "status": "Pending",
    "rowid": "936339",
    "final_x": "3675695.06344",
    "final_y": "524143.640508",
    "longitude": "-90.08665365763996",
    "latitude": "29.93538810719014",
    "geocoded_column": {
      "latitude": "29.93538810719014",
      "longitude": "-90.08665365763996"
    }
  },
  {
    "service_request": "2022-936338",
    "request_type": "Trash/Recycling",
    "request_reason": "Order Recycling Cart",
    "date_created": "2022-11-02T18:38:40.000",
    "date_modified": "2022-11-02T18:38:40.000",
    "request_status": "Pending",
    "responsible_agency": "Department of Sanitation",
    "final_address": "2911 Kent Dr",
    "address_councildis": "C",
    "status": "Pending",
    "rowid": "936338",
    "final_x": "3708857.21988",
    "final_y": "519067.262839",
    "longitude": "-89.98215054158273",
    "latitude": "29.920396104757124",
    "geocoded_column": {
      "latitude": "29.920396104757124",
      "longitude": "-89.98215054158273"
    }
  },
  {
    "service_request": "2022-936337",
    "request_type": "Property Maintenance",
    "request_reason": "Property Maintenance",
    "date_created": "2022-11-02T18:38:24.000",
    "date_modified": "2022-11-02T18:38:24.000",
    "request_status": "Pending",
    "responsible_agency": "Department of Code Enforcement",
    "final_address": "10703 Pressburg St",
    "address_councildis": "E",
    "status": "Pending",
    "rowid": "936337",
    "final_x": "3714897.60767",
    "final_y": "557393.959067",
    "longitude": "-89.96163584502749",
    "latitude": "30.02558289518457",
    "geocoded_column": {
      "latitude": "30.02558289518457",
      "longitude": "-89.96163584502749"
    }
  },
  {
    "service_request": "2022-936336",
    "request_type": "Trash/Recycling",
    "request_reason": "Order Recycling Cart",
    "date_created": "2022-11-02T18:35:54.000",
    "date_modified": "2022-11-02T18:35:54.000",
    "request_status": "Pending",
    "responsible_agency": "Department of Sanitation",
    "final_address": "810 Louque Pl",
    "address_councildis": "A",
    "status": "Pending",
    "rowid": "936336",
    "final_x": "3668759.07886",
    "final_y": "543464.868174",
    "longitude": "-90.10789831082923",
    "latitude": "29.988720761442355",
    "geocoded_column": {
      "latitude": "29.988720761442355",
      "longitude": "-90.10789831082923"
    }
  },
  {
    "service_request": "2022-936335",
    "request_type": "Trash/Recycling",
    "request_reason": "Repair Recycling Cart",
    "date_created": "2022-11-02T18:35:43.000",
    "date_modified": "2022-11-02T18:35:43.000",
    "request_status": "Pending",
    "responsible_agency": "Department of Sanitation",
    "final_address": "2448 Lake Oaks Prkwy",
    "address_councildis": "D",
    "status": "Pending",
    "rowid": "936335",
    "final_x": "3684930.61993",
    "final_y": "558422.48022",
    "longitude": "-90.0562909279451",
    "latitude": "30.029363295135287",
    "geocoded_column": {
      "latitude": "30.029363295135287",
      "longitude": "-90.0562909279451"
    }
  },
  {
    "service_request": "2022-936334",
    "request_type": "Trash/Recycling",
    "request_reason": "Order Recycling Cart",
    "date_created": "2022-11-02T18:35:19.000",
    "date_modified": "2022-11-02T18:35:20.000",
    "request_status": "Pending",
    "responsible_agency": "Department of Sanitation",
    "final_address": "4730 Major Dr",
    "address_councildis": "E",
    "status": "Pending",
    "rowid": "936334",
    "final_x": "3718167.99237",
    "final_y": "556825.804058",
    "longitude": "-89.95132367115426",
    "latitude": "30.02391264247678",
    "geocoded_column": {
      "latitude": "30.02391264247678",
      "longitude": "-89.95132367115426"
    }
  },
  {
    "service_request": "2022-936333",
    "request_type": "Trash/Recycling",
    "request_reason": "Order Recycling Cart",
    "date_created": "2022-11-02T18:35:00.000",
    "date_modified": "2022-11-02T18:35:00.000",
    "request_status": "Pending",
    "responsible_agency": "Department of Sanitation",
    "final_address": "5633 Ada Pl",
    "address_councildis": "A",
    "status": "Pending",
    "rowid": "936333",
    "final_x": "3668676.92705",
    "final_y": "544942.186959",
    "longitude": "-90.10810790695004",
    "latitude": "29.992785297587734",
    "geocoded_column": {
      "latitude": "29.992785297587734",
      "longitude": "-90.10810790695004"
    }
  },
  {
    "service_request": "2022-936332",
    "request_type": "Trash/Recycling",
    "request_reason": "Replace Recycling Cart",
    "date_created": "2022-11-02T18:33:48.000",
    "date_modified": "2022-11-02T18:33:48.000",
    "request_status": "Pending",
    "responsible_agency": "Department of Sanitation",
    "final_address": "5351 Paris Ave",
    "address_councildis": "D",
    "status": "Pending",
    "rowid": "936332",
    "final_x": "3679282.89832",
    "final_y": "551992.204374",
    "longitude": "-90.07436086650455",
    "latitude": "30.011854240783084",
    "geocoded_column": {
      "latitude": "30.011854240783084",
      "longitude": "-90.07436086650455"
    }
  },
  {
    "service_request": "2022-936331",
    "request_type": "Trash/Recycling",
    "request_reason": "Order Recycling Cart",
    "date_created": "2022-11-02T18:32:01.000",
    "date_modified": "2022-11-02T18:32:01.000",
    "request_status": "Pending",
    "responsible_agency": "Department of Sanitation",
    "final_address": "6104 Colbert St",
    "address_councildis": "A",
    "status": "Pending",
    "rowid": "936331",
    "final_x": "3667384.58138",
    "final_y": "548104.226194",
    "longitude": "-90.11208375226272",
    "latitude": "30.001517750790235",
    "geocoded_column": {
      "latitude": "30.001517750790235",
      "longitude": "-90.11208375226272"
    }
  },
  {
    "service_request": "2022-936330",
    "request_type": "Trash/Recycling",
    "request_reason": "Order Recycling Cart",
    "date_created": "2022-11-02T18:26:49.000",
    "date_modified": "2022-11-02T18:26:49.000",
    "request_status": "Pending",
    "responsible_agency": "Department of Sanitation",
    "final_address": "1743 Benton St",
    "address_councildis": "E",
    "status": "Pending",
    "rowid": "936330",
    "final_x": "3699843.27978",
    "final_y": "536018.000519",
    "longitude": "-90.00998518591975",
    "latitude": "29.967293885362",
    "geocoded_column": {
      "latitude": "29.967293885362",
      "longitude": "-90.00998518591975"
    }
  },
  {
    "service_request": "2022-936329",
    "request_type": "Abandoned Vehicles",
    "request_reason": "Abandoned/Junk Vehicles",
    "date_created": "2022-11-02T18:25:08.000",
    "date_modified": "2022-11-02T18:25:08.000",
    "request_status": "Pending",
    "responsible_agency": "Department of Public Works",
    "final_address": "4943 Chrysler St",
    "address_councildis": "E",
    "status": "Pending",
    "rowid": "936329",
    "final_x": "3715291.82725",
    "final_y": "557760.647131",
    "longitude": "-89.9603762975421",
    "latitude": "30.026578159480156",
    "geocoded_column": {
      "latitude": "30.026578159480156",
      "longitude": "-89.9603762975421"
    }
  },
  {
    "service_request": "2022-936328",
    "request_type": "Trash/Recycling",
    "request_reason": "Order Recycling Cart",
    "date_created": "2022-11-02T18:25:02.000",
    "date_modified": "2022-11-02T18:25:03.000",
    "request_status": "Pending",
    "responsible_agency": "Department of Sanitation",
    "final_address": "2675 Myrtle St",
    "address_councildis": "D",
    "status": "Pending",
    "rowid": "936328",
    "final_x": "3687755.46863",
    "final_y": "546148.750672",
    "longitude": "-90.04779961932068",
    "latitude": "29.99552818117581",
    "geocoded_column": {
      "latitude": "29.99552818117581",
      "longitude": "-90.04779961932068"
    }
  },
  {
    "service_request": "2022-936327",
    "request_type": "Trash/Recycling",
    "request_reason": "Order Recycling Cart",
    "date_created": "2022-11-02T18:23:08.000",
    "date_modified": "2022-11-02T18:23:09.000",
    "request_status": "Pending",
    "responsible_agency": "Department of Sanitation",
    "final_address": "11123 Winchester Park Dr",
    "address_councildis": "E",
    "status": "Pending",
    "rowid": "936327",
    "final_x": "3714943.59717",
    "final_y": "561309.779614",
    "longitude": "-89.96134237144803",
    "latitude": "30.036348323046827",
    "geocoded_column": {
      "latitude": "30.036348323046827",
      "longitude": "-89.96134237144803"
    }
  },
  {
    "service_request": "2022-936326",
    "request_type": "Traffic Signals/Signs/Striping/Streetlights",
    "request_reason": "Street Light Outage/Malfunction",
    "date_created": "2022-11-02T18:22:29.000",
    "date_modified": "2022-11-02T18:22:30.000",
    "request_status": "Pending",
    "responsible_agency": "Department of Public Works",
    "final_address": "1456 Verna St",
    "address_councildis": "A",
    "status": "Pending",
    "contractor": "Legacy Professional Services",
    "rowid": "936326",
    "final_x": "3675881.54465",
    "final_y": "541347.364364",
    "longitude": "-90.08547345615145",
    "latitude": "29.98268698968683",
    "geocoded_column": {
      "latitude": "29.98268698968683",
      "longitude": "-90.08547345615145"
    }
  },
  {
    "service_request": "2022-936325",
    "request_type": "Trash/Recycling",
    "request_reason": "Order Trash Cart",
    "date_created": "2022-11-02T18:22:22.000",
    "date_modified": "2022-11-02T18:22:23.000",
    "request_status": "Pending",
    "responsible_agency": "Department of Sanitation",
    "final_address": "315 N Gayoso St, New Orleans, Louisiana, 70119",
    "address_councildis": "B",
    "status": "Assigned to Contractor",
    "contractor": "Richards Disposal",
    "rowid": "936325",
    "final_x": "3674888.76616",
    "final_y": "536657.762567",
    "longitude": "-90.08877003455646",
    "latitude": "29.969821878452027",
    "geocoded_column": {
      "latitude": "29.969821878452027",
      "longitude": "-90.08877003455646"
    }
  },
  {
    "service_request": "2022-936324",
    "request_type": "Trash/Recycling",
    "request_reason": "Order Trash Cart",
    "date_created": "2022-11-02T18:22:12.000",
    "date_modified": "2022-11-02T18:22:13.000",
    "request_status": "Pending",
    "responsible_agency": "Department of Sanitation",
    "final_address": "3225 Gibson St",
    "address_councildis": "D",
    "status": "Assigned to Contractor",
    "contractor": "Metro Disposal",
    "rowid": "936324",
    "final_x": "3679080.13544",
    "final_y": "544289.255503",
    "longitude": "-90.07526868499589",
    "latitude": "29.99067999394342",
    "geocoded_column": {
      "latitude": "29.99067999394342",
      "longitude": "-90.07526868499589"
    }
  },
  {
    "service_request": "2022-936323",
    "request_type": "Trash/Recycling",
    "request_reason": "Order Recycling Cart",
    "date_created": "2022-11-02T18:21:55.000",
    "date_modified": "2022-11-02T18:21:56.000",
    "request_status": "Pending",
    "responsible_agency": "Department of Sanitation",
    "final_address": "2621 Laharpe St",
    "address_councildis": "D",
    "status": "Pending",
    "rowid": "936323",
    "final_x": "3678719.52302",
    "final_y": "540040.119947",
    "longitude": "-90.07655498555317",
    "latitude": "29.97900723325404",
    "geocoded_column": {
      "latitude": "29.97900723325404",
      "longitude": "-90.07655498555317"
    }
  },
  {
    "service_request": "2022-936322",
    "request_type": "Trash/Recycling",
    "request_reason": "Order Recycling Cart",
    "date_created": "2022-11-02T18:21:15.000",
    "date_modified": "2022-11-02T18:21:15.000",
    "request_status": "Pending",
    "responsible_agency": "Department of Sanitation",
    "final_address": "4412 Lancelot Dr",
    "address_councildis": "E",
    "status": "Pending",
    "rowid": "936322",
    "final_x": "3707556.63851",
    "final_y": "553641.070423",
    "longitude": "-89.98497161245531",
    "latitude": "30.01550350154769",
    "geocoded_column": {
      "latitude": "30.01550350154769",
      "longitude": "-89.98497161245531"
    }
  },
  {
    "service_request": "2022-936321",
    "request_type": "Trash/Recycling",
    "request_reason": "Order Recycling Cart",
    "date_created": "2022-11-02T18:21:00.000",
    "date_modified": "2022-11-02T18:21:00.000",
    "request_status": "Pending",
    "responsible_agency": "Department of Sanitation",
    "final_address": "315 N Gayoso St, New Orleans, Louisiana, 70119",
    "address_councildis": "B",
    "status": "Pending",
    "rowid": "936321",
    "final_x": "3674888.76616",
    "final_y": "536657.762567",
    "longitude": "-90.08877003455646",
    "latitude": "29.969821878452027",
    "geocoded_column": {
      "latitude": "29.969821878452027",
      "longitude": "-90.08877003455646"
    }
  },
  {
    "service_request": "2022-936320",
    "request_type": "Trash/Recycling",
    "request_reason": "Order Recycling Cart",
    "date_created": "2022-11-02T18:20:47.000",
    "date_modified": "2022-11-02T18:20:48.000",
    "request_status": "Pending",
    "responsible_agency": "Department of Sanitation",
    "final_address": "7713 Unity Dr",
    "address_councildis": "E",
    "status": "Pending",
    "rowid": "936320",
    "final_x": "3711987.59627",
    "final_y": "567244.395812",
    "longitude": "-89.9704607616289",
    "latitude": "30.052763114442538",
    "geocoded_column": {
      "latitude": "30.052763114442538",
      "longitude": "-89.9704607616289"
    }
  },
  {
    "service_request": "2022-936319",
    "request_type": "Trash/Recycling",
    "request_reason": "Order Recycling Cart",
    "date_created": "2022-11-02T18:20:15.000",
    "date_modified": "2022-11-02T18:20:15.000",
    "request_status": "Pending",
    "responsible_agency": "Department of Sanitation",
    "final_address": "4912 Chrysler St",
    "address_councildis": "E",
    "status": "Pending",
    "rowid": "936319",
    "final_x": "3715160.81413",
    "final_y": "557504.293467",
    "longitude": "-89.96079998302066",
    "latitude": "30.02587760459259",
    "geocoded_column": {
      "latitude": "30.02587760459259",
      "longitude": "-89.96079998302066"
    }
  },
  {
    "service_request": "2022-936318",
    "request_type": "Property Maintenance",
    "request_reason": "Property Maintenance",
    "date_created": "2022-11-02T18:17:23.000",
    "date_modified": "2022-11-02T18:17:23.000",
    "request_status": "Pending",
    "responsible_agency": "Department of Code Enforcement",
    "final_address": "7573 Horizon Ct",
    "address_councildis": "E",
    "status": "Pending",
    "rowid": "936318",
    "final_x": "3725760.59161",
    "final_y": "569711.011622",
    "longitude": "-89.92683312393648",
    "latitude": "30.05908764260791",
    "geocoded_column": {
      "latitude": "30.05908764260791",
      "longitude": "-89.92683312393648"
    }
  },
  {
    "service_request": "2022-936317",
    "request_type": "Trash/Recycling",
    "request_reason": "Order Recycling Cart",
    "date_created": "2022-11-02T18:16:35.000",
    "date_modified": "2022-11-02T18:16:35.000",
    "request_status": "Pending",
    "responsible_agency": "Department of Sanitation",
    "final_address": "4718 Charlmark Dr",
    "address_councildis": "E",
    "status": "Pending",
    "rowid": "936317",
    "final_x": "3711366.81746",
    "final_y": "555840.151065",
    "longitude": "-89.97285082675575",
    "latitude": "30.02142628092695",
    "geocoded_column": {
      "latitude": "30.02142628092695",
      "longitude": "-89.97285082675575"
    }
  },
  {
    "service_request": "2022-936316",
    "request_type": "Trash/Recycling",
    "request_reason": "Order Recycling Cart",
    "date_created": "2022-11-02T18:15:46.000",
    "date_modified": "2022-11-02T18:15:47.000",
    "request_status": "Pending",
    "responsible_agency": "Department of Sanitation",
    "final_address": "115 Maryland Dr",
    "address_councildis": "A",
    "status": "Pending",
    "rowid": "936316",
    "final_x": "3663774.71693",
    "final_y": "542222.384269",
    "longitude": "-90.12368387671431",
    "latitude": "29.985449980888433",
    "geocoded_column": {
      "latitude": "29.985449980888433",
      "longitude": "-90.12368387671431"
    }
  },
  {
    "service_request": "2022-936315",
    "request_type": "Property Maintenance",
    "request_reason": "Property Maintenance",
    "date_created": "2022-11-02T18:15:05.000",
    "date_modified": "2022-11-02T18:15:05.000",
    "request_status": "Pending",
    "responsible_agency": "Department of Code Enforcement",
    "final_address": "1616 Lesseps St",
    "address_councildis": "D",
    "status": "Pending",
    "rowid": "936315",
    "final_x": "3693165.00061",
    "final_y": "537116.278472",
    "longitude": "-90.03103576986771",
    "latitude": "29.97052414722035",
    "geocoded_column": {
      "latitude": "29.97052414722035",
      "longitude": "-90.03103576986771"
    }
  },
  {
    "service_request": "2022-936314",
    "request_type": "Trash/Recycling",
    "request_reason": "Repair Trash Cart",
    "date_created": "2022-11-02T18:13:26.000",
    "date_modified": "2022-11-02T18:13:26.000",
    "request_status": "Pending",
    "responsible_agency": "Department of Sanitation",
    "final_address": "3340 Marigny St",
    "address_councildis": "D",
    "status": "Assigned to Contractor",
    "contractor": "Metro Disposal",
    "rowid": "936314",
    "final_x": "3684656.17935",
    "final_y": "545135.577807",
    "longitude": "-90.05762560253778",
    "latitude": "29.992837562484212",
    "geocoded_column": {
      "latitude": "29.992837562484212",
      "longitude": "-90.05762560253778"
    }
  },
  {
    "service_request": "2022-936313",
    "request_type": "Trash/Recycling",
    "request_reason": "Order Recycling Cart",
    "date_created": "2022-11-02T18:12:49.000",
    "date_modified": "2022-11-02T18:12:49.000",
    "request_status": "Pending",
    "responsible_agency": "Department of Sanitation",
    "final_address": "2634 Dreux Ave",
    "address_councildis": "D",
    "status": "Pending",
    "rowid": "936313",
    "final_x": "3687062.1613",
    "final_y": "552210.634838",
    "longitude": "-90.04977520338218",
    "latitude": "30.01221752964153",
    "geocoded_column": {
      "latitude": "30.01221752964153",
      "longitude": "-90.04977520338218"
    }
  },