[
  {
    "service_request": "2024-1102024",
    "request_type": "Property Maintenance",
    "request_reason": "Property Maintenance",
    "date_created": "2024-06-10T23:30:38.000",
    "date_modified": "2024-06-10T23:30:38.000",
    "request_status": "Pending",
    "responsible_agency": "Department of Code Enforcement",
    "final_address": "7850 Hayne Blvd",
    "address_councildis": "E",
    "status": "Pending",
    "rowid": "1102024",
    "final_x": "3701298.11274",
    "final_y": "562374.775135",
    "longitude": "-90.00442550593341",
    "latitude": "30.039718835408507",
    "geocoded_column": {
      "latitude": "30.039718835408507",
      "longitude": "-90.00442550593341"
    }
  },
  {
    "service_request": "2024-1102023",
    "request_type": "Roads/Drainage",
    "request_reason": "Pothole",
    "date_created": "2024-06-10T23:28:08.000",
    "date_modified": "2024-06-10T23:28:08.000",
    "request_status": "Pending",
    "responsible_agency": "Department of Public Works",
    "final_address": "1200 BLK Amelia St",
    "address_councildis": "B",
    "status": "Pending",
    "rowid": "1102023",
    "final_x": "3673521.46558",
    "final_y": "519660.816109",
    "longitude": "-90.09366883741032",
    "latitude": "29.923126634409968",
    "geocoded_column": {
      "latitude": "29.923126634409968",
      "longitude": "-90.09366883741032"
    }
  },
  {
    "service_request": "2024-1102022",
    "request_type": "Property Maintenance",
    "request_reason": "Property Maintenance",
    "date_created": "2024-06-10T23:23:51.000",
    "date_modified": "2024-06-10T23:23:51.000",
    "request_status": "Pending",
    "responsible_agency": "Department of Code Enforcement",
    "final_address": "7930 Hayne Blvd",
    "address_councildis": "E",
    "status": "Pending",
    "rowid": "1102022",
    "final_x": "3701546.37124",
    "final_y": "562518.13232",
    "longitude": "-90.00363568083286",
    "latitude": "30.04010509241936",
    "geocoded_column": {
      "latitude": "30.04010509241936",
      "longitude": "-90.00363568083286"
    }
  },
  {
    "service_request": "2024-1102021",
    "request_type": "Trash/Recycling",
    "request_reason": "Illegal Dumping",
    "date_created": "2024-06-10T23:20:24.000",
    "date_modified": "2024-06-10T23:20:24.000",
    "request_status": "Pending",
    "responsible_agency": "Department of Sanitation",
    "final_address": "2757 Treasure St",
    "address_councildis": "D",
    "status": "Pending",
    "rowid": "1102021",
    "final_x": "3688525.78499",
    "final_y": "544406.131919",
    "longitude": "-90.04542814107542",
    "latitude": "29.99071282130257",
    "geocoded_column": {
      "latitude": "29.99071282130257",
      "longitude": "-90.04542814107542"
    }
  },
  {
    "service_request": "2024-1102020",
    "request_type": "Trash/Recycling",
    "request_reason": "Illegal Dumping",
    "date_created": "2024-06-10T23:17:12.000",
    "date_modified": "2024-06-10T23:17:12.000",
    "request_status": "Pending",
    "responsible_agency": "Department of Sanitation",
    "final_address": "2751 Benefit St",
    "address_councildis": "D",
    "status": "Pending",
    "rowid": "1102020",
    "final_x": "3688524.66294",
    "final_y": "544769.161871",
    "longitude": "-90.04541879629814",
    "latitude": "29.99171105793326",
    "geocoded_column": {
      "latitude": "29.99171105793326",
      "longitude": "-90.04541879629814"
    }
  },
  {
    "service_request": "2024-1102019",
    "request_type": "Roads/Drainage",
    "request_reason": "WaterMain Break",
    "date_created": "2024-06-10T22:53:35.000",
    "date_modified": "2024-06-10T22:53:35.000",
    "request_status": "Pending",
    "responsible_agency": "Department of Public Works",
    "final_address": "1850 Moss St",
    "address_councildis": "A",
    "status": "Pending",
    "rowid": "1102019",
    "final_x": "3675404.20853",
    "final_y": "543552.772814",
    "longitude": "-90.08690535146648",
    "latitude": "29.98876538491296",
    "geocoded_column": {
      "latitude": "29.98876538491296",
      "longitude": "-90.08690535146648"
    }
  },
  {
    "service_request": "2024-1102018",
    "request_type": "Traffic Signals/Signs/Striping/Streetlights",
    "request_reason": "Street Light Knocked Down/Leaning",
    "date_created": "2024-06-10T22:52:28.000",
    "date_modified": "2024-06-10T22:52:28.000",
    "request_status": "Pending",
    "responsible_agency": "Department of Public Works",
    "final_address": "CALLIOPE ST & TCHOUPITOULAS EXIT",
    "address_councildis": "B",
    "status": "Pending",
    "contractor": "Legacy Professional Services",
    "rowid": "1102018",
    "final_x": "3681538.2",
    "final_y": "525465.18",
    "longitude": "-90.06816080031896",
    "latitude": "29.93884580208631",
    "geocoded_column": {
      "latitude": "29.93884580208631",
      "longitude": "-90.06816080031896"
    }
  },
  {
    "service_request": "2024-1102017",
    "request_type": "Roads/Drainage",
    "request_reason": "Pothole",
    "date_created": "2024-06-10T22:52:00.000",
    "date_modified": "2024-06-10T22:52:00.000",
    "request_status": "Pending",
    "responsible_agency": "Department of Public Works",
    "final_address": "6216 Camp St",
    "address_councildis": "A",
    "status": "Pending",
    "rowid": "1102017",
    "final_x": "3663748.11187",
    "final_y": "519930.497272",
    "longitude": "-90.12451072353035",
    "latitude": "29.92415529590064",
    "geocoded_column": {
      "latitude": "29.92415529590064",
      "longitude": "-90.12451072353035"
    }
  },
  {
    "service_request": "2024-1102016",
    "request_type": "Roads/Drainage",
    "request_reason": "Man hole cover issue",
    "date_created": "2024-06-10T22:44:35.000",
    "date_modified": "2024-06-10T22:44:35.000",
    "request_status": "Pending",
    "responsible_agency": "Department of Public Works",
    "final_address": "5900 Magazine St",
    "address_councildis": "A",
    "status": "Pending",
    "rowid": "1102016",
    "final_x": "3665162.19181",
    "final_y": "519056.727479",
    "longitude": "-90.12007615616355",
    "latitude": "29.921711607428268",
    "geocoded_column": {
      "latitude": "29.921711607428268",
      "longitude": "-90.12007615616355"
    }
  },
  {
    "service_request": "2024-1102015",
    "request_type": "Trash/Recycling",
    "request_reason": "Replace Trash Cart",
    "date_created": "2024-06-10T22:03:04.000",
    "date_modified": "2024-06-10T22:03:04.000",
    "request_status": "Pending",
    "responsible_agency": "Department of Sanitation",
    "final_address": "4735 Sandalwood St",
    "address_councildis": "E",
    "status": "Assigned to Contractor",
    "contractor": "Waste Pro",
    "rowid": "1102015",
    "final_x": "3712313.33541",
    "final_y": "556100.415898",
    "longitude": "-89.9698503336574",
    "latitude": "30.022110972018666",
    "geocoded_column": {
      "latitude": "30.022110972018666",
      "longitude": "-89.9698503336574"
    }
  },
  {
    "service_request": "2024-1102014",
    "request_type": "Trash/Recycling",
    "request_reason": "Replace Recycling Cart",
    "date_created": "2024-06-10T22:01:28.000",
    "date_modified": "2024-06-10T22:01:28.000",
    "request_status": "Pending",
    "responsible_agency": "Department of Sanitation",
    "final_address": "4735 Sandalwood St",
    "address_councildis": "E",
    "status": "Pending",
    "rowid": "1102014",
    "final_x": "3712313.33541",
    "final_y": "556100.415898",
    "longitude": "-89.9698503336574",
    "latitude": "30.022110972018666",
    "geocoded_column": {
      "latitude": "30.022110972018666",
      "longitude": "-89.9698503336574"
    }
  },
  {
    "service_request": "2024-1102013",
    "request_type": "Traffic Signals/Signs/Striping/Streetlights",
    "request_reason": "Street Light Outage/Malfunction",
    "date_created": "2024-06-10T21:32:22.000",
    "date_modified": "2024-06-10T21:32:23.000",
    "request_status": "Pending",
    "responsible_agency": "Department of Public Works",
    "final_address": "6530 General Diaz St",
    "address_councildis": "A",
    "status": "Assigned to Contractor",
    "contractor": "Legacy Professional Services",
    "rowid": "1102013",
    "final_x": "3669747.49089",
    "final_y": "550873.948757",
    "longitude": "-90.10452523755121",
    "latitude": "30.0090640606584",
    "geocoded_column": {
      "latitude": "30.0090640606584",
      "longitude": "-90.10452523755121"
    }
  },
  {
    "service_request": "2024-1102012",
    "request_type": "Trash/Recycling",
    "request_reason": "Order Trash Cart",
    "date_created": "2024-06-10T21:27:25.000",
    "date_modified": "2024-06-10T21:27:26.000",
    "request_status": "Pending",
    "responsible_agency": "Department of Sanitation",
    "final_address": "1400 Leda St",
    "address_councildis": "A",
    "status": "Assigned to Contractor",
    "contractor": "IV Waste",
    "rowid": "1102012",
    "final_x": "3675569.94357",
    "final_y": "541136.142796",
    "longitude": "-90.08646490905033",
    "latitude": "29.982115530310722",
    "geocoded_column": {
      "latitude": "29.982115530310722",
      "longitude": "-90.08646490905033"
    }
  },
  {
    "service_request": "2024-1102011",
    "request_type": "Traffic Signals/Signs/Striping/Streetlights",
    "request_reason": "Street Light Outage/Malfunction",
    "date_created": "2024-06-10T21:22:11.000",
    "date_modified": "2024-06-10T21:22:12.000",
    "request_status": "Pending",
    "responsible_agency": "Department of Public Works",
    "final_address": "6850 General Diaz St",
    "address_councildis": "A",
    "status": "Assigned to Contractor",
    "contractor": "Legacy Professional Services",
    "rowid": "1102011",
    "final_x": "3669941.12686",
    "final_y": "552995.668951",
    "longitude": "-90.10384154882985",
    "latitude": "30.014892331987667",
    "geocoded_column": {
      "latitude": "30.014892331987667",
      "longitude": "-90.10384154882985"
    }
  },
  {
    "service_request": "2024-1102010",
    "request_type": "Property Maintenance",
    "request_reason": "Property Maintenance",
    "date_created": "2024-06-10T21:15:05.000",
    "date_modified": "2024-06-10T21:15:05.000",
    "request_status": "Pending",
    "responsible_agency": "Department of Code Enforcement",
    "final_address": "7000 General Diaz St",
    "address_councildis": "A",
    "status": "Pending",
    "rowid": "1102010",
    "final_x": "3670054.82951",
    "final_y": "553964.923928",
    "longitude": "-90.10344943201315",
    "latitude": "30.017554084470774",
    "geocoded_column": {
      "latitude": "30.017554084470774",
      "longitude": "-90.10344943201315"
    }
  },
  {
    "service_request": "2024-1102009",
    "request_type": "Traffic Signals/Signs/Striping/Streetlights",
    "request_reason": "Street Light Outage/Malfunction",
    "date_created": "2024-06-10T21:08:23.000",
    "date_modified": "2024-06-10T21:08:24.000",
    "request_status": "Pending",
    "responsible_agency": "Department of Public Works",
    "final_address": "6752 General Diaz St",
    "address_councildis": "A",
    "status": "Assigned to Contractor",
    "contractor": "Legacy Professional Services",
    "rowid": "1102009",
    "final_x": "3669884.57351",
    "final_y": "552388.978518",
    "longitude": "-90.10404079537115",
    "latitude": "30.013225816104487",
    "geocoded_column": {
      "latitude": "30.013225816104487",
      "longitude": "-90.10404079537115"
    }
  },
  {
    "service_request": "2024-1102008",
    "request_type": "Property Maintenance",
    "request_reason": "Property Maintenance",
    "date_created": "2024-06-10T21:02:09.000",
    "date_modified": "2024-06-10T21:02:09.000",
    "request_status": "Pending",
    "responsible_agency": "Department of Code Enforcement",
    "final_address": "336 Bermuda St",
    "address_councildis": "C",
    "status": "Pending",
    "rowid": "1102008",
    "final_x": "3686484.9389",
    "final_y": "530554.158722",
    "longitude": "-90.05236380882285",
    "latitude": "29.952687654182526",
    "geocoded_column": {
      "latitude": "29.952687654182526",
      "longitude": "-90.05236380882285"
    }
  },
  {
    "service_request": "2024-1102007",
    "request_type": "Abandoned Vehicles",
    "request_reason": "Abandoned/Junk Vehicles",
    "date_created": "2024-06-10T20:37:07.000",
    "date_modified": "2024-06-10T20:37:07.000",
    "request_status": "Pending",
    "responsible_agency": "Department of Public Works",
    "final_address": "820 Pine St, New Orleans, Louisiana, 70118",
    "address_councildis": "A",
    "status": "Pending",
    "rowid": "1102007",
    "final_x": "3665176.05088",
    "final_y": "528593.828928",
    "longitude": "-90.11971355541885",
    "latitude": "29.947935200230518",
    "geocoded_column": {
      "latitude": "29.947935200230518",
      "longitude": "-90.11971355541885"
    }
  },
  {
    "service_request": "2024-1102006",
    "request_type": "Abandoned Vehicles",
    "request_reason": "Abandoned/Junk Vehicles",
    "date_created": "2024-06-10T19:51:33.000",
    "date_modified": "2024-06-10T19:51:33.000",
    "request_status": "Pending",
    "responsible_agency": "Department of Public Works",
    "final_address": "4008 Royal St",
    "address_councildis": "C",
    "status": "Pending",
    "rowid": "1102006",
    "final_x": "3691478.01206",
    "final_y": "533654.404037",
    "longitude": "-90.03648719250774",
    "latitude": "29.961057821763145",
    "geocoded_column": {
      "latitude": "29.961057821763145",
      "longitude": "-90.03648719250774"
    }
  },
  {
    "service_request": "2024-1102005",
    "request_type": "Roads/Drainage",
    "request_reason": "Pothole",
    "date_created": "2024-06-10T19:34:12.000",
    "date_modified": "2024-06-10T19:34:12.000",
    "request_status": "Pending",
    "responsible_agency": "Department of Public Works",
    "final_address": "1400 BLK Valence St",
    "address_councildis": "B",
    "status": "Pending",
    "rowid": "1102005",
    "final_x": "3669784.65285",
    "final_y": "520336.257015",
    "longitude": "-90.1054417057675",
    "latitude": "29.925094517046503",
    "geocoded_column": {
      "latitude": "29.925094517046503",
      "longitude": "-90.1054417057675"
    }
  },
  {
    "service_request": "2024-1102004",
    "request_type": "Roads/Drainage",
    "request_reason": "Damaged Sidewalk",
    "date_created": "2024-06-10T19:23:51.000",
    "date_modified": "2024-06-10T19:23:51.000",
    "request_status": "Pending",
    "responsible_agency": "Department of Public Works",
    "final_address": "1725 Dufossat St",
    "address_councildis": "B",
    "status": "Pending",
    "rowid": "1102004",
    "final_x": "3668192.68743",
    "final_y": "522036.060218",
    "longitude": "-90.11040977787289",
    "latitude": "29.92981524824353",
    "geocoded_column": {
      "latitude": "29.92981524824353",
      "longitude": "-90.11040977787289"
    }
  },
  {
    "service_request": "2024-1102003",
    "request_type": "Abandoned Vehicles",
    "request_reason": "Abandoned/Junk Vehicles",
    "date_created": "2024-06-10T19:21:55.000",
    "date_modified": "2024-06-10T19:21:55.000",
    "request_status": "Pending",
    "responsible_agency": "Department of Public Works",
    "final_address": "3654 Timber Bluff Ln",
    "address_councildis": "C",
    "status": "Pending",
    "rowid": "1102003",
    "final_x": "3704089.36938",
    "final_y": "510834.925295",
    "longitude": "-89.99750322869716",
    "latitude": "29.89791372250601",
    "geocoded_column": {
      "latitude": "29.89791372250601",
      "longitude": "-89.99750322869716"
    }
  },
  {
    "service_request": "2024-1102002",
    "request_type": "Abandoned Vehicles",
    "request_reason": "Abandoned/Junk Vehicles",
    "date_created": "2024-06-10T19:19:19.000",
    "date_modified": "2024-06-10T19:19:19.000",
    "request_status": "Pending",
    "responsible_agency": "Department of Public Works",
    "final_address": "3654 Timber Bluff Ln",
    "address_councildis": "C",
    "status": "Pending",
    "rowid": "1102002",
    "final_x": "3704089.36938",
    "final_y": "510834.925295",
    "longitude": "-89.99750322869716",
    "latitude": "29.89791372250601",
    "geocoded_column": {
      "latitude": "29.89791372250601",
      "longitude": "-89.99750322869716"
    }
  },
  {
    "service_request": "2024-1102001",
    "request_type": "Abandoned Vehicles",
    "request_reason": "Abandoned/Junk Vehicles",
    "date_created": "2024-06-10T19:14:21.000",
    "date_modified": "2024-06-10T19:14:21.000",
    "request_status": "Pending",
    "responsible_agency": "Department of Public Works",
    "final_address": "3739 Timber Bluff Ln",
    "address_councildis": "C",
    "status": "Pending",
    "rowid": "1102001",
    "final_x": "3703887.64894",
    "final_y": "510633.918511",
    "longitude": "-89.99814720861391",
    "latitude": "29.897367486499814",
    "geocoded_column": {
      "latitude": "29.897367486499814",
      "longitude": "-89.99814720861391"
    }
  },
  {
    "service_request": "2024-1102000",
    "request_type": "Mosquito, Termite & Rodent Control",
    "request_reason": "Mosquito Complaint",
    "date_created": "2024-06-10T19:10:47.000",
    "date_modified": "2024-06-10T19:10:47.000",
    "request_status": "Pending",
    "responsible_agency": "Mosquito, Termite & Rodent Control Board",
    "final_address": "8121 Zimple St",
    "address_councildis": "A",
    "status": "Pending",
    "rowid": "1102000",
    "final_x": "3661617.28358",
    "final_y": "528270.96448",
    "longitude": "-90.1309607653579",
    "latitude": "29.947150589155818",
    "geocoded_column": {
      "latitude": "29.947150589155818",
      "longitude": "-90.1309607653579"
    }
  },
  {
    "service_request": "2024-1101998",
    "request_type": "Trash/Recycling",
    "request_reason": "Request a Large Item Pick Up",
    "date_created": "2024-06-10T19:04:33.000",
    "date_modified": "2024-06-10T19:04:34.000",
    "request_status": "Pending",
    "responsible_agency": "Department of Sanitation",
    "final_address": "4521 Walmsley Ave",
    "address_councildis": "B",
    "status": "Assigned to Contractor",
    "contractor": "IV Waste",
    "rowid": "1101998",
    "final_x": "3669190.45799",
    "final_y": "530367.307266",
    "longitude": "-90.10697849521809",
    "latitude": "29.952694162979927",
    "geocoded_column": {
      "latitude": "29.952694162979927",
      "longitude": "-90.10697849521809"
    }
  },
  {
    "service_request": "2024-1101997",
    "request_type": "Abandoned Vehicles",
    "request_reason": "Abandoned/Junk Vehicles",
    "date_created": "2024-06-10T18:54:38.000",
    "date_modified": "2024-06-10T18:54:38.000",
    "request_status": "Pending",
    "responsible_agency": "Department of Public Works",
    "final_address": "3534 Banks St",
    "address_councildis": "B",
    "status": "Pending",
    "rowid": "1101997",
    "final_x": "3671863.79239",
    "final_y": "536154.790599",
    "longitude": "-90.0983403251213",
    "latitude": "29.968528870775366",
    "geocoded_column": {
      "latitude": "29.968528870775366",
      "longitude": "-90.0983403251213"
    }
  },
  {
    "service_request": "2024-1101996",
    "request_type": "Property Maintenance",
    "request_reason": "Property Maintenance",
    "date_created": "2024-06-10T18:52:02.000",
    "date_modified": "2024-06-10T18:52:02.000",
    "request_status": "Pending",
    "responsible_agency": "Department of Code Enforcement",
    "final_address": "1817 Dauphine St",
    "address_councildis": "C",
    "status": "Pending",
    "rowid": "1101996",
    "final_x": "3683850.00764",
    "final_y": "535157.989062",
    "longitude": "-90.06052225043676",
    "latitude": "29.965427343967743",
    "geocoded_column": {
      "latitude": "29.965427343967743",
      "longitude": "-90.06052225043676"
    }
  },
  {
    "service_request": "2024-1101995",
    "request_type": "Trash/Recycling",
    "request_reason": "Request a Large Item Pick Up",
    "date_created": "2024-06-10T18:48:08.000",
    "date_modified": "2024-06-10T18:48:09.000",
    "request_status": "Pending",
    "responsible_agency": "Department of Sanitation",
    "final_address": "4521 Walmsley Ave",
    "address_councildis": "B",
    "status": "Assigned to Contractor",
    "contractor": "IV Waste",
    "rowid": "1101995",
    "final_x": "3669190.45799",
    "final_y": "530367.307266",
    "longitude": "-90.10697849521809",
    "latitude": "29.952694162979927",
    "geocoded_column": {
      "latitude": "29.952694162979927",
      "longitude": "-90.10697849521809"
    }
  },
  {
    "service_request": "2024-1101994",
    "request_type": "Mosquito, Termite & Rodent Control",
    "request_reason": "Mosquito Complaint",
    "date_created": "2024-06-10T18:40:10.000",
    "date_modified": "2024-06-10T18:40:10.000",
    "request_status": "Pending",
    "responsible_agency": "Mosquito, Termite & Rodent Control Board",
    "final_address": "1336 Bartholomew St",
    "address_councildis": "D",
    "status": "Pending",
    "rowid": "1101994",
    "final_x": "3692022.60432",
    "final_y": "536346.700039",
    "longitude": "-90.03467112068562",
    "latitude": "29.968443730121805",
    "geocoded_column": {
      "latitude": "29.968443730121805",
      "longitude": "-90.03467112068562"
    }
  },
  {
    "service_request": "2024-1101993",
    "request_type": "Trash/Recycling",
    "request_reason": "Repair Trash Cart",
    "date_created": "2024-06-10T18:40:05.000",
    "date_modified": "2024-06-10T18:40:05.000",
    "request_status": "Pending",
    "responsible_agency": "Department of Sanitation",
    "final_address": "2605 Palmyra St",
    "address_councildis": "B",
    "status": "Assigned to Contractor",
    "contractor": "IV Waste",
    "rowid": "1101993",
    "final_x": "3675293.26081",
    "final_y": "534193.644485",
    "longitude": "-90.08757720611209",
    "latitude": "29.96303430032308",
    "geocoded_column": {
      "latitude": "29.96303430032308",
      "longitude": "-90.08757720611209"
    }
  },
  {
    "service_request": "2024-1101992",
    "request_type": "Trash/Recycling",
    "request_reason": "Replace Trash Cart",
    "date_created": "2024-06-10T18:35:45.000",
    "date_modified": "2024-06-10T18:35:45.000",
    "request_status": "Pending",
    "responsible_agency": "Department of Sanitation",
    "final_address": "817 Bordeaux St",
    "address_councildis": "B",
    "status": "Assigned to Contractor",
    "contractor": "IV Waste",
    "rowid": "1101992",
    "final_x": "3669649.14574",
    "final_y": "518415.332534",
    "longitude": "-90.1059344128464",
    "latitude": "29.91981657600383",
    "geocoded_column": {
      "latitude": "29.91981657600383",
      "longitude": "-90.1059344128464"
    }
  },
  {
    "service_request": "2024-1101991",
    "request_type": "Trash/Recycling",
    "request_reason": "Repair Trash Cart",
    "date_created": "2024-06-10T18:33:49.000",
    "date_modified": "2024-06-10T18:33:50.000",
    "request_status": "Pending",
    "responsible_agency": "Department of Sanitation",
    "final_address": "817 Bordeaux St",
    "address_councildis": "B",
    "status": "Assigned to Contractor",
    "contractor": "IV Waste",
    "rowid": "1101991",
    "final_x": "3669649.14574",
    "final_y": "518415.332534",
    "longitude": "-90.1059344128464",
    "latitude": "29.91981657600383",
    "geocoded_column": {
      "latitude": "29.91981657600383",
      "longitude": "-90.1059344128464"
    }
  },
  {
    "service_request": "2024-1101990",
    "request_type": "Parks & Parkways",
    "request_reason": "Tree Stump (removal, grind)",
    "date_created": "2024-06-10T18:28:11.000",
    "date_modified": "2024-06-10T18:28:11.000",
    "request_status": "Pending",
    "responsible_agency": "Department of Parks & Parkway",
    "final_address": "623 Olivier St",
    "address_councildis": "C",
    "status": "Pending",
    "rowid": "1101990",
    "final_x": "3687245.18633",
    "final_y": "529298.693761",
    "longitude": "-90.05000769303783",
    "latitude": "29.949212163773854",
    "geocoded_column": {
      "latitude": "29.949212163773854",
      "longitude": "-90.05000769303783"
    }
  },
  {
    "service_request": "2024-1101989",
    "request_type": "Traffic Signals/Signs/Striping/Streetlights",
    "request_reason": "Street Light Outage/Malfunction",
    "date_created": "2024-06-10T18:26:45.000",
    "date_modified": "2024-06-10T18:26:46.000",
    "request_status": "Pending",
    "responsible_agency": "Department of Public Works",
    "final_address": "921 Lafayette St Unit B",
    "address_councildis": "B",
    "status": "Assigned to Contractor",
    "contractor": "Legacy Professional Services",
    "rowid": "1101989",
    "final_x": "3679629.77058",
    "final_y": "529203.625408",
    "longitude": "-90.07405621567389",
    "latitude": "29.949183083856756",
    "geocoded_column": {
      "latitude": "29.949183083856756",
      "longitude": "-90.07405621567389"
    }
  },
  {
    "service_request": "2024-1101988",
    "request_type": "Abandoned Vehicles",
    "request_reason": "Abandoned/Junk Vehicles",
    "date_created": "2024-06-10T18:18:03.000",
    "date_modified": "2024-06-10T18:18:03.000",
    "request_status": "Pending",
    "responsible_agency": "Department of Public Works",
    "final_address": "812 N Dorgenois St",
    "address_councildis": "D",
    "status": "Pending",
    "rowid": "1101988",
    "final_x": "3677463.5204",
    "final_y": "536937.858248",
    "longitude": "-90.08062904560428",
    "latitude": "29.970514898112313",
    "geocoded_column": {
      "latitude": "29.970514898112313",
      "longitude": "-90.08062904560428"
    }
  },
  {
    "service_request": "2024-1101987",
    "request_type": "Abandoned Vehicles",
    "request_reason": "Abandoned/Junk Vehicles",
    "date_created": "2024-06-10T18:16:13.000",
    "date_modified": "2024-06-10T18:16:13.000",
    "request_status": "Pending",
    "responsible_agency": "Department of Public Works",
    "final_address": "812 N Dorgenois St",
    "address_councildis": "D",
    "status": "Pending",
    "rowid": "1101987",
    "final_x": "3677463.5204",
    "final_y": "536937.858248",
    "longitude": "-90.08062904560428",
    "latitude": "29.970514898112313",
    "geocoded_column": {
      "latitude": "29.970514898112313",
      "longitude": "-90.08062904560428"
    }
  },
  {
    "service_request": "2024-1101986",
    "request_type": "Abandoned Vehicles",
    "request_reason": "Abandoned/Junk Vehicles",
    "date_created": "2024-06-10T18:11:40.000",
    "date_modified": "2024-06-10T18:11:40.000",
    "request_status": "Pending",
    "responsible_agency": "Department of Public Works",
    "final_address": "812 N Dorgenois St",
    "address_councildis": "D",
    "status": "Pending",
    "rowid": "1101986",
    "final_x": "3677463.5204",
    "final_y": "536937.858248",
    "longitude": "-90.08062904560428",
    "latitude": "29.970514898112313",
    "geocoded_column": {
      "latitude": "29.970514898112313",
      "longitude": "-90.08062904560428"
    }
  },
  {
    "service_request": "2024-1101985",
    "request_type": "Abandoned Vehicles",
    "request_reason": "Abandoned/Junk Vehicles",
    "date_created": "2024-06-10T18:07:48.000",
    "date_modified": "2024-06-10T18:07:48.000",
    "request_status": "Pending",
    "responsible_agency": "Department of Public Works",
    "final_address": "1300 BLK Desire St",
    "address_councildis": "C",
    "status": "Pending",
    "rowid": "1101985",
    "final_x": "3690411.22905",
    "final_y": "536626.292349",
    "longitude": "-90.03974993814437",
    "latitude": "29.96926262876818",
    "geocoded_column": {
      "latitude": "29.96926262876818",
      "longitude": "-90.03974993814437"
    }
  },
  {
    "service_request": "2024-1101984",
    "request_type": "Trash/Recycling",
    "request_reason": "Replace Trash Cart",
    "date_created": "2024-06-10T17:57:07.000",
    "date_modified": "2024-06-10T17:57:07.000",
    "request_status": "Pending",
    "responsible_agency": "Department of Sanitation",
    "final_address": "9009 Heaton St",
    "address_councildis": "A",
    "status": "Assigned to Contractor",
    "contractor": "IV Waste",
    "rowid": "1101984",
    "final_x": "3666957.57972",
    "final_y": "538813.395849",
    "longitude": "-90.11374509395326",
    "latitude": "29.975983636399985",
    "geocoded_column": {
      "latitude": "29.975983636399985",
      "longitude": "-90.11374509395326"
    }
  },
  {
    "service_request": "2024-1101982",
    "request_type": "Traffic Signals/Signs/Striping/Streetlights",
    "request_reason": "Traffic Sign Missing/Damaged",
    "date_created": "2024-06-10T17:47:33.000",
    "date_modified": "2024-06-10T17:47:33.000",
    "request_status": "Pending",
    "responsible_agency": "Department of Public Works",
    "final_address": "ST CHARLES AVE & JOSEPH ST",
    "address_councildis": "A",
    "status": "Pending",
    "rowid": "1101982",
    "final_x": "3666787.1",
    "final_y": "521909.28",
    "longitude": "-90.11485124737169",
    "latitude": "29.929507817148394",
    "geocoded_column": {
      "latitude": "29.929507817148394",
      "longitude": "-90.11485124737169"
    }
  },
  {
    "service_request": "2024-1101981",
    "request_type": "Trash/Recycling",
    "request_reason": "Request a Large Item Pick Up",
    "date_created": "2024-06-10T17:41:33.000",
    "date_modified": "2024-06-10T17:41:33.000",
    "request_status": "Pending",
    "responsible_agency": "Department of Sanitation",
    "final_address": "5029 Touro St",
    "address_councildis": "D",
    "status": "Assigned to Contractor",
    "contractor": "IV Waste",
    "rowid": "1101981",
    "final_x": "3683068.92392",
    "final_y": "551256.210453",
    "longitude": "-90.06242501098507",
    "latitude": "30.009715600845375",
    "geocoded_column": {
      "latitude": "30.009715600845375",
      "longitude": "-90.06242501098507"
    }
  },
  {
    "service_request": "2024-1101980",
    "request_type": "Trash/Recycling",
    "request_reason": "Order Recycling Cart",
    "date_created": "2024-06-10T17:39:19.000",
    "date_modified": "2024-06-10T17:39:19.000",
    "request_status": "Pending",
    "responsible_agency": "Department of Sanitation",
    "final_address": "917 N Rocheblave St",
    "address_councildis": "D",
    "status": "Pending",
    "rowid": "1101980",
    "final_x": "3678028.24162",
    "final_y": "537046.895944",
    "longitude": "-90.07884182024289",
    "latitude": "29.9707977263233",
    "geocoded_column": {
      "latitude": "29.9707977263233",
      "longitude": "-90.07884182024289"
    }
  },
  {
    "service_request": "2024-1101979",
    "request_type": "Trash/Recycling",
    "request_reason": "Request a Large Item Pick Up",
    "date_created": "2024-06-10T17:20:20.000",
    "date_modified": "2024-06-10T17:20:20.000",
    "request_status": "Pending",
    "responsible_agency": "Department of Sanitation",
    "final_address": "422 Notre Dame St",
    "address_councildis": "B",
    "status": "Assigned to Contractor",
    "contractor": "Empire Services",
    "rowid": "1101979",
    "final_x": "3681566.53013",
    "final_y": "527976.036863",
    "longitude": "-90.06798382061073",
    "latitude": "29.945748959306208",
    "geocoded_column": {
      "latitude": "29.945748959306208",
      "longitude": "-90.06798382061073"
    }
  },
  {
    "service_request": "2024-1101978",
    "request_type": "Trash/Recycling",
    "request_reason": "Order Trash Cart",
    "date_created": "2024-06-10T17:10:44.000",
    "date_modified": "2024-06-10T17:10:44.000",
    "request_status": "Pending",
    "responsible_agency": "Department of Sanitation",
    "final_address": "507 Hendee St",
    "address_councildis": "C",
    "status": "Assigned to Contractor",
    "contractor": "Richards Disposal",
    "rowid": "1101978",
    "final_x": "3690857.25884",
    "final_y": "529706.911425",
    "longitude": "-90.03858826343999",
    "latitude": "29.95022289050701",
    "geocoded_column": {
      "latitude": "29.95022289050701",
      "longitude": "-90.03858826343999"
    }
  },
  {
    "service_request": "2024-1101977",
    "request_type": "Trash/Recycling",
    "request_reason": "Return Recycling Cart",
    "date_created": "2024-06-10T16:53:46.000",
    "date_modified": "2024-06-10T16:53:48.000",
    "request_status": "Pending",
    "responsible_agency": "Department of Sanitation",
    "final_address": "3375 State Street Dr",
    "address_councildis": "A",
    "status": "Pending",
    "rowid": "1101977",
    "final_x": "3667889.41447",
    "final_y": "528916.230464",
    "longitude": "-90.11113549254503",
    "latitude": "29.948742398908113",
    "geocoded_column": {
      "latitude": "29.948742398908113",
      "longitude": "-90.11113549254503"
    }
  },
  {
    "service_request": "2024-1101975",
    "request_type": "Trash/Recycling",
    "request_reason": "Request a Large Item Pick Up",
    "date_created": "2024-06-10T16:41:25.000",
    "date_modified": "2024-06-10T16:41:26.000",
    "request_status": "Pending",
    "responsible_agency": "Department of Sanitation",
    "final_address": "1617 Soniat St",
    "address_councildis": "B",
    "status": "Assigned to Contractor",
    "contractor": "IV Waste",
    "rowid": "1101975",
    "final_x": "3668485.55521",
    "final_y": "521165.473017",
    "longitude": "-90.10951459510876",
    "latitude": "29.927412812715247",
    "geocoded_column": {
      "latitude": "29.927412812715247",
      "longitude": "-90.10951459510876"
    }
  },
  {
    "service_request": "2024-1101974",
    "request_type": "Abandoned Vehicles",
    "request_reason": "Abandoned/Junk Vehicles",
    "date_created": "2024-06-10T16:41:15.000",
    "date_modified": "2024-06-10T16:41:15.000",
    "request_status": "Pending",
    "responsible_agency": "Department of Public Works",
    "final_address": "4754 Warren Dr",
    "address_councildis": "E",
    "status": "Pending",
    "rowid": "1101974",
    "final_x": "3713373.59371",
    "final_y": "556395.735578",
    "longitude": "-89.96648908851341",
    "latitude": "30.022888251520044",
    "geocoded_column": {
      "latitude": "30.022888251520044",
      "longitude": "-89.96648908851341"
    }
  },
  {
    "service_request": "2024-1101973",
    "request_type": "Abandoned Vehicles",
    "request_reason": "Abandoned/Junk Vehicles",
    "date_created": "2024-06-10T16:40:04.000",
    "date_modified": "2024-06-10T16:40:04.000",
    "request_status": "Pending",
    "responsible_agency": "Department of Public Works",
    "final_address": "10114 Hammond St",
    "address_councildis": "E",
    "status": "Pending",
    "rowid": "1101973",
    "final_x": "3712935.77432",
    "final_y": "556335.049178",
    "longitude": "-89.96787476905696",
    "latitude": "30.02273574086943",
    "geocoded_column": {
      "latitude": "30.02273574086943",
      "longitude": "-89.96787476905696"
    }
  },
  {
    "service_request": "2024-1101972",
    "request_type": "Healthy Homes",
    "request_reason": "Healthy Homes",
    "date_created": "2024-06-10T16:38:20.000",
    "date_modified": "2024-06-10T16:38:21.000",
    "request_status": "Pending",
    "responsible_agency": "Department of Code Enforcement",
    "final_address": "2912 Palmyra St Apt A",
    "address_councildis": "B",
    "status": "Pending",
    "rowid": "1101972",
    "final_x": "3673986.10305",
    "final_y": "535044.403014",
    "longitude": "-90.09167594539439",
    "latitude": "29.965412612017644",
    "geocoded_column": {
      "latitude": "29.965412612017644",
      "longitude": "-90.09167594539439"
    }
  },
  {
    "service_request": "2024-1101971",
    "request_type": "Trash/Recycling",
    "request_reason": "Replace Trash Cart",
    "date_created": "2024-06-10T16:31:07.000",
    "date_modified": "2024-06-10T16:31:08.000",
    "request_status": "Pending",
    "responsible_agency": "Department of Sanitation",
    "final_address": "4609 Tchoupitoulas St",
    "address_councildis": "B",
    "status": "Assigned to Contractor",
    "contractor": "IV Waste",
    "rowid": "1101971",
    "final_x": "3670343.81351",
    "final_y": "517417.617781",
    "longitude": "-90.10377547425627",
    "latitude": "29.917052696981123",
    "geocoded_column": {
      "latitude": "29.917052696981123",
      "longitude": "-90.10377547425627"
    }
  },
  {
    "service_request": "2024-1101970",
    "request_type": "Trash/Recycling",
    "request_reason": "Illegal Dumping",
    "date_created": "2024-06-10T16:30:54.000",
    "date_modified": "2024-06-10T16:30:54.000",
    "request_status": "Pending",
    "responsible_agency": "Department of Sanitation",
    "final_address": "3058 N Villere St",
    "address_councildis": "C",
    "status": "Pending",
    "rowid": "1101970",
    "final_x": "3689221.6863",
    "final_y": "537091.739208",
    "longitude": "-90.04349004604191",
    "latitude": "29.970579316210586",
    "geocoded_column": {
      "latitude": "29.970579316210586",
      "longitude": "-90.04349004604191"
    }
  },
  {
    "service_request": "2024-1101969",
    "request_type": "Trash/Recycling",
    "request_reason": "Repair Trash Cart",
    "date_created": "2024-06-10T16:27:33.000",
    "date_modified": "2024-06-10T16:27:34.000",
    "request_status": "Pending",
    "responsible_agency": "Department of Sanitation",
    "final_address": "1516 St Ann St",
    "address_councildis": "C",
    "status": "Assigned to Contractor",
    "contractor": "IV Waste",
    "rowid": "1101969",
    "final_x": "3680376.02248",
    "final_y": "534548.026117",
    "longitude": "-90.071514144573",
    "latitude": "29.963855804602915",
    "geocoded_column": {
      "latitude": "29.963855804602915",
      "longitude": "-90.071514144573"
    }
  },
  {
    "service_request": "2024-1101968",
    "request_type": "Trash/Recycling",
    "request_reason": "Request a Large Item Pick Up",
    "date_created": "2024-06-10T16:26:16.000",
    "date_modified": "2024-06-10T16:26:16.000",
    "request_status": "Pending",
    "responsible_agency": "Department of Sanitation",
    "final_address": "7724 Scottwood Dr",
    "address_councildis": "E",
    "status": "Assigned to Contractor",
    "contractor": "Waste Pro",
    "rowid": "1101968",
    "final_x": "3716907.45068",
    "final_y": "571152.164008",
    "longitude": "-89.95476206309385",
    "latitude": "30.06334604260891",
    "geocoded_column": {
      "latitude": "30.06334604260891",
      "longitude": "-89.95476206309385"
    }
  },
  {
    "service_request": "2024-1101967",
    "request_type": "Trash/Recycling",
    "request_reason": "Repair Trash Cart",
    "date_created": "2024-06-10T16:25:57.000",
    "date_modified": "2024-06-10T16:25:58.000",
    "request_status": "Pending",
    "responsible_agency": "Department of Sanitation",
    "final_address": "2934 Orleans Ave",
    "address_councildis": "A",
    "status": "Assigned to Contractor",
    "contractor": "IV Waste",
    "rowid": "1101967",
    "final_x": "3675808.10401",
    "final_y": "537665.293704",
    "longitude": "-90.08583203512369",
    "latitude": "29.972564757426507",
    "geocoded_column": {
      "latitude": "29.972564757426507",
      "longitude": "-90.08583203512369"
    }
  },
  {
    "service_request": "2024-1101966",
    "request_type": "Mosquito, Termite & Rodent Control",
    "request_reason": "Non-Rodent Complaint (Mice, Possums, Snakes)",
    "date_created": "2024-06-10T16:25:55.000",
    "date_modified": "2024-06-10T16:25:55.000",
    "request_status": "Pending",
    "responsible_agency": "Mosquito, Termite & Rodent Control Board",
    "final_address": "2912 Palmyra St Apt A",
    "address_councildis": "B",
    "status": "Pending",
    "rowid": "1101966",
    "final_x": "3673986.10305",
    "final_y": "535044.403014",
    "longitude": "-90.09167594539439",
    "latitude": "29.965412612017644",
    "geocoded_column": {
      "latitude": "29.965412612017644",
      "longitude": "-90.09167594539439"
    }
  },
  {
    "service_request": "2024-1101965",
    "request_type": "Traffic Signals/Signs/Striping/Streetlights",
    "request_reason": "Street Light Outage/Malfunction",
    "date_created": "2024-06-10T16:23:20.000",
    "date_modified": "2024-06-10T16:23:21.000",
    "request_status": "Pending",
    "responsible_agency": "Department of Public Works",
    "final_address": "8001 Hickory St",
    "address_councildis": "A",
    "status": "Assigned to Contractor",
    "contractor": "Legacy Professional Services",
    "rowid": "1101965",
    "final_x": "3663712.68627",
    "final_y": "529687.265409",
    "longitude": "-90.12429757677877",
    "latitude": "29.950984334930467",
    "geocoded_column": {
      "latitude": "29.950984334930467",
      "longitude": "-90.12429757677877"
    }
  },
  {
    "service_request": "2024-1101964",
    "request_type": "Trash/Recycling",
    "request_reason": "Order Recycling Cart",
    "date_created": "2024-06-10T16:22:46.000",
    "date_modified": "2024-06-10T16:22:46.000",
    "request_status": "Pending",
    "responsible_agency": "Department of Sanitation",
    "final_address": "813 Dumaine St",
    "address_councildis": "C",
    "status": "Pending",
    "rowid": "1101964",
    "final_x": "3682639.33672",
    "final_y": "533349.003844",
    "longitude": "-90.0644087531383",
    "latitude": "29.960490177530062",
    "geocoded_column": {
      "latitude": "29.960490177530062",
      "longitude": "-90.0644087531383"
    }
  },
  {
    "service_request": "2024-1101963",
    "request_type": "Traffic Signals/Signs/Striping/Streetlights",
    "request_reason": "Traffic Signal Malfunctioning/Damaged",
    "date_created": "2024-06-10T16:20:50.000",
    "date_modified": "2024-06-10T16:20:51.000",
    "request_status": "Pending",
    "responsible_agency": "Department of Public Works",
    "final_address": "GRAVIER ST & S CLAIBORNE AVE & S CLAIBORNE AV OVERPASS",
    "address_councildis": "B",
    "status": "Pending",
    "rowid": "1101963",
    "final_x": "3677409.4",
    "final_y": "531610.08",
    "longitude": "-90.0809838615513",
    "latitude": "29.955866939021757",
    "geocoded_column": {
      "latitude": "29.955866939021757",
      "longitude": "-90.0809838615513"
    }
  },
  {
    "service_request": "2024-1101962",
    "request_type": "Trash/Recycling",
    "request_reason": "Request a Large Item Pick Up",
    "date_created": "2024-06-10T16:20:35.000",
    "date_modified": "2024-06-10T16:20:35.000",
    "request_status": "Pending",
    "responsible_agency": "Department of Sanitation",
    "final_address": "3228 Upperline St",
    "address_councildis": "B",
    "status": "Assigned to Contractor",
    "contractor": "IV Waste",
    "rowid": "1101962",
    "final_x": "3669168.0674",
    "final_y": "526896.629118",
    "longitude": "-90.10716646586026",
    "latitude": "29.94315158858841",
    "geocoded_column": {
      "latitude": "29.94315158858841",
      "longitude": "-90.10716646586026"
    }
  },
  {
    "service_request": "2024-1101961",
    "request_type": "Roads/Drainage",
    "request_reason": "Catch Basin - Clogged",
    "date_created": "2024-06-10T16:18:48.000",
    "date_modified": "2024-06-10T16:18:48.000",
    "request_status": "Pending",
    "responsible_agency": "Department of Public Works",
    "final_address": "1637 S Carrollton Ave",
    "address_councildis": "A",
    "status": "Pending",
    "rowid": "1101961",
    "final_x": "3663232.95335",
    "final_y": "529530.059329",
    "longitude": "-90.12581757024985",
    "latitude": "29.950565978745516",
    "geocoded_column": {
      "latitude": "29.950565978745516",
      "longitude": "-90.12581757024985"
    }
  },
  {
    "service_request": "2024-1101960",
    "request_type": "Property Maintenance",
    "request_reason": "Property Maintenance",
    "date_created": "2024-06-10T16:17:44.000",
    "date_modified": "2024-06-10T16:43:40.000",
    "case_close_date": "2024-06-10T11:43:40.000",
    "request_status": "Closed",
    "responsible_agency": "Department of Code Enforcement",
    "final_address": "4933 Feliciana Dr",
    "address_councildis": "D",
    "status": "Referred to Code Enforcement",
    "rowid": "1101960",
    "final_x": "3690093.90153",
    "final_y": "551651.393429",
    "longitude": "-90.04021658699979",
    "latitude": "30.010586092687767",
    "geocoded_column": {
      "latitude": "30.010586092687767",
      "longitude": "-90.04021658699979"
    }
  },
  {
    "service_request": "2024-1101959",
    "request_type": "Trash/Recycling",
    "request_reason": "Repair Trash Cart",
    "date_created": "2024-06-10T16:14:55.000",
    "date_modified": "2024-06-10T16:14:55.000",
    "request_status": "Pending",
    "responsible_agency": "Department of Sanitation",
    "final_address": "2853 Ramsey Dr",
    "address_councildis": "C",
    "status": "Assigned to Contractor",
    "contractor": "Richards Disposal",
    "rowid": "1101959",
    "final_x": "3703220.25649",
    "final_y": "520174.793848",
    "longitude": "-89.99990296806064",
    "latitude": "29.92362300346735",
    "geocoded_column": {
      "latitude": "29.92362300346735",
      "longitude": "-89.99990296806064"
    }
  },
  {
    "service_request": "2024-1101958",
    "request_type": "Trash/Recycling",
    "request_reason": "Replace Trash Cart",
    "date_created": "2024-06-10T16:13:08.000",
    "date_modified": "2024-06-10T16:13:08.000",
    "request_status": "Pending",
    "responsible_agency": "Department of Sanitation",
    "final_address": "1728 Touro St",
    "address_councildis": "D",
    "status": "Assigned to Contractor",
    "contractor": "IV Waste",
    "rowid": "1101958",
    "final_x": "3684003.78332",
    "final_y": "538691.523145",
    "longitude": "-90.05991262290325",
    "latitude": "29.975138639014354",
    "geocoded_column": {
      "latitude": "29.975138639014354",
      "longitude": "-90.05991262290325"
    }
  },
  {
    "service_request": "2024-1101957",
    "request_type": "EMS",
    "request_reason": "EMS Lost & Found",
    "date_created": "2024-06-10T16:12:28.000",
    "date_modified": "2024-06-10T16:12:29.000",
    "request_status": "Pending",
    "responsible_agency": "Emergency Medical Services",
    "final_address": "100 BLK Bourbon St",
    "address_councildis": "C",
    "status": "Pending",
    "rowid": "1101957",
    "final_x": "3681046.05782",
    "final_y": "531075.957977",
    "longitude": "-90.06951917153452",
    "latitude": "29.954288492495905",
    "geocoded_column": {
      "latitude": "29.954288492495905",
      "longitude": "-90.06951917153452"
    }
  },
  {
    "service_request": "2024-1101956",
    "request_type": "Trash/Recycling",
    "request_reason": "Order Recycling Cart",
    "date_created": "2024-06-10T16:12:23.000",
    "date_modified": "2024-06-10T16:12:23.000",
    "request_status": "Pending",
    "responsible_agency": "Department of Sanitation",
    "final_address": "1728 Touro St",
    "address_councildis": "D",
    "status": "Pending",
    "rowid": "1101956",
    "final_x": "3684003.78332",
    "final_y": "538691.523145",
    "longitude": "-90.05991262290325",
    "latitude": "29.975138639014354",
    "geocoded_column": {
      "latitude": "29.975138639014354",
      "longitude": "-90.05991262290325"
    }
  },
  {
    "service_request": "2024-1101955",
    "request_type": "Trash/Recycling",
    "request_reason": "Request a Large Item Pick Up",
    "date_created": "2024-06-10T16:11:44.000",
    "date_modified": "2024-06-10T16:11:45.000",
    "request_status": "Pending",
    "responsible_agency": "Department of Sanitation",
    "final_address": "7635 Jeannette St",
    "address_councildis": "A",
    "status": "Assigned to Contractor",
    "contractor": "IV Waste",
    "rowid": "1101955",
    "final_x": "3663891.49127",
    "final_y": "528157.033472",
    "longitude": "-90.12378400146982",
    "latitude": "29.946771501161553",
    "geocoded_column": {
      "latitude": "29.946771501161553",
      "longitude": "-90.12378400146982"
    }
  },
  {
    "service_request": "2024-1101954",
    "request_type": "Parks & Parkways",
    "request_reason": "Request Tree Service (Right of Way/Public Property)",
    "date_created": "2024-06-10T16:11:17.000",
    "date_modified": "2024-06-10T16:11:17.000",
    "request_status": "Pending",
    "responsible_agency": "Department of Parks & Parkway",
    "final_address": "906 Sixth St",
    "address_councildis": "B",
    "status": "Pending",
    "rowid": "1101954",
    "final_x": "3676956.70171",
    "final_y": "519984.880504",
    "longitude": "-90.08281394458378",
    "latitude": "29.923915067437903",
    "geocoded_column": {
      "latitude": "29.923915067437903",
      "longitude": "-90.08281394458378"
    }
  },
  {
    "service_request": "2024-1101953",
    "request_type": "Property Maintenance",
    "request_reason": "Property Maintenance",
    "date_created": "2024-06-10T16:09:46.000",
    "date_modified": "2024-06-10T16:09:46.000",
    "request_status": "Pending",
    "responsible_agency": "Department of Code Enforcement",
    "final_address": "1043 Clouet St",
    "address_councildis": "C",
    "status": "Pending",
    "rowid": "1101953",
    "final_x": "3689003.96143",
    "final_y": "535889.795719",
    "longitude": "-90.04422034964209",
    "latitude": "29.967281130331415",
    "geocoded_column": {
      "latitude": "29.967281130331415",
      "longitude": "-90.04422034964209"
    }
  },
  {
    "service_request": "2024-1101952",
    "request_type": "Trash/Recycling",
    "request_reason": "Request a Large Item Pick Up",
    "date_created": "2024-06-10T16:08:17.000",
    "date_modified": "2024-06-10T16:08:17.000",
    "request_status": "Pending",
    "responsible_agency": "Department of Sanitation",
    "final_address": "7841 Branch Dr",
    "address_councildis": "E",
    "status": "Assigned to Contractor",
    "contractor": "Waste Pro",
    "rowid": "1101952",
    "final_x": "3714217.54539",
    "final_y": "569458.44151",
    "longitude": "-89.96332892388374",
    "latitude": "30.058777714628157",
    "geocoded_column": {
      "latitude": "30.058777714628157",
      "longitude": "-89.96332892388374"
    }
  },
  {
    "service_request": "2024-1101951",
    "request_type": "Trash/Recycling",
    "request_reason": "Illegal Dumping",
    "date_created": "2024-06-10T16:07:27.000",
    "date_modified": "2024-06-10T16:07:27.000",
    "request_status": "Pending",
    "responsible_agency": "Department of Sanitation",
    "final_address": "5500 BLK Tullis Dr",
    "address_councildis": "C",
    "status": "Pending",
    "rowid": "1101951",
    "final_x": "3704408.09246",
    "final_y": "512010.28351",
    "longitude": "-89.99645412804668",
    "latitude": "29.901135338753978",
    "geocoded_column": {
      "latitude": "29.901135338753978",
      "longitude": "-89.99645412804668"
    }
  },
  {
    "service_request": "2024-1101950",
    "request_type": "Trash/Recycling",
    "request_reason": "Replace Trash Cart",
    "date_created": "2024-06-10T16:05:51.000",
    "date_modified": "2024-06-10T16:05:51.000",
    "request_status": "Pending",
    "responsible_agency": "Department of Sanitation",
    "final_address": "4333 Jeanne Marie Pl",
    "address_councildis": "D",
    "status": "Assigned to Contractor",
    "contractor": "IV Waste",
    "rowid": "1101950",
    "final_x": "3678633.66651",
    "final_y": "548327.975314",
    "longitude": "-90.0765390441831",
    "latitude": "30.001798518839333",
    "geocoded_column": {
      "latitude": "30.001798518839333",
      "longitude": "-90.0765390441831"
    }
  },
  {
    "service_request": "2024-1101949",
    "request_type": "Trash/Recycling",
    "request_reason": "Request a Large Item Pick Up",
    "date_created": "2024-06-10T16:01:08.000",
    "date_modified": "2024-06-10T16:01:09.000",
    "request_status": "Pending",
    "responsible_agency": "Department of Sanitation",
    "final_address": "8030 Crowder Blvd",
    "address_councildis": "E",
    "status": "Assigned to Contractor",
    "contractor": "Waste Pro",
    "rowid": "1101949",
    "final_x": "3702671.64375",
    "final_y": "562800.408224",
    "longitude": "-90.00006910645119",
    "latitude": "30.040845286876234",
    "geocoded_column": {
      "latitude": "30.040845286876234",
      "longitude": "-90.00006910645119"
    }
  },
  {
    "service_request": "2024-1101948",
    "request_type": "Trash/Recycling",
    "request_reason": "Repair Trash Cart",
    "date_created": "2024-06-10T15:57:01.000",
    "date_modified": "2024-06-10T15:57:02.000",
    "request_status": "Pending",
    "responsible_agency": "Department of Sanitation",
    "final_address": "7400 Sardonyx St",
    "address_councildis": "D",
    "status": "Assigned to Contractor",
    "contractor": "IV Waste",
    "rowid": "1101948",
    "final_x": "3669541.33562",
    "final_y": "555984.732057",
    "longitude": "-90.1050034621223",
    "latitude": "30.023122982941107",
    "geocoded_column": {
      "latitude": "30.023122982941107",
      "longitude": "-90.1050034621223"
    }
  },
  {
    "service_request": "2024-1101947",
    "request_type": "Roads/Drainage",
    "request_reason": "Pothole",
    "date_created": "2024-06-10T15:56:48.000",
    "date_modified": "2024-06-10T15:56:48.000",
    "request_status": "Pending",
    "responsible_agency": "Department of Public Works",
    "final_address": "4216 Chestnut St",
    "address_councildis": "B",
    "status": "Pending",
    "rowid": "1101947",
    "final_x": "3671574.31393",
    "final_y": "519539.203703",
    "longitude": "-90.09981939416457",
    "latitude": "29.922850019854593",
    "geocoded_column": {
      "latitude": "29.922850019854593",
      "longitude": "-90.09981939416457"
    }
  },
  {
    "service_request": "2024-1101946",
    "request_type": "Trash/Recycling",
    "request_reason": "Order Recycling Cart",
    "date_created": "2024-06-10T15:53:45.000",
    "date_modified": "2024-06-10T15:53:45.000",
    "request_status": "Pending",
    "responsible_agency": "Department of Sanitation",
    "final_address": "247 26Th St",
    "address_councildis": "A",
    "status": "Pending",
    "rowid": "1101946",
    "final_x": "3665425.04391",
    "final_y": "549963.070932",
    "longitude": "-90.11821187276081",
    "latitude": "30.006686212314953",
    "geocoded_column": {
      "latitude": "30.006686212314953",
      "longitude": "-90.11821187276081"
    }
  },
  {
    "service_request": "2024-1101945",
    "request_type": "Trash/Recycling",
    "request_reason": "Repair Trash Cart",
    "date_created": "2024-06-10T15:53:04.000",
    "date_modified": "2024-06-10T15:53:04.000",
    "request_status": "Pending",
    "responsible_agency": "Department of Sanitation",
    "final_address": "247 26Th St",
    "address_councildis": "A",
    "status": "Assigned to Contractor",
    "contractor": "IV Waste",
    "rowid": "1101945",
    "final_x": "3665425.04391",
    "final_y": "549963.070932",
    "longitude": "-90.11821187276081",
    "latitude": "30.006686212314953",
    "geocoded_column": {
      "latitude": "30.006686212314953",
      "longitude": "-90.11821187276081"
    }
  },
  {
    "service_request": "2024-1101944",
    "request_type": "Roads/Drainage",
    "request_reason": "Accessibility Ramps, Curbs and Sidewalk Repair",
    "date_created": "2024-06-10T15:50:10.000",
    "date_modified": "2024-06-10T15:50:10.000",
    "request_status": "Pending",
    "responsible_agency": "Department of Public Works",
    "final_address": "410 Chartres St",
    "address_councildis": "C",
    "status": "Pending",
    "rowid": "1101944",
    "final_x": "3682262.17647",
    "final_y": "531440.605251",
    "longitude": "-90.06566641848968",
    "latitude": "29.95525421069734",
    "geocoded_column": {
      "latitude": "29.95525421069734",
      "longitude": "-90.06566641848968"
    }
  },
  {
    "service_request": "2024-1101943",
    "request_type": "Mosquito, Termite & Rodent Control",
    "request_reason": "Mosquito Complaint",
    "date_created": "2024-06-10T15:49:45.000",
    "date_modified": "2024-06-10T15:49:45.000",
    "request_status": "Pending",
    "responsible_agency": "Mosquito, Termite & Rodent Control Board",
    "final_address": "1809 Coliseum St",
    "address_councildis": "B",
    "status": "Pending",
    "rowid": "1101943",
    "final_x": "3679137.27112",
    "final_y": "523771.978235",
    "longitude": "-90.07579947177602",
    "latitude": "29.934262730563184",
    "geocoded_column": {
      "latitude": "29.934262730563184",
      "longitude": "-90.07579947177602"
    }
  },
  {
    "service_request": "2024-1101942",
    "request_type": "Roads/Drainage",
    "request_reason": "Damaged Sidewalk",
    "date_created": "2024-06-10T15:47:32.000",
    "date_modified": "2024-06-10T15:47:32.000",
    "request_status": "Pending",
    "responsible_agency": "Department of Public Works",
    "final_address": "416 Chartres St",
    "address_councildis": "C",
    "status": "Pending",
    "rowid": "1101942",
    "final_x": "3682296.87394",
    "final_y": "531488.325379",
    "longitude": "-90.06555518956337",
    "latitude": "29.955384369294354",
    "geocoded_column": {
      "latitude": "29.955384369294354",
      "longitude": "-90.06555518956337"
    }
  },
  {
    "service_request": "2024-1101941",
    "request_type": "Trash/Recycling",
    "request_reason": "Repair Trash Cart",
    "date_created": "2024-06-10T15:45:28.000",
    "date_modified": "2024-06-10T15:45:29.000",
    "request_status": "Pending",
    "responsible_agency": "Department of Sanitation",
    "final_address": "7515 Daniel Dr",
    "address_councildis": "E",
    "status": "Assigned to Contractor",
    "contractor": "Waste Pro",
    "rowid": "1101941",
    "final_x": "3705338.50891",
    "final_y": "562595.61776",
    "longitude": "-89.99164854556689",
    "latitude": "30.0401966014213",
    "geocoded_column": {
      "latitude": "30.0401966014213",
      "longitude": "-89.99164854556689"
    }
  },
  {
    "service_request": "2024-1101940",
    "request_type": "Roads/Drainage",
    "request_reason": "Pothole",
    "date_created": "2024-06-10T15:45:18.000",
    "date_modified": "2024-06-10T15:45:18.000",
    "request_status": "Pending",
    "responsible_agency": "Department of Public Works",
    "final_address": "434 Chartres St",
    "address_councildis": "C",
    "status": "Pending",
    "rowid": "1101940",
    "final_x": "3682366.3053",
    "final_y": "531581.774211",
    "longitude": "-90.06533268542499",
    "latitude": "29.955639209351972",
    "geocoded_column": {
      "latitude": "29.955639209351972",
      "longitude": "-90.06533268542499"
    }
  },
  {
    "service_request": "2024-1101939",
    "request_type": "Roads/Drainage",
    "request_reason": "Pothole",
    "date_created": "2024-06-10T15:41:29.000",
    "date_modified": "2024-06-10T15:41:29.000",
    "request_status": "Pending",
    "responsible_agency": "Department of Public Works",
    "final_address": "430 Chartres St",
    "address_councildis": "C",
    "status": "Pending",
    "rowid": "1101939",
    "final_x": "3682343.05109",
    "final_y": "531553.312707",
    "longitude": "-90.06540710834986",
    "latitude": "29.955561657448538",
    "geocoded_column": {
      "latitude": "29.955561657448538",
      "longitude": "-90.06540710834986"
    }
  },
  {
    "service_request": "2024-1101938",
    "request_type": "Roads/Drainage",
    "request_reason": "Road Shoulder Repair",
    "date_created": "2024-06-10T15:38:59.000",
    "date_modified": "2024-06-10T15:38:59.000",
    "request_status": "Pending",
    "responsible_agency": "Department of Public Works",
    "final_address": "422 Chartres St",
    "address_councildis": "C",
    "status": "Pending",
    "rowid": "1101938",
    "final_x": "3682310.7268",
    "final_y": "531509.104835",
    "longitude": "-90.0655107213202",
    "latitude": "29.95544108428968",
    "geocoded_column": {
      "latitude": "29.95544108428968",
      "longitude": "-90.0655107213202"
    }
  },
  {
    "service_request": "2024-1101937",
    "request_type": "Trash/Recycling",
    "request_reason": "Repair Trash Cart",
    "date_created": "2024-06-10T15:38:34.000",
    "date_modified": "2024-06-10T15:42:33.000",
    "request_status": "Pending",
    "responsible_agency": "Department of Sanitation",
    "final_address": "7070 Ridgefield Dr",
    "address_councildis": "E",
    "contractor": "Waste Pro",
    "rowid": "1101937",
    "final_x": "3719230.25484",
    "final_y": "569694.477862",
    "longitude": "-89.94747537231041",
    "latitude": "30.05926096947103",
    "geocoded_column": {
      "latitude": "30.05926096947103",
      "longitude": "-89.94747537231041"
    }
  },
  {
    "service_request": "2024-1101936",
    "request_type": "Roads/Drainage",
    "request_reason": "Pothole",
    "date_created": "2024-06-10T15:36:04.000",
    "date_modified": "2024-06-10T15:36:04.000",
    "request_status": "Pending",
    "responsible_agency": "Department of Public Works",
    "final_address": "400 Chartres St",
    "address_councildis": "C",
    "status": "Pending",
    "rowid": "1101936",
    "final_x": "3682207.49794",
    "final_y": "531375.162242",
    "longitude": "-90.06584135886212",
    "latitude": "29.95507592785548",
    "geocoded_column": {
      "latitude": "29.95507592785548",
      "longitude": "-90.06584135886212"
    }
  },
  {
    "service_request": "2024-1101935",
    "request_type": "Traffic Signals/Signs/Striping/Streetlights",
    "request_reason": "Street Light Outage/Malfunction",
    "date_created": "2024-06-10T15:35:39.000",
    "date_modified": "2024-06-10T15:36:38.000",
    "request_status": "Pending",
    "responsible_agency": "Department of Public Works",
    "final_address": "DREUX AVE & PEOPLES AVE",
    "address_councildis": "D",
    "status": "Assigned to Contractor",
    "contractor": "Legacy Professional Services",
    "rowid": "1101935",
    "final_x": "3688041.0",
    "final_y": "552332.38",
    "longitude": "-90.0466783146912",
    "latitude": "30.012522098393195",
    "geocoded_column": {
      "latitude": "30.012522098393195",
      "longitude": "-90.0466783146912"
    }
  },
  {
    "service_request": "2024-1101934",
    "request_type": "Trash/Recycling",
    "request_reason": "Request a Large Item Pick Up",
    "date_created": "2024-06-10T15:35:27.000",
    "date_modified": "2024-06-10T15:35:28.000",
    "request_status": "Pending",
    "responsible_agency": "Department of Sanitation",
    "final_address": "2412 Valentine Ct",
    "address_councildis": "C",
    "status": "Assigned to Contractor",
    "contractor": "Richards Disposal",
    "rowid": "1101934",
    "final_x": "3699332.43991",
    "final_y": "522363.176122",
    "longitude": "-90.01209564345763",
    "latitude": "29.929764133581187",
    "geocoded_column": {
      "latitude": "29.929764133581187",
      "longitude": "-90.01209564345763"
    }
  },
  {
    "service_request": "2024-1101933",
    "request_type": "Property Maintenance",
    "request_reason": "Property Maintenance",
    "date_created": "2024-06-10T15:33:14.000",
    "date_modified": "2024-06-10T15:40:29.000",
    "case_close_date": "2024-06-10T10:40:29.000",
    "request_status": "Closed",
    "responsible_agency": "Department of Code Enforcement",
    "final_address": "1503 Spain St",
    "address_councildis": "C",
    "status": "Duplicate Request",
    "rowid": "1101933",
    "final_x": "3686049.06364",
    "final_y": "537911.300873",
    "longitude": "-90.053480629579",
    "latitude": "29.972930642650375",
    "geocoded_column": {
      "latitude": "29.972930642650375",
      "longitude": "-90.053480629579"
    }
  },
  {
    "service_request": "2024-1101932",
    "request_type": "Traffic Signals/Signs/Striping/Streetlights",
    "request_reason": "Street Light Outage/Malfunction",
    "date_created": "2024-06-10T15:32:44.000",
    "date_modified": "2024-06-10T15:32:45.000",
    "request_status": "Pending",
    "responsible_agency": "Department of Public Works",
    "final_address": "1226 Desire St",
    "address_councildis": "C",
    "status": "Assigned to Contractor",
    "contractor": "Legacy Professional Services",
    "rowid": "1101932",
    "final_x": "3690277.10473",
    "final_y": "536289.916039",
    "longitude": "-90.04018550012549",
    "latitude": "29.968341875006505",
    "geocoded_column": {
      "latitude": "29.968341875006505",
      "longitude": "-90.04018550012549"
    }
  },
  {
    "service_request": "2024-1101931",
    "request_type": "Property Maintenance",
    "request_reason": "Property Maintenance",
    "date_created": "2024-06-10T15:32:19.000",
    "date_modified": "2024-06-10T15:38:48.000",
    "case_close_date": "2024-06-10T10:38:48.000",
    "request_status": "Closed",
    "responsible_agency": "Department of Code Enforcement",
    "final_address": "1503 Spain St",
    "address_councildis": "C",
    "status": "Referred to Code Enforcement",
    "rowid": "1101931",
    "final_x": "3686049.06364",
    "final_y": "537911.300873",
    "longitude": "-90.053480629579",
    "latitude": "29.972930642650375",
    "geocoded_column": {
      "latitude": "29.972930642650375",
      "longitude": "-90.053480629579"
    }
  },
  {
    "service_request": "2024-1101930",
    "request_type": "Abandoned Vehicles",
    "request_reason": "Abandoned/Junk Vehicles",
    "date_created": "2024-06-10T15:32:12.000",
    "date_modified": "2024-06-10T15:32:12.000",
    "request_status": "Pending",
    "responsible_agency": "Department of Public Works",
    "final_address": "5700 BLK Florida Ave",
    "address_councildis": "E",
    "status": "Pending",
    "rowid": "1101930",
    "final_x": "3700111.82907",
    "final_y": "539651.258084",
    "longitude": "-90.00900449781622",
    "latitude": "29.977275499141108",
    "geocoded_column": {
      "latitude": "29.977275499141108",
      "longitude": "-90.00900449781622"
    }
  },
  {
    "service_request": "2024-1101929",
    "request_type": "Trash/Recycling",
    "request_reason": "Request a Large Item Pick Up",
    "date_created": "2024-06-10T15:31:13.000",
    "date_modified": "2024-06-10T15:31:14.000",
    "request_status": "Pending",
    "responsible_agency": "Department of Sanitation",
    "final_address": "1016 Dante St",
    "address_councildis": "A",
    "status": "Assigned to Contractor",
    "contractor": "IV Waste",
    "rowid": "1101929",
    "final_x": "3661029.51578",
    "final_y": "528490.135616",
    "longitude": "-90.13280932888144",
    "latitude": "29.947770185746396",
    "geocoded_column": {
      "latitude": "29.947770185746396",
      "longitude": "-90.13280932888144"
    }
  },
  {
    "service_request": "2024-1101928",
    "request_type": "Trash/Recycling",
    "request_reason": "Request a Large Item Pick Up",
    "date_created": "2024-06-10T15:27:34.000",
    "date_modified": "2024-06-10T15:27:34.000",
    "request_status": "Pending",
    "responsible_agency": "Department of Sanitation",
    "final_address": "6868 Canal Blvd",
    "address_councildis": "A",
    "status": "Assigned to Contractor",
    "contractor": "IV Waste",
    "rowid": "1101928",
    "final_x": "3668887.18503",
    "final_y": "553189.229143",
    "longitude": "-90.1071649655128",
    "latitude": "30.01545560732709",
    "geocoded_column": {
      "latitude": "30.01545560732709",
      "longitude": "-90.1071649655128"
    }
  },
  {
    "service_request": "2024-1101927",
    "request_type": "Abandoned Vehicles",
    "request_reason": "Abandoned/Junk Vehicles",
    "date_created": "2024-06-10T15:27:24.000",
    "date_modified": "2024-06-10T15:27:24.000",
    "request_status": "Pending",
    "responsible_agency": "Department of Public Works",
    "final_address": "1730 Murl St",
    "address_councildis": "C",
    "status": "Pending",
    "rowid": "1101927",
    "final_x": "3695409.03811",
    "final_y": "524899.063036",
    "longitude": "-90.02438962950227",
    "latitude": "29.936860764719942",
    "geocoded_column": {
      "latitude": "29.936860764719942",
      "longitude": "-90.02438962950227"
    }
  },
  {
    "service_request": "2024-1101926",
    "request_type": "Trash/Recycling",
    "request_reason": "Request a Large Item Pick Up",
    "date_created": "2024-06-10T15:24:47.000",
    "date_modified": "2024-06-10T15:24:47.000",
    "request_status": "Pending",
    "responsible_agency": "Department of Sanitation",
    "final_address": "3536 Monroe St",
    "address_councildis": "A",
    "status": "Assigned to Contractor",
    "contractor": "IV Waste",
    "rowid": "1101926",
    "final_x": "3666090.22535",
    "final_y": "536115.763463",
    "longitude": "-90.11657493206121",
    "latitude": "29.968591401370755",
    "geocoded_column": {
      "latitude": "29.968591401370755",
      "longitude": "-90.11657493206121"
    }
  },
  {
    "service_request": "2024-1101925",
    "request_type": "Trash/Recycling",
    "request_reason": "Illegal Dumping",
    "date_created": "2024-06-10T15:23:11.000",
    "date_modified": "2024-06-10T15:23:11.000",
    "request_status": "Pending",
    "responsible_agency": "Department of Sanitation",
    "final_address": "301 Diana St",
    "address_councildis": "C",
    "status": "Pending",
    "rowid": "1101925",
    "final_x": "3686248.92809",
    "final_y": "527470.752831",
    "longitude": "-90.05321779257223",
    "latitude": "29.944216590280554",
    "geocoded_column": {
      "latitude": "29.944216590280554",
      "longitude": "-90.05321779257223"
    }
  },
  {
    "service_request": "2024-1101924",
    "request_type": "Trash/Recycling",
    "request_reason": "Request a Large Item Pick Up",
    "date_created": "2024-06-10T15:22:13.000",
    "date_modified": "2024-06-10T15:22:59.000",
    "request_status": "Pending",
    "responsible_agency": "Department of Sanitation",
    "final_address": "4749 Camelot Dr",
    "address_councildis": "E",
    "status": "Assigned to Contractor",
    "contractor": "Waste Pro",
    "rowid": "1101924",
    "final_x": "3708436.32139",
    "final_y": "555699.201561",
    "longitude": "-89.98211556236512",
    "latitude": "30.021134070866633",
    "geocoded_column": {
      "latitude": "30.021134070866633",
      "longitude": "-89.98211556236512"
    }
  },
  {
    "service_request": "2024-1101923",
    "request_type": "Roads/Drainage",
    "request_reason": "Man hole cover issue",
    "date_created": "2024-06-10T15:21:20.000",
    "date_modified": "2024-06-10T16:12:32.000",
    "case_close_date": "2024-06-10T11:12:32.000",
    "request_status": "Closed",
    "responsible_agency": "Department of Public Works",
    "final_address": "4763 Camelot Dr",
    "address_councildis": "E",
    "status": "Wrong Agency",
    "contractor": "Waste Pro",
    "contractor_action": "Invalid Request",
    "rowid": "1101923",
    "final_x": "3708424.70596",
    "final_y": "555814.243545",
    "longitude": "-89.98214797709868",
    "latitude": "30.021450768141992",
    "geocoded_column": {
      "latitude": "30.021450768141992",
      "longitude": "-89.98214797709868"
    }
  },
  {
    "service_request": "2024-1101922",
    "request_type": "Trash/Recycling",
    "request_reason": "Request a Large Item Pick Up",
    "date_created": "2024-06-10T15:20:56.000",
    "date_modified": "2024-06-10T15:20:57.000",
    "request_status": "Pending",
    "responsible_agency": "Department of Sanitation",
    "final_address": "8421 Lomond Rd",
    "address_councildis": "E",
    "status": "Assigned to Contractor",
    "contractor": "Waste Pro",
    "rowid": "1101922",
    "final_x": "3703614.27556",
    "final_y": "562107.635231",
    "longitude": "-89.99711562106411",
    "latitude": "30.03891024172641",
    "geocoded_column": {
      "latitude": "30.03891024172641",
      "longitude": "-89.99711562106411"
    }
  },
  {
    "service_request": "2024-1101921",
    "request_type": "Trash/Recycling",
    "request_reason": "Repair Trash Cart",
    "date_created": "2024-06-10T15:20:40.000",
    "date_modified": "2024-06-10T15:20:40.000",
    "request_status": "Pending",
    "responsible_agency": "Department of Sanitation",
    "final_address": "4763 Camelot Dr",
    "address_councildis": "E",
    "status": "Assigned to Contractor",
    "contractor": "Waste Pro",
    "rowid": "1101921",
    "final_x": "3708424.70596",
    "final_y": "555814.243545",
    "longitude": "-89.98214797709868",
    "latitude": "30.021450768141992",
    "geocoded_column": {
      "latitude": "30.021450768141992",
      "longitude": "-89.98214797709868"
    }
  },
  {
    "service_request": "2024-1101920",
    "request_type": "Trash/Recycling",
    "request_reason": "Repair Trash Cart",
    "date_created": "2024-06-10T15:19:20.000",
    "date_modified": "2024-06-10T15:19:21.000",
    "request_status": "Pending",
    "responsible_agency": "Department of Sanitation",
    "final_address": "5860 Winchester Park Dr",
    "address_councildis": "E",
    "status": "Assigned to Contractor",
    "contractor": "Waste Pro",
    "rowid": "1101920",
    "final_x": "3714859.69304",
    "final_y": "562481.330847",
    "longitude": "-89.96156319906983",
    "latitude": "30.039572379295688",
    "geocoded_column": {
      "latitude": "30.039572379295688",
      "longitude": "-89.96156319906983"
    }
  },
  {
    "service_request": "2024-1101919",
    "request_type": "Trash/Recycling",
    "request_reason": "Order Recycling Cart",
    "date_created": "2024-06-10T15:19:16.000",
    "date_modified": "2024-06-10T15:19:16.000",
    "request_status": "Pending",
    "responsible_agency": "Department of Sanitation",
    "final_address": "4610 Knight Dr",
    "address_councildis": "E",
    "status": "Pending",
    "rowid": "1101919",
    "final_x": "3708150.91595",
    "final_y": "554654.325848",
    "longitude": "-89.98305626036985",
    "latitude": "30.018270319665955",
    "geocoded_column": {
      "latitude": "30.018270319665955",
      "longitude": "-89.98305626036985"
    }
  },
  {
    "service_request": "2024-1101917",
    "request_type": "Roads/Drainage",
    "request_reason": "Pothole",
    "date_created": "2024-06-10T15:17:54.000",
    "date_modified": "2024-06-10T15:17:54.000",
    "request_status": "Pending",
    "responsible_agency": "Department of Public Works",
    "final_address": "1312 Milan St",
    "address_councildis": "B",
    "status": "Pending",
    "rowid": "1101917",
    "final_x": "3671625.82823",
    "final_y": "520286.919608",
    "longitude": "-90.09963137110304",
    "latitude": "29.92490447494246",
    "geocoded_column": {
      "latitude": "29.92490447494246",
      "longitude": "-90.09963137110304"
    }
  },
  {
    "service_request": "2024-1101916",
    "request_type": "Trash/Recycling",
    "request_reason": "Request a Large Item Pick Up",
    "date_created": "2024-06-10T15:16:29.000",
    "date_modified": "2024-06-10T15:16:29.000",
    "request_status": "Pending",
    "responsible_agency": "Department of Sanitation",
    "final_address": "7828 Mercier St",
    "address_councildis": "E",
    "status": "Assigned to Contractor",
    "contractor": "Waste Pro",
    "rowid": "1101916",
    "final_x": "3710972.83921",
    "final_y": "567137.170212",
    "longitude": "-89.97367211454346",
    "latitude": "30.052501435261128",
    "geocoded_column": {
      "latitude": "30.052501435261128",
      "longitude": "-89.97367211454346"
    }
  },
  {
    "service_request": "2024-1101914",
    "request_type": "Trash/Recycling",
    "request_reason": "Request a Large Item Pick Up",
    "date_created": "2024-06-10T15:14:20.000",
    "date_modified": "2024-06-10T15:14:21.000",
    "request_status": "Pending",
    "responsible_agency": "Department of Sanitation",
    "final_address": "7343 Read Blvd",
    "address_councildis": "E",
    "status": "Assigned to Contractor",
    "contractor": "Waste Pro",
    "rowid": "1101914",
    "final_x": "3709306.2364",
    "final_y": "563243.791136",
    "longitude": "-89.97908515689079",
    "latitude": "30.041850478552938",
    "geocoded_column": {
      "latitude": "30.041850478552938",
      "longitude": "-89.97908515689079"
    }
  },
  {
    "service_request": "2024-1101915",
    "request_type": "Trash/Recycling",
    "request_reason": "Request a Large Item Pick Up",
    "date_created": "2024-06-10T15:14:20.000",
    "date_modified": "2024-06-10T15:14:21.000",
    "request_status": "Pending",
    "responsible_agency": "Department of Sanitation",
    "final_address": "7343 Read Blvd",
    "address_councildis": "E",
    "status": "Assigned to Contractor",
    "contractor": "Waste Pro",
    "rowid": "1101915",
    "final_x": "3709306.2364",
    "final_y": "563243.791136",
    "longitude": "-89.97908515689079",
    "latitude": "30.041850478552938",
    "geocoded_column": {
      "latitude": "30.041850478552938",
      "longitude": "-89.97908515689079"
    }
  },
  {
    "service_request": "2024-1101913",
    "request_type": "Parks & Parkways",
    "request_reason": "Request Grass Cutting Service (City Owned Property)",
    "date_created": "2024-06-10T15:13:21.000",
    "date_modified": "2024-06-10T15:13:21.000",
    "request_status": "Pending",
    "responsible_agency": "Department of Parks & Parkway",
    "final_address": "5631 N Villere St",
    "address_councildis": "E",
    "status": "Pending",
    "rowid": "1101913",
    "final_x": "3698595.41629",
    "final_y": "534870.918086",
    "longitude": "-90.01396764250983",
    "latitude": "29.964179387282",
    "geocoded_column": {
      "latitude": "29.964179387282",
      "longitude": "-90.01396764250983"
    }
  },
  {
    "service_request": "2024-1101912",
    "request_type": "Abandoned Vehicles",
    "request_reason": "Abandoned/Junk Vehicles",
    "date_created": "2024-06-10T15:09:05.000",
    "date_modified": "2024-06-10T15:09:05.000",
    "request_status": "Pending",
    "responsible_agency": "Department of Public Works",
    "final_address": "6106 Florida Ave",
    "address_councildis": "E",
    "status": "Inspected",
    "rowid": "1101912",
    "final_x": "3701924.17885",
    "final_y": "538940.094026",
    "longitude": "-90.0033066123546",
    "latitude": "29.975262337106326",
    "geocoded_column": {
      "latitude": "29.975262337106326",
      "longitude": "-90.0033066123546"
    }
  },
  {
    "service_request": "2024-1101911",
    "request_type": "Property Maintenance",
    "request_reason": "Property Maintenance",
    "date_created": "2024-06-10T15:07:07.000",
    "date_modified": "2024-06-10T15:16:47.000",
    "case_close_date": "2024-06-10T10:16:47.000",
    "request_status": "Closed",
    "responsible_agency": "Department of Sanitation",
    "final_address": "4758 Baccich St",
    "address_councildis": "D",
    "status": "Wrong Agency",
    "rowid": "1101911",
    "final_x": "3687669.01443",
    "final_y": "550827.457813",
    "longitude": "-90.04790691905524",
    "latitude": "30.008395594103053",
    "geocoded_column": {
      "latitude": "30.008395594103053",
      "longitude": "-90.04790691905524"
    }
  },
  {
    "service_request": "2024-1101910",
    "request_type": "Trash/Recycling",
    "request_reason": "Request a Large Item Pick Up",
    "date_created": "2024-06-10T15:05:10.000",
    "date_modified": "2024-06-10T15:05:10.000",
    "request_status": "Pending",
    "responsible_agency": "Department of Sanitation",
    "final_address": "1515 Monroe St",
    "address_councildis": "A",
    "status": "Assigned to Contractor",
    "contractor": "IV Waste",
    "rowid": "1101910",
    "final_x": "3661226.28538",
    "final_y": "530675.486402",
    "longitude": "-90.13211571114441",
    "latitude": "29.953773529272112",
    "geocoded_column": {
      "latitude": "29.953773529272112",
      "longitude": "-90.13211571114441"
    }
  },
  {
    "service_request": "2024-1101909",
    "request_type": "Trash/Recycling",
    "request_reason": "Request a Large Item Pick Up",
    "date_created": "2024-06-10T15:04:09.000",
    "date_modified": "2024-06-10T15:04:10.000",
    "request_status": "Pending",
    "responsible_agency": "Department of Sanitation",
    "final_address": "4758 Read Blvd",
    "address_councildis": "E",
    "status": "Assigned to Contractor",
    "contractor": "Waste Pro",
    "rowid": "1101909",
    "final_x": "3712653.13093",
    "final_y": "556314.855258",
    "longitude": "-89.96876860729782",
    "latitude": "30.02268947370376",
    "geocoded_column": {
      "latitude": "30.02268947370376",
      "longitude": "-89.96876860729782"
    }
  },
  {
    "service_request": "2024-1101908",
    "request_type": "Trash/Recycling",
    "request_reason": "Dead Animal Pick Up",
    "date_created": "2024-06-10T15:03:48.000",
    "date_modified": "2024-06-10T15:03:48.000",
    "request_status": "Pending",
    "responsible_agency": "Department of Sanitation",
    "final_address": "7225 Chef Menteur Hwy",
    "address_councildis": "E",
    "status": "Assigned to Contractor",
    "contractor": "Waste Pro",
    "rowid": "1101908",
    "final_x": "3701655.36669",
    "final_y": "552441.093078",
    "longitude": "-90.00366078154934",
    "latitude": "30.01239364236224",
    "geocoded_column": {
      "latitude": "30.01239364236224",
      "longitude": "-90.00366078154934"
    }
  },
  {
    "service_request": "2024-1101907",
    "request_type": "Property Maintenance",
    "request_reason": "Property Maintenance",
    "date_created": "2024-06-10T15:03:07.000",
    "date_modified": "2024-06-10T15:08:19.000",
    "case_close_date": "2024-06-10T10:08:19.000",
    "request_status": "Closed",
    "responsible_agency": "Department of Code Enforcement",
    "final_address": "10218 Hammond St",
    "address_councildis": "E",
    "status": "Referred to Code Enforcement",
    "rowid": "1101907",
    "final_x": "3713294.32344",
    "final_y": "556370.326362",
    "longitude": "-89.96674051948061",
    "latitude": "30.022820985994095",
    "geocoded_column": {
      "latitude": "30.022820985994095",
      "longitude": "-89.96674051948061"
    }
  },
  {
    "service_request": "2024-1101906",
    "request_type": "Property Maintenance",
    "request_reason": "Property Maintenance",
    "date_created": "2024-06-10T15:01:39.000",
    "date_modified": "2024-06-10T15:23:28.000",
    "case_close_date": "2024-06-10T10:23:28.000",
    "request_status": "Closed",
    "responsible_agency": "Department of Code Enforcement",
    "final_address": "3127 Piety St",
    "address_councildis": "D",
    "status": "Referred to Code Enforcement",
    "rowid": "1101906",
    "final_x": "3691909.12182",
    "final_y": "543916.030798",
    "longitude": "-90.03475859662028",
    "latitude": "29.98926022271714",
    "geocoded_column": {
      "latitude": "29.98926022271714",
      "longitude": "-90.03475859662028"
    }
  },
  {
    "service_request": "2024-1101905",
    "request_type": "Roads/Drainage",
    "request_reason": "Pothole",
    "date_created": "2024-06-10T15:00:33.000",
    "date_modified": "2024-06-10T15:00:34.000",
    "request_status": "Pending",
    "responsible_agency": "Department of Public Works",
    "final_address": "2 Westpark Ct",
    "address_councildis": "C",
    "status": "Pending",
    "rowid": "1101905",
    "final_x": "3696111.53507",
    "final_y": "521705.524281",
    "longitude": "-90.02228718050897",
    "latitude": "29.928057543703442",
    "geocoded_column": {
      "latitude": "29.928057543703442",
      "longitude": "-90.02228718050897"
    }
  },
  {
    "service_request": "2024-1101904",
    "request_type": "Abandoned Vehicles",
    "request_reason": "Abandoned/Junk Vehicles",
    "date_created": "2024-06-10T15:00:03.000",
    "date_modified": "2024-06-10T15:00:05.000",
    "request_status": "Pending",
    "responsible_agency": "Department of Public Works",
    "final_address": "3200 Louisiana Avenue Prkwy",
    "address_councildis": "B",
    "status": "Pending",
    "rowid": "1101904",
    "final_x": "3671880.30932",
    "final_y": "526908.28019",
    "longitude": "-90.098602826571",
    "latitude": "29.94310354077171",
    "geocoded_column": {
      "latitude": "29.94310354077171",
      "longitude": "-90.098602826571"
    }
  },
  {
    "service_request": "2024-1101902",
    "request_type": "Abandoned Vehicles",
    "request_reason": "Abandoned/Junk Vehicles",
    "date_created": "2024-06-10T14:53:48.000",
    "date_modified": "2024-06-10T14:53:48.000",
    "request_status": "Closed",
    "responsible_agency": "Department of Public Works",
    "final_address": "2000 BLK Lamanche St",
    "address_councildis": "E",
    "status": "Inspected",
    "rowid": "1101902",
    "final_x": "3699318.51668",
    "final_y": "537231.226834",
    "longitude": "-90.01159818919011",
    "latitude": "29.970646475505447",
    "geocoded_column": {
      "latitude": "29.970646475505447",
      "longitude": "-90.01159818919011"
    }
  },
  {
    "service_request": "2024-1101901",
    "request_type": "Property Maintenance",
    "request_reason": "Property Maintenance",
    "date_created": "2024-06-10T14:51:43.000",
    "date_modified": "2024-06-10T15:03:47.000",
    "case_close_date": "2024-06-10T10:03:47.000",
    "request_status": "Closed",
    "responsible_agency": "Department of Code Enforcement",
    "final_address": "4735 Warren Dr",
    "address_councildis": "E",
    "status": "Referred to Code Enforcement",
    "rowid": "1101901",
    "final_x": "3713531.44159",
    "final_y": "556259.939418",
    "longitude": "-89.96599545061848",
    "latitude": "30.022509687381667",
    "geocoded_column": {
      "latitude": "30.022509687381667",
      "longitude": "-89.96599545061848"
    }
  },
  {
    "service_request": "2024-1101900",
    "request_type": "Parks & Parkways",
    "request_reason": "Request Tree Service (Right of Way/Public Property)",
    "date_created": "2024-06-10T14:48:15.000",
    "date_modified": "2024-06-10T14:48:16.000",
    "request_status": "Pending",
    "responsible_agency": "Department of Parks & Parkway",
    "final_address": "8017 Vanderkloot Ave",
    "address_councildis": "E",
    "status": "Pending",
    "rowid": "1101900",
    "final_x": "3705350.45278",
    "final_y": "564389.600801",
    "longitude": "-89.99154440849335",
    "latitude": "30.04512895932889",
    "geocoded_column": {
      "latitude": "30.04512895932889",
      "longitude": "-89.99154440849335"
    }
  },
  {
    "service_request": "2024-1101899",
    "request_type": "Roads/Drainage",
    "request_reason": "Catch Basin - Clogged",
    "date_created": "2024-06-10T14:46:53.000",
    "date_modified": "2024-06-10T14:46:53.000",
    "request_status": "Pending",
    "responsible_agency": "Department of Public Works",
    "final_address": "1769 N Dorgenois St",
    "address_councildis": "D",
    "status": "Pending",
    "rowid": "1101899",
    "final_x": "3680311.26095",
    "final_y": "540875.788299",
    "longitude": "-90.0714986021677",
    "latitude": "29.981256929848847",
    "geocoded_column": {
      "latitude": "29.981256929848847",
      "longitude": "-90.0714986021677"
    }
  },
  {
    "service_request": "2024-1101898",
    "request_type": "Abandoned Vehicles",
    "request_reason": "Abandoned/Junk Vehicles",
    "date_created": "2024-06-10T14:46:10.000",
    "date_modified": "2024-06-10T14:46:10.000",
    "request_status": "Pending",
    "responsible_agency": "Department of Public Works",
    "final_address": "4401 Majestic Oaks Dr",
    "address_councildis": "D",
    "status": "Pending",
    "rowid": "1101898",
    "final_x": "3698013.59946",
    "final_y": "552436.647382",
    "longitude": "-90.01516682565902",
    "latitude": "30.012497116015457",
    "geocoded_column": {
      "latitude": "30.012497116015457",
      "longitude": "-90.01516682565902"
    }
  },
  {
    "service_request": "2024-1101897",
    "request_type": "Property Maintenance",
    "request_reason": "Property Maintenance",
    "date_created": "2024-06-10T14:43:47.000",
    "date_modified": "2024-06-10T15:21:05.000",
    "case_close_date": "2024-06-10T10:21:06.000",
    "request_status": "Closed",
    "responsible_agency": "Department of Code Enforcement",
    "final_address": "FELICITY ST & MAGAZINE ST & HASTINGS PL",
    "address_councildis": "B",
    "status": "Invalid Request",
    "contractor_action": "Additional information required from resident",
    "rowid": "1101897",
    "final_x": "3680009.0",
    "final_y": "523037.78",
    "longitude": "-90.07307294499881",
    "latitude": "29.932217592387683",
    "geocoded_column": {
      "latitude": "29.932217592387683",
      "longitude": "-90.07307294499881"
    }
  },
  {
    "service_request": "2024-1101896",
    "request_type": "Abandoned Vehicles",
    "request_reason": "Abandoned/Junk Vehicles",
    "date_created": "2024-06-10T14:42:03.000",
    "date_modified": "2024-06-10T14:42:03.000",
    "request_status": "Pending",
    "responsible_agency": "Department of Public Works",
    "final_address": "2000 BLK Saint Ann St",
    "address_councildis": "D",
    "status": "Pending",
    "rowid": "1101896",
    "final_x": "3678989.60852",
    "final_y": "535645.546607",
    "longitude": "-90.07585427223147",
    "latitude": "29.966915519285468",
    "geocoded_column": {
      "latitude": "29.966915519285468",
      "longitude": "-90.07585427223147"
    }
  },
  {
    "service_request": "2024-1101895",
    "request_type": "Trash/Recycling",
    "request_reason": "Repair Trash Cart",
    "date_created": "2024-06-10T14:41:04.000",
    "date_modified": "2024-06-10T14:41:04.000",
    "request_status": "Pending",
    "responsible_agency": "Department of Sanitation",
    "final_address": "4562 Lynhuber Dr",
    "address_councildis": "D",
    "status": "Assigned to Contractor",
    "contractor": "Waste Pro",
    "rowid": "1101895",
    "final_x": "3698042.0545",
    "final_y": "553430.861655",
    "longitude": "-90.01504078494662",
    "latitude": "30.015229930310365",
    "geocoded_column": {
      "latitude": "30.015229930310365",
      "longitude": "-90.01504078494662"
    }
  },
  {
    "service_request": "2024-1101894",
    "request_type": "Trash/Recycling",
    "request_reason": "Replace Trash Cart",
    "date_created": "2024-06-10T14:40:53.000",
    "date_modified": "2024-06-10T14:40:53.000",
    "request_status": "Pending",
    "responsible_agency": "Department of Sanitation",
    "final_address": "2901 Esplanade Ave",
    "address_councildis": "A",
    "status": "Assigned to Contractor",
    "contractor": "IV Waste",
    "rowid": "1101894",
    "final_x": "3677176.93301",
    "final_y": "539870.717386",
    "longitude": "-90.08143292578238",
    "latitude": "29.978587866925167",
    "geocoded_column": {
      "latitude": "29.978587866925167",
      "longitude": "-90.08143292578238"
    }
  },
  {
    "service_request": "2024-1101893",
    "request_type": "Trash/Recycling",
    "request_reason": "Repair Trash Cart",
    "date_created": "2024-06-10T14:40:46.000",
    "date_modified": "2024-06-10T14:40:47.000",
    "request_status": "Pending",
    "responsible_agency": "Department of Sanitation",
    "final_address": "4560 Lynhuber Dr",
    "address_councildis": "D",
    "status": "Assigned to Contractor",
    "contractor": "Waste Pro",
    "rowid": "1101893",
    "final_x": "3698043.70602",
    "final_y": "553417.742039",
    "longitude": "-90.01503604385358",
    "latitude": "30.015193804075217",
    "geocoded_column": {
      "latitude": "30.015193804075217",
      "longitude": "-90.01503604385358"
    }
  },
  {
    "service_request": "2024-1101892",
    "request_type": "Trash/Recycling",
    "request_reason": "Replace Trash Cart",
    "date_created": "2024-06-10T14:39:24.000",
    "date_modified": "2024-06-10T14:39:25.000",
    "request_status": "Pending",
    "responsible_agency": "Department of Sanitation",
    "final_address": "1710 Old Prieur St",
    "address_councildis": "D",
    "status": "Assigned to Contractor",
    "contractor": "IV Waste",
    "rowid": "1101892",
    "final_x": "3681892.51375",
    "final_y": "539061.429322",
    "longitude": "-90.06656764344551",
    "latitude": "29.976220099918635",
    "geocoded_column": {
      "latitude": "29.976220099918635",
      "longitude": "-90.06656764344551"
    }
  },
  {
    "service_request": "2024-1101891",
    "request_type": "Trash/Recycling",
    "request_reason": "Missed Trash Pick-Up",
    "date_created": "2024-06-10T14:36:40.000",
    "date_modified": "2024-06-10T14:36:41.000",
    "request_status": "Pending",
    "responsible_agency": "Department of Sanitation",
    "final_address": "7575 Kingsport Blvd, New Orleans, Louisiana, 70128",
    "address_councildis": "E",
    "status": "Assigned to Contractor",
    "contractor": "Waste Pro",
    "rowid": "1101891",
    "final_x": "3720287.45132",
    "final_y": "572893.451945",
    "longitude": "-89.94401109237407",
    "latitude": "30.068021605962954",
    "geocoded_column": {
      "latitude": "30.068021605962954",
      "longitude": "-89.94401109237407"
    }
  },
  {
    "service_request": "2024-1101890",
    "request_type": "Trash/Recycling",
    "request_reason": "Request a Large Item Pick Up",
    "date_created": "2024-06-10T14:36:38.000",
    "date_modified": "2024-06-10T14:36:39.000",
    "request_status": "Pending",
    "responsible_agency": "Department of Sanitation",
    "final_address": "7153 Bunker Hill Rd",
    "address_councildis": "E",
    "status": "Assigned to Contractor",
    "contractor": "Waste Pro",
    "rowid": "1101890",
    "final_x": "3705661.63249",
    "final_y": "561021.870366",
    "longitude": "-89.99068565718676",
    "latitude": "30.035859009657194",
    "geocoded_column": {
      "latitude": "30.035859009657194",
      "longitude": "-89.99068565718676"
    }
  },
  {
    "service_request": "2024-1101889",
    "request_type": "Traffic Signals/Signs/Striping/Streetlights",
    "request_reason": "Additional signage",
    "date_created": "2024-06-10T14:36:33.000",
    "date_modified": "2024-06-10T14:36:33.000",
    "request_status": "Pending",
    "responsible_agency": "Department of Public Works",
    "final_address": "0 BLK Spanish Fort Blvd",
    "address_councildis": "D",
    "status": "Pending",
    "rowid": "1101889",
    "final_x": "3674225.78176",
    "final_y": "555235.571075",
    "longitude": "-90.09022729642957",
    "latitude": "30.02092415026559",
    "geocoded_column": {
      "latitude": "30.02092415026559",
      "longitude": "-90.09022729642957"
    }
  },
  {
    "service_request": "2024-1101888",
    "request_type": "Roads/Drainage",
    "request_reason": "Catch Basin - Clogged",
    "date_created": "2024-06-10T14:35:29.000",
    "date_modified": "2024-06-10T14:35:29.000",
    "request_status": "Pending",
    "responsible_agency": "Department of Public Works",
    "final_address": "100 Berkley Dr",
    "address_councildis": "C",
    "status": "Pending",
    "rowid": "1101888",
    "final_x": "3705581.19825",
    "final_y": "518235.600822",
    "longitude": "-89.9925220344475",
    "latitude": "29.918215138528716",
    "geocoded_column": {
      "latitude": "29.918215138528716",
      "longitude": "-89.9925220344475"
    }
  },
  {
    "service_request": "2024-1101887",
    "request_type": "Trash/Recycling",
    "request_reason": "Return Recycling Cart",
    "date_created": "2024-06-10T14:35:08.000",
    "date_modified": "2024-06-10T14:35:40.000",
    "request_status": "Pending",
    "responsible_agency": "Department of Sanitation",
    "final_address": "7421 Fieldston Rd",
    "address_councildis": "E",
    "status": "Pending",
    "rowid": "1101887",
    "final_x": "3700761.98794",
    "final_y": "560085.425949",
    "longitude": "-90.00620361079929",
    "latitude": "30.03344110245042",
    "geocoded_column": {
      "latitude": "30.03344110245042",
      "longitude": "-90.00620361079929"
    }
  },
  {
    "service_request": "2024-1101886",
    "request_type": "Abandoned Vehicles",
    "request_reason": "Abandoned/Junk Vehicles",
    "date_created": "2024-06-10T14:32:20.000",
    "date_modified": "2024-06-10T14:32:20.000",
    "request_status": "Pending",
    "responsible_agency": "Department of Public Works",
    "final_address": "4719 Eunice Dr",
    "address_councildis": "E",
    "status": "Pending",
    "rowid": "1101886",
    "final_x": "3710634.78769",
    "final_y": "555602.981657",
    "longitude": "-89.97517270086345",
    "latitude": "30.020798036089847",
    "geocoded_column": {
      "latitude": "30.020798036089847",
      "longitude": "-89.97517270086345"
    }
  },
  {
    "service_request": "2024-1101885",
    "request_type": "Abandoned Vehicles",
    "request_reason": "Abandoned/Junk Vehicles",
    "date_created": "2024-06-10T14:30:39.000",
    "date_modified": "2024-06-10T14:30:39.000",
    "request_status": "Pending",
    "responsible_agency": "Department of Public Works",
    "final_address": "4719 Eunice Dr",
    "address_councildis": "E",
    "status": "Pending",
    "rowid": "1101885",
    "final_x": "3710634.78769",
    "final_y": "555602.981657",
    "longitude": "-89.97517270086345",
    "latitude": "30.020798036089847",
    "geocoded_column": {
      "latitude": "30.020798036089847",
      "longitude": "-89.97517270086345"
    }
  },
  {
    "service_request": "2024-1101884",
    "request_type": "Trash/Recycling",
    "request_reason": "Repair Trash Cart",
    "date_created": "2024-06-10T14:30:16.000",
    "date_modified": "2024-06-10T14:30:17.000",
    "request_status": "Pending",
    "responsible_agency": "Department of Sanitation",
    "final_address": "709 S Solomon St",
    "address_councildis": "A",
    "status": "Assigned to Contractor",
    "contractor": "IV Waste",
    "rowid": "1101884",
    "final_x": "3669083.78689",
    "final_y": "536799.765128",
    "longitude": "-90.10709795677099",
    "latitude": "29.970384430472834",
    "geocoded_column": {
      "latitude": "29.970384430472834",
      "longitude": "-90.10709795677099"
    }
  },
  {
    "service_request": "2024-1101883",
    "request_type": "Property Maintenance",
    "request_reason": "Property Maintenance",
    "date_created": "2024-06-10T14:29:56.000",
    "date_modified": "2024-06-10T14:29:56.000",
    "request_status": "Pending",
    "responsible_agency": "Department of Code Enforcement",
    "final_address": "8038 Edgelake Ct",
    "address_councildis": "E",
    "status": "Pending",
    "rowid": "1101883",
    "final_x": "3702134.67837",
    "final_y": "562510.527327",
    "longitude": "-90.00177673502907",
    "latitude": "30.040065396756898",
    "geocoded_column": {
      "latitude": "30.040065396756898",
      "longitude": "-90.00177673502907"
    }
  },
  {
    "service_request": "2024-1101882",
    "request_type": "Trash/Recycling",
    "request_reason": "Request a Large Item Pick Up",
    "date_created": "2024-06-10T14:29:50.000",
    "date_modified": "2024-06-10T14:29:50.000",
    "request_status": "Pending",
    "responsible_agency": "Department of Sanitation",
    "final_address": "4450 San Marco Rd",
    "address_councildis": "E",
    "status": "Assigned to Contractor",
    "contractor": "Waste Pro",
    "rowid": "1101882",
    "final_x": "3762425.5656",
    "final_y": "573051.882985",
    "longitude": "-89.81080092827833",
    "latitude": "30.06698504581771",
    "geocoded_column": {
      "latitude": "30.06698504581771",
      "longitude": "-89.81080092827833"
    }
  },