[
  {
    "service_request": "2022-900292",
    "request_type": "Abandoned Vehicles",
    "request_reason": "Abandoned/Junk Vehicles",
    "date_created": "2022-07-15T00:51:27.000",
    "date_modified": "2022-07-15T00:51:27.000",
    "request_status": "Pending",
    "responsible_agency": "Department of Public Works",
    "final_address": "429 Florida Blvd",
    "address_councildis": "A",
    "status": "Pending",
    "rowid": "900292",
    "final_x": "3667543.72148",
    "final_y": "545585.171984",
    "longitude": "-90.11166585723004",
    "latitude": "29.994586555224554",
    "geocoded_column": {
      "latitude": "29.994586555224554",
      "longitude": "-90.11166585723004"
    }
  },
  {
    "service_request": "2022-900291",
    "request_type": "Safety & Permits",
    "request_reason": "Licenses & Permits",
    "date_created": "2022-07-15T00:15:01.000",
    "date_modified": "2022-07-15T00:15:01.000",
    "request_status": "Pending",
    "responsible_agency": "Safety and Permits",
    "final_address": "5423 N Claiborne Ave",
    "address_councildis": "E",
    "status": "Pending",
    "rowid": "900291",
    "final_x": "3697889.62455",
    "final_y": "535862.912455",
    "longitude": "-90.01616044935164",
    "latitude": "29.966929344586255",
    "geocoded_column": {
      "latitude": "29.966929344586255",
      "longitude": "-90.01616044935164"
    }
  },
  {
    "service_request": "2022-900290",
    "request_type": "Traffic Signals/Signs/Striping/Streetlights",
    "request_reason": "Street Light Outage/Malfunction",
    "date_created": "2022-07-14T23:26:49.000",
    "date_modified": "2022-07-14T23:26:50.000",
    "request_status": "Pending",
    "responsible_agency": "Department of Public Works",
    "final_address": "1103 Monroe St",
    "address_councildis": "A",
    "status": "Pending",
    "contractor": "Royal Engineering",
    "rowid": "900290",
    "final_x": "3660200.99667",
    "final_y": "529553.036225",
    "longitude": "-90.13539021999439",
    "latitude": "29.95071666573139",
    "geocoded_column": {
      "latitude": "29.95071666573139",
      "longitude": "-90.13539021999439"
    }
  },
  {
    "service_request": "2022-900289",
    "request_type": "Traffic Signals/Signs/Striping/Streetlights",
    "request_reason": "Street Light Outage/Malfunction",
    "date_created": "2022-07-14T22:38:32.000",
    "date_modified": "2022-07-14T22:38:32.000",
    "request_status": "Pending",
    "responsible_agency": "Department of Public Works",
    "final_address": "430 S Alexander St, New Orleans, Louisiana, 70119",
    "address_councildis": "A",
    "status": "Pending",
    "contractor": "Royal Engineering",
    "rowid": "900289",
    "final_x": "3669103.1081",
    "final_y": "537945.629769",
    "longitude": "-90.10699820817818",
    "latitude": "29.97353460548312",
    "geocoded_column": {
      "latitude": "29.97353460548312",
      "longitude": "-90.10699820817818"
    }
  },
  {
    "service_request": "2022-900288",
    "request_type": "Trash/Recycling",
    "request_reason": "Missed Trash Pick-Up",
    "date_created": "2022-07-14T22:03:53.000",
    "date_modified": "2022-07-14T22:03:54.000",
    "request_status": "Pending",
    "responsible_agency": "Department of Sanitation",
    "final_address": "815 Alvar St",
    "address_councildis": "C",
    "status": "Assigned to Contractor",
    "contractor": "Metro Disposal",
    "rowid": "900288",
    "final_x": "3691271.06576",
    "final_y": "534364.009669",
    "longitude": "-90.03711533961227",
    "latitude": "29.963015427565928",
    "geocoded_column": {
      "latitude": "29.963015427565928",
      "longitude": "-90.03711533961227"
    }
  },
  {
    "service_request": "2022-900287",
    "request_type": "Mosquito, Termite & Rodent Control",
    "request_reason": "Mosquito Complaint",
    "date_created": "2022-07-14T21:52:16.000",
    "date_modified": "2022-07-14T21:52:16.000",
    "request_status": "Pending",
    "responsible_agency": "Mosquito, Termite & Rodent Control Board",
    "final_address": "1405 Port St",
    "address_councildis": "C",
    "status": "Pending",
    "rowid": "900287",
    "final_x": "3687742.72675",
    "final_y": "537551.0594",
    "longitude": "-90.04814449153506",
    "latitude": "29.971887979853733",
    "geocoded_column": {
      "latitude": "29.971887979853733",
      "longitude": "-90.04814449153506"
    }
  },
  {
    "service_request": "2022-900286",
    "request_type": "Traffic Signals/Signs/Striping/Streetlights",
    "request_reason": "Street Light Outage/Malfunction",
    "date_created": "2022-07-14T21:51:19.000",
    "date_modified": "2022-07-14T21:51:20.000",
    "request_status": "Pending",
    "responsible_agency": "Department of Public Works",
    "final_address": "2452 N Rampart St",
    "address_councildis": "C",
    "status": "Pending",
    "contractor": "Royal Engineering",
    "rowid": "900286",
    "final_x": "3686267.21366",
    "final_y": "536011.438023",
    "longitude": "-90.05285872279256",
    "latitude": "29.96769998089583",
    "geocoded_column": {
      "latitude": "29.96769998089583",
      "longitude": "-90.05285872279256"
    }
  },
  {
    "service_request": "2022-900285",
    "request_type": "Traffic Signals/Signs/Striping/Streetlights",
    "request_reason": "Street Light Outage/Malfunction",
    "date_created": "2022-07-14T21:47:31.000",
    "date_modified": "2022-07-14T21:47:32.000",
    "request_status": "Pending",
    "responsible_agency": "Department of Public Works",
    "final_address": "3772 Silver Maple Ct",
    "address_councildis": "C",
    "status": "Pending",
    "contractor": "Royal Engineering",
    "rowid": "900285",
    "final_x": "3703629.24273",
    "final_y": "512674.552113",
    "longitude": "-89.99888768305408",
    "latitude": "29.902986815742096",
    "geocoded_column": {
      "latitude": "29.902986815742096",
      "longitude": "-89.99888768305408"
    }
  },
  {
    "service_request": "2022-900284",
    "request_type": "Trash/Recycling",
    "request_reason": "Illegal Dumping",
    "date_created": "2022-07-14T21:10:27.000",
    "date_modified": "2022-07-14T21:10:27.000",
    "request_status": "Pending",
    "responsible_agency": "Department of Sanitation",
    "final_address": "1179 Magazine St",
    "address_councildis": "B",
    "status": "Pending",
    "rowid": "900284",
    "final_x": "3680610.14018",
    "final_y": "525664.022013",
    "longitude": "-90.07108387351795",
    "latitude": "29.939420695110382",
    "geocoded_column": {
      "latitude": "29.939420695110382",
      "longitude": "-90.07108387351795"
    }
  },
  {
    "service_request": "2022-900283",
    "request_type": "Taxi Issues",
    "request_reason": "Taxi Lost & Found Item",
    "date_created": "2022-07-14T21:06:32.000",
    "date_modified": "2022-07-14T21:06:32.000",
    "request_status": "Pending",
    "responsible_agency": "Ground Transportation Bureau",
    "status": "Pending",
    "rowid": "900283",
    "longitude": "0.0",
    "latitude": "0.0",
    "geocoded_column": {
      "latitude": "0.0",
      "longitude": "0.0"
    }
  },
  {
    "service_request": "2022-900282",
    "request_type": "Property Maintenance",
    "request_reason": "Property Maintenance",
    "date_created": "2022-07-14T20:49:07.000",
    "date_modified": "2022-07-14T20:49:07.000",
    "request_status": "Pending",
    "responsible_agency": "Department of Code Enforcement",
    "final_address": "5725 General Diaz St",
    "address_councildis": "A",
    "status": "Pending",
    "rowid": "900282",
    "final_x": "3669446.8521",
    "final_y": "545532.28456",
    "longitude": "-90.10565587359483",
    "latitude": "29.994385203381093",
    "geocoded_column": {
      "latitude": "29.994385203381093",
      "longitude": "-90.10565587359483"
    }
  },
  {
    "service_request": "2022-900281",
    "request_type": "Traffic Signals/Signs/Striping/Streetlights",
    "request_reason": "Street Light Outage/Malfunction",
    "date_created": "2022-07-14T20:30:22.000",
    "date_modified": "2022-07-14T20:30:23.000",
    "request_status": "Pending",
    "responsible_agency": "Department of Public Works",
    "final_address": "7548 Avalon Way",
    "address_councildis": "E",
    "status": "Pending",
    "contractor": "Royal Engineering",
    "rowid": "900281",
    "final_x": "3709167.65073",
    "final_y": "564259.161889",
    "longitude": "-89.9794852206957",
    "latitude": "30.044646844952634",
    "geocoded_column": {
      "latitude": "30.044646844952634",
      "longitude": "-89.9794852206957"
    }
  },
  {
    "service_request": "2022-900280",
    "request_type": "Abandoned Vehicles",
    "request_reason": "Abandoned/Junk Vehicles",
    "date_created": "2022-07-14T20:18:41.000",
    "date_modified": "2022-07-14T20:18:41.000",
    "request_status": "Pending",
    "responsible_agency": "Department of Public Works",
    "status": "Pending",
    "rowid": "900280",
    "longitude": "0.0",
    "latitude": "0.0",
    "geocoded_column": {
      "latitude": "0.0",
      "longitude": "0.0"
    }
  },
  {
    "service_request": "2022-900279",
    "request_type": "Trash/Recycling",
    "request_reason": "MIssed Recycling Pick-Up",
    "date_created": "2022-07-14T20:10:19.000",
    "date_modified": "2022-07-14T20:10:20.000",
    "request_status": "Pending",
    "responsible_agency": "Department of Sanitation",
    "final_address": "4913 Constance St",
    "address_councildis": "B",
    "status": "Assigned to Contractor",
    "contractor": "Richards Disposal",
    "rowid": "900279",
    "final_x": "3668860.43828",
    "final_y": "518246.404982",
    "longitude": "-90.1084296847542",
    "latitude": "29.919375285515766",
    "geocoded_column": {
      "latitude": "29.919375285515766",
      "longitude": "-90.1084296847542"
    }
  },
  {
    "service_request": "2022-900278",
    "request_type": "Trash/Recycling",
    "request_reason": "Request a Large Item Pick Up",
    "date_created": "2022-07-14T20:03:43.000",
    "date_modified": "2022-07-14T20:03:44.000",
    "request_status": "Pending",
    "responsible_agency": "Department of Sanitation",
    "final_address": "811 Leontine St",
    "address_councildis": "B",
    "status": "Assigned to Contractor",
    "contractor": "Richards Disposal",
    "rowid": "900278",
    "final_x": "3667171.83841",
    "final_y": "518418.213558",
    "longitude": "-90.11375399286145",
    "latitude": "29.919897231969262",
    "geocoded_column": {
      "latitude": "29.919897231969262",
      "longitude": "-90.11375399286145"
    }
  },
  {
    "service_request": "2022-900277",
    "request_type": "Trash/Recycling",
    "request_reason": "Replace Recycling Cart",
    "date_created": "2022-07-14T20:01:11.000",
    "date_modified": "2022-07-14T20:01:11.000",
    "request_status": "Pending",
    "responsible_agency": "Department of Sanitation",
    "final_address": "200 Alonzo St",
    "address_councildis": "A",
    "status": "Pending",
    "rowid": "900277",
    "final_x": "3664456.84813",
    "final_y": "517096.615925",
    "longitude": "-90.12236802251839",
    "latitude": "29.916342428615057",
    "geocoded_column": {
      "latitude": "29.916342428615057",
      "longitude": "-90.12236802251839"
    }
  },
  {
    "service_request": "2022-900276",
    "request_type": "Trash/Recycling",
    "request_reason": "Request a Large Item Pick Up",
    "date_created": "2022-07-14T20:00:14.000",
    "date_modified": "2022-07-14T20:00:15.000",
    "request_status": "Pending",
    "responsible_agency": "Department of Sanitation",
    "final_address": "1033 S Genois St",
    "address_councildis": "B",
    "status": "Assigned to Contractor",
    "contractor": "Richards Disposal",
    "rowid": "900276",
    "final_x": "3669873.07425",
    "final_y": "533512.237508",
    "longitude": "-90.1047166168132",
    "latitude": "29.961321576884696",
    "geocoded_column": {
      "latitude": "29.961321576884696",
      "longitude": "-90.1047166168132"
    }
  },
  {
    "service_request": "2022-900275",
    "request_type": "Traffic Signals/Signs/Striping/Streetlights",
    "request_reason": "Traffic Signal Malfunctioning/Damaged",
    "date_created": "2022-07-14T20:00:13.000",
    "date_modified": "2022-07-14T20:00:13.000",
    "request_status": "Pending",
    "responsible_agency": "Department of Public Works",
    "status": "Pending",
    "rowid": "900275",
    "longitude": "0.0",
    "latitude": "0.0",
    "geocoded_column": {
      "latitude": "0.0",
      "longitude": "0.0"
    }
  },
  {
    "service_request": "2022-900274",
    "request_type": "Traffic Signals/Signs/Striping/Streetlights",
    "request_reason": "Traffic Signal Malfunctioning/Damaged",
    "date_created": "2022-07-14T19:58:27.000",
    "date_modified": "2022-07-14T19:58:27.000",
    "request_status": "Pending",
    "responsible_agency": "Department of Public Works",
    "status": "Pending",
    "rowid": "900274",
    "longitude": "0.0",
    "latitude": "0.0",
    "geocoded_column": {
      "latitude": "0.0",
      "longitude": "0.0"
    }
  },
  {
    "service_request": "2022-900273",
    "request_type": "Trash/Recycling",
    "request_reason": "MIssed Recycling Pick-Up",
    "date_created": "2022-07-14T19:47:33.000",
    "date_modified": "2022-07-14T19:47:33.000",
    "request_status": "Pending",
    "responsible_agency": "Department of Sanitation",
    "final_address": "6220 Freret St",
    "address_councildis": "A",
    "status": "Assigned to Contractor",
    "contractor": "Richards Disposal",
    "rowid": "900273",
    "final_x": "3665733.71892",
    "final_y": "524645.390204",
    "longitude": "-90.11808498670464",
    "latitude": "29.93706200929093",
    "geocoded_column": {
      "latitude": "29.93706200929093",
      "longitude": "-90.11808498670464"
    }
  },
  {
    "service_request": "2022-900272",
    "request_type": "Trash/Recycling",
    "request_reason": "Missed Trash Pick-Up",
    "date_created": "2022-07-14T19:43:55.000",
    "date_modified": "2022-07-14T19:43:56.000",
    "request_status": "Pending",
    "responsible_agency": "Department of Sanitation",
    "final_address": "3319 N Johnson St",
    "address_councildis": "D",
    "status": "Assigned to Contractor",
    "contractor": "Metro Disposal",
    "rowid": "900272",
    "final_x": "3690844.84694",
    "final_y": "539175.225674",
    "longitude": "-90.03828956607107",
    "latitude": "29.97625782631307",
    "geocoded_column": {
      "latitude": "29.97625782631307",
      "longitude": "-90.03828956607107"
    }
  },
  {
    "service_request": "2022-900271",
    "request_type": "Trash/Recycling",
    "request_reason": "Missed Trash Pick-Up",
    "date_created": "2022-07-14T19:35:56.000",
    "date_modified": "2022-07-14T19:35:58.000",
    "request_status": "Pending",
    "responsible_agency": "Department of Sanitation",
    "status": "Assigned to Contractor",
    "rowid": "900271",
    "longitude": "0.0",
    "latitude": "0.0",
    "geocoded_column": {
      "latitude": "0.0",
      "longitude": "0.0"
    }
  },
  {
    "service_request": "2022-900270",
    "request_type": "Trash/Recycling",
    "request_reason": "MIssed Recycling Pick-Up",
    "date_created": "2022-07-14T19:29:44.000",
    "date_modified": "2022-07-14T19:29:45.000",
    "request_status": "Pending",
    "responsible_agency": "Department of Sanitation",
    "final_address": "4613 St Charles Ave",
    "address_councildis": "B",
    "status": "Assigned to Contractor",
    "contractor": "Richards Disposal",
    "rowid": "900270",
    "final_x": "3669951.66202",
    "final_y": "520897.834937",
    "longitude": "-90.10489550501012",
    "latitude": "29.926633755320253",
    "geocoded_column": {
      "latitude": "29.926633755320253",
      "longitude": "-90.10489550501012"
    }
  },
  {
    "service_request": "2022-900269",
    "request_type": "Traffic Signals/Signs/Striping/Streetlights",
    "request_reason": "Street Light Knocked Down/Leaning",
    "date_created": "2022-07-14T19:22:29.000",
    "date_modified": "2022-07-14T19:22:30.000",
    "request_status": "Pending",
    "responsible_agency": "Department of Public Works",
    "final_address": "7901 Devine Ave",
    "address_councildis": "E",
    "status": "Pending",
    "contractor": "Royal Engineering",
    "rowid": "900269",
    "final_x": "3705310.89745",
    "final_y": "563839.626145",
    "longitude": "-89.99168977325742",
    "latitude": "30.04361802092966",
    "geocoded_column": {
      "latitude": "30.04361802092966",
      "longitude": "-89.99168977325742"
    }
  },
  {
    "service_request": "2022-900268",
    "request_type": "Trash/Recycling",
    "request_reason": "Repair Recycling Cart",
    "date_created": "2022-07-14T19:22:14.000",
    "date_modified": "2022-07-14T19:22:14.000",
    "request_status": "Pending",
    "responsible_agency": "Department of Sanitation",
    "status": "Pending",
    "rowid": "900268",
    "longitude": "0.0",
    "latitude": "0.0",
    "geocoded_column": {
      "latitude": "0.0",
      "longitude": "0.0"
    }
  },
  {
    "service_request": "2022-900267",
    "request_type": "Traffic Signals/Signs/Striping/Streetlights",
    "request_reason": "Traffic Sign Missing/Damaged",
    "date_created": "2022-07-14T19:17:48.000",
    "date_modified": "2022-07-14T19:17:48.000",
    "request_status": "Pending",
    "responsible_agency": "Department of Public Works",
    "final_address": "7901 Devine Ave",
    "address_councildis": "E",
    "status": "Pending",
    "rowid": "900267",
    "final_x": "3705310.89745",
    "final_y": "563839.626145",
    "longitude": "-89.99168977325742",
    "latitude": "30.04361802092966",
    "geocoded_column": {
      "latitude": "30.04361802092966",
      "longitude": "-89.99168977325742"
    }
  },
  {
    "service_request": "2022-900266",
    "request_type": "Abandoned Vehicles",
    "request_reason": "Abandoned/Junk Vehicles",
    "date_created": "2022-07-14T19:15:05.000",
    "date_modified": "2022-07-14T19:15:05.000",
    "request_status": "Pending",
    "responsible_agency": "Department of Public Works",
    "final_address": "7900 Devine Ave",
    "address_councildis": "E",
    "status": "Pending",
    "rowid": "900266",
    "final_x": "3705180.57124",
    "final_y": "563762.683617",
    "longitude": "-89.99210450322346",
    "latitude": "30.043410654665667",
    "geocoded_column": {
      "latitude": "30.043410654665667",
      "longitude": "-89.99210450322346"
    }
  },
  {
    "service_request": "2022-900265",
    "request_type": "Trash/Recycling",
    "request_reason": "Missed Trash Pick-Up",
    "date_created": "2022-07-14T19:05:58.000",
    "date_modified": "2022-07-14T19:05:59.000",
    "request_status": "Pending",
    "responsible_agency": "Department of Sanitation",
    "final_address": "436 Hillary St",
    "address_councildis": "A",
    "status": "Assigned to Contractor",
    "contractor": "Richards Disposal",
    "rowid": "900265",
    "final_x": "3661579.62746",
    "final_y": "525337.631677",
    "longitude": "-90.13117682894404",
    "latitude": "29.93908594364971",
    "geocoded_column": {
      "latitude": "29.93908594364971",
      "longitude": "-90.13117682894404"
    }
  },
  {
    "service_request": "2022-900264",
    "request_type": "Roads/Drainage",
    "request_reason": "Street Flooding / Drainage",
    "date_created": "2022-07-14T18:59:46.000",
    "date_modified": "2022-07-14T18:59:46.000",
    "request_status": "Pending",
    "responsible_agency": "Department of Public Works",
    "final_address": "1747 Tchoupitoulas St",
    "address_councildis": "B",
    "status": "Pending",
    "rowid": "900264",
    "final_x": "3681889.09922",
    "final_y": "521463.536313",
    "longitude": "-90.06719257293379",
    "latitude": "29.927831948922478",
    "geocoded_column": {
      "latitude": "29.927831948922478",
      "longitude": "-90.06719257293379"
    }
  },
  {
    "service_request": "2022-900263",
    "request_type": "Abandoned Vehicles",
    "request_reason": "Abandoned/Junk Vehicles",
    "date_created": "2022-07-14T18:55:20.000",
    "date_modified": "2022-07-14T18:56:52.000",
    "request_status": "Pending",
    "responsible_agency": "Department of Public Works",
    "final_address": "636 Burdette St",
    "address_councildis": "A",
    "status": "Pending",
    "rowid": "900263",
    "final_x": "3661559.01926",
    "final_y": "526317.150334",
    "longitude": "-90.13120944820824",
    "latitude": "29.941779903805827",
    "geocoded_column": {
      "latitude": "29.941779903805827",
      "longitude": "-90.13120944820824"
    }
  },
  {
    "service_request": "2022-900262",
    "request_type": "Roads/Drainage",
    "request_reason": "Catch Basin - Clogged",
    "date_created": "2022-07-14T18:42:28.000",
    "date_modified": "2022-07-14T18:42:28.000",
    "request_status": "Pending",
    "responsible_agency": "Department of Public Works",
    "final_address": "511 Marigny St",
    "address_councildis": "C",
    "status": "Pending",
    "rowid": "900262",
    "final_x": "3685685.18006",
    "final_y": "534303.235909",
    "longitude": "-90.05475699102634",
    "latitude": "29.963020888370004",
    "geocoded_column": {
      "latitude": "29.963020888370004",
      "longitude": "-90.05475699102634"
    }
  },
  {
    "service_request": "2022-900261",
    "request_type": "Roads/Drainage",
    "request_reason": "Catch Basin - Broken/Damage",
    "date_created": "2022-07-14T18:37:34.000",
    "date_modified": "2022-07-14T18:37:34.000",
    "request_status": "Pending",
    "responsible_agency": "Department of Public Works",
    "final_address": "511 Marigny St",
    "address_councildis": "C",
    "status": "Pending",
    "rowid": "900261",
    "final_x": "3685685.18006",
    "final_y": "534303.235909",
    "longitude": "-90.05475699102634",
    "latitude": "29.963020888370004",
    "geocoded_column": {
      "latitude": "29.963020888370004",
      "longitude": "-90.05475699102634"
    }
  },
  {
    "service_request": "2022-900259",
    "request_type": "Roads/Drainage",
    "request_reason": "Catch Basin - Clogged",
    "date_created": "2022-07-14T18:35:20.000",
    "date_modified": "2022-07-14T18:35:20.000",
    "request_status": "Pending",
    "responsible_agency": "Department of Public Works",
    "final_address": "2115 Decatur St",
    "address_councildis": "C",
    "status": "Pending",
    "rowid": "900259",
    "final_x": "3684898.51484",
    "final_y": "534157.975429",
    "longitude": "-90.05724628809114",
    "latitude": "29.96264558501145",
    "geocoded_column": {
      "latitude": "29.96264558501145",
      "longitude": "-90.05724628809114"
    }
  },
  {
    "service_request": "2022-900258",
    "request_type": "Property Maintenance",
    "request_reason": "Property Maintenance",
    "date_created": "2022-07-14T18:35:15.000",
    "date_modified": "2022-07-14T18:35:16.000",
    "case_close_date": "2020-12-03T18:00:00.000",
    "request_status": "Pending",
    "responsible_agency": "Department of Code Enforcement",
    "final_address": "1124 Reynes St",
    "address_councildis": "E",
    "status": "Pending",
    "rowid": "900258",
    "final_x": "3695965.67581",
    "final_y": "534560.889157",
    "longitude": "-90.02228329763956",
    "latitude": "29.963409914805233",
    "geocoded_column": {
      "latitude": "29.963409914805233",
      "longitude": "-90.02228329763956"
    }
  },
  {
    "service_request": "2022-900257",
    "request_type": "Roads/Drainage",
    "request_reason": "Catch Basin - Clogged",
    "date_created": "2022-07-14T18:32:52.000",
    "date_modified": "2022-07-14T18:32:52.000",
    "request_status": "Pending",
    "responsible_agency": "Department of Public Works",
    "final_address": "2115 Decatur St",
    "address_councildis": "C",
    "status": "Pending",
    "rowid": "900257",
    "final_x": "3684898.51484",
    "final_y": "534157.975429",
    "longitude": "-90.05724628809114",
    "latitude": "29.96264558501145",
    "geocoded_column": {
      "latitude": "29.96264558501145",
      "longitude": "-90.05724628809114"
    }
  },
  {
    "service_request": "2022-900256",
    "request_type": "Trash/Recycling",
    "request_reason": "Missed Trash Pick-Up",
    "date_created": "2022-07-14T18:31:50.000",
    "date_modified": "2022-07-14T18:31:51.000",
    "request_status": "Pending",
    "responsible_agency": "Department of Sanitation",
    "final_address": "1423 Euterpe St",
    "address_councildis": "B",
    "status": "Assigned to Contractor",
    "contractor": "Richards Disposal",
    "rowid": "900256",
    "final_x": "3679563.97755",
    "final_y": "524621.124732",
    "longitude": "-90.0744229207022",
    "latitude": "29.936584719640457",
    "geocoded_column": {
      "latitude": "29.936584719640457",
      "longitude": "-90.0744229207022"
    }
  },
  {
    "service_request": "2022-900255",
    "request_type": "Trash/Recycling",
    "request_reason": "Request a Large Item Pick Up",
    "date_created": "2022-07-14T18:17:15.000",
    "date_modified": "2022-07-14T18:17:15.000",
    "request_status": "Pending",
    "responsible_agency": "Department of Sanitation",
    "final_address": "3630 Laurel St",
    "address_councildis": "B",
    "status": "Assigned to Contractor",
    "contractor": "Richards Disposal",
    "rowid": "900255",
    "final_x": "3674178.46792",
    "final_y": "518445.82335",
    "longitude": "-90.09163649124709",
    "latitude": "29.919766232643006",
    "geocoded_column": {
      "latitude": "29.919766232643006",
      "longitude": "-90.09163649124709"
    }
  },
  {
    "service_request": "2022-900254",
    "request_type": "Trash/Recycling",
    "request_reason": "MIssed Recycling Pick-Up",
    "date_created": "2022-07-14T18:14:01.000",
    "date_modified": "2022-07-14T18:14:02.000",
    "request_status": "Pending",
    "responsible_agency": "Department of Sanitation",
    "final_address": "4600 BLK S Saratoga St",
    "address_councildis": "B",
    "status": "Assigned to Contractor",
    "contractor": "Richards Disposal",
    "rowid": "900254",
    "final_x": "3669743.32353",
    "final_y": "522551.741102",
    "longitude": "-90.10549722917278",
    "latitude": "29.93118760878003",
    "geocoded_column": {
      "latitude": "29.93118760878003",
      "longitude": "-90.10549722917278"
    }
  },
  {
    "service_request": "2022-900253",
    "request_type": "Roads/Drainage",
    "request_reason": "Man hole cover issue",
    "date_created": "2022-07-14T18:01:54.000",
    "date_modified": "2022-07-14T18:01:54.000",
    "request_status": "Pending",
    "responsible_agency": "Department of Public Works",
    "final_address": "PERDIDO ST & ST CHARLES AVE",
    "address_councildis": "B",
    "status": "Pending",
    "rowid": "900253",
    "final_x": "3680799.0",
    "final_y": "529687.38",
    "longitude": "-90.0703476096901",
    "latitude": "29.950477861804366",
    "geocoded_column": {
      "latitude": "29.950477861804366",
      "longitude": "-90.0703476096901"
    }
  },
  {
    "service_request": "2022-900252",
    "request_type": "Trash/Recycling",
    "request_reason": "Illegal Dumping",
    "date_created": "2022-07-14T17:53:47.000",
    "date_modified": "2022-07-14T17:53:47.000",
    "request_status": "Pending",
    "responsible_agency": "Department of Sanitation",
    "final_address": "2500 Broadway St",
    "address_councildis": "A",
    "status": "Pending",
    "rowid": "900252",
    "final_x": "3666776.5602",
    "final_y": "530462.659522",
    "longitude": "-90.11459732710556",
    "latitude": "29.95302716788071",
    "geocoded_column": {
      "latitude": "29.95302716788071",
      "longitude": "-90.11459732710556"
    }
  },
  {
    "service_request": "2022-900251",
    "request_type": "Trash/Recycling",
    "request_reason": "MIssed Recycling Pick-Up",
    "date_created": "2022-07-14T17:53:01.000",
    "date_modified": "2022-07-14T17:53:02.000",
    "request_status": "Pending",
    "responsible_agency": "Department of Sanitation",
    "final_address": "5351 Tchoupitoulas St",
    "address_councildis": "B",
    "status": "Assigned to Contractor",
    "contractor": "Richards Disposal",
    "rowid": "900251",
    "final_x": "3666843.49517",
    "final_y": "517212.276725",
    "longitude": "-90.11483089618059",
    "latitude": "29.916590888881792",
    "geocoded_column": {
      "latitude": "29.916590888881792",
      "longitude": "-90.11483089618059"
    }
  },
  {
    "service_request": "2022-900250",
    "request_type": "Trash/Recycling",
    "request_reason": "Missed Trash Pick-Up",
    "date_created": "2022-07-14T17:47:33.000",
    "date_modified": "2022-07-14T17:47:34.000",
    "request_status": "Pending",
    "responsible_agency": "Department of Sanitation",
    "final_address": "2137 Mazant St",
    "address_councildis": "D",
    "status": "Assigned to Contractor",
    "contractor": "Metro Disposal",
    "rowid": "900250",
    "final_x": "3693153.06211",
    "final_y": "539290.361354",
    "longitude": "-90.03099543542832",
    "latitude": "29.976502474212015",
    "geocoded_column": {
      "latitude": "29.976502474212015",
      "longitude": "-90.03099543542832"
    }
  },
  {
    "service_request": "2022-900249",
    "request_type": "Property Maintenance",
    "request_reason": "Property Maintenance",
    "date_created": "2022-07-14T17:42:31.000",
    "date_modified": "2022-07-14T17:42:31.000",
    "request_status": "Pending",
    "responsible_agency": "Department of Code Enforcement",
    "final_address": "4118 S Carrollton Ave",
    "address_councildis": "A",
    "status": "Pending",
    "rowid": "900249",
    "final_x": "3669537.0779",
    "final_y": "536403.305927",
    "longitude": "-90.10567982388267",
    "latitude": "29.96928095415532",
    "geocoded_column": {
      "latitude": "29.96928095415532",
      "longitude": "-90.10567982388267"
    }
  },
  {
    "service_request": "2022-900248",
    "request_type": "Property Maintenance",
    "request_reason": "Property Maintenance",
    "date_created": "2022-07-14T17:41:43.000",
    "date_modified": "2022-07-14T17:41:43.000",
    "request_status": "Pending",
    "responsible_agency": "Department of Code Enforcement",
    "final_address": "4126 S Carrollton Ave",
    "address_councildis": "A",
    "status": "Pending",
    "rowid": "900248",
    "final_x": "3669576.77678",
    "final_y": "536457.693127",
    "longitude": "-90.10555261101833",
    "latitude": "29.969429331171934",
    "geocoded_column": {
      "latitude": "29.969429331171934",
      "longitude": "-90.10555261101833"
    }
  },
  {
    "service_request": "2022-900247",
    "request_type": "Property Maintenance",
    "request_reason": "Property Maintenance",
    "date_created": "2022-07-14T17:40:44.000",
    "date_modified": "2022-07-14T17:40:44.000",
    "request_status": "Pending",
    "responsible_agency": "Department of Code Enforcement",
    "final_address": "4052 Ulloa St",
    "address_councildis": "A",
    "status": "Pending",
    "rowid": "900247",
    "final_x": "3669677.65748",
    "final_y": "536391.234887",
    "longitude": "-90.10523627017909",
    "latitude": "29.96924362063183",
    "geocoded_column": {
      "latitude": "29.96924362063183",
      "longitude": "-90.10523627017909"
    }
  },
  {
    "service_request": "2022-900246",
    "request_type": "Property Maintenance",
    "request_reason": "Property Maintenance",
    "date_created": "2022-07-14T17:39:23.000",
    "date_modified": "2022-07-14T17:39:23.000",
    "request_status": "Pending",
    "responsible_agency": "Department of Code Enforcement",
    "final_address": "4044 Ulloa St",
    "address_councildis": "A",
    "status": "Pending",
    "rowid": "900246",
    "final_x": "3669728.88967",
    "final_y": "536366.720263",
    "longitude": "-90.10507530450072",
    "latitude": "29.969174703683215",
    "geocoded_column": {
      "latitude": "29.969174703683215",
      "longitude": "-90.10507530450072"
    }
  },
  {
    "service_request": "2022-900245",
    "request_type": "Abandoned Vehicles",
    "request_reason": "Abandoned/Junk Vehicles",
    "date_created": "2022-07-14T17:37:01.000",
    "date_modified": "2022-07-14T17:37:01.000",
    "request_status": "Pending",
    "responsible_agency": "Department of Public Works",
    "final_address": "6631 Avenue B",
    "address_councildis": "A",
    "status": "Pending",
    "rowid": "900245",
    "final_x": "3665793.00487",
    "final_y": "552242.401942",
    "longitude": "-90.1169729417012",
    "latitude": "30.012942844340674",
    "geocoded_column": {
      "latitude": "30.012942844340674",
      "longitude": "-90.1169729417012"
    }
  },
  {
    "service_request": "2022-900244",
    "request_type": "Trash/Recycling",
    "request_reason": "Illegal Dumping",
    "date_created": "2022-07-14T17:33:30.000",
    "date_modified": "2022-07-14T17:33:30.000",
    "request_status": "Pending",
    "responsible_agency": "Department of Sanitation",
    "final_address": "8400 Earhart Blvd",
    "address_councildis": "A",
    "status": "Pending",
    "rowid": "900244",
    "final_x": "3665629.47706",
    "final_y": "534035.157765",
    "longitude": "-90.11809969208407",
    "latitude": "29.962883867453268",
    "geocoded_column": {
      "latitude": "29.962883867453268",
      "longitude": "-90.11809969208407"
    }
  },
  {
    "service_request": "2022-900243",
    "request_type": "Trash/Recycling",
    "request_reason": "Illegal Dumping",
    "date_created": "2022-07-14T17:32:38.000",
    "date_modified": "2022-07-14T17:32:38.000",
    "request_status": "Pending",
    "responsible_agency": "Department of Sanitation",
    "final_address": "2919 Dante St",
    "address_councildis": "A",
    "status": "Pending",
    "rowid": "900243",
    "final_x": "3665665.9689",
    "final_y": "533467.778244",
    "longitude": "-90.1180034587354",
    "latitude": "29.961322696015188",
    "geocoded_column": {
      "latitude": "29.961322696015188",
      "longitude": "-90.1180034587354"
    }
  },
  {
    "service_request": "2022-900242",
    "request_type": "Trash/Recycling",
    "request_reason": "Illegal Dumping",
    "date_created": "2022-07-14T17:32:13.000",
    "date_modified": "2022-07-14T17:32:14.000",
    "request_status": "Pending",
    "responsible_agency": "Department of Sanitation",
    "final_address": "2805 Dante St",
    "address_councildis": "A",
    "status": "Pending",
    "rowid": "900242",
    "final_x": "3665365.28916",
    "final_y": "533142.664068",
    "longitude": "-90.1189638369867",
    "latitude": "29.960437504296298",
    "geocoded_column": {
      "latitude": "29.960437504296298",
      "longitude": "-90.1189638369867"
    }
  },
  {
    "service_request": "2022-900240",
    "request_type": "Trash/Recycling",
    "request_reason": "Missed Trash Pick-Up",
    "date_created": "2022-07-14T17:30:07.000",
    "date_modified": "2022-07-14T17:30:11.000",
    "request_status": "Pending",
    "responsible_agency": "Department of Sanitation",
    "final_address": "921 Emerald St",
    "address_councildis": "D",
    "status": "Assigned to Contractor",
    "contractor": "Metro Disposal",
    "rowid": "900240",
    "final_x": "3670855.93435",
    "final_y": "554929.307224",
    "longitude": "-90.10088547721307",
    "latitude": "30.02018212750014",
    "geocoded_column": {
      "latitude": "30.02018212750014",
      "longitude": "-90.10088547721307"
    }
  },
  {
    "service_request": "2022-900239",
    "request_type": "Trash/Recycling",
    "request_reason": "MIssed Recycling Pick-Up",
    "date_created": "2022-07-14T17:16:28.000",
    "date_modified": "2022-07-14T17:16:29.000",
    "request_status": "Pending",
    "responsible_agency": "Department of Sanitation",
    "final_address": "2501 Calhoun St",
    "address_councildis": "A",
    "status": "Assigned to Contractor",
    "contractor": "Richards Disposal",
    "rowid": "900239",
    "final_x": "3666239.34465",
    "final_y": "526040.310334",
    "longitude": "-90.11644192222953",
    "latitude": "29.940882837900297",
    "geocoded_column": {
      "latitude": "29.940882837900297",
      "longitude": "-90.11644192222953"
    }
  },
  {
    "service_request": "2022-900238",
    "request_type": "Trash/Recycling",
    "request_reason": "MIssed Recycling Pick-Up",
    "date_created": "2022-07-14T17:15:30.000",
    "date_modified": "2022-07-14T17:15:30.000",
    "request_status": "Pending",
    "responsible_agency": "Department of Sanitation",
    "final_address": "18 Richmond Pl",
    "address_councildis": "A",
    "status": "Assigned to Contractor",
    "contractor": "Richards Disposal",
    "rowid": "900238",
    "final_x": "3666565.54554",
    "final_y": "524105.339644",
    "longitude": "-90.11547697427197",
    "latitude": "29.935552758662038",
    "geocoded_column": {
      "latitude": "29.935552758662038",
      "longitude": "-90.11547697427197"
    }
  },
  {
    "service_request": "2022-900237",
    "request_type": "Trash/Recycling",
    "request_reason": "Request a Large Item Pick Up",
    "date_created": "2022-07-14T17:07:13.000",
    "date_modified": "2022-07-14T17:07:14.000",
    "request_status": "Pending",
    "responsible_agency": "Department of Sanitation",
    "final_address": "304 River Oaks Dr",
    "address_councildis": "C",
    "status": "Assigned to Contractor",
    "contractor": "Richards Disposal",
    "rowid": "900237",
    "final_x": "3701628.88829",
    "final_y": "522687.721082",
    "longitude": "-90.00483432769673",
    "latitude": "29.93058350947907",
    "geocoded_column": {
      "latitude": "29.93058350947907",
      "longitude": "-90.00483432769673"
    }
  },
  {
    "service_request": "2022-900236",
    "request_type": "Property Maintenance",
    "request_reason": "Property Maintenance",
    "date_created": "2022-07-14T17:06:06.000",
    "date_modified": "2022-07-14T17:06:06.000",
    "request_status": "Pending",
    "responsible_agency": "Department of Code Enforcement",
    "final_address": "307 River Oaks Dr",
    "address_councildis": "C",
    "status": "Pending",
    "rowid": "900236",
    "final_x": "3701511.86551",
    "final_y": "522630.058746",
    "longitude": "-90.00520585861031",
    "latitude": "29.93042868821544",
    "geocoded_column": {
      "latitude": "29.93042868821544",
      "longitude": "-90.00520585861031"
    }
  },
  {
    "service_request": "2022-900235",
    "request_type": "Trash/Recycling",
    "request_reason": "Request a Large Item Pick Up",
    "date_created": "2022-07-14T17:05:28.000",
    "date_modified": "2022-07-14T17:05:28.000",
    "request_status": "Pending",
    "responsible_agency": "Department of Sanitation",
    "final_address": "302 River Oaks Dr",
    "address_councildis": "C",
    "status": "Assigned to Contractor",
    "contractor": "Richards Disposal",
    "rowid": "900235",
    "final_x": "3701630.35319",
    "final_y": "522737.024186",
    "longitude": "-90.00482789871623",
    "latitude": "29.93071902920206",
    "geocoded_column": {
      "latitude": "29.93071902920206",
      "longitude": "-90.00482789871623"
    }
  },
  {
    "service_request": "2022-900234",
    "request_type": "Trash/Recycling",
    "request_reason": "Request a Large Item Pick Up",
    "date_created": "2022-07-14T17:03:09.000",
    "date_modified": "2022-07-14T17:03:11.000",
    "request_status": "Pending",
    "responsible_agency": "Department of Sanitation",
    "final_address": "305 River Oaks Dr",
    "address_councildis": "C",
    "status": "Assigned to Contractor",
    "contractor": "Richards Disposal",
    "rowid": "900234",
    "final_x": "3701514.0817",
    "final_y": "522687.770682",
    "longitude": "-90.0051967507642",
    "latitude": "29.930587305385398",
    "geocoded_column": {
      "latitude": "29.930587305385398",
      "longitude": "-90.0051967507642"
    }
  },
  {
    "service_request": "2022-900233",
    "request_type": "Trash/Recycling",
    "request_reason": "Dead Animal Pick Up",
    "date_created": "2022-07-14T16:58:33.000",
    "date_modified": "2022-07-14T17:18:37.000",
    "request_status": "Pending",
    "responsible_agency": "Department of Sanitation",
    "final_address": "616 Delaronde St, New Orleans, Louisiana, 70114",
    "address_councildis": "C",
    "status": "Assigned to Contractor",
    "contractor": "Richards Disposal",
    "rowid": "900233",
    "final_x": "3687372.21244",
    "final_y": "531236.979714",
    "longitude": "-90.04953804812723",
    "latitude": "29.954537873504975",
    "geocoded_column": {
      "latitude": "29.954537873504975",
      "longitude": "-90.04953804812723"
    }
  },
  {
    "service_request": "2022-900232",
    "request_type": "Abandoned Vehicles",
    "request_reason": "Abandoned/Junk Vehicles",
    "date_created": "2022-07-14T16:56:35.000",
    "date_modified": "2022-07-14T16:56:35.000",
    "request_status": "Pending",
    "responsible_agency": "Department of Public Works",
    "final_address": "6479 Marshal Foch St",
    "address_councildis": "A",
    "status": "Pending",
    "rowid": "900232",
    "final_x": "3670221.35802",
    "final_y": "550518.749332",
    "longitude": "-90.10304017719459",
    "latitude": "30.008073405400285",
    "geocoded_column": {
      "latitude": "30.008073405400285",
      "longitude": "-90.10304017719459"
    }
  },
  {
    "service_request": "2022-900231",
    "request_type": "Trash/Recycling",
    "request_reason": "Illegal Dumping",
    "date_created": "2022-07-14T16:55:04.000",
    "date_modified": "2022-07-14T16:55:04.000",
    "request_status": "Pending",
    "responsible_agency": "Department of Sanitation",
    "final_address": "415 Manassas Pl",
    "address_councildis": "B",
    "status": "Pending",
    "rowid": "900231",
    "final_x": "3674754.92341",
    "final_y": "533832.891141",
    "longitude": "-90.08928958097735",
    "latitude": "29.962058432142182",
    "geocoded_column": {
      "latitude": "29.962058432142182",
      "longitude": "-90.08928958097735"
    }
  },
  {
    "service_request": "2022-900230",
    "request_type": "Trash/Recycling",
    "request_reason": "Missed Trash Pick-Up",
    "date_created": "2022-07-14T16:51:48.000",
    "date_modified": "2022-07-14T16:51:54.000",
    "request_status": "Pending",
    "responsible_agency": "Department of Sanitation",
    "final_address": "722 Alvar St",
    "address_councildis": "C",
    "status": "Assigned to Contractor",
    "contractor": "Metro Disposal",
    "rowid": "900230",
    "final_x": "3691130.01712",
    "final_y": "534088.827269",
    "longitude": "-90.03757057926335",
    "latitude": "29.962263158864836",
    "geocoded_column": {
      "latitude": "29.962263158864836",
      "longitude": "-90.03757057926335"
    }
  },
  {
    "service_request": "2022-900229",
    "request_type": "Trash/Recycling",
    "request_reason": "MIssed Recycling Pick-Up",
    "date_created": "2022-07-14T16:48:39.000",
    "date_modified": "2022-07-14T16:54:07.000",
    "request_status": "Pending",
    "responsible_agency": "Department of Sanitation",
    "final_address": "New Orleans,LA",
    "address_councildis": "A",
    "status": "Assigned to Contractor",
    "contractor": "Richards Disposal",
    "rowid": "900229",
    "final_x": "3666047.54458",
    "final_y": "522668.591738",
    "longitude": "-90.11716045682009",
    "latitude": "29.93161728747805",
    "geocoded_column": {
      "latitude": "29.93161728747805",
      "longitude": "-90.11716045682009"
    }
  },
  {
    "service_request": "2022-900228",
    "request_type": "Property Maintenance",
    "request_reason": "Property Maintenance",
    "date_created": "2022-07-14T16:47:50.000",
    "date_modified": "2022-07-14T16:47:50.000",
    "request_status": "Pending",
    "responsible_agency": "Department of Code Enforcement",
    "final_address": "5238 Pasteur Blvd",
    "address_councildis": "D",
    "status": "Pending",
    "rowid": "900228",
    "final_x": "3682892.18562",
    "final_y": "552052.530838",
    "longitude": "-90.06295549665019",
    "latitude": "30.01191058196064",
    "geocoded_column": {
      "latitude": "30.01191058196064",
      "longitude": "-90.06295549665019"
    }
  },
  {
    "service_request": "2022-900227",
    "request_type": "Trash/Recycling",
    "request_reason": "MIssed Recycling Pick-Up",
    "date_created": "2022-07-14T16:47:27.000",
    "date_modified": "2022-07-14T16:48:07.000",
    "request_status": "Pending",
    "responsible_agency": "Department of Sanitation",
    "final_address": "6016 St Charles Ave",
    "address_councildis": "A",
    "status": "Assigned to Contractor",
    "contractor": "Richards Disposal",
    "rowid": "900227",
    "final_x": "3665536.5257",
    "final_y": "522450.08089",
    "longitude": "-90.11878100278054",
    "latitude": "29.931031355859783",
    "geocoded_column": {
      "latitude": "29.931031355859783",
      "longitude": "-90.11878100278054"
    }
  },
  {
    "service_request": "2022-900226",
    "request_type": "Roads/Drainage",
    "request_reason": "Damaged Sidewalk",
    "date_created": "2022-07-14T16:46:34.000",
    "date_modified": "2022-07-14T16:46:34.000",
    "request_status": "Pending",
    "responsible_agency": "Department of Public Works",
    "final_address": "2060 Mirabeau Ave",
    "address_councildis": "D",
    "status": "Pending",
    "rowid": "900226",
    "final_x": "3682928.00898",
    "final_y": "550549.8253",
    "longitude": "-90.06289495497816",
    "latitude": "30.00777759411963",
    "geocoded_column": {
      "latitude": "30.00777759411963",
      "longitude": "-90.06289495497816"
    }
  },
  {
    "service_request": "2022-900225",
    "request_type": "Property Maintenance",
    "request_reason": "Property Maintenance",
    "date_created": "2022-07-14T16:45:19.000",
    "date_modified": "2022-07-14T16:45:19.000",
    "request_status": "Pending",
    "responsible_agency": "Department of Code Enforcement",
    "final_address": "2423 Pauger St",
    "address_councildis": "D",
    "status": "Pending",
    "rowid": "900225",
    "final_x": "3683711.25218",
    "final_y": "538621.665801",
    "longitude": "-90.06083896163213",
    "latitude": "29.974955491611535",
    "geocoded_column": {
      "latitude": "29.974955491611535",
      "longitude": "-90.06083896163213"
    }
  },
  {
    "service_request": "2022-900224",
    "request_type": "Property Maintenance",
    "request_reason": "Property Maintenance",
    "date_created": "2022-07-14T16:44:02.000",
    "date_modified": "2022-07-14T16:44:02.000",
    "request_status": "Pending",
    "responsible_agency": "Department of Code Enforcement",
    "final_address": "414 Manassas Pl",
    "address_councildis": "B",
    "status": "Pending",
    "rowid": "900224",
    "final_x": "3674841.79662",
    "final_y": "533779.110853",
    "longitude": "-90.08901709251765",
    "latitude": "29.961907960695207",
    "geocoded_column": {
      "latitude": "29.961907960695207",
      "longitude": "-90.08901709251765"
    }
  },
  {
    "service_request": "2022-900223",
    "request_type": "Traffic Signals/Signs/Striping/Streetlights",
    "request_reason": "Street Name Sign Damaged or Missing",
    "date_created": "2022-07-14T16:42:07.000",
    "date_modified": "2022-07-14T16:42:08.000",
    "request_status": "Pending",
    "responsible_agency": "Department of Public Works",
    "final_address": "600 S Peters St",
    "address_councildis": "B",
    "status": "Pending",
    "rowid": "900223",
    "final_x": "3682267.25583",
    "final_y": "528487.586048",
    "longitude": "-90.06575353203566",
    "latitude": "29.947134251746462",
    "geocoded_column": {
      "latitude": "29.947134251746462",
      "longitude": "-90.06575353203566"
    }
  },
  {
    "service_request": "2022-900222",
    "request_type": "Trash/Recycling",
    "request_reason": "Request a Large Item Pick Up",
    "date_created": "2022-07-14T16:40:01.000",
    "date_modified": "2022-07-14T16:40:02.000",
    "request_status": "Pending",
    "responsible_agency": "Department of Sanitation",
    "final_address": "2060 Mirabeau Ave",
    "address_councildis": "D",
    "status": "Assigned to Contractor",
    "contractor": "Metro Disposal",
    "rowid": "900222",
    "final_x": "3682928.00898",
    "final_y": "550549.8253",
    "longitude": "-90.06289495497816",
    "latitude": "30.00777759411963",
    "geocoded_column": {
      "latitude": "30.00777759411963",
      "longitude": "-90.06289495497816"
    }
  },
  {
    "service_request": "2022-900221",
    "request_type": "Trash/Recycling",
    "request_reason": "Missed Trash Pick-Up",
    "date_created": "2022-07-14T16:37:36.000",
    "date_modified": "2022-07-14T16:37:37.000",
    "request_status": "Pending",
    "responsible_agency": "Department of Sanitation",
    "final_address": "1124 Adams St, New Orleans, Louisiana, 70118",
    "address_councildis": "A",
    "status": "Assigned to Contractor",
    "contractor": "Richards Disposal",
    "rowid": "900221",
    "final_x": "3662931.17331",
    "final_y": "527311.957247",
    "longitude": "-90.12684418378998",
    "latitude": "29.94447565090557",
    "geocoded_column": {
      "latitude": "29.94447565090557",
      "longitude": "-90.12684418378998"
    }
  },
  {
    "service_request": "2022-900220",
    "request_type": "Trash/Recycling",
    "request_reason": "Repair Recycling Cart",
    "date_created": "2022-07-14T16:36:25.000",
    "date_modified": "2022-07-14T16:36:25.000",
    "request_status": "Pending",
    "responsible_agency": "Department of Sanitation",
    "final_address": "7732 Sycamore St",
    "address_councildis": "A",
    "status": "Pending",
    "rowid": "900220",
    "final_x": "3665175.05498",
    "final_y": "530079.920001",
    "longitude": "-90.11966700051845",
    "latitude": "29.952021498786387",
    "geocoded_column": {
      "latitude": "29.952021498786387",
      "longitude": "-90.11966700051845"
    }
  },
  {
    "service_request": "2022-900219",
    "request_type": "Traffic Signals/Signs/Striping/Streetlights",
    "request_reason": "Street Light Outage/Malfunction",
    "date_created": "2022-07-14T16:28:32.000",
    "date_modified": "2022-07-14T16:28:32.000",
    "request_status": "Pending",
    "responsible_agency": "Department of Public Works",
    "final_address": "820 Union St Apt 102",
    "address_councildis": "B",
    "status": "Pending",
    "contractor": "Royal Engineering",
    "rowid": "900219",
    "final_x": "3680278.98171",
    "final_y": "530041.982529",
    "longitude": "-90.07197723183683",
    "latitude": "29.951468649841654",
    "geocoded_column": {
      "latitude": "29.951468649841654",
      "longitude": "-90.07197723183683"
    }
  },
  {
    "service_request": "2022-900218",
    "request_type": "Property Maintenance",
    "request_reason": "Property Maintenance",
    "date_created": "2022-07-14T16:25:12.000",
    "date_modified": "2022-07-14T16:25:12.000",
    "request_status": "Pending",
    "responsible_agency": "Department of Code Enforcement",
    "final_address": "4662 Tulip St",
    "address_councildis": "E",
    "status": "Pending",
    "rowid": "900218",
    "final_x": "3702036.31857",
    "final_y": "553910.919383",
    "longitude": "-90.00240325560208",
    "latitude": "30.016422944250582",
    "geocoded_column": {
      "latitude": "30.016422944250582",
      "longitude": "-90.00240325560208"
    }
  },
  {
    "service_request": "2022-900217",
    "request_type": "Trash/Recycling",
    "request_reason": "Missed Trash Pick-Up",
    "date_created": "2022-07-14T16:23:19.000",
    "date_modified": "2022-07-14T16:23:20.000",
    "request_status": "Pending",
    "responsible_agency": "Department of Sanitation",
    "final_address": "1020 Pauline St",
    "address_councildis": "C",
    "status": "Assigned to Contractor",
    "contractor": "Metro Disposal",
    "rowid": "900217",
    "final_x": "3691117.51459",
    "final_y": "535195.48679",
    "longitude": "-90.03757054119713",
    "latitude": "29.965306473488177",
    "geocoded_column": {
      "latitude": "29.965306473488177",
      "longitude": "-90.03757054119713"
    }
  },
  {
    "service_request": "2022-900216",
    "request_type": "Property Maintenance",
    "request_reason": "Property Maintenance",
    "date_created": "2022-07-14T16:21:26.000",
    "date_modified": "2022-07-14T16:21:26.000",
    "request_status": "Pending",
    "responsible_agency": "Department of Code Enforcement",
    "final_address": "4801 Saint Charles Ave, New Orleans, Louisiana, 70115",
    "status": "Pending",
    "rowid": "900216",
    "longitude": "0.0",
    "latitude": "0.0",
    "geocoded_column": {
      "latitude": "0.0",
      "longitude": "0.0"
    }
  },
  {
    "service_request": "2022-900215",
    "request_type": "Trash/Recycling",
    "request_reason": "Start Trash Service",
    "date_created": "2022-07-14T16:19:31.000",
    "date_modified": "2022-07-14T16:19:32.000",
    "request_status": "Pending",
    "responsible_agency": "Department of Sanitation",
    "final_address": "1615 Pine St",
    "address_councildis": "A",
    "status": "Assigned to Contractor",
    "contractor": "Richards Disposal",
    "rowid": "900215",
    "final_x": "3664873.9138",
    "final_y": "527935.324991",
    "longitude": "-90.12068953111442",
    "latitude": "29.946133322344316",
    "geocoded_column": {
      "latitude": "29.946133322344316",
      "longitude": "-90.12068953111442"
    }
  },
  {
    "service_request": "2022-900214",
    "request_type": "Trash/Recycling",
    "request_reason": "Order Trash Cart",
    "date_created": "2022-07-14T16:19:14.000",
    "date_modified": "2022-07-14T16:19:16.000",
    "request_status": "Pending",
    "responsible_agency": "Department of Sanitation",
    "final_address": "1615 Pine St",
    "address_councildis": "A",
    "status": "Assigned to Contractor",
    "contractor": "Richards Disposal",
    "rowid": "900214",
    "final_x": "3664873.9138",
    "final_y": "527935.324991",
    "longitude": "-90.12068953111442",
    "latitude": "29.946133322344316",
    "geocoded_column": {
      "latitude": "29.946133322344316",
      "longitude": "-90.12068953111442"
    }
  },
  {
    "service_request": "2022-900213",
    "request_type": "Traffic Signals/Signs/Striping/Streetlights",
    "request_reason": "Street Light Outage/Malfunction",
    "date_created": "2022-07-14T16:18:43.000",
    "date_modified": "2022-07-14T16:18:49.000",
    "request_status": "Pending",
    "responsible_agency": "Department of Public Works",
    "final_address": "3550 Bacchus Dr",
    "address_councildis": "C",
    "status": "Pending",
    "contractor": "Royal Engineering",
    "rowid": "900213",
    "final_x": "3710179.75825",
    "final_y": "517568.371894",
    "longitude": "-89.97803191213941",
    "latitude": "29.91623173106879",
    "geocoded_column": {
      "latitude": "29.91623173106879",
      "longitude": "-89.97803191213941"
    }
  },
  {
    "service_request": "2022-900212",
    "request_type": "Trash/Recycling",
    "request_reason": "Damaged Caused By Contractor",
    "date_created": "2022-07-14T16:12:02.000",
    "date_modified": "2022-07-14T16:12:02.000",
    "request_status": "Pending",
    "responsible_agency": "Department of Sanitation",
    "final_address": "1540 Clouet St",
    "address_councildis": "D",
    "status": "Assigned to Contractor",
    "contractor": "Metro Disposal",
    "rowid": "900212",
    "final_x": "3689413.711",
    "final_y": "537810.219528",
    "longitude": "-90.04285805687795",
    "latitude": "29.97254893918415",
    "geocoded_column": {
      "latitude": "29.97254893918415",
      "longitude": "-90.04285805687795"
    }
  },
  {
    "service_request": "2022-900211",
    "request_type": "Mayor's Request",
    "request_reason": "Entergy Bill Payment Assistance",
    "date_created": "2022-07-14T16:07:54.000",
    "date_modified": "2022-07-14T16:07:54.000",
    "request_status": "Pending",
    "responsible_agency": "Executive Office of the Mayor",
    "status": "Pending",
    "rowid": "900211",
    "longitude": "0.0",
    "latitude": "0.0",
    "geocoded_column": {
      "latitude": "0.0",
      "longitude": "0.0"
    }
  },
  {
    "service_request": "2022-900210",
    "request_type": "Property Maintenance",
    "request_reason": "Property Maintenance",
    "date_created": "2022-07-14T16:03:31.000",
    "date_modified": "2022-07-14T16:03:38.000",
    "request_status": "Pending",
    "responsible_agency": "Department of Code Enforcement",
    "final_address": "702 N Miro St",
    "address_councildis": "D",
    "status": "Pending",
    "rowid": "900210",
    "final_x": "3678020.19246",
    "final_y": "535747.781447",
    "longitude": "-90.07891215596423",
    "latitude": "29.96722584733274",
    "geocoded_column": {
      "latitude": "29.96722584733274",
      "longitude": "-90.07891215596423"
    }
  },
  {
    "service_request": "2022-900209",
    "request_type": "Trash/Recycling",
    "request_reason": "Missed Trash Pick-Up",
    "date_created": "2022-07-14T15:54:47.000",
    "date_modified": "2022-07-14T15:54:47.000",
    "request_status": "Pending",
    "responsible_agency": "Department of Sanitation",
    "final_address": "5216 Atlanta St",
    "address_councildis": "B",
    "status": "Assigned to Contractor",
    "contractor": "Richards Disposal",
    "rowid": "900209",
    "final_x": "3667950.65569",
    "final_y": "520683.950457",
    "longitude": "-90.11121935799825",
    "latitude": "29.9261044765486",
    "geocoded_column": {
      "latitude": "29.9261044765486",
      "longitude": "-90.11121935799825"
    }
  },
  {
    "service_request": "2022-900208",
    "request_type": "Traffic Signals/Signs/Striping/Streetlights",
    "request_reason": "Striping/Road Surface Markings",
    "date_created": "2022-07-14T15:50:43.000",
    "date_modified": "2022-07-14T15:50:43.000",
    "request_status": "Pending",
    "responsible_agency": "Department of Public Works",
    "final_address": "5620 Orleans Ave",
    "address_councildis": "A",
    "status": "Pending",
    "rowid": "900208",
    "final_x": "3670577.96737",
    "final_y": "544609.875791",
    "longitude": "-90.10211412608346",
    "latitude": "29.99181552603766",
    "geocoded_column": {
      "latitude": "29.99181552603766",
      "longitude": "-90.10211412608346"
    }
  },
  {
    "service_request": "2022-900207",
    "request_type": "Property Maintenance",
    "request_reason": "Property Maintenance",
    "date_created": "2022-07-14T15:44:48.000",
    "date_modified": "2022-07-14T15:44:48.000",
    "request_status": "Pending",
    "responsible_agency": "Department of Code Enforcement",
    "final_address": "13256 St Helena Pl",
    "address_councildis": "E",
    "status": "Pending",
    "rowid": "900207",
    "final_x": "3727202.41734",
    "final_y": "564341.662945",
    "longitude": "-89.92248466938325",
    "latitude": "30.044275448852165",
    "geocoded_column": {
      "latitude": "30.044275448852165",
      "longitude": "-89.92248466938325"
    }
  },
  {
    "service_request": "2022-900206",
    "request_type": "Abandoned Vehicles",
    "request_reason": "Abandoned/Junk Vehicles",
    "date_created": "2022-07-14T15:44:39.000",
    "date_modified": "2022-07-14T15:44:39.000",
    "request_status": "Pending",
    "responsible_agency": "Department of Public Works",
    "final_address": "608 Florida Blvd",
    "address_councildis": "A",
    "status": "Pending",
    "rowid": "900206",
    "final_x": "3668018.73978",
    "final_y": "545280.066383",
    "longitude": "-90.11017561596243",
    "latitude": "29.993733685362127",
    "geocoded_column": {
      "latitude": "29.993733685362127",
      "longitude": "-90.11017561596243"
    }
  },
  {
    "service_request": "2022-900205",
    "request_type": "Roads/Drainage",
    "request_reason": "Catch Basin - Clogged",
    "date_created": "2022-07-14T15:43:24.000",
    "date_modified": "2022-07-14T15:43:24.000",
    "request_status": "Pending",
    "responsible_agency": "Department of Public Works",
    "final_address": "1720 St Bernard Ave",
    "address_councildis": "D",
    "status": "Pending",
    "rowid": "900205",
    "final_x": "3681806.39388",
    "final_y": "538213.235017",
    "longitude": "-90.0668692437783",
    "latitude": "29.973890477521564",
    "geocoded_column": {
      "latitude": "29.973890477521564",
      "longitude": "-90.0668692437783"
    }
  },
  {
    "service_request": "2022-900204",
    "request_type": "Safety & Permits",
    "request_reason": "Construction permit",
    "date_created": "2022-07-14T15:36:35.000",
    "date_modified": "2022-07-14T15:36:35.000",
    "request_status": "Pending",
    "responsible_agency": "Department of Code Enforcement",
    "final_address": "537 Napoleon Ave",
    "address_councildis": "B",
    "status": "Pending",
    "rowid": "900204",
    "final_x": "3671242.23137",
    "final_y": "517710.450806",
    "longitude": "-90.10092973847901",
    "latitude": "29.917831356006058",
    "geocoded_column": {
      "latitude": "29.917831356006058",
      "longitude": "-90.10092973847901"
    }
  },
  {
    "service_request": "2022-900203",
    "request_type": "Property Maintenance",
    "request_reason": "Property Maintenance",
    "date_created": "2022-07-14T15:35:35.000",
    "date_modified": "2022-07-14T15:35:35.000",
    "request_status": "Pending",
    "responsible_agency": "Department of Code Enforcement",
    "final_address": "4519 Arthur Dr",
    "address_councildis": "E",
    "status": "Pending",
    "rowid": "900203",
    "final_x": "3707901.45534",
    "final_y": "554096.2758",
    "longitude": "-89.98386522153844",
    "latitude": "30.01674397885752",
    "geocoded_column": {
      "latitude": "30.01674397885752",
      "longitude": "-89.98386522153844"
    }
  },
  {
    "service_request": "2022-900202",
    "request_type": "Trash/Recycling",
    "request_reason": "Repair Trash Cart",
    "date_created": "2022-07-14T15:34:39.000",
    "date_modified": "2022-07-14T15:35:52.000",
    "request_status": "Pending",
    "responsible_agency": "Department of Sanitation",
    "final_address": "New Orleans,LA",
    "address_councildis": "C",
    "status": "Assigned to Contractor",
    "contractor": "Richards Disposal",
    "rowid": "900202",
    "final_x": "3706606.37175",
    "final_y": "520175.341304",
    "longitude": "-89.98921432048215",
    "latitude": "29.923515724734944",
    "geocoded_column": {
      "latitude": "29.923515724734944",
      "longitude": "-89.98921432048215"
    }
  },
  {
    "service_request": "2022-900201",
    "request_type": "Abandoned Vehicles",
    "request_reason": "Abandoned/Junk Vehicles",
    "date_created": "2022-07-14T15:30:30.000",
    "date_modified": "2022-07-14T15:31:28.000",
    "request_status": "Pending",
    "responsible_agency": "Department of Public Works",
    "final_address": "2828 Mercedes Blvd",
    "address_councildis": "C",
    "status": "Pending",
    "rowid": "900201",
    "final_x": "3698059.81245",
    "final_y": "520823.804601",
    "longitude": "-90.01616894445038",
    "latitude": "29.92557167788241",
    "geocoded_column": {
      "latitude": "29.92557167788241",
      "longitude": "-90.01616894445038"
    }
  },
  {
    "service_request": "2022-900200",
    "request_type": "Roads/Drainage",
    "request_reason": "Catch Basin - Clogged",
    "date_created": "2022-07-14T15:30:07.000",
    "date_modified": "2022-07-14T15:30:07.000",
    "request_status": "Pending",
    "responsible_agency": "Department of Public Works",
    "final_address": "540 Royal St",
    "address_councildis": "C",
    "status": "Pending",
    "rowid": "900200",
    "final_x": "3682326.27016",
    "final_y": "532119.806019",
    "longitude": "-90.06544030326953",
    "latitude": "29.95711983196434",
    "geocoded_column": {
      "latitude": "29.95711983196434",
      "longitude": "-90.06544030326953"
    }
  },
  {
    "service_request": "2022-900199",
    "request_type": "Traffic Signals/Signs/Striping/Streetlights",
    "request_reason": "Street Light Outage/Malfunction",
    "date_created": "2022-07-14T15:26:48.000",
    "date_modified": "2022-07-14T15:26:49.000",
    "request_status": "Pending",
    "responsible_agency": "Department of Public Works",
    "final_address": "7016 Orleans Ave",
    "address_councildis": "A",
    "status": "Pending",
    "contractor": "Royal Engineering",
    "rowid": "900199",
    "final_x": "3671416.19156",
    "final_y": "553936.452056",
    "longitude": "-90.09914902494785",
    "latitude": "30.017435548600353",
    "geocoded_column": {
      "latitude": "30.017435548600353",
      "longitude": "-90.09914902494785"
    }
  },
  {
    "service_request": "2022-900198",
    "request_type": "Trash/Recycling",
    "request_reason": "Request a Large Item Pick Up",
    "date_created": "2022-07-14T15:24:43.000",
    "date_modified": "2022-07-14T15:24:46.000",
    "request_status": "Pending",
    "responsible_agency": "Department of Sanitation",
    "final_address": "2110 Octavia St, New Orleans, Louisiana, 70115",
    "address_councildis": "A",
    "status": "Assigned to Contractor",
    "contractor": "Richards Disposal",
    "rowid": "900198",
    "final_x": "3667412.88372",
    "final_y": "523503.218043",
    "longitude": "-90.1128221584101",
    "latitude": "29.93387232619676",
    "geocoded_column": {
      "latitude": "29.93387232619676",
      "longitude": "-90.1128221584101"
    }
  },
  {
    "service_request": "2022-900197",
    "request_type": "Trash/Recycling",
    "request_reason": "Repair Trash Cart",
    "date_created": "2022-07-14T15:24:27.000",
    "date_modified": "2022-07-14T15:24:28.000",
    "request_status": "Pending",
    "responsible_agency": "Department of Sanitation",
    "final_address": "727 Burgundy St",
    "address_councildis": "C",
    "status": "Assigned to Contractor",
    "contractor": "Empire Services",
    "rowid": "900197",
    "final_x": "3681811.53538",
    "final_y": "533327.610372",
    "longitude": "-90.06702352702547",
    "latitude": "29.960456533565583",
    "geocoded_column": {
      "latitude": "29.960456533565583",
      "longitude": "-90.06702352702547"
    }
  },
  {
    "service_request": "2022-900196",
    "request_type": "Property Maintenance",
    "request_reason": "Property Maintenance",
    "date_created": "2022-07-14T15:19:04.000",
    "date_modified": "2022-07-14T15:19:04.000",
    "request_status": "Pending",
    "responsible_agency": "Department of Code Enforcement",
    "final_address": "500 N Rendon St",
    "address_councildis": "A",
    "status": "Pending",
    "rowid": "900196",
    "final_x": "3674584.32296",
    "final_y": "537633.055624",
    "longitude": "-90.08969806646476",
    "latitude": "29.97251269216576",
    "geocoded_column": {
      "latitude": "29.97251269216576",
      "longitude": "-90.08969806646476"
    }
  },
  {
    "service_request": "2022-900195",
    "request_type": "Roads/Drainage",
    "request_reason": "Catch Basin - Clogged",
    "date_created": "2022-07-14T15:18:19.000",
    "date_modified": "2022-07-14T15:18:19.000",
    "request_status": "Pending",
    "responsible_agency": "Department of Public Works",
    "final_address": "14311 Dwyer Blvd",
    "address_councildis": "E",
    "status": "Pending",
    "rowid": "900195",
    "final_x": "3729552.59885",
    "final_y": "563407.957856",
    "longitude": "-89.9150936794685",
    "latitude": "30.041628374902146",
    "geocoded_column": {
      "latitude": "30.041628374902146",
      "longitude": "-89.9150936794685"
    }
  },
  {
    "service_request": "2022-900194",
    "request_type": "Trash/Recycling",
    "request_reason": "Request a Large Item Pick Up",
    "date_created": "2022-07-14T15:13:13.000",
    "date_modified": "2022-07-14T15:13:15.000",
    "request_status": "Pending",
    "responsible_agency": "Department of Sanitation",
    "final_address": "3043 Behrman Hwy",
    "address_councildis": "C",
    "status": "Assigned to Contractor",
    "contractor": "Richards Disposal",
    "rowid": "900194",
    "final_x": "3694209.80701",
    "final_y": "519341.903863",
    "longitude": "-90.02837544991966",
    "latitude": "29.921618081235724",
    "geocoded_column": {
      "latitude": "29.921618081235724",
      "longitude": "-90.02837544991966"
    }
  },
  {
    "service_request": "2022-900193",
    "request_type": "Traffic Signals/Signs/Striping/Streetlights",
    "request_reason": "Street Light Outage/Malfunction",
    "date_created": "2022-07-14T15:10:07.000",
    "date_modified": "2022-07-14T15:10:08.000",
    "request_status": "Pending",
    "responsible_agency": "Department of Public Works",
    "final_address": "3631 Tall Timbers Dr",
    "address_councildis": "C",
    "status": "Pending",
    "contractor": "Royal Engineering",
    "rowid": "900193",
    "final_x": "3703685.71492",
    "final_y": "512471.877809",
    "longitude": "-89.99871690948123",
    "latitude": "29.90242772161595",
    "geocoded_column": {
      "latitude": "29.90242772161595",
      "longitude": "-89.99871690948123"
    }
  },
  {
    "service_request": "2022-900192",
    "request_type": "Trash/Recycling",
    "request_reason": "Request a Large Item Pick Up",
    "date_created": "2022-07-14T15:09:06.000",
    "date_modified": "2022-07-14T15:09:07.000",
    "request_status": "Pending",
    "responsible_agency": "Department of Sanitation",
    "final_address": "3043 Behrman Hwy",
    "address_councildis": "C",
    "status": "Assigned to Contractor",
    "contractor": "Richards Disposal",
    "rowid": "900192",
    "final_x": "3694209.80701",
    "final_y": "519341.903863",
    "longitude": "-90.02837544991966",
    "latitude": "29.921618081235724",
    "geocoded_column": {
      "latitude": "29.921618081235724",
      "longitude": "-90.02837544991966"
    }
  },
  {
    "service_request": "2022-900191",
    "request_type": "Traffic Signals/Signs/Striping/Streetlights",
    "request_reason": "Street Light Outage/Malfunction",
    "date_created": "2022-07-14T15:09:02.000",
    "date_modified": "2022-07-14T15:09:03.000",
    "request_status": "Pending",
    "responsible_agency": "Department of Public Works",
    "final_address": "1 Five Oaks Dr, New Orleans, Louisiana, 70131",
    "address_councildis": "C",
    "status": "Pending",
    "contractor": "Royal Engineering",
    "rowid": "900191",
    "final_x": "3699336.51837",
    "final_y": "525950.736189",
    "longitude": "-90.01195216563838",
    "latitude": "29.939628551197504",
    "geocoded_column": {
      "latitude": "29.939628551197504",
      "longitude": "-90.01195216563838"
    }
  },
  {
    "service_request": "2022-900190",
    "request_type": "Property Maintenance",
    "request_reason": "Property Maintenance",
    "date_created": "2022-07-14T15:08:25.000",
    "date_modified": "2022-07-14T15:08:25.000",
    "request_status": "Pending",
    "responsible_agency": "Department of Code Enforcement",
    "final_address": "2516 S Dorgenois St",
    "address_councildis": "B",
    "status": "Pending",
    "rowid": "900190",
    "final_x": "3672159.00916",
    "final_y": "529633.898497",
    "longitude": "-90.0976300968166",
    "latitude": "29.95058983615057",
    "geocoded_column": {
      "latitude": "29.95058983615057",
      "longitude": "-90.0976300968166"
    }
  },
  {
    "service_request": "2022-900189",
    "request_type": "Parks & Parkways",
    "request_reason": "Request Tree Service (Right of Way/Public Property)",
    "date_created": "2022-07-14T15:07:16.000",
    "date_modified": "2022-07-14T15:07:33.000",
    "request_status": "Pending",
    "responsible_agency": "Department of Parks & Parkway",
    "final_address": "3043 Behrman Hwy",
    "address_councildis": "C",
    "status": "Pending",
    "rowid": "900189",
    "final_x": "3694209.80701",
    "final_y": "519341.903863",
    "longitude": "-90.02837544991966",
    "latitude": "29.921618081235724",
    "geocoded_column": {
      "latitude": "29.921618081235724",
      "longitude": "-90.02837544991966"
    }
  },
  {
    "service_request": "2022-900188",
    "request_type": "Trash/Recycling",
    "request_reason": "Illegal Dumping",
    "date_created": "2022-07-14T15:07:02.000",
    "date_modified": "2022-07-14T15:07:02.000",
    "request_status": "Pending",
    "responsible_agency": "Department of Sanitation",
    "final_address": "2508 S Dorgenois St",
    "address_councildis": "B",
    "status": "Pending",
    "rowid": "900188",
    "final_x": "3672217.03809",
    "final_y": "529671.983681",
    "longitude": "-90.09744557393766",
    "latitude": "29.950692836990363",
    "geocoded_column": {
      "latitude": "29.950692836990363",
      "longitude": "-90.09744557393766"
    }
  },
  {
    "service_request": "2022-900187",
    "request_type": "Trash/Recycling",
    "request_reason": "Repair Trash Cart",
    "date_created": "2022-07-14T15:06:51.000",
    "date_modified": "2022-07-14T15:06:54.000",
    "request_status": "Pending",
    "responsible_agency": "Department of Sanitation",
    "final_address": "4053 St Ferdinand St",
    "address_councildis": "D",
    "status": "Assigned to Contractor",
    "contractor": "Metro Disposal",
    "rowid": "900187",
    "final_x": "3689910.38403",
    "final_y": "548251.175506",
    "longitude": "-90.04091755503674",
    "latitude": "30.00124243327375",
    "geocoded_column": {
      "latitude": "30.00124243327375",
      "longitude": "-90.04091755503674"
    }
  },
  {
    "service_request": "2022-900186",
    "request_type": "Trash/Recycling",
    "request_reason": "Order Recycling Cart",
    "date_created": "2022-07-14T15:06:31.000",
    "date_modified": "2022-07-14T15:06:31.000",
    "request_status": "Pending",
    "responsible_agency": "Department of Sanitation",
    "final_address": "2027 Harmony St",
    "address_councildis": "B",
    "status": "Pending",
    "rowid": "900186",
    "final_x": "3674151.75368",
    "final_y": "523286.828731",
    "longitude": "-90.09155521420952",
    "latitude": "29.933078233587917",
    "geocoded_column": {
      "latitude": "29.933078233587917",
      "longitude": "-90.09155521420952"
    }
  },
  {
    "service_request": "2022-900185",
    "request_type": "Trash/Recycling",
    "request_reason": "Request a Large Item Pick Up",
    "date_created": "2022-07-14T14:59:22.000",
    "date_modified": "2022-07-14T14:59:24.000",
    "request_status": "Pending",
    "responsible_agency": "Department of Sanitation",
    "final_address": "4909 Dodt Ave",
    "address_councildis": "E",
    "status": "Assigned to Contractor",
    "contractor": "Metro Disposal",
    "rowid": "900185",
    "final_x": "3705422.59255",
    "final_y": "556242.40873",
    "longitude": "-89.99161792012234",
    "latitude": "30.02272505506427",
    "geocoded_column": {
      "latitude": "30.02272505506427",
      "longitude": "-89.99161792012234"
    }
  },
  {
    "service_request": "2022-900184",
    "request_type": "Property Maintenance",
    "request_reason": "Property Maintenance",
    "date_created": "2022-07-14T14:54:52.000",
    "date_modified": "2022-07-14T14:54:52.000",
    "request_status": "Pending",
    "responsible_agency": "Department of Code Enforcement",
    "final_address": "2716 S Dorgenois St",
    "address_councildis": "B",
    "status": "Pending",
    "rowid": "900184",
    "final_x": "3671667.68583",
    "final_y": "529311.696961",
    "longitude": "-90.09919240366835",
    "latitude": "29.949718448019876",
    "geocoded_column": {
      "latitude": "29.949718448019876",
      "longitude": "-90.09919240366835"
    }
  },
  {
    "service_request": "2022-900183",
    "request_type": "Roads/Drainage",
    "request_reason": "Catch Basin - Clogged",
    "date_created": "2022-07-14T14:52:36.000",
    "date_modified": "2022-07-14T14:52:36.000",
    "request_status": "Pending",
    "responsible_agency": "Department of Public Works",
    "final_address": "920 S Carrollton Ave",
    "address_councildis": "A",
    "status": "Pending",
    "rowid": "900183",
    "final_x": "3661327.62195",
    "final_y": "527707.403967",
    "longitude": "-90.13189399798708",
    "latitude": "29.945609332135554",
    "geocoded_column": {
      "latitude": "29.945609332135554",
      "longitude": "-90.13189399798708"
    }
  },
  {
    "service_request": "2022-900182",
    "request_type": "Trash/Recycling",
    "request_reason": "Illegal Dumping",
    "date_created": "2022-07-14T14:51:37.000",
    "date_modified": "2022-07-14T14:51:37.000",
    "request_status": "Pending",
    "responsible_agency": "Department of Sanitation",
    "final_address": "2716 S Dorgenois St",
    "address_councildis": "B",
    "status": "Pending",
    "rowid": "900182",
    "final_x": "3671667.68583",
    "final_y": "529311.696961",
    "longitude": "-90.09919240366835",
    "latitude": "29.949718448019876",
    "geocoded_column": {
      "latitude": "29.949718448019876",
      "longitude": "-90.09919240366835"
    }
  },
  {
    "service_request": "2022-900181",
    "request_type": "Trash/Recycling",
    "request_reason": "Illegal Dumping",
    "date_created": "2022-07-14T14:49:54.000",
    "date_modified": "2022-07-14T14:49:54.000",
    "request_status": "Pending",
    "responsible_agency": "Department of Sanitation",
    "final_address": "2508 S Dorgenois St",
    "address_councildis": "B",
    "status": "Pending",
    "rowid": "900181",
    "final_x": "3672217.03809",
    "final_y": "529671.983681",
    "longitude": "-90.09744557393766",
    "latitude": "29.950692836990363",
    "geocoded_column": {
      "latitude": "29.950692836990363",
      "longitude": "-90.09744557393766"
    }
  },
  {
    "service_request": "2022-900180",
    "request_type": "Abandoned Vehicles",
    "request_reason": "Abandoned/Junk Vehicles",
    "date_created": "2022-07-14T14:49:53.000",
    "date_modified": "2022-07-14T14:49:53.000",
    "request_status": "Pending",
    "responsible_agency": "Department of Public Works",
    "final_address": "931 First St",
    "address_councildis": "B",
    "status": "Pending",
    "rowid": "900180",
    "final_x": "3678372.40802",
    "final_y": "521115.989881",
    "longitude": "-90.07830595953784",
    "latitude": "29.92698269077838",
    "geocoded_column": {
      "latitude": "29.92698269077838",
      "longitude": "-90.07830595953784"
    }
  },
  {
    "service_request": "2022-900179",
    "request_type": "Mosquito, Termite & Rodent Control",
    "request_reason": "Mosquito Complaint",
    "date_created": "2022-07-14T14:49:28.000",
    "date_modified": "2022-07-14T14:49:28.000",
    "request_status": "Pending",
    "responsible_agency": "Mosquito, Termite & Rodent Control Board",
    "final_address": "7340 Briarheath Dr",
    "address_councildis": "E",
    "status": "Pending",
    "rowid": "900179",
    "final_x": "3714082.76715",
    "final_y": "566499.998115",
    "longitude": "-89.9638667050817",
    "latitude": "30.050647637486808",
    "geocoded_column": {
      "latitude": "30.050647637486808",
      "longitude": "-89.9638667050817"
    }
  },
  {
    "service_request": "2022-900178",
    "request_type": "Abandoned Vehicles",
    "request_reason": "Abandoned/Junk Vehicles",
    "date_created": "2022-07-14T14:48:53.000",
    "date_modified": "2022-07-14T14:48:53.000",
    "request_status": "Pending",
    "responsible_agency": "Department of Public Works",
    "final_address": "623 S Scott St",
    "address_councildis": "B",
    "status": "Pending",
    "rowid": "900178",
    "final_x": "3670407.66298",
    "final_y": "536084.616455",
    "longitude": "-90.1029412497902",
    "latitude": "29.968378988869695",
    "geocoded_column": {
      "latitude": "29.968378988869695",
      "longitude": "-90.1029412497902"
    }
  },
  {
    "service_request": "2022-900177",
    "request_type": "Property Maintenance",
    "request_reason": "Property Maintenance",
    "date_created": "2022-07-14T14:48:16.000",
    "date_modified": "2022-07-14T14:48:16.000",
    "request_status": "Pending",
    "responsible_agency": "Department of Code Enforcement",
    "final_address": "2609 S Dorgenois St",
    "address_councildis": "B",
    "status": "Pending",
    "rowid": "900177",
    "final_x": "3671902.55463",
    "final_y": "529557.157761",
    "longitude": "-90.09844246123099",
    "latitude": "29.950386426572415",
    "geocoded_column": {
      "latitude": "29.950386426572415",
      "longitude": "-90.09844246123099"
    }
  },
  {
    "service_request": "2022-900175",
    "request_type": "Trash/Recycling",
    "request_reason": "Repair Trash Cart",
    "date_created": "2022-07-14T14:46:59.000",
    "date_modified": "2022-07-14T14:48:57.000",
    "request_status": "Pending",
    "responsible_agency": "Department of Sanitation",
    "final_address": "1810 Seventh St",
    "address_councildis": "B",
    "status": "Assigned to Contractor",
    "contractor": "Richards Disposal",
    "rowid": "900175",
    "final_x": "3674754.57077",
    "final_y": "522769.581562",
    "longitude": "-90.08966988304925",
    "latitude": "29.9316379948219",
    "geocoded_column": {
      "latitude": "29.9316379948219",
      "longitude": "-90.08966988304925"
    }
  },
  {
    "service_request": "2022-900174",
    "request_type": "Traffic Signals/Signs/Striping/Streetlights",
    "request_reason": "Street Light Outage/Malfunction",
    "date_created": "2022-07-14T14:46:33.000",
    "date_modified": "2022-07-14T14:46:34.000",
    "request_status": "Pending",
    "responsible_agency": "Department of Public Works",
    "final_address": "7559 Marquis St",
    "address_councildis": "E",
    "status": "Pending",
    "contractor": "Royal Engineering",
    "rowid": "900174",
    "final_x": "3711552.69042",
    "final_y": "565896.551267",
    "longitude": "-89.97188598103175",
    "latitude": "30.04907130470957",
    "geocoded_column": {
      "latitude": "30.04907130470957",
      "longitude": "-89.97188598103175"
    }
  },
  {
    "service_request": "2022-900173",
    "request_type": "Traffic Signals/Signs/Striping/Streetlights",
    "request_reason": "Street Light Outage/Malfunction",
    "date_created": "2022-07-14T14:45:08.000",
    "date_modified": "2022-07-14T14:45:08.000",
    "request_status": "Pending",
    "responsible_agency": "Department of Public Works",
    "final_address": "401 Vallette St, New Orleans, Louisiana, 70114",
    "address_councildis": "C",
    "status": "Pending",
    "contractor": "Royal Engineering",
    "rowid": "900173",
    "final_x": "3687518.54415",
    "final_y": "530319.365506",
    "longitude": "-90.04910846483817",
    "latitude": "29.952010240588407",
    "geocoded_column": {
      "latitude": "29.952010240588407",
      "longitude": "-90.04910846483817"
    }
  },
  {
    "service_request": "2022-900171",
    "request_type": "Trash/Recycling",
    "request_reason": "Repair Trash Cart",
    "date_created": "2022-07-14T14:41:43.000",
    "date_modified": "2022-07-14T14:41:55.000",
    "request_status": "Pending",
    "responsible_agency": "Department of Sanitation",
    "final_address": "1520 Owens Blvd",
    "address_councildis": "D",
    "status": "Assigned to Contractor",
    "contractor": "Metro Disposal",
    "rowid": "900171",
    "final_x": "3679014.71438",
    "final_y": "548960.937491",
    "longitude": "-90.07531332005463",
    "latitude": "30.003527441964415",
    "geocoded_column": {
      "latitude": "30.003527441964415",
      "longitude": "-90.07531332005463"
    }
  },
  {
    "service_request": "2022-900170",
    "request_type": "Abandoned Vehicles",
    "request_reason": "Abandoned/Junk Vehicles",
    "date_created": "2022-07-14T14:41:34.000",
    "date_modified": "2022-07-14T14:41:34.000",
    "request_status": "Pending",
    "responsible_agency": "Department of Public Works",
    "final_address": "2516 S Dorgenois St",
    "address_councildis": "B",
    "status": "Pending",
    "rowid": "900170",
    "final_x": "3672159.00916",
    "final_y": "529633.898497",
    "longitude": "-90.0976300968166",
    "latitude": "29.95058983615057",
    "geocoded_column": {
      "latitude": "29.95058983615057",
      "longitude": "-90.0976300968166"
    }
  },
  {
    "service_request": "2022-900169",
    "request_type": "Trash/Recycling",
    "request_reason": "Request a Large Item Pick Up",
    "date_created": "2022-07-14T14:40:56.000",
    "date_modified": "2022-07-14T14:40:59.000",
    "request_status": "Pending",
    "responsible_agency": "Department of Sanitation",
    "final_address": "1825 Seventh St",
    "address_councildis": "B",
    "status": "Assigned to Contractor",
    "contractor": "Richards Disposal",
    "rowid": "900169",
    "final_x": "3674744.12705",
    "final_y": "522898.942779",
    "longitude": "-90.08969842039133",
    "latitude": "29.9319940078531",
    "geocoded_column": {
      "latitude": "29.9319940078531",
      "longitude": "-90.08969842039133"
    }
  },
  {
    "service_request": "2022-900167",
    "request_type": "Trash/Recycling",
    "request_reason": "Return Recycling Cart",
    "date_created": "2022-07-14T14:39:55.000",
    "date_modified": "2022-07-14T14:39:56.000",
    "request_status": "Pending",
    "responsible_agency": "Department of Sanitation",
    "final_address": "2329 Coliseum St",
    "address_councildis": "B",
    "status": "Pending",
    "contractor": "Richards Disposal",
    "rowid": "900167",
    "final_x": "3677685.48021",
    "final_y": "522522.472442",
    "longitude": "-90.0804258640263",
    "latitude": "29.930870729532593",
    "geocoded_column": {
      "latitude": "29.930870729532593",
      "longitude": "-90.0804258640263"
    }
  },
  {
    "service_request": "2022-900166",
    "request_type": "Abandoned Vehicles",
    "request_reason": "Abandoned/Junk Vehicles",
    "date_created": "2022-07-14T14:39:19.000",
    "date_modified": "2022-07-14T14:39:19.000",
    "request_status": "Pending",
    "responsible_agency": "Department of Public Works",
    "final_address": "3837 Third St",
    "address_councildis": "B",
    "status": "Pending",
    "rowid": "900166",
    "final_x": "3672063.22279",
    "final_y": "529550.168769",
    "longitude": "-90.09793539184827",
    "latitude": "29.95036244699134",
    "geocoded_column": {
      "latitude": "29.95036244699134",
      "longitude": "-90.09793539184827"
    }
  },
  {
    "service_request": "2022-900165",
    "request_type": "Traffic Signals/Signs/Striping/Streetlights",
    "request_reason": "Street Name Sign Damaged or Missing",
    "date_created": "2022-07-14T14:39:15.000",
    "date_modified": "2022-07-14T14:39:15.000",
    "request_status": "Pending",
    "responsible_agency": "Department of Public Works",
    "final_address": "7700 Scottwood Dr",
    "address_councildis": "E",
    "status": "Pending",
    "rowid": "900165",
    "final_x": "3717042.31832",
    "final_y": "570994.599911",
    "longitude": "-89.95434173815485",
    "latitude": "30.06290834472691",
    "geocoded_column": {
      "latitude": "30.06290834472691",
      "longitude": "-89.95434173815485"
    }
  },
  {
    "service_request": "2022-900164",
    "request_type": "Roads/Drainage",
    "request_reason": "Street Subsidence (Sinking)",
    "date_created": "2022-07-14T14:36:18.000",
    "date_modified": "2022-07-14T14:36:18.000",
    "request_status": "Pending",
    "responsible_agency": "Department of Public Works",
    "final_address": "2300 Joliet St",
    "address_councildis": "A",
    "status": "Pending",
    "rowid": "900164",
    "final_x": "3663483.51386",
    "final_y": "532221.302723",
    "longitude": "-90.12493681090855",
    "latitude": "29.95795876365923",
    "geocoded_column": {
      "latitude": "29.95795876365923",
      "longitude": "-90.12493681090855"
    }
  },
  {
    "service_request": "2022-900163",
    "request_type": "Trash/Recycling",
    "request_reason": "Missed Trash Pick-Up",
    "date_created": "2022-07-14T14:36:15.000",
    "date_modified": "2022-07-14T14:36:17.000",
    "request_status": "Pending",
    "responsible_agency": "Department of Sanitation",
    "final_address": "4256 Vincennes Pl",
    "address_councildis": "B",
    "status": "Assigned to Contractor",
    "contractor": "Richards Disposal",
    "rowid": "900163",
    "final_x": "3668819.6146",
    "final_y": "531759.910531",
    "longitude": "-90.10810243700307",
    "latitude": "29.95653427301452",
    "geocoded_column": {
      "latitude": "29.95653427301452",
      "longitude": "-90.10810243700307"
    }
  },
  {
    "service_request": "2022-900162",
    "request_type": "Abandoned Vehicles",
    "request_reason": "Abandoned/Junk Vehicles",
    "date_created": "2022-07-14T14:36:01.000",
    "date_modified": "2022-07-14T14:36:01.000",
    "request_status": "Pending",
    "responsible_agency": "Department of Public Works",
    "final_address": "2609 S Dorgenois St",
    "address_councildis": "B",
    "status": "Pending",
    "rowid": "900162",
    "final_x": "3671902.55463",
    "final_y": "529557.157761",
    "longitude": "-90.09844246123099",
    "latitude": "29.950386426572415",
    "geocoded_column": {
      "latitude": "29.950386426572415",
      "longitude": "-90.09844246123099"
    }
  },
  {
    "service_request": "2022-900161",
    "request_type": "Abandoned Vehicles",
    "request_reason": "Abandoned/Junk Vehicles",
    "date_created": "2022-07-14T14:33:42.000",
    "date_modified": "2022-07-14T14:33:42.000",
    "request_status": "Pending",
    "responsible_agency": "Department of Public Works",
    "final_address": "2609 S Dorgenois St",
    "address_councildis": "B",
    "status": "Pending",
    "rowid": "900161",
    "final_x": "3671902.55463",
    "final_y": "529557.157761",
    "longitude": "-90.09844246123099",
    "latitude": "29.950386426572415",
    "geocoded_column": {
      "latitude": "29.950386426572415",
      "longitude": "-90.09844246123099"
    }
  },
  {
    "service_request": "2022-900160",
    "request_type": "Trash/Recycling",
    "request_reason": "Repair Trash Cart",
    "date_created": "2022-07-14T14:33:33.000",
    "date_modified": "2022-07-14T14:33:34.000",
    "request_status": "Pending",
    "responsible_agency": "Department of Sanitation",
    "final_address": "711 Jena St",
    "address_councildis": "B",
    "status": "Assigned to Contractor",
    "contractor": "Richards Disposal",
    "rowid": "900160",
    "final_x": "3670750.99278",
    "final_y": "518154.161014",
    "longitude": "-90.10246526698398",
    "latitude": "29.91906593737538",
    "geocoded_column": {
      "latitude": "29.91906593737538",
      "longitude": "-90.10246526698398"
    }
  },
  {
    "service_request": "2022-900159",
    "request_type": "Trash/Recycling",
    "request_reason": "Missed Trash Pick-Up",
    "date_created": "2022-07-14T14:32:20.000",
    "date_modified": "2022-07-14T14:32:21.000",
    "request_status": "Pending",
    "responsible_agency": "Department of Sanitation",
    "final_address": "6124 Providence Pl",
    "address_councildis": "D",
    "status": "Assigned to Contractor",
    "contractor": "Metro Disposal",
    "rowid": "900159",
    "final_x": "3688328.3071",
    "final_y": "556008.284313",
    "longitude": "-90.04564007041843",
    "latitude": "30.02262060033185",
    "geocoded_column": {
      "latitude": "30.02262060033185",
      "longitude": "-90.04564007041843"
    }
  },
  {
    "service_request": "2022-900158",
    "request_type": "Property Maintenance",
    "request_reason": "Property Maintenance",
    "date_created": "2022-07-14T14:31:33.000",
    "date_modified": "2022-07-14T14:31:51.000",
    "request_status": "Pending",
    "responsible_agency": "Department of Code Enforcement",
    "final_address": "5918 Babylon St",
    "address_councildis": "D",
    "status": "Pending",
    "rowid": "900158",
    "final_x": "3695925.97936",
    "final_y": "555092.603737",
    "longitude": "-90.02166645410102",
    "latitude": "30.01986586634772",
    "geocoded_column": {
      "latitude": "30.01986586634772",
      "longitude": "-90.02166645410102"
    }
  },
  {
    "service_request": "2022-900157",
    "request_type": "Trash/Recycling",
    "request_reason": "Request a Large Item Pick Up",
    "date_created": "2022-07-14T14:29:27.000",
    "date_modified": "2022-07-14T14:29:27.000",
    "request_status": "Pending",
    "responsible_agency": "Department of Sanitation",
    "final_address": "4623 Annunciation St, New Orleans, Louisiana, 70115",
    "address_councildis": "B",
    "status": "Assigned to Contractor",
    "contractor": "Richards Disposal",
    "rowid": "900157",
    "final_x": "3670201.34164",
    "final_y": "517692.369526",
    "longitude": "-90.10421587447257",
    "latitude": "29.91781238048853",
    "geocoded_column": {
      "latitude": "29.91781238048853",
      "longitude": "-90.10421587447257"
    }
  },
  {
    "service_request": "2022-900156",
    "request_type": "Abandoned Vehicles",
    "request_reason": "Abandoned/Junk Vehicles",
    "date_created": "2022-07-14T14:28:46.000",
    "date_modified": "2022-07-14T14:28:46.000",
    "request_status": "Pending",
    "responsible_agency": "Department of Public Works",
    "final_address": "2617 S Dorgenois St",
    "address_councildis": "B",
    "status": "Pending",
    "rowid": "900156",
    "final_x": "3671852.75131",
    "final_y": "529519.422145",
    "longitude": "-90.09860099840549",
    "latitude": "29.95028414180667",
    "geocoded_column": {
      "latitude": "29.95028414180667",
      "longitude": "-90.09860099840549"
    }
  },
  {
    "service_request": "2022-900155",
    "request_type": "Trash/Recycling",
    "request_reason": "MIssed Recycling Pick-Up",
    "date_created": "2022-07-14T14:26:36.000",
    "date_modified": "2022-07-14T14:26:37.000",
    "request_status": "Pending",
    "responsible_agency": "Department of Sanitation",
    "final_address": "4619 Annunciation St, New Orleans, Louisiana, 70115",
    "address_councildis": "B",
    "status": "Assigned to Contractor",
    "contractor": "Richards Disposal",
    "rowid": "900155",
    "final_x": "3670231.81102",
    "final_y": "517694.971382",
    "longitude": "-90.1041196110987",
    "latitude": "29.91781863603508",
    "geocoded_column": {
      "latitude": "29.91781863603508",
      "longitude": "-90.1041196110987"
    }
  },
  {
    "service_request": "2022-900154",
    "request_type": "Roads/Drainage",
    "request_reason": "Catch Basin - Clogged",
    "date_created": "2022-07-14T14:23:37.000",
    "date_modified": "2022-07-14T14:23:37.000",
    "request_status": "Pending",
    "responsible_agency": "Department of Public Works",
    "final_address": "2930 Burgundy St",
    "address_councildis": "C",
    "status": "Pending",
    "rowid": "900154",
    "final_x": "3688081.51555",
    "final_y": "535313.161542",
    "longitude": "-90.04715387816763",
    "latitude": "29.965724090832094",
    "geocoded_column": {
      "latitude": "29.965724090832094",
      "longitude": "-90.04715387816763"
    }
  },
  {
    "service_request": "2022-900153",
    "request_type": "Property Maintenance",
    "request_reason": "Property Maintenance",
    "date_created": "2022-07-14T14:20:22.000",
    "date_modified": "2022-07-14T14:20:22.000",
    "request_status": "Pending",
    "responsible_agency": "Department of Code Enforcement",
    "final_address": "2671 Abundance St",
    "address_councildis": "D",
    "status": "Pending",
    "rowid": "900153",
    "final_x": "3687986.27535",
    "final_y": "543991.742222",
    "longitude": "-90.04714700784501",
    "latitude": "29.989590060945584",
    "geocoded_column": {
      "latitude": "29.989590060945584",
      "longitude": "-90.04714700784501"
    }
  },
  {
    "service_request": "2022-900152",
    "request_type": "Property Maintenance",
    "request_reason": "Property Maintenance",
    "date_created": "2022-07-14T14:20:07.000",
    "date_modified": "2022-07-14T14:20:07.000",
    "request_status": "Pending",
    "responsible_agency": "Department of Code Enforcement",
    "final_address": "5164 St Ferdinand Dr",
    "address_councildis": "D",
    "status": "Pending",
    "rowid": "900152",
    "final_x": "3688968.07785",
    "final_y": "552520.632214",
    "longitude": "-90.04374257780151",
    "latitude": "30.01301106603964",
    "geocoded_column": {
      "latitude": "30.01301106603964",
      "longitude": "-90.04374257780151"
    }
  },
  {
    "service_request": "2022-900151",
    "request_type": "Traffic Signals/Signs/Striping/Streetlights",
    "request_reason": "Additional signage",
    "date_created": "2022-07-14T14:18:42.000",
    "date_modified": "2022-07-14T14:18:42.000",
    "request_status": "Pending",
    "responsible_agency": "Department of Public Works",
    "final_address": "3000 Franklin Ave",
    "address_councildis": "D",
    "status": "Pending",
    "rowid": "900151",
    "final_x": "3687229.58447",
    "final_y": "543956.548814",
    "longitude": "-90.04953842138163",
    "latitude": "29.989516624700542",
    "geocoded_column": {
      "latitude": "29.989516624700542",
      "longitude": "-90.04953842138163"
    }
  },
  {
    "service_request": "2022-900150",
    "request_type": "Property Maintenance",
    "request_reason": "Property Maintenance",
    "date_created": "2022-07-14T14:17:31.000",
    "date_modified": "2022-07-14T14:17:31.000",
    "request_status": "Pending",
    "responsible_agency": "Department of Code Enforcement",
    "final_address": "5143 St Ferdinand Dr",
    "address_councildis": "D",
    "status": "Pending",
    "rowid": "900150",
    "final_x": "3689108.85385",
    "final_y": "552387.758422",
    "longitude": "-90.04330252926833",
    "latitude": "30.012641354933873",
    "geocoded_column": {
      "latitude": "30.012641354933873",
      "longitude": "-90.04330252926833"
    }
  },
  {
    "service_request": "2022-900149",
    "request_type": "Trash/Recycling",
    "request_reason": "Repair Recycling Cart",
    "date_created": "2022-07-14T14:16:11.000",
    "date_modified": "2022-07-14T15:39:05.000",
    "request_status": "Pending",
    "responsible_agency": "Department of Sanitation",
    "final_address": "New Orleans,LA",
    "address_councildis": "D",
    "rowid": "900149",
    "final_x": "3676583.26337",
    "final_y": "549482.856531",
    "longitude": "-90.08297667769446",
    "latitude": "30.00503571168145",
    "geocoded_column": {
      "latitude": "30.00503571168145",
      "longitude": "-90.08297667769446"
    }
  },
  {
    "service_request": "2022-900148",
    "request_type": "Trash/Recycling",
    "request_reason": "Request a Large Item Pick Up",
    "date_created": "2022-07-14T14:15:51.000",
    "date_modified": "2022-07-14T14:15:52.000",
    "request_status": "Pending",
    "responsible_agency": "Department of Sanitation",
    "final_address": "3318 S Roman St, New Orleans, Louisiana, 70125",
    "address_councildis": "B",
    "status": "Assigned to Contractor",
    "contractor": "Richards Disposal",
    "rowid": "900148",
    "final_x": "3672142.74747",
    "final_y": "526940.621566",
    "longitude": "-90.09777314148151",
    "latitude": "29.943184690395363",
    "geocoded_column": {
      "latitude": "29.943184690395363",
      "longitude": "-90.09777314148151"
    }
  },
  {
    "service_request": "2022-900147",
    "request_type": "Property Maintenance",
    "request_reason": "Property Maintenance",
    "date_created": "2022-07-14T14:15:08.000",
    "date_modified": "2022-07-14T14:16:38.000",
    "request_status": "Pending",
    "responsible_agency": "Department of Code Enforcement",
    "final_address": "2460 N Rampart St",
    "address_councildis": "C",
    "status": "Pending",
    "rowid": "900147",
    "final_x": "3686348.36412",
    "final_y": "536018.401287",
    "longitude": "-90.05260220229154",
    "latitude": "29.967716633660633",
    "geocoded_column": {
      "latitude": "29.967716633660633",
      "longitude": "-90.05260220229154"
    }
  },