[
  {
    "service_request": "2022-909483",
    "request_type": "Abandoned Vehicles",
    "request_reason": "Abandoned/Junk Vehicles",
    "date_created": "2022-08-13T02:09:21.000",
    "date_modified": "2022-08-13T02:09:21.000",
    "request_status": "Pending",
    "responsible_agency": "Department of Public Works",
    "final_address": "3844 S Post Oak Ave",
    "address_councildis": "C",
    "status": "Pending",
    "rowid": "909483",
    "final_x": "3704588.31479",
    "final_y": "513880.16485",
    "longitude": "-89.9958164818271",
    "latitude": "29.906271093311684",
    "geocoded_column": {
      "latitude": "29.906271093311684",
      "longitude": "-89.9958164818271"
    }
  },
  {
    "service_request": "2022-909481",
    "request_type": "Trash/Recycling",
    "request_reason": "Missed Trash Pick-Up",
    "date_created": "2022-08-13T00:10:43.000",
    "date_modified": "2022-08-13T00:10:44.000",
    "request_status": "Pending",
    "responsible_agency": "Department of Sanitation",
    "final_address": "2329 General Meyer Ave",
    "address_councildis": "C",
    "status": "Assigned to Contractor",
    "contractor": "Richards Disposal",
    "rowid": "909481",
    "final_x": "3692652.05296",
    "final_y": "527621.965631",
    "longitude": "-90.03299598049206",
    "latitude": "29.944434123735533",
    "geocoded_column": {
      "latitude": "29.944434123735533",
      "longitude": "-90.03299598049206"
    }
  },
  {
    "service_request": "2022-909480",
    "request_type": "Trash/Recycling",
    "request_reason": "Illegal Dumping",
    "date_created": "2022-08-12T23:22:08.000",
    "date_modified": "2022-08-12T23:22:08.000",
    "request_status": "Pending",
    "responsible_agency": "Department of Sanitation",
    "final_address": "1339 Gallier St",
    "address_councildis": "C",
    "status": "Pending",
    "rowid": "909480",
    "final_x": "3690771.08188",
    "final_y": "536691.561159",
    "longitude": "-90.03861117069462",
    "latitude": "29.969430919576045",
    "geocoded_column": {
      "latitude": "29.969430919576045",
      "longitude": "-90.03861117069462"
    }
  },
  {
    "service_request": "2022-909479",
    "request_type": "Roads/Drainage",
    "request_reason": "Damaged Sidewalk",
    "date_created": "2022-08-12T22:53:15.000",
    "date_modified": "2022-08-12T22:53:15.000",
    "request_status": "Pending",
    "responsible_agency": "Department of Public Works",
    "final_address": "4817 Montegut Dr",
    "address_councildis": "D",
    "status": "Pending",
    "rowid": "909479",
    "final_x": "3689987.21008",
    "final_y": "550767.824853",
    "longitude": "-90.04058515944664",
    "latitude": "30.008159914637186",
    "geocoded_column": {
      "latitude": "30.008159914637186",
      "longitude": "-90.04058515944664"
    }
  },
  {
    "service_request": "2022-909478",
    "request_type": "Trash/Recycling",
    "request_reason": "MIssed Recycling Pick-Up",
    "date_created": "2022-08-12T22:44:46.000",
    "date_modified": "2022-08-12T22:44:47.000",
    "request_status": "Pending",
    "responsible_agency": "Department of Sanitation",
    "final_address": "7320 Hurst St",
    "address_councildis": "A",
    "status": "Assigned to Contractor",
    "contractor": "Richards Disposal",
    "rowid": "909478",
    "final_x": "3661819.1513",
    "final_y": "523847.623483",
    "longitude": "-90.13047000182155",
    "latitude": "29.934981980100186",
    "geocoded_column": {
      "latitude": "29.934981980100186",
      "longitude": "-90.13047000182155"
    }
  },
  {
    "service_request": "2022-909477",
    "request_type": "Safety & Permits",
    "request_reason": "Licenses & Permits",
    "date_created": "2022-08-12T22:43:00.000",
    "date_modified": "2022-08-12T22:43:00.000",
    "request_status": "Pending",
    "responsible_agency": "Safety and Permits",
    "final_address": "2549 Banks St",
    "address_councildis": "B",
    "status": "Pending",
    "rowid": "909477",
    "final_x": "3675148.01403",
    "final_y": "533816.262341",
    "longitude": "-90.08804882988795",
    "latitude": "29.962000967671727",
    "geocoded_column": {
      "latitude": "29.962000967671727",
      "longitude": "-90.08804882988795"
    }
  },
  {
    "service_request": "2022-909476",
    "request_type": "Health Related Questions",
    "request_reason": "Noise Ordinance Complaint",
    "date_created": "2022-08-12T22:38:41.000",
    "date_modified": "2022-08-12T22:38:41.000",
    "request_status": "Pending",
    "responsible_agency": "Health Department",
    "final_address": "2549 Banks St",
    "address_councildis": "B",
    "status": "Pending",
    "rowid": "909476",
    "final_x": "3675148.01403",
    "final_y": "533816.262341",
    "longitude": "-90.08804882988795",
    "latitude": "29.962000967671727",
    "geocoded_column": {
      "latitude": "29.962000967671727",
      "longitude": "-90.08804882988795"
    }
  },
  {
    "service_request": "2022-909475",
    "request_type": "Health Related Questions",
    "request_reason": "Noise Ordinance Complaint",
    "date_created": "2022-08-12T22:29:24.000",
    "date_modified": "2022-08-12T22:29:24.000",
    "request_status": "Pending",
    "responsible_agency": "Health Department",
    "final_address": "2549 Banks St",
    "address_councildis": "B",
    "status": "Pending",
    "rowid": "909475",
    "final_x": "3675148.01403",
    "final_y": "533816.262341",
    "longitude": "-90.08804882988795",
    "latitude": "29.962000967671727",
    "geocoded_column": {
      "latitude": "29.962000967671727",
      "longitude": "-90.08804882988795"
    }
  },
  {
    "service_request": "2022-909474",
    "request_type": "Health Related Questions",
    "request_reason": "Noise Ordinance Complaint",
    "date_created": "2022-08-12T22:27:27.000",
    "date_modified": "2022-08-12T22:27:27.000",
    "request_status": "Pending",
    "responsible_agency": "Health Department",
    "final_address": "2549 banks street",
    "address_councildis": "B",
    "status": "Pending",
    "rowid": "909474",
    "final_x": "3675148.01403",
    "final_y": "533816.262341",
    "longitude": "-90.08804882988795",
    "latitude": "29.962000967671727",
    "geocoded_column": {
      "latitude": "29.962000967671727",
      "longitude": "-90.08804882988795"
    }
  },
  {
    "service_request": "2022-909473",
    "request_type": "Mosquito, Termite & Rodent Control",
    "request_reason": "Mosquito Complaint",
    "date_created": "2022-08-12T22:23:31.000",
    "date_modified": "2022-08-12T22:23:32.000",
    "request_status": "Pending",
    "responsible_agency": "Mosquito, Termite & Rodent Control Board",
    "final_address": "4709 N Rampart St",
    "address_councildis": "E",
    "status": "Pending",
    "rowid": "909473",
    "final_x": "3694641.50806",
    "final_y": "534169.458693",
    "longitude": "-90.02647895216222",
    "latitude": "29.962375212538284",
    "geocoded_column": {
      "latitude": "29.962375212538284",
      "longitude": "-90.02647895216222"
    }
  },
  {
    "service_request": "2022-909472",
    "request_type": "Roads/Drainage",
    "request_reason": "Debris in Roadway",
    "date_created": "2022-08-12T22:19:45.000",
    "date_modified": "2022-08-12T22:19:45.000",
    "request_status": "Pending",
    "responsible_agency": "Department of Public Works",
    "final_address": "4709 N Rampart St",
    "address_councildis": "E",
    "status": "Pending",
    "rowid": "909472",
    "final_x": "3694641.50806",
    "final_y": "534169.458693",
    "longitude": "-90.02647895216222",
    "latitude": "29.962375212538284",
    "geocoded_column": {
      "latitude": "29.962375212538284",
      "longitude": "-90.02647895216222"
    }
  },
  {
    "service_request": "2022-909471",
    "request_type": "Traffic Signals/Signs/Striping/Streetlights",
    "request_reason": "Street Light Outage/Malfunction",
    "date_created": "2022-08-12T22:15:55.000",
    "date_modified": "2022-08-12T22:15:56.000",
    "request_status": "Pending",
    "responsible_agency": "Department of Public Works",
    "final_address": "828 Pleasant St",
    "address_councildis": "B",
    "status": "Pending",
    "contractor": "Legacy Professional Services",
    "rowid": "909471",
    "final_x": "3675918.42875",
    "final_y": "519094.200951",
    "longitude": "-90.08612200571268",
    "latitude": "29.9214971021942",
    "geocoded_column": {
      "latitude": "29.9214971021942",
      "longitude": "-90.08612200571268"
    }
  },
  {
    "service_request": "2022-909470",
    "request_type": "Trash/Recycling",
    "request_reason": "Replace Trash Cart",
    "date_created": "2022-08-12T22:14:40.000",
    "date_modified": "2022-08-12T22:14:40.000",
    "request_status": "Pending",
    "responsible_agency": "Department of Sanitation",
    "final_address": "2409 Palmer Ave",
    "address_councildis": "A",
    "status": "Assigned to Contractor",
    "contractor": "Richards Disposal",
    "rowid": "909470",
    "final_x": "3666412.03092",
    "final_y": "525640.332157",
    "longitude": "-90.1159101358626",
    "latitude": "29.9397779824322",
    "geocoded_column": {
      "latitude": "29.9397779824322",
      "longitude": "-90.1159101358626"
    }
  },
  {
    "service_request": "2022-909469",
    "request_type": "Health Related Questions",
    "request_reason": "Noise Ordinance Complaint",
    "date_created": "2022-08-12T21:52:08.000",
    "date_modified": "2022-08-12T21:52:08.000",
    "request_status": "Pending",
    "responsible_agency": "Health Department",
    "final_address": "3111 Grand Route St John St",
    "address_councildis": "A",
    "status": "Pending",
    "rowid": "909469",
    "final_x": "3676507.66805",
    "final_y": "540406.357323",
    "longitude": "-90.0835282619005",
    "latitude": "29.980080781175236",
    "geocoded_column": {
      "latitude": "29.980080781175236",
      "longitude": "-90.0835282619005"
    }
  },
  {
    "service_request": "2022-909468",
    "request_type": "Health Related Questions",
    "request_reason": "Noise Ordinance Complaint",
    "date_created": "2022-08-12T21:51:05.000",
    "date_modified": "2022-08-12T21:51:05.000",
    "request_status": "Pending",
    "responsible_agency": "Health Department",
    "final_address": "3111 Grand Route St John St",
    "address_councildis": "A",
    "status": "Pending",
    "rowid": "909468",
    "final_x": "3676507.66805",
    "final_y": "540406.357323",
    "longitude": "-90.0835282619005",
    "latitude": "29.980080781175236",
    "geocoded_column": {
      "latitude": "29.980080781175236",
      "longitude": "-90.0835282619005"
    }
  },
  {
    "service_request": "2022-909467",
    "request_type": "Traffic Signals/Signs/Striping/Streetlights",
    "request_reason": "Street Light Knocked Down/Leaning",
    "date_created": "2022-08-12T21:16:25.000",
    "date_modified": "2022-08-12T21:16:25.000",
    "request_status": "Pending",
    "responsible_agency": "Department of Public Works",
    "final_address": "413 S Norman C Francis Prkwy",
    "address_councildis": "B",
    "status": "Pending",
    "contractor": "Legacy Professional Services",
    "rowid": "909467",
    "final_x": "3672287.74043",
    "final_y": "535754.989063",
    "longitude": "-90.09701509516098",
    "latitude": "29.967416980080156",
    "geocoded_column": {
      "latitude": "29.967416980080156",
      "longitude": "-90.09701509516098"
    }
  },
  {
    "service_request": "2022-909466",
    "request_type": "Trash/Recycling",
    "request_reason": "Order Trash Cart",
    "date_created": "2022-08-12T21:14:29.000",
    "date_modified": "2022-08-12T21:14:30.000",
    "request_status": "Pending",
    "responsible_agency": "Department of Sanitation",
    "final_address": "409 S Norman C Francis Prkwy",
    "address_councildis": "B",
    "status": "Assigned to Contractor",
    "contractor": "Richards Disposal",
    "rowid": "909466",
    "final_x": "3672308.68571",
    "final_y": "535780.636551",
    "longitude": "-90.09694807551524",
    "latitude": "29.96748688063482",
    "geocoded_column": {
      "latitude": "29.96748688063482",
      "longitude": "-90.09694807551524"
    }
  },
  {
    "service_request": "2022-909465",
    "request_type": "Trash/Recycling",
    "request_reason": "Order Recycling Cart",
    "date_created": "2022-08-12T21:13:41.000",
    "date_modified": "2022-08-12T21:13:41.000",
    "request_status": "Pending",
    "responsible_agency": "Department of Sanitation",
    "final_address": "2736 Palmyra St",
    "address_councildis": "B",
    "status": "Pending",
    "rowid": "909465",
    "final_x": "3674548.05748",
    "final_y": "534618.990662",
    "longitude": "-90.08991589519147",
    "latitude": "29.964226115469565",
    "geocoded_column": {
      "latitude": "29.964226115469565",
      "longitude": "-90.08991589519147"
    }
  },
  {
    "service_request": "2022-909464",
    "request_type": "Trash/Recycling",
    "request_reason": "Replace Trash Cart",
    "date_created": "2022-08-12T21:12:48.000",
    "date_modified": "2022-08-12T21:12:50.000",
    "request_status": "Pending",
    "responsible_agency": "Department of Sanitation",
    "final_address": "2736 Palmyra St",
    "address_councildis": "B",
    "status": "Assigned to Contractor",
    "contractor": "Richards Disposal",
    "rowid": "909464",
    "final_x": "3674548.05748",
    "final_y": "534618.990662",
    "longitude": "-90.08991589519147",
    "latitude": "29.964226115469565",
    "geocoded_column": {
      "latitude": "29.964226115469565",
      "longitude": "-90.08991589519147"
    }
  },
  {
    "service_request": "2022-909463",
    "request_type": "Trash/Recycling",
    "request_reason": "Illegal Dumping",
    "date_created": "2022-08-12T21:04:38.000",
    "date_modified": "2022-08-12T21:04:38.000",
    "request_status": "Pending",
    "responsible_agency": "Department of Sanitation",
    "final_address": "9126 Fig St",
    "address_councildis": "A",
    "status": "Pending",
    "rowid": "909463",
    "final_x": "3663512.23226",
    "final_y": "535636.596102",
    "longitude": "-90.12473237342607",
    "latitude": "29.96734887039365",
    "geocoded_column": {
      "latitude": "29.96734887039365",
      "longitude": "-90.12473237342607"
    }
  },
  {
    "service_request": "2022-909462",
    "request_type": "Roads/Drainage",
    "request_reason": "Catch Basin - Clogged",
    "date_created": "2022-08-12T20:58:22.000",
    "date_modified": "2022-08-12T20:58:22.000",
    "request_status": "Pending",
    "responsible_agency": "Department of Public Works",
    "final_address": "2285 Bayou Rd",
    "address_councildis": "D",
    "status": "Pending",
    "rowid": "909462",
    "final_x": "3679201.59349",
    "final_y": "538461.159433",
    "longitude": "-90.07508718367306",
    "latitude": "29.97465108999283",
    "geocoded_column": {
      "latitude": "29.97465108999283",
      "longitude": "-90.07508718367306"
    }
  },
  {
    "service_request": "2022-909461",
    "request_type": "Roads/Drainage",
    "request_reason": "Street Subsidence (Sinking)",
    "date_created": "2022-08-12T20:54:55.000",
    "date_modified": "2022-08-12T20:54:55.000",
    "request_status": "Pending",
    "responsible_agency": "Department of Public Works",
    "final_address": "2001 Elysian Fields Ave",
    "address_councildis": "D",
    "status": "Pending",
    "rowid": "909461",
    "final_x": "3684853.99407",
    "final_y": "539663.065098",
    "longitude": "-90.05719326657642",
    "latitude": "29.977784031051165",
    "geocoded_column": {
      "latitude": "29.977784031051165",
      "longitude": "-90.05719326657642"
    }
  },
  {
    "service_request": "2022-909460",
    "request_type": "Abandoned Vehicles",
    "request_reason": "Abandoned/Junk Vehicles",
    "date_created": "2022-08-12T20:45:28.000",
    "date_modified": "2022-08-12T20:45:28.000",
    "request_status": "Pending",
    "responsible_agency": "Department of Public Works",
    "final_address": "2212 N Johnson St",
    "address_councildis": "D",
    "status": "Pending",
    "rowid": "909460",
    "final_x": "3684904.88425",
    "final_y": "539589.047562",
    "longitude": "-90.05703514198156",
    "latitude": "29.97757895025821",
    "geocoded_column": {
      "latitude": "29.97757895025821",
      "longitude": "-90.05703514198156"
    }
  },
  {
    "service_request": "2022-909459",
    "request_type": "Abandoned Vehicles",
    "request_reason": "Abandoned/Junk Vehicles",
    "date_created": "2022-08-12T20:38:19.000",
    "date_modified": "2022-08-12T20:38:19.000",
    "request_status": "Pending",
    "responsible_agency": "Department of Public Works",
    "final_address": "2318 St Charles Ave",
    "address_councildis": "B",
    "status": "Pending",
    "rowid": "909459",
    "final_x": "3677193.94946",
    "final_y": "523287.580027",
    "longitude": "-90.0819511810665",
    "latitude": "29.9329892946447",
    "geocoded_column": {
      "latitude": "29.9329892946447",
      "longitude": "-90.0819511810665"
    }
  },
  {
    "service_request": "2022-909458",
    "request_type": "Trash/Recycling",
    "request_reason": "MIssed Recycling Pick-Up",
    "date_created": "2022-08-12T20:38:18.000",
    "date_modified": "2022-08-12T20:38:19.000",
    "request_status": "Pending",
    "responsible_agency": "Department of Sanitation",
    "final_address": "1106 Nashville Ave",
    "address_councildis": "A",
    "status": "Assigned to Contractor",
    "contractor": "Richards Disposal",
    "rowid": "909458",
    "final_x": "3665699.4457",
    "final_y": "520107.234936",
    "longitude": "-90.11834510798866",
    "latitude": "29.924584520037666",
    "geocoded_column": {
      "latitude": "29.924584520037666",
      "longitude": "-90.11834510798866"
    }
  },
  {
    "service_request": "2022-909456",
    "request_type": "Trash/Recycling",
    "request_reason": "Missed Trash Pick-Up",
    "date_created": "2022-08-12T20:29:06.000",
    "date_modified": "2022-08-12T20:29:07.000",
    "request_status": "Pending",
    "responsible_agency": "Department of Sanitation",
    "final_address": "7707 Sycamore St",
    "address_councildis": "A",
    "status": "Assigned to Contractor",
    "contractor": "Richards Disposal",
    "rowid": "909456",
    "final_x": "3665391.15495",
    "final_y": "530050.471937",
    "longitude": "-90.11898564100774",
    "latitude": "29.951934230638987",
    "geocoded_column": {
      "latitude": "29.951934230638987",
      "longitude": "-90.11898564100774"
    }
  },
  {
    "service_request": "2022-909453",
    "request_type": "Abandoned Vehicles",
    "request_reason": "Vehicle Blocking Your Driveway",
    "date_created": "2022-08-12T20:13:32.000",
    "date_modified": "2022-08-12T20:13:32.000",
    "request_status": "Pending",
    "responsible_agency": "Department of Public Works",
    "final_address": "3111 Grand Route St John St",
    "address_councildis": "A",
    "status": "Pending",
    "rowid": "909453",
    "final_x": "3676507.66805",
    "final_y": "540406.357323",
    "longitude": "-90.0835282619005",
    "latitude": "29.980080781175236",
    "geocoded_column": {
      "latitude": "29.980080781175236",
      "longitude": "-90.0835282619005"
    }
  },
  {
    "service_request": "2022-909452",
    "request_type": "Trash/Recycling",
    "request_reason": "Missed Trash Pick-Up",
    "date_created": "2022-08-12T20:00:16.000",
    "date_modified": "2022-08-12T20:00:16.000",
    "request_status": "Pending",
    "responsible_agency": "Department of Sanitation",
    "final_address": "1465 Casa Calvo St",
    "address_councildis": "C",
    "status": "Assigned to Contractor",
    "contractor": "Richards Disposal",
    "rowid": "909452",
    "final_x": "3691988.65161",
    "final_y": "525658.168829",
    "longitude": "-90.03516076821855",
    "latitude": "29.939055039847247",
    "geocoded_column": {
      "latitude": "29.939055039847247",
      "longitude": "-90.03516076821855"
    }
  },
  {
    "service_request": "2022-909450",
    "request_type": "Trash/Recycling",
    "request_reason": "Missed Trash Pick-Up",
    "date_created": "2022-08-12T19:53:40.000",
    "date_modified": "2022-08-12T19:53:40.000",
    "request_status": "Pending",
    "responsible_agency": "Department of Sanitation",
    "final_address": "2111 S Gayoso St",
    "address_councildis": "A",
    "status": "Assigned to Contractor",
    "contractor": "Richards Disposal",
    "rowid": "909450",
    "final_x": "3669668.59054",
    "final_y": "529088.619072",
    "longitude": "-90.10551202685355",
    "latitude": "29.94916410981376",
    "geocoded_column": {
      "latitude": "29.94916410981376",
      "longitude": "-90.10551202685355"
    }
  },
  {
    "service_request": "2022-909449",
    "request_type": "Abandoned Vehicles",
    "request_reason": "Abandoned/Junk Vehicles",
    "date_created": "2022-08-12T19:27:45.000",
    "date_modified": "2022-08-12T19:27:45.000",
    "request_status": "Pending",
    "responsible_agency": "Department of Public Works",
    "final_address": "523 Dumaine St",
    "address_councildis": "C",
    "status": "Pending",
    "rowid": "909449",
    "final_x": "3683459.44309",
    "final_y": "532727.788164",
    "longitude": "-90.06184079416222",
    "latitude": "29.95875704914484",
    "geocoded_column": {
      "latitude": "29.95875704914484",
      "longitude": "-90.06184079416222"
    }
  },
  {
    "service_request": "2022-909448",
    "request_type": "Property Maintenance",
    "request_reason": "Property Maintenance",
    "date_created": "2022-08-12T19:27:25.000",
    "date_modified": "2022-08-12T19:27:25.000",
    "request_status": "Pending",
    "responsible_agency": "Department of Code Enforcement",
    "final_address": "5918 Babylon St",
    "address_councildis": "D",
    "status": "Pending",
    "rowid": "909448",
    "final_x": "3695925.97936",
    "final_y": "555092.603737",
    "longitude": "-90.02166645410102",
    "latitude": "30.01986586634772",
    "geocoded_column": {
      "latitude": "30.01986586634772",
      "longitude": "-90.02166645410102"
    }
  },
  {
    "service_request": "2022-909446",
    "request_type": "Trash/Recycling",
    "request_reason": "MIssed Recycling Pick-Up",
    "date_created": "2022-08-12T19:26:14.000",
    "date_modified": "2022-08-12T20:23:22.000",
    "request_status": "Pending",
    "responsible_agency": "Department of Sanitation",
    "final_address": "New Orleans,LA",
    "status": "Assigned to Contractor",
    "rowid": "909446",
    "longitude": "0.0",
    "latitude": "0.0",
    "geocoded_column": {
      "latitude": "0.0",
      "longitude": "0.0"
    }
  },
  {
    "service_request": "2022-909445",
    "request_type": "Roads/Drainage",
    "request_reason": "Unpermitted work in ROW",
    "date_created": "2022-08-12T19:21:09.000",
    "date_modified": "2022-08-12T19:21:09.000",
    "request_status": "Pending",
    "responsible_agency": "Department of Public Works",
    "final_address": "4219 Duplessis St",
    "address_councildis": "D",
    "status": "Pending",
    "rowid": "909445",
    "final_x": "3678379.0525",
    "final_y": "547812.602706",
    "longitude": "-90.07736124296521",
    "latitude": "30.000389103477097",
    "geocoded_column": {
      "latitude": "30.000389103477097",
      "longitude": "-90.07736124296521"
    }
  },
  {
    "service_request": "2022-909444",
    "request_type": "Traffic Signals/Signs/Striping/Streetlights",
    "request_reason": "Traffic Sign Missing/Damaged",
    "date_created": "2022-08-12T19:19:19.000",
    "date_modified": "2022-08-12T19:19:20.000",
    "request_status": "Pending",
    "responsible_agency": "Department of Public Works",
    "final_address": "FRENCHMEN ST & GENTILLY BLVD",
    "address_councildis": "D",
    "status": "Pending",
    "rowid": "909444",
    "final_x": "3683717.22",
    "final_y": "547124.61",
    "longitude": "-90.06052181161657",
    "latitude": "29.998335401764866",
    "geocoded_column": {
      "latitude": "29.998335401764866",
      "longitude": "-90.06052181161657"
    }
  },
  {
    "service_request": "2022-909442",
    "request_type": "Trash/Recycling",
    "request_reason": "Replace Trash Cart",
    "date_created": "2022-08-12T19:07:44.000",
    "date_modified": "2022-08-12T19:07:44.000",
    "request_status": "Pending",
    "responsible_agency": "Department of Sanitation",
    "final_address": "1725 Second St",
    "address_councildis": "B",
    "status": "Assigned to Contractor",
    "contractor": "Richards Disposal",
    "rowid": "909442",
    "final_x": "3676400.13096",
    "final_y": "523553.212667",
    "longitude": "-90.08444807101502",
    "latitude": "29.933743511681364",
    "geocoded_column": {
      "latitude": "29.933743511681364",
      "longitude": "-90.08444807101502"
    }
  },
  {
    "service_request": "2022-909441",
    "request_type": "Roads/Drainage",
    "request_reason": "Accessibility Ramps, Curbs and Sidewalk Repair",
    "date_created": "2022-08-12T19:05:23.000",
    "date_modified": "2022-08-12T19:05:23.000",
    "request_status": "Pending",
    "responsible_agency": "Department of Public Works",
    "final_address": "4601 Gawain Dr",
    "address_councildis": "E",
    "status": "Pending",
    "rowid": "909441",
    "final_x": "3707146.97931",
    "final_y": "554431.299736",
    "longitude": "-89.98623658278929",
    "latitude": "30.01768957555956",
    "geocoded_column": {
      "latitude": "30.01768957555956",
      "longitude": "-89.98623658278929"
    }
  },
  {
    "service_request": "2022-909440",
    "request_type": "Trash/Recycling",
    "request_reason": "Missed Trash Pick-Up",
    "date_created": "2022-08-12T18:51:59.000",
    "date_modified": "2022-08-12T18:52:00.000",
    "request_status": "Pending",
    "responsible_agency": "Department of Sanitation",
    "final_address": "3400 Nashville Ave",
    "address_councildis": "A",
    "status": "Assigned to Contractor",
    "contractor": "Richards Disposal",
    "rowid": "909440",
    "final_x": "3667993.44583",
    "final_y": "528194.613376",
    "longitude": "-90.1108313290352",
    "latitude": "29.94675513491268",
    "geocoded_column": {
      "latitude": "29.94675513491268",
      "longitude": "-90.1108313290352"
    }
  },
  {
    "service_request": "2022-909439",
    "request_type": "Trash/Recycling",
    "request_reason": "Request a Large Item Pick Up",
    "date_created": "2022-08-12T18:47:52.000",
    "date_modified": "2022-08-12T18:47:53.000",
    "request_status": "Pending",
    "responsible_agency": "Department of Sanitation",
    "final_address": "1106 Bordeaux St",
    "address_councildis": "B",
    "status": "Assigned to Contractor",
    "contractor": "Richards Disposal",
    "rowid": "909439",
    "final_x": "3669473.27796",
    "final_y": "519452.036791",
    "longitude": "-90.10645450503816",
    "latitude": "29.922672363377202",
    "geocoded_column": {
      "latitude": "29.922672363377202",
      "longitude": "-90.10645450503816"
    }
  },
  {
    "service_request": "2022-909438",
    "request_type": "Roads/Drainage",
    "request_reason": "Catch Basin - Broken/Damage",
    "date_created": "2022-08-12T18:45:48.000",
    "date_modified": "2022-08-12T18:45:49.000",
    "request_status": "Pending",
    "responsible_agency": "Department of Public Works",
    "final_address": "2503 Jasmine St",
    "address_councildis": "D",
    "status": "Pending",
    "rowid": "909438",
    "final_x": "3686305.16022",
    "final_y": "548082.35349",
    "longitude": "-90.05231271222033",
    "latitude": "30.000889552598764",
    "geocoded_column": {
      "latitude": "30.000889552598764",
      "longitude": "-90.05231271222033"
    }
  },
  {
    "service_request": "2022-909437",
    "request_type": "Trash/Recycling",
    "request_reason": "Missed Trash Pick-Up",
    "date_created": "2022-08-12T18:45:06.000",
    "date_modified": "2022-08-12T18:45:06.000",
    "request_status": "Pending",
    "responsible_agency": "Department of Sanitation",
    "final_address": "5234 Perrier St, New Orleans, Louisiana, 70115",
    "address_councildis": "B",
    "status": "Assigned to Contractor",
    "contractor": "Richards Disposal",
    "rowid": "909437",
    "final_x": "3667779.62036",
    "final_y": "519868.887928",
    "longitude": "-90.11178669793934",
    "latitude": "29.92386832742766",
    "geocoded_column": {
      "latitude": "29.92386832742766",
      "longitude": "-90.11178669793934"
    }
  },
  {
    "service_request": "2022-909436",
    "request_type": "Trash/Recycling",
    "request_reason": "Request a Large Item Pick Up",
    "date_created": "2022-08-12T18:43:04.000",
    "date_modified": "2022-08-12T18:43:05.000",
    "request_status": "Pending",
    "responsible_agency": "Department of Sanitation",
    "final_address": "754 Delachaise St",
    "address_councildis": "B",
    "status": "Assigned to Contractor",
    "contractor": "Richards Disposal",
    "rowid": "909436",
    "final_x": "3675137.00693",
    "final_y": "518297.811894",
    "longitude": "-90.08861592492855",
    "latitude": "29.91933065216286",
    "geocoded_column": {
      "latitude": "29.91933065216286",
      "longitude": "-90.08861592492855"
    }
  },
  {
    "service_request": "2022-909435",
    "request_type": "Trash/Recycling",
    "request_reason": "MIssed Recycling Pick-Up",
    "date_created": "2022-08-12T18:36:59.000",
    "date_modified": "2022-08-12T18:37:00.000",
    "request_status": "Pending",
    "responsible_agency": "Department of Sanitation",
    "final_address": "4114 Willow St",
    "address_councildis": "B",
    "status": "Assigned to Contractor",
    "contractor": "Richards Disposal",
    "rowid": "909435",
    "final_x": "3671445.98523",
    "final_y": "525499.442557",
    "longitude": "-90.1000219746371",
    "latitude": "29.93924255746779",
    "geocoded_column": {
      "latitude": "29.93924255746779",
      "longitude": "-90.1000219746371"
    }
  },
  {
    "service_request": "2022-909434",
    "request_type": "Trash/Recycling",
    "request_reason": "Missed Trash Pick-Up",
    "date_created": "2022-08-12T18:18:42.000",
    "date_modified": "2022-08-12T18:18:43.000",
    "request_status": "Pending",
    "responsible_agency": "Department of Sanitation",
    "final_address": "1338 Sumner St",
    "address_councildis": "C",
    "status": "Assigned to Contractor",
    "contractor": "Richards Disposal",
    "rowid": "909434",
    "final_x": "3691087.53801",
    "final_y": "526299.911998",
    "longitude": "-90.03798277722184",
    "latitude": "29.940847655378747",
    "geocoded_column": {
      "latitude": "29.940847655378747",
      "longitude": "-90.03798277722184"
    }
  },
  {
    "service_request": "2022-909433",
    "request_type": "Traffic Signals/Signs/Striping/Streetlights",
    "request_reason": "Request for Stop Sign",
    "date_created": "2022-08-12T18:07:59.000",
    "date_modified": "2022-08-12T18:07:59.000",
    "request_status": "Pending",
    "responsible_agency": "Department of Public Works",
    "final_address": "BELFAST ST & MONROE ST",
    "address_councildis": "A",
    "status": "Pending",
    "rowid": "909433",
    "final_x": "3664020.1",
    "final_y": "533791.38",
    "longitude": "-90.12319005468927",
    "latitude": "29.962260392732436",
    "geocoded_column": {
      "latitude": "29.962260392732436",
      "longitude": "-90.12319005468927"
    }
  },
  {
    "service_request": "2022-909432",
    "request_type": "Trash/Recycling",
    "request_reason": "MIssed Recycling Pick-Up",
    "date_created": "2022-08-12T17:56:36.000",
    "date_modified": "2022-08-12T17:56:37.000",
    "request_status": "Pending",
    "responsible_agency": "Department of Sanitation",
    "final_address": "318 N Gayoso St",
    "address_councildis": "B",
    "status": "Assigned to Contractor",
    "contractor": "Richards Disposal",
    "rowid": "909432",
    "final_x": "3674968.26197",
    "final_y": "536632.399687",
    "longitude": "-90.08851984922362",
    "latitude": "29.96974976470423",
    "geocoded_column": {
      "latitude": "29.96974976470423",
      "longitude": "-90.08851984922362"
    }
  },
  {
    "service_request": "2022-909431",
    "request_type": "Trash/Recycling",
    "request_reason": "MIssed Recycling Pick-Up",
    "date_created": "2022-08-12T17:54:45.000",
    "date_modified": "2022-08-12T17:54:45.000",
    "request_status": "Pending",
    "responsible_agency": "Department of Sanitation",
    "final_address": "2520 Short St",
    "address_councildis": "A",
    "status": "Assigned to Contractor",
    "contractor": "Richards Disposal",
    "rowid": "909431",
    "final_x": "3665518.3154",
    "final_y": "531693.499907",
    "longitude": "-90.11852912526307",
    "latitude": "29.956448316640127",
    "geocoded_column": {
      "latitude": "29.956448316640127",
      "longitude": "-90.11852912526307"
    }
  },
  {
    "service_request": "2022-909429",
    "request_type": "Traffic Signals/Signs/Striping/Streetlights",
    "request_reason": "Street Light Outage/Malfunction",
    "date_created": "2022-08-12T17:51:41.000",
    "date_modified": "2022-08-12T17:51:41.000",
    "request_status": "Pending",
    "responsible_agency": "Department of Public Works",
    "final_address": "2722 Hudson Pl",
    "address_councildis": "C",
    "status": "Pending",
    "contractor": "Legacy Professional Services",
    "rowid": "909429",
    "final_x": "3703438.01444",
    "final_y": "520766.710329",
    "longitude": "-89.99919383653372",
    "latitude": "29.925243599060632",
    "geocoded_column": {
      "latitude": "29.925243599060632",
      "longitude": "-89.99919383653372"
    }
  },
  {
    "service_request": "2022-909430",
    "request_type": "Trash/Recycling",
    "request_reason": "Missed Trash Pick-Up",
    "date_created": "2022-08-12T17:51:41.000",
    "date_modified": "2022-08-12T17:51:42.000",
    "request_status": "Pending",
    "responsible_agency": "Department of Sanitation",
    "final_address": "2128 S Salcedo St",
    "address_councildis": "A",
    "status": "Assigned to Contractor",
    "contractor": "Richards Disposal",
    "rowid": "909430",
    "final_x": "3669417.01377",
    "final_y": "529097.387136",
    "longitude": "-90.10630607116478",
    "latitude": "29.949195629177396",
    "geocoded_column": {
      "latitude": "29.949195629177396",
      "longitude": "-90.10630607116478"
    }
  },
  {
    "service_request": "2022-909428",
    "request_type": "Trash/Recycling",
    "request_reason": "MIssed Recycling Pick-Up",
    "date_created": "2022-08-12T17:46:18.000",
    "date_modified": "2022-08-12T17:46:18.000",
    "request_status": "Pending",
    "responsible_agency": "Department of Sanitation",
    "final_address": "7315 St Charles Ave",
    "address_councildis": "A",
    "status": "Assigned to Contractor",
    "contractor": "Richards Disposal",
    "rowid": "909428",
    "final_x": "3662687.03047",
    "final_y": "525079.394045",
    "longitude": "-90.127689185199",
    "latitude": "29.938343879139772",
    "geocoded_column": {
      "latitude": "29.938343879139772",
      "longitude": "-90.127689185199"
    }
  },
  {
    "service_request": "2022-909427",
    "request_type": "Trash/Recycling",
    "request_reason": "Request a Large Item Pick Up",
    "date_created": "2022-08-12T17:43:31.000",
    "date_modified": "2022-08-12T17:43:32.000",
    "request_status": "Pending",
    "responsible_agency": "Department of Sanitation",
    "final_address": "1910 France St",
    "address_councildis": "D",
    "status": "Assigned to Contractor",
    "contractor": "Metro Disposal",
    "rowid": "909427",
    "final_x": "3693121.58269",
    "final_y": "538280.737481",
    "longitude": "-90.03113109486094",
    "latitude": "29.973727352381232",
    "geocoded_column": {
      "latitude": "29.973727352381232",
      "longitude": "-90.03113109486094"
    }
  },
  {
    "service_request": "2022-909426",
    "request_type": "Trash/Recycling",
    "request_reason": "Request a Large Item Pick Up",
    "date_created": "2022-08-12T17:42:31.000",
    "date_modified": "2022-08-12T17:42:32.000",
    "request_status": "Pending",
    "responsible_agency": "Department of Sanitation",
    "final_address": "1916 France St",
    "address_councildis": "D",
    "status": "Assigned to Contractor",
    "contractor": "Metro Disposal",
    "rowid": "909426",
    "final_x": "3693129.90083",
    "final_y": "538314.505033",
    "longitude": "-90.03110361247862",
    "latitude": "29.97381994119079",
    "geocoded_column": {
      "latitude": "29.97381994119079",
      "longitude": "-90.03110361247862"
    }
  },
  {
    "service_request": "2022-909425",
    "request_type": "Traffic Signals/Signs/Striping/Streetlights",
    "request_reason": "Street Light Outage/Malfunction",
    "date_created": "2022-08-12T17:41:16.000",
    "date_modified": "2022-08-12T17:41:17.000",
    "request_status": "Pending",
    "responsible_agency": "Department of Public Works",
    "final_address": "11258 Asphodel Dr",
    "address_councildis": "E",
    "status": "Pending",
    "contractor": "Legacy Professional Services",
    "rowid": "909425",
    "final_x": "3717773.41106",
    "final_y": "559681.535709",
    "longitude": "-89.95246171234604",
    "latitude": "30.03177783975883",
    "geocoded_column": {
      "latitude": "30.03177783975883",
      "longitude": "-89.95246171234604"
    }
  },
  {
    "service_request": "2022-909424",
    "request_type": "Trash/Recycling",
    "request_reason": "Request a Large Item Pick Up",
    "date_created": "2022-08-12T17:41:07.000",
    "date_modified": "2022-08-12T17:41:08.000",
    "request_status": "Pending",
    "responsible_agency": "Department of Sanitation",
    "final_address": "2526 St Ann St",
    "address_councildis": "D",
    "status": "Assigned to Contractor",
    "contractor": "Richards Disposal",
    "rowid": "909424",
    "final_x": "3677545.44398",
    "final_y": "536703.507911",
    "longitude": "-90.08037841428512",
    "latitude": "29.96986805176188",
    "geocoded_column": {
      "latitude": "29.96986805176188",
      "longitude": "-90.08037841428512"
    }
  },
  {
    "service_request": "2022-909422",
    "request_type": "Trash/Recycling",
    "request_reason": "Illegal Dumping",
    "date_created": "2022-08-12T17:36:05.000",
    "date_modified": "2022-08-12T17:36:05.000",
    "request_status": "Pending",
    "responsible_agency": "Department of Sanitation",
    "final_address": "3218 Milan St",
    "address_councildis": "B",
    "status": "Pending",
    "rowid": "909422",
    "final_x": "3670952.24609",
    "final_y": "526820.910398",
    "longitude": "-90.10153592486303",
    "latitude": "29.942890767984302",
    "geocoded_column": {
      "latitude": "29.942890767984302",
      "longitude": "-90.10153592486303"
    }
  },
  {
    "service_request": "2022-909421",
    "request_type": "Trash/Recycling",
    "request_reason": "Replace Trash Cart",
    "date_created": "2022-08-12T17:30:12.000",
    "date_modified": "2022-08-12T17:30:13.000",
    "request_status": "Pending",
    "responsible_agency": "Department of Sanitation",
    "final_address": "5757 Tullis Dr Apt D",
    "address_councildis": "C",
    "status": "Assigned to Contractor",
    "contractor": "Richards Disposal",
    "rowid": "909421",
    "final_x": "3705415.71326",
    "final_y": "512711.324913",
    "longitude": "-89.99324830782639",
    "latitude": "29.903030599944334",
    "geocoded_column": {
      "latitude": "29.903030599944334",
      "longitude": "-89.99324830782639"
    }
  },
  {
    "service_request": "2022-909420",
    "request_type": "Trash/Recycling",
    "request_reason": "Missed Trash Pick-Up",
    "date_created": "2022-08-12T17:28:35.000",
    "date_modified": "2022-08-12T17:28:35.000",
    "request_status": "Pending",
    "responsible_agency": "Department of Sanitation",
    "final_address": "2231 Wirth Pl",
    "address_councildis": "A",
    "status": "Assigned to Contractor",
    "contractor": "Richards Disposal",
    "rowid": "909420",
    "final_x": "3667151.38125",
    "final_y": "524461.921532",
    "longitude": "-90.11361549587174",
    "latitude": "29.936516110759136",
    "geocoded_column": {
      "latitude": "29.936516110759136",
      "longitude": "-90.11361549587174"
    }
  },
  {
    "service_request": "2022-909419",
    "request_type": "Trash/Recycling",
    "request_reason": "Replace Recycling Cart",
    "date_created": "2022-08-12T17:24:22.000",
    "date_modified": "2022-08-12T17:24:23.000",
    "request_status": "Pending",
    "responsible_agency": "Department of Sanitation",
    "final_address": "3810 Octavia St",
    "address_councildis": "A",
    "status": "Pending",
    "rowid": "909419",
    "final_x": "3668736.84084",
    "final_y": "529489.897857",
    "longitude": "-90.10844043515104",
    "latitude": "29.950294915657583",
    "geocoded_column": {
      "latitude": "29.950294915657583",
      "longitude": "-90.10844043515104"
    }
  },
  {
    "service_request": "2022-909418",
    "request_type": "Trash/Recycling",
    "request_reason": "Missed Trash Pick-Up",
    "date_created": "2022-08-12T17:23:31.000",
    "date_modified": "2022-08-12T17:23:32.000",
    "request_status": "Pending",
    "responsible_agency": "Department of Sanitation",
    "final_address": "3810 Octavia St",
    "address_councildis": "A",
    "status": "Assigned to Contractor",
    "contractor": "Richards Disposal",
    "rowid": "909418",
    "final_x": "3668736.84084",
    "final_y": "529489.897857",
    "longitude": "-90.10844043515104",
    "latitude": "29.950294915657583",
    "geocoded_column": {
      "latitude": "29.950294915657583",
      "longitude": "-90.10844043515104"
    }
  },
  {
    "service_request": "2022-909417",
    "request_type": "Property Maintenance",
    "request_reason": "Property Maintenance",
    "date_created": "2022-08-12T17:20:30.000",
    "date_modified": "2022-08-12T17:20:31.000",
    "request_status": "Pending",
    "responsible_agency": "Department of Code Enforcement",
    "final_address": "2371 St Claude Ave",
    "address_councildis": "C",
    "status": "Pending",
    "rowid": "909417",
    "final_x": "3686365.00681",
    "final_y": "536530.196167",
    "longitude": "-90.05253157805028",
    "latitude": "29.969123379874127",
    "geocoded_column": {
      "latitude": "29.969123379874127",
      "longitude": "-90.05253157805028"
    }
  },
  {
    "service_request": "2022-909416",
    "request_type": "Trash/Recycling",
    "request_reason": "MIssed Recycling Pick-Up",
    "date_created": "2022-08-12T17:12:37.000",
    "date_modified": "2022-08-12T17:12:38.000",
    "request_status": "Pending",
    "responsible_agency": "Department of Sanitation",
    "final_address": "4617 Chestnut St",
    "address_councildis": "B",
    "status": "Assigned to Contractor",
    "contractor": "Richards Disposal",
    "rowid": "909416",
    "final_x": "3670079.27028",
    "final_y": "519463.042423",
    "longitude": "-90.10454125089134",
    "latitude": "29.92268477016624",
    "geocoded_column": {
      "latitude": "29.92268477016624",
      "longitude": "-90.10454125089134"
    }
  },
  {
    "service_request": "2022-909415",
    "request_type": "Traffic Signals/Signs/Striping/Streetlights",
    "request_reason": "Street Light Outage/Malfunction",
    "date_created": "2022-08-12T17:11:35.000",
    "date_modified": "2022-08-12T17:11:35.000",
    "request_status": "Pending",
    "responsible_agency": "Department of Public Works",
    "final_address": "318 22Nd St",
    "address_councildis": "A",
    "status": "Pending",
    "contractor": "Legacy Professional Services",
    "rowid": "909415",
    "final_x": "3665041.80922",
    "final_y": "549276.337747",
    "longitude": "-90.11944560022026",
    "latitude": "30.004809102764394",
    "geocoded_column": {
      "latitude": "30.004809102764394",
      "longitude": "-90.11944560022026"
    }
  },
  {
    "service_request": "2022-909414",
    "request_type": "Property Maintenance",
    "request_reason": "Property Maintenance",
    "date_created": "2022-08-12T16:57:06.000",
    "date_modified": "2022-08-12T16:57:06.000",
    "request_status": "Pending",
    "responsible_agency": "Department of Code Enforcement",
    "final_address": "2718 Verbena St",
    "address_councildis": "D",
    "status": "Pending",
    "rowid": "909414",
    "final_x": "3687900.46268",
    "final_y": "547786.360594",
    "longitude": "-90.04728353733762",
    "latitude": "30.00002654289826",
    "geocoded_column": {
      "latitude": "30.00002654289826",
      "longitude": "-90.04728353733762"
    }
  },
  {
    "service_request": "2022-909412",
    "request_type": "Roads/Drainage",
    "request_reason": "Catch Basin - Clogged",
    "date_created": "2022-08-12T16:55:55.000",
    "date_modified": "2022-08-12T16:55:55.000",
    "request_status": "Pending",
    "responsible_agency": "Department of Public Works",
    "final_address": "6463 Memphis St",
    "address_councildis": "A",
    "status": "Pending",
    "rowid": "909412",
    "final_x": "3669554.05946",
    "final_y": "550463.34754",
    "longitude": "-90.10515025865587",
    "latitude": "30.007940753688384",
    "geocoded_column": {
      "latitude": "30.007940753688384",
      "longitude": "-90.10515025865587"
    }
  },
  {
    "service_request": "2022-909411",
    "request_type": "Roads/Drainage",
    "request_reason": "Catch Basin - Clogged",
    "date_created": "2022-08-12T16:51:59.000",
    "date_modified": "2022-08-12T16:51:59.000",
    "request_status": "Pending",
    "responsible_agency": "Department of Public Works",
    "final_address": "6441 Memphis St",
    "address_councildis": "A",
    "status": "Pending",
    "rowid": "909411",
    "final_x": "3669558.37914",
    "final_y": "550305.310996",
    "longitude": "-90.105141963138",
    "latitude": "30.00750608125498",
    "geocoded_column": {
      "latitude": "30.00750608125498",
      "longitude": "-90.105141963138"
    }
  },
  {
    "service_request": "2022-909410",
    "request_type": "Trash/Recycling",
    "request_reason": "MIssed Recycling Pick-Up",
    "date_created": "2022-08-12T16:47:37.000",
    "date_modified": "2022-08-12T16:47:38.000",
    "request_status": "Pending",
    "responsible_agency": "Department of Sanitation",
    "final_address": "18 Richmond Pl",
    "address_councildis": "A",
    "status": "Assigned to Contractor",
    "contractor": "Richards Disposal",
    "rowid": "909410",
    "final_x": "3666565.54554",
    "final_y": "524105.339644",
    "longitude": "-90.11547697427197",
    "latitude": "29.935552758662038",
    "geocoded_column": {
      "latitude": "29.935552758662038",
      "longitude": "-90.11547697427197"
    }
  },
  {
    "service_request": "2022-909409",
    "request_type": "Trash/Recycling",
    "request_reason": "Missed Trash Pick-Up",
    "date_created": "2022-08-12T16:46:13.000",
    "date_modified": "2022-08-12T16:46:13.000",
    "request_status": "Pending",
    "responsible_agency": "Department of Sanitation",
    "final_address": "2120 S Salcedo St",
    "address_councildis": "A",
    "status": "Assigned to Contractor",
    "contractor": "Richards Disposal",
    "rowid": "909409",
    "final_x": "3669460.11284",
    "final_y": "529140.987776",
    "longitude": "-90.10616851364375",
    "latitude": "29.94931424757064",
    "geocoded_column": {
      "latitude": "29.94931424757064",
      "longitude": "-90.10616851364375"
    }
  },
  {
    "service_request": "2022-909408",
    "request_type": "Trash/Recycling",
    "request_reason": "Damaged Caused By Contractor",
    "date_created": "2022-08-12T16:43:00.000",
    "date_modified": "2022-08-12T16:43:00.000",
    "request_status": "Pending",
    "responsible_agency": "Department of Sanitation",
    "final_address": "4327 Jena St",
    "address_councildis": "A",
    "status": "Assigned to Contractor",
    "contractor": "Richards Disposal",
    "rowid": "909408",
    "final_x": "3669149.77959",
    "final_y": "529230.841153",
    "longitude": "-90.10714534053443",
    "latitude": "29.94957045012267",
    "geocoded_column": {
      "latitude": "29.94957045012267",
      "longitude": "-90.10714534053443"
    }
  },
  {
    "service_request": "2022-909407",
    "request_type": "Property Maintenance",
    "request_reason": "Property Maintenance",
    "date_created": "2022-08-12T16:39:28.000",
    "date_modified": "2022-08-12T16:39:28.000",
    "request_status": "Pending",
    "responsible_agency": "Department of Code Enforcement",
    "final_address": "4327 Jena St",
    "address_councildis": "A",
    "status": "Pending",
    "rowid": "909407",
    "final_x": "3669149.77959",
    "final_y": "529230.841153",
    "longitude": "-90.10714534053443",
    "latitude": "29.94957045012267",
    "geocoded_column": {
      "latitude": "29.94957045012267",
      "longitude": "-90.10714534053443"
    }
  },
  {
    "service_request": "2022-909406",
    "request_type": "Property Maintenance",
    "request_reason": "Property Maintenance",
    "date_created": "2022-08-12T16:38:57.000",
    "date_modified": "2022-08-12T16:38:57.000",
    "request_status": "Pending",
    "responsible_agency": "Department of Code Enforcement",
    "final_address": "5565 Catina St",
    "address_councildis": "A",
    "status": "Pending",
    "rowid": "909406",
    "final_x": "3666660.5273",
    "final_y": "544417.963471",
    "longitude": "-90.11449498933946",
    "latitude": "29.991402993082783",
    "geocoded_column": {
      "latitude": "29.991402993082783",
      "longitude": "-90.11449498933946"
    }
  },
  {
    "service_request": "2022-909405",
    "request_type": "Trash/Recycling",
    "request_reason": "Missed Trash Pick-Up",
    "date_created": "2022-08-12T16:37:22.000",
    "date_modified": "2022-08-12T16:37:23.000",
    "request_status": "Pending",
    "responsible_agency": "Department of Sanitation",
    "final_address": "5416 S Saratoga St",
    "address_councildis": "A",
    "status": "Assigned to Contractor",
    "contractor": "Richards Disposal",
    "rowid": "909405",
    "final_x": "3667427.50906",
    "final_y": "522601.880506",
    "longitude": "-90.11280629626096",
    "latitude": "29.93139350711097",
    "geocoded_column": {
      "latitude": "29.93139350711097",
      "longitude": "-90.11280629626096"
    }
  },
  {
    "service_request": "2022-909404",
    "request_type": "Trash/Recycling",
    "request_reason": "Replace Recycling Cart",
    "date_created": "2022-08-12T16:35:10.000",
    "date_modified": "2022-08-12T16:35:10.000",
    "request_status": "Pending",
    "responsible_agency": "Department of Sanitation",
    "final_address": "339 Broadway St",
    "address_councildis": "A",
    "status": "Pending",
    "rowid": "909404",
    "final_x": "3661750.77901",
    "final_y": "522789.753722",
    "longitude": "-90.13072090523535",
    "latitude": "29.93207514462521",
    "geocoded_column": {
      "latitude": "29.93207514462521",
      "longitude": "-90.13072090523535"
    }
  },
  {
    "service_request": "2022-909403",
    "request_type": "Parks & Parkways",
    "request_reason": "Request Grass Cutting Service (City Owned Property)",
    "date_created": "2022-08-12T16:34:21.000",
    "date_modified": "2022-08-12T16:34:21.000",
    "case_close_date": "2022-07-18T19:00:00.000",
    "request_status": "Pending",
    "responsible_agency": "Department of Parks & Parkway",
    "final_address": "408 Warrington Dr",
    "address_councildis": "D",
    "status": "Pending",
    "rowid": "909403",
    "final_x": "3681542.09205",
    "final_y": "548090.30805",
    "longitude": "-90.06735932244034",
    "latitude": "30.001056983100387",
    "geocoded_column": {
      "latitude": "30.001056983100387",
      "longitude": "-90.06735932244034"
    }
  },
  {
    "service_request": "2022-909402",
    "request_type": "Trash/Recycling",
    "request_reason": "Order Trash Cart",
    "date_created": "2022-08-12T16:34:07.000",
    "date_modified": "2022-08-12T16:34:08.000",
    "request_status": "Pending",
    "responsible_agency": "Department of Sanitation",
    "final_address": "5916 N Claiborne Ave, New Orleans, Louisiana, 70117",
    "address_councildis": "E",
    "status": "Assigned to Contractor",
    "contractor": "Metro Disposal",
    "rowid": "909402",
    "final_x": "3699629.0465",
    "final_y": "535175.55751",
    "longitude": "-90.01069244257198",
    "latitude": "29.964984270777215",
    "geocoded_column": {
      "latitude": "29.964984270777215",
      "longitude": "-90.01069244257198"
    }
  },
  {
    "service_request": "2022-909401",
    "request_type": "Abandoned Vehicles",
    "request_reason": "Abandoned/Junk Vehicles",
    "date_created": "2022-08-12T16:34:06.000",
    "date_modified": "2022-08-12T16:34:06.000",
    "request_status": "Pending",
    "responsible_agency": "Department of Public Works",
    "final_address": "5546 Catina St",
    "address_councildis": "A",
    "status": "Pending",
    "rowid": "909401",
    "final_x": "3666559.03002",
    "final_y": "544350.035983",
    "longitude": "-90.11481787953669",
    "latitude": "29.99121918388484",
    "geocoded_column": {
      "latitude": "29.99121918388484",
      "longitude": "-90.11481787953669"
    }
  },
  {
    "service_request": "2022-909400",
    "request_type": "Trash/Recycling",
    "request_reason": "Request a Large Item Pick Up",
    "date_created": "2022-08-12T16:32:05.000",
    "date_modified": "2022-08-12T16:32:06.000",
    "request_status": "Pending",
    "responsible_agency": "Department of Sanitation",
    "final_address": "Baudin St & S Lopez St, New Orleans, Louisiana, 70119",
    "address_councildis": "B",
    "status": "Assigned to Contractor",
    "contractor": "Richards Disposal",
    "rowid": "909400",
    "final_x": "3672902.0",
    "final_y": "534950.78",
    "longitude": "-90.09510269409402",
    "latitude": "29.965187437473638",
    "geocoded_column": {
      "latitude": "29.965187437473638",
      "longitude": "-90.09510269409402"
    }
  },
  {
    "service_request": "2022-909399",
    "request_type": "Traffic Signals/Signs/Striping/Streetlights",
    "request_reason": "Street Light Outage/Malfunction",
    "date_created": "2022-08-12T16:31:45.000",
    "date_modified": "2022-08-12T16:32:08.000",
    "request_status": "Pending",
    "responsible_agency": "Department of Public Works",
    "final_address": "7640 Morrison Rd",
    "address_councildis": "E",
    "status": "Pending",
    "contractor": "Legacy Professional Services",
    "rowid": "909399",
    "final_x": "3701631.15946",
    "final_y": "559759.055197",
    "longitude": "-90.00346892404156",
    "latitude": "30.032516000937527",
    "geocoded_column": {
      "latitude": "30.032516000937527",
      "longitude": "-90.00346892404156"
    }
  },
  {
    "service_request": "2022-909398",
    "request_type": "Parks & Parkways",
    "request_reason": "Request Tree Service (Right of Way/Public Property)",
    "date_created": "2022-08-12T16:29:42.000",
    "date_modified": "2022-08-12T16:29:42.000",
    "request_status": "Pending",
    "responsible_agency": "Department of Parks & Parkway",
    "final_address": "5734 Chatham Dr",
    "address_councildis": "D",
    "status": "Pending",
    "rowid": "909398",
    "final_x": "3679565.59867",
    "final_y": "553829.141335",
    "longitude": "-90.07340388107194",
    "latitude": "30.01689660965046",
    "geocoded_column": {
      "latitude": "30.01689660965046",
      "longitude": "-90.07340388107194"
    }
  },
  {
    "service_request": "2022-909397",
    "request_type": "Roads/Drainage",
    "request_reason": "Pothole",
    "date_created": "2022-08-12T16:28:04.000",
    "date_modified": "2022-08-12T16:28:05.000",
    "request_status": "Pending",
    "responsible_agency": "Department of Public Works",
    "final_address": "BURKE RD & ADELE ST",
    "address_councildis": "E",
    "status": "Pending",
    "rowid": "909397",
    "final_x": "3705689.8",
    "final_y": "562495.48",
    "longitude": "-89.99054207035563",
    "latitude": "30.039909947402304",
    "geocoded_column": {
      "latitude": "30.039909947402304",
      "longitude": "-89.99054207035563"
    }
  },
  {
    "service_request": "2022-909396",
    "request_type": "Trash/Recycling",
    "request_reason": "Start Trash Service",
    "date_created": "2022-08-12T16:27:58.000",
    "date_modified": "2022-08-12T16:27:58.000",
    "request_status": "Pending",
    "responsible_agency": "Department of Sanitation",
    "final_address": "1933 Shalett St",
    "address_councildis": "C",
    "status": "Assigned to Contractor",
    "contractor": "Richards Disposal",
    "rowid": "909396",
    "final_x": "3694191.1608",
    "final_y": "523239.711419",
    "longitude": "-90.02829417666022",
    "latitude": "29.932336313460656",
    "geocoded_column": {
      "latitude": "29.932336313460656",
      "longitude": "-90.02829417666022"
    }
  },
  {
    "service_request": "2022-909394",
    "request_type": "Property Maintenance",
    "request_reason": "Property Maintenance",
    "date_created": "2022-08-12T16:25:19.000",
    "date_modified": "2022-08-12T16:25:20.000",
    "request_status": "Pending",
    "responsible_agency": "Department of Code Enforcement",
    "final_address": "7600 Burke Ave",
    "address_councildis": "E",
    "status": "Pending",
    "rowid": "909394",
    "final_x": "3705469.45879",
    "final_y": "562751.059872",
    "longitude": "-89.99122895127083",
    "latitude": "30.040619789091004",
    "geocoded_column": {
      "latitude": "30.040619789091004",
      "longitude": "-89.99122895127083"
    }
  },
  {
    "service_request": "2022-909393",
    "request_type": "Trash/Recycling",
    "request_reason": "Illegal Dumping",
    "date_created": "2022-08-12T16:25:05.000",
    "date_modified": "2022-08-12T16:25:06.000",
    "request_status": "Pending",
    "responsible_agency": "Department of Sanitation",
    "final_address": "1817 Alvar St",
    "address_councildis": "D",
    "status": "Pending",
    "rowid": "909393",
    "final_x": "3692231.44157",
    "final_y": "538152.919817",
    "longitude": "-90.03394691999594",
    "latitude": "29.97340368494384",
    "geocoded_column": {
      "latitude": "29.97340368494384",
      "longitude": "-90.03394691999594"
    }
  },
  {
    "service_request": "2022-909392",
    "request_type": "Trash/Recycling",
    "request_reason": "Order Trash Cart",
    "date_created": "2022-08-12T16:24:50.000",
    "date_modified": "2022-08-12T16:24:51.000",
    "request_status": "Pending",
    "responsible_agency": "Department of Sanitation",
    "final_address": "2216 St Louis St",
    "address_councildis": "B",
    "status": "Assigned to Contractor",
    "contractor": "Richards Disposal",
    "rowid": "909392",
    "final_x": "3677690.9572",
    "final_y": "535127.752774",
    "longitude": "-90.07997330296226",
    "latitude": "29.965530885966118",
    "geocoded_column": {
      "latitude": "29.965530885966118",
      "longitude": "-90.07997330296226"
    }
  },
  {
    "service_request": "2022-909391",
    "request_type": "Trash/Recycling",
    "request_reason": "Replace Trash Cart",
    "date_created": "2022-08-12T16:22:54.000",
    "date_modified": "2022-08-12T16:22:55.000",
    "request_status": "Pending",
    "responsible_agency": "Department of Sanitation",
    "final_address": "7817 Maple St",
    "address_councildis": "A",
    "status": "Assigned to Contractor",
    "contractor": "Richards Disposal",
    "rowid": "909391",
    "final_x": "3661758.43533",
    "final_y": "526720.662078",
    "longitude": "-90.13056647471119",
    "latitude": "29.942883678651384",
    "geocoded_column": {
      "latitude": "29.942883678651384",
      "longitude": "-90.13056647471119"
    }
  },
  {
    "service_request": "2022-909390",
    "request_type": "Trash/Recycling",
    "request_reason": "Start Trash Service",
    "date_created": "2022-08-12T16:22:18.000",
    "date_modified": "2022-08-12T16:22:18.000",
    "request_status": "Pending",
    "responsible_agency": "Department of Sanitation",
    "final_address": "1935 Shalett St",
    "address_councildis": "C",
    "status": "Assigned to Contractor",
    "contractor": "Richards Disposal",
    "rowid": "909390",
    "final_x": "3694189.72093",
    "final_y": "523209.485115",
    "longitude": "-90.02829980896051",
    "latitude": "29.932253246530045",
    "geocoded_column": {
      "latitude": "29.932253246530045",
      "longitude": "-90.02829980896051"
    }
  },
  {
    "service_request": "2022-909389",
    "request_type": "Parks & Parkways",
    "request_reason": "Request Tree Service (Right of Way/Public Property)",
    "date_created": "2022-08-12T16:21:56.000",
    "date_modified": "2022-08-12T16:21:57.000",
    "request_status": "Pending",
    "responsible_agency": "Department of Parks & Parkway",
    "final_address": "5734 Chatham Dr",
    "address_councildis": "D",
    "status": "Pending",
    "rowid": "909389",
    "final_x": "3679565.59867",
    "final_y": "553829.141335",
    "longitude": "-90.07340388107194",
    "latitude": "30.01689660965046",
    "geocoded_column": {
      "latitude": "30.01689660965046",
      "longitude": "-90.07340388107194"
    }
  },
  {
    "service_request": "2022-909388",
    "request_type": "Trash/Recycling",
    "request_reason": "MIssed Recycling Pick-Up",
    "date_created": "2022-08-12T16:21:08.000",
    "date_modified": "2022-08-12T16:21:08.000",
    "request_status": "Pending",
    "responsible_agency": "Department of Sanitation",
    "final_address": "4715 Constance St",
    "address_councildis": "B",
    "status": "Assigned to Contractor",
    "contractor": "Richards Disposal",
    "rowid": "909388",
    "final_x": "3669831.50727",
    "final_y": "518325.385142",
    "longitude": "-90.10536182769842",
    "latitude": "29.91956387659835",
    "geocoded_column": {
      "latitude": "29.91956387659835",
      "longitude": "-90.10536182769842"
    }
  },
  {
    "service_request": "2022-909387",
    "request_type": "Trash/Recycling",
    "request_reason": "Replace Trash Cart",
    "date_created": "2022-08-12T16:20:04.000",
    "date_modified": "2022-08-12T16:20:04.000",
    "request_status": "Pending",
    "responsible_agency": "Department of Sanitation",
    "final_address": "38 Newcomb Blvd, New Orleans, Louisiana, 70118",
    "address_councildis": "A",
    "status": "Assigned to Contractor",
    "contractor": "Richards Disposal",
    "rowid": "909387",
    "final_x": "3664023.11296",
    "final_y": "525562.426173",
    "longitude": "-90.12345492170233",
    "latitude": "29.939633340663864",
    "geocoded_column": {
      "latitude": "29.939633340663864",
      "longitude": "-90.12345492170233"
    }
  },
  {
    "service_request": "2022-909386",
    "request_type": "Traffic Signals/Signs/Striping/Streetlights",
    "request_reason": "Street Light Outage/Malfunction",
    "date_created": "2022-08-12T16:17:42.000",
    "date_modified": "2022-08-12T16:17:43.000",
    "request_status": "Pending",
    "responsible_agency": "Department of Public Works",
    "final_address": "4883 Redwood St",
    "address_councildis": "E",
    "status": "Pending",
    "contractor": "Legacy Professional Services",
    "rowid": "909386",
    "final_x": "3712473.55531",
    "final_y": "557047.99721",
    "longitude": "-89.96930844198974",
    "latitude": "30.02471120407597",
    "geocoded_column": {
      "latitude": "30.02471120407597",
      "longitude": "-89.96930844198974"
    }
  },
  {
    "service_request": "2022-909385",
    "request_type": "Mosquito, Termite & Rodent Control",
    "request_reason": "Mosquito Complaint",
    "date_created": "2022-08-12T16:17:23.000",
    "date_modified": "2022-08-12T16:17:23.000",
    "request_status": "Pending",
    "responsible_agency": "Mosquito, Termite & Rodent Control Board",
    "final_address": "1843 Marigny St",
    "address_councildis": "D",
    "status": "Pending",
    "rowid": "909385",
    "final_x": "3685217.64853",
    "final_y": "539254.242634",
    "longitude": "-90.05605911542231",
    "latitude": "29.97664877134958",
    "geocoded_column": {
      "latitude": "29.97664877134958",
      "longitude": "-90.05605911542231"
    }
  },
  {
    "service_request": "2022-909384",
    "request_type": "Health Related Questions",
    "request_reason": "Noise Ordinance Complaint",
    "date_created": "2022-08-12T16:15:04.000",
    "date_modified": "2022-08-12T16:15:05.000",
    "request_status": "Pending",
    "responsible_agency": "Health Department",
    "final_address": "1900 BLK Independence St",
    "address_councildis": "D",
    "status": "Pending",
    "rowid": "909384",
    "final_x": "3691747.27625",
    "final_y": "538706.642847",
    "longitude": "-90.03545620015915",
    "latitude": "29.97494131460439",
    "geocoded_column": {
      "latitude": "29.97494131460439",
      "longitude": "-90.03545620015915"
    }
  },
  {
    "service_request": "2022-909383",
    "request_type": "Trash/Recycling",
    "request_reason": "Illegal Dumping",
    "date_created": "2022-08-12T16:11:32.000",
    "date_modified": "2022-08-12T16:11:32.000",
    "request_status": "Pending",
    "responsible_agency": "Department of Sanitation",
    "final_address": "1843 Marigny St",
    "address_councildis": "D",
    "status": "Pending",
    "rowid": "909383",
    "final_x": "3685217.64853",
    "final_y": "539254.242634",
    "longitude": "-90.05605911542231",
    "latitude": "29.97664877134958",
    "geocoded_column": {
      "latitude": "29.97664877134958",
      "longitude": "-90.05605911542231"
    }
  },
  {
    "service_request": "2022-909382",
    "request_type": "Trash/Recycling",
    "request_reason": "Order Trash Cart",
    "date_created": "2022-08-12T16:10:02.000",
    "date_modified": "2022-08-12T16:10:02.000",
    "request_status": "Pending",
    "responsible_agency": "Department of Sanitation",
    "final_address": "2839 General Collins Ave",
    "address_councildis": "C",
    "status": "Assigned to Contractor",
    "contractor": "Richards Disposal",
    "rowid": "909382",
    "final_x": "3698298.93431",
    "final_y": "520738.795321",
    "longitude": "-90.01541720099156",
    "latitude": "29.925330371145634",
    "geocoded_column": {
      "latitude": "29.925330371145634",
      "longitude": "-90.01541720099156"
    }
  },
  {
    "service_request": "2022-909381",
    "request_type": "Property Maintenance",
    "request_reason": "Property Maintenance",
    "date_created": "2022-08-12T16:05:38.000",
    "date_modified": "2022-08-12T16:05:38.000",
    "request_status": "Pending",
    "responsible_agency": "Department of Code Enforcement",
    "final_address": "1843 Marigny St",
    "address_councildis": "D",
    "status": "Pending",
    "rowid": "909381",
    "final_x": "3685217.64853",
    "final_y": "539254.242634",
    "longitude": "-90.05605911542231",
    "latitude": "29.97664877134958",
    "geocoded_column": {
      "latitude": "29.97664877134958",
      "longitude": "-90.05605911542231"
    }
  },
  {
    "service_request": "2022-909380",
    "request_type": "Trash/Recycling",
    "request_reason": "Repair Recycling Cart",
    "date_created": "2022-08-12T16:05:20.000",
    "date_modified": "2022-08-12T16:05:20.000",
    "request_status": "Pending",
    "responsible_agency": "Department of Sanitation",
    "final_address": "4506 St Claude Ave",
    "address_councildis": "C",
    "status": "Pending",
    "rowid": "909380",
    "final_x": "3693370.41769",
    "final_y": "534863.163846",
    "longitude": "-90.03046794882333",
    "latitude": "29.964322458050418",
    "geocoded_column": {
      "latitude": "29.964322458050418",
      "longitude": "-90.03046794882333"
    }
  },
  {
    "service_request": "2022-909379",
    "request_type": "Roads/Drainage",
    "request_reason": "Catch Basin - Clogged",
    "date_created": "2022-08-12T16:02:34.000",
    "date_modified": "2022-08-12T16:02:36.000",
    "request_status": "Pending",
    "responsible_agency": "Department of Public Works",
    "final_address": "221 Adams St",
    "address_councildis": "A",
    "status": "Pending",
    "rowid": "909379",
    "final_x": "3660843.6471",
    "final_y": "524897.354108",
    "longitude": "-90.13351497535376",
    "latitude": "29.937896530555854",
    "geocoded_column": {
      "latitude": "29.937896530555854",
      "longitude": "-90.13351497535376"
    }
  },
  {
    "service_request": "2022-909378",
    "request_type": "Roads/Drainage",
    "request_reason": "Street Subsidence (Sinking)",
    "date_created": "2022-08-12T16:01:55.000",
    "date_modified": "2022-08-12T16:01:56.000",
    "request_status": "Pending",
    "responsible_agency": "Department of Public Works",
    "final_address": "221 Adams St",
    "address_councildis": "A",
    "status": "Pending",
    "rowid": "909378",
    "final_x": "3660843.6471",
    "final_y": "524897.354108",
    "longitude": "-90.13351497535376",
    "latitude": "29.937896530555854",
    "geocoded_column": {
      "latitude": "29.937896530555854",
      "longitude": "-90.13351497535376"
    }
  },
  {
    "service_request": "2022-909377",
    "request_type": "Trash/Recycling",
    "request_reason": "Request a Large Item Pick Up",
    "date_created": "2022-08-12T15:57:59.000",
    "date_modified": "2022-08-12T15:58:00.000",
    "request_status": "Pending",
    "responsible_agency": "Department of Sanitation",
    "final_address": "2349 Comet St",
    "address_councildis": "C",
    "status": "Assigned to Contractor",
    "contractor": "Richards Disposal",
    "rowid": "909377",
    "final_x": "3700098.82576",
    "final_y": "522260.830522",
    "longitude": "-90.00968004464963",
    "latitude": "29.92945839750925",
    "geocoded_column": {
      "latitude": "29.92945839750925",
      "longitude": "-90.00968004464963"
    }
  },
  {
    "service_request": "2022-909376",
    "request_type": "Roads/Drainage",
    "request_reason": "Man hole cover issue",
    "date_created": "2022-08-12T15:52:04.000",
    "date_modified": "2022-08-12T15:52:04.000",
    "request_status": "Pending",
    "responsible_agency": "Department of Public Works",
    "final_address": "605 S Pierce St",
    "address_councildis": "A",
    "status": "Pending",
    "rowid": "909376",
    "final_x": "3670211.92769",
    "final_y": "536445.700423",
    "longitude": "-90.10354715418748",
    "latitude": "29.96937762657473",
    "geocoded_column": {
      "latitude": "29.96937762657473",
      "longitude": "-90.10354715418748"
    }
  },
  {
    "service_request": "2022-909373",
    "request_type": "Traffic Signals/Signs/Striping/Streetlights",
    "request_reason": "Street Light Outage/Malfunction",
    "date_created": "2022-08-12T15:49:18.000",
    "date_modified": "2022-08-12T15:49:19.000",
    "request_status": "Pending",
    "responsible_agency": "Department of Public Works",
    "final_address": "6400 BLK Roder St",
    "address_councildis": "E",
    "status": "Pending",
    "contractor": "Legacy Professional Services",
    "rowid": "909373",
    "final_x": "3701496.31843",
    "final_y": "535165.732278",
    "longitude": "-90.00479611019028",
    "latitude": "29.964897857134915",
    "geocoded_column": {
      "latitude": "29.964897857134915",
      "longitude": "-90.00479611019028"
    }
  },
  {
    "service_request": "2022-909374",
    "request_type": "Traffic Signals/Signs/Striping/Streetlights",
    "request_reason": "Street Light Outage/Malfunction",
    "date_created": "2022-08-12T15:49:18.000",
    "date_modified": "2022-08-12T15:49:19.000",
    "request_status": "Pending",
    "responsible_agency": "Department of Public Works",
    "final_address": "6400 BLK Roder St",
    "address_councildis": "E",
    "status": "Pending",
    "contractor": "Legacy Professional Services",
    "rowid": "909374",
    "final_x": "3701496.31843",
    "final_y": "535165.732278",
    "longitude": "-90.00479611019028",
    "latitude": "29.964897857134915",
    "geocoded_column": {
      "latitude": "29.964897857134915",
      "longitude": "-90.00479611019028"
    }
  },
  {
    "service_request": "2022-909372",
    "request_type": "Trash/Recycling",
    "request_reason": "Request a Large Item Pick Up",
    "date_created": "2022-08-12T15:47:33.000",
    "date_modified": "2022-08-12T15:47:34.000",
    "request_status": "Pending",
    "responsible_agency": "Department of Sanitation",
    "final_address": "936 Moss St",
    "address_councildis": "A",
    "status": "Assigned to Contractor",
    "contractor": "Richards Disposal",
    "rowid": "909372",
    "final_x": "3674988.42037",
    "final_y": "539614.096458",
    "longitude": "-90.08835387514017",
    "latitude": "29.977947812326022",
    "geocoded_column": {
      "latitude": "29.977947812326022",
      "longitude": "-90.08835387514017"
    }
  },
  {
    "service_request": "2022-909371",
    "request_type": "Abandoned Vehicles",
    "request_reason": "Abandoned/Junk Vehicles",
    "date_created": "2022-08-12T15:46:50.000",
    "date_modified": "2022-08-12T15:46:50.000",
    "request_status": "Pending",
    "responsible_agency": "Department of Public Works",
    "final_address": "5500 BLK Catina St",
    "address_councildis": "A",
    "status": "Pending",
    "rowid": "909371",
    "final_x": "3666605.17594",
    "final_y": "544327.124388",
    "longitude": "-90.11467288433167",
    "latitude": "29.99115483540271",
    "geocoded_column": {
      "latitude": "29.99115483540271",
      "longitude": "-90.11467288433167"
    }
  },
  {
    "service_request": "2022-909370",
    "request_type": "Trash/Recycling",
    "request_reason": "Missed Trash Pick-Up",
    "date_created": "2022-08-12T15:46:05.000",
    "date_modified": "2022-08-12T15:46:06.000",
    "request_status": "Pending",
    "responsible_agency": "Department of Sanitation",
    "final_address": "1465 Casa Calvo St",
    "address_councildis": "C",
    "status": "Assigned to Contractor",
    "contractor": "Richards Disposal",
    "rowid": "909370",
    "final_x": "3691988.65161",
    "final_y": "525658.168829",
    "longitude": "-90.03516076821855",
    "latitude": "29.939055039847247",
    "geocoded_column": {
      "latitude": "29.939055039847247",
      "longitude": "-90.03516076821855"
    }
  },
  {
    "service_request": "2022-909369",
    "request_type": "Trash/Recycling",
    "request_reason": "Illegal Dumping",
    "date_created": "2022-08-12T15:45:06.000",
    "date_modified": "2022-08-12T15:45:06.000",
    "request_status": "Pending",
    "responsible_agency": "Department of Sanitation",
    "final_address": "5500 BLK Catina St",
    "address_councildis": "A",
    "status": "Pending",
    "rowid": "909369",
    "final_x": "3666605.17594",
    "final_y": "544327.124388",
    "longitude": "-90.11467288433167",
    "latitude": "29.99115483540271",
    "geocoded_column": {
      "latitude": "29.99115483540271",
      "longitude": "-90.11467288433167"
    }
  },
  {
    "service_request": "2022-909368",
    "request_type": "Property Maintenance",
    "request_reason": "Property Maintenance",
    "date_created": "2022-08-12T15:44:29.000",
    "date_modified": "2022-08-12T15:44:29.000",
    "request_status": "Pending",
    "responsible_agency": "Department of Code Enforcement",
    "final_address": "5330 Burgundy St",
    "address_councildis": "E",
    "status": "Pending",
    "rowid": "909368",
    "final_x": "3696872.20528",
    "final_y": "533166.490692",
    "longitude": "-90.01947108301873",
    "latitude": "29.95954726182243",
    "geocoded_column": {
      "latitude": "29.95954726182243",
      "longitude": "-90.01947108301873"
    }
  },
  {
    "service_request": "2022-909367",
    "request_type": "Property Maintenance",
    "request_reason": "Property Maintenance",
    "date_created": "2022-08-12T15:40:52.000",
    "date_modified": "2022-08-12T15:40:53.000",
    "request_status": "Pending",
    "responsible_agency": "Department of Code Enforcement",
    "final_address": "5954 N Roman St",
    "address_councildis": "E",
    "status": "Pending",
    "rowid": "909367",
    "final_x": "3700000.91197",
    "final_y": "535945.756807",
    "longitude": "-90.00949002046836",
    "latitude": "29.96709023439103",
    "geocoded_column": {
      "latitude": "29.96709023439103",
      "longitude": "-90.00949002046836"
    }
  },
  {
    "service_request": "2022-909366",
    "request_type": "Property Maintenance",
    "request_reason": "Property Maintenance",
    "date_created": "2022-08-12T15:29:00.000",
    "date_modified": "2022-08-12T15:37:34.000",
    "request_status": "Pending",
    "responsible_agency": "Department of Code Enforcement",
    "final_address": "1601 S Gayoso St",
    "address_councildis": "B",
    "rowid": "909366",
    "final_x": "3670536.67771",
    "final_y": "530549.162882",
    "longitude": "-90.10272155941153",
    "latitude": "29.95315451984352",
    "geocoded_column": {
      "latitude": "29.95315451984352",
      "longitude": "-90.10272155941153"
    }
  },
  {
    "service_request": "2022-909365",
    "request_type": "Property Maintenance",
    "request_reason": "Property Maintenance",
    "date_created": "2022-08-12T15:27:02.000",
    "date_modified": "2022-08-12T15:27:02.000",
    "request_status": "Pending",
    "responsible_agency": "Department of Code Enforcement",
    "final_address": "5422 N Derbigny St",
    "address_councildis": "E",
    "status": "Pending",
    "rowid": "909365",
    "final_x": "3697958.09379",
    "final_y": "536119.790791",
    "longitude": "-90.01593489784493",
    "latitude": "29.967633503770305",
    "geocoded_column": {
      "latitude": "29.967633503770305",
      "longitude": "-90.01593489784493"
    }
  },
  {
    "service_request": "2022-909363",
    "request_type": "Trash/Recycling",
    "request_reason": "Illegal Dumping",
    "date_created": "2022-08-12T15:24:21.000",
    "date_modified": "2022-08-12T15:24:22.000",
    "request_status": "Pending",
    "responsible_agency": "Department of Code Enforcement",
    "final_address": "600 Homedale St",
    "address_councildis": "A",
    "status": "Pending",
    "rowid": "909363",
    "final_x": "3667871.04532",
    "final_y": "544519.380559",
    "longitude": "-90.11066780224664",
    "latitude": "29.99164639431574",
    "geocoded_column": {
      "latitude": "29.99164639431574",
      "longitude": "-90.11066780224664"
    }
  },
  {
    "service_request": "2022-909362",
    "request_type": "Trash/Recycling",
    "request_reason": "MIssed Recycling Pick-Up",
    "date_created": "2022-08-12T15:21:42.000",
    "date_modified": "2022-08-12T15:21:43.000",
    "request_status": "Pending",
    "responsible_agency": "Department of Sanitation",
    "final_address": "2415 Palmer Ave",
    "address_councildis": "A",
    "status": "Assigned to Contractor",
    "contractor": "Richards Disposal",
    "rowid": "909362",
    "final_x": "3666423.63194",
    "final_y": "525659.551037",
    "longitude": "-90.11587286495433",
    "latitude": "29.93983048926382",
    "geocoded_column": {
      "latitude": "29.93983048926382",
      "longitude": "-90.11587286495433"
    }
  },
  {
    "service_request": "2022-909361",
    "request_type": "Property Maintenance",
    "request_reason": "Property Maintenance",
    "date_created": "2022-08-12T15:16:07.000",
    "date_modified": "2022-08-12T15:16:07.000",
    "request_status": "Pending",
    "responsible_agency": "Department of Code Enforcement",
    "final_address": "4690 Gawain Dr",
    "address_councildis": "E",
    "status": "Pending",
    "rowid": "909361",
    "final_x": "3706933.23339",
    "final_y": "555080.037337",
    "longitude": "-89.98688784439226",
    "latitude": "30.01948026072019",
    "geocoded_column": {
      "latitude": "30.01948026072019",
      "longitude": "-89.98688784439226"
    }
  },
  {
    "service_request": "2022-909360",
    "request_type": "Abandoned Vehicles",
    "request_reason": "Abandoned/Junk Vehicles",
    "date_created": "2022-08-12T15:16:02.000",
    "date_modified": "2022-08-12T15:19:40.000",
    "request_status": "Pending",
    "responsible_agency": "Department of Public Works",
    "final_address": "4120 Eagle St",
    "address_councildis": "A",
    "status": "Pending",
    "rowid": "909360",
    "final_x": "3667156.71053",
    "final_y": "537814.086472",
    "longitude": "-90.11314978800571",
    "latitude": "29.973230040824472",
    "geocoded_column": {
      "latitude": "29.973230040824472",
      "longitude": "-90.11314978800571"
    }
  },
  {
    "service_request": "2022-909359",
    "request_type": "Trash/Recycling",
    "request_reason": "Request a Large Item Pick Up",
    "date_created": "2022-08-12T15:15:24.000",
    "date_modified": "2022-08-12T15:20:32.000",
    "request_status": "Pending",
    "responsible_agency": "Department of Sanitation",
    "final_address": "New Orleans,LA",
    "address_councildis": "D",
    "status": "Assigned to Contractor",
    "contractor": "Metro Disposal",
    "rowid": "909359",
    "final_x": "3690815.73532",
    "final_y": "554170.590744",
    "longitude": "-90.03784605941965",
    "latitude": "30.017490532429335",
    "geocoded_column": {
      "latitude": "30.017490532429335",
      "longitude": "-90.03784605941965"
    }
  },
  {
    "service_request": "2022-909358",
    "request_type": "Trash/Recycling",
    "request_reason": "Order Recycling Cart",
    "date_created": "2022-08-12T15:14:54.000",
    "date_modified": "2022-08-12T15:14:55.000",
    "request_status": "Pending",
    "responsible_agency": "Department of Sanitation",
    "final_address": "1424 Henry Clay Ave",
    "address_councildis": "A",
    "status": "Pending",
    "rowid": "909358",
    "final_x": "3664548.43392",
    "final_y": "521667.490169",
    "longitude": "-90.12192640876819",
    "latitude": "29.92890824002514",
    "geocoded_column": {
      "latitude": "29.92890824002514",
      "longitude": "-90.12192640876819"
    }
  },
  {
    "service_request": "2022-909357",
    "request_type": "Traffic Signals/Signs/Striping/Streetlights",
    "request_reason": "Additional signage",
    "date_created": "2022-08-12T15:13:45.000",
    "date_modified": "2022-08-12T15:14:47.000",
    "request_status": "Pending",
    "responsible_agency": "Department of Public Works",
    "final_address": "2251 St Claude Ave",
    "address_councildis": "C",
    "status": "Pending",
    "rowid": "909357",
    "final_x": "3685549.11938",
    "final_y": "536456.649735",
    "longitude": "-90.0551107946127",
    "latitude": "29.968946204003778",
    "geocoded_column": {
      "latitude": "29.968946204003778",
      "longitude": "-90.0551107946127"
    }
  },
  {
    "service_request": "2022-909356",
    "request_type": "Trash/Recycling",
    "request_reason": "Request a Large Item Pick Up",
    "date_created": "2022-08-12T15:12:23.000",
    "date_modified": "2022-08-12T15:12:23.000",
    "request_status": "Pending",
    "responsible_agency": "Department of Sanitation",
    "final_address": "147 Sherwood Forest Dr",
    "address_councildis": "A",
    "status": "Assigned to Contractor",
    "contractor": "Richards Disposal",
    "rowid": "909356",
    "final_x": "3673248.44308",
    "final_y": "540883.632843",
    "longitude": "-90.0938059682295",
    "latitude": "29.981490471572847",
    "geocoded_column": {
      "latitude": "29.981490471572847",
      "longitude": "-90.0938059682295"
    }
  },
  {
    "service_request": "2022-909354",
    "request_type": "Trash/Recycling",
    "request_reason": "Missed Trash Pick-Up",
    "date_created": "2022-08-12T15:06:41.000",
    "date_modified": "2022-08-12T15:06:41.000",
    "request_status": "Pending",
    "responsible_agency": "Department of Sanitation",
    "final_address": "4217 Clara St",
    "address_councildis": "B",
    "status": "Assigned to Contractor",
    "contractor": "Richards Disposal",
    "rowid": "909354",
    "final_x": "3671019.01473",
    "final_y": "525182.090685",
    "longitude": "-90.10138074965683",
    "latitude": "29.938382572296398",
    "geocoded_column": {
      "latitude": "29.938382572296398",
      "longitude": "-90.10138074965683"
    }
  },
  {
    "service_request": "2022-909353",
    "request_type": "Trash/Recycling",
    "request_reason": "MIssed Recycling Pick-Up",
    "date_created": "2022-08-12T15:05:20.000",
    "date_modified": "2022-08-12T15:05:21.000",
    "request_status": "Pending",
    "responsible_agency": "Department of Sanitation",
    "final_address": "5219 Chestnut St",
    "address_councildis": "B",
    "status": "Assigned to Contractor",
    "contractor": "Richards Disposal",
    "rowid": "909353",
    "final_x": "3667887.03418",
    "final_y": "519396.029239",
    "longitude": "-90.11146354695597",
    "latitude": "29.922564966324554",
    "geocoded_column": {
      "latitude": "29.922564966324554",
      "longitude": "-90.11146354695597"
    }
  },
  {
    "service_request": "2022-909352",
    "request_type": "Trash/Recycling",
    "request_reason": "Request a Large Item Pick Up",
    "date_created": "2022-08-12T15:01:09.000",
    "date_modified": "2022-08-12T15:01:10.000",
    "request_status": "Pending",
    "responsible_agency": "Department of Sanitation",
    "final_address": "5163 Lafaye St",
    "address_councildis": "D",
    "status": "Assigned to Contractor",
    "contractor": "Metro Disposal",
    "rowid": "909352",
    "final_x": "3687365.27938",
    "final_y": "552035.319766",
    "longitude": "-90.04882373298382",
    "latitude": "30.011726137670177",
    "geocoded_column": {
      "latitude": "30.011726137670177",
      "longitude": "-90.04882373298382"
    }
  },
  {
    "service_request": "2022-909351",
    "request_type": "Trash/Recycling",
    "request_reason": "Missed Trash Pick-Up",
    "date_created": "2022-08-12T15:00:52.000",
    "date_modified": "2022-08-12T15:00:53.000",
    "request_status": "Pending",
    "responsible_agency": "Department of Sanitation",
    "final_address": "1451 Mirabeau Ave",
    "address_councildis": "D",
    "status": "Assigned to Contractor",
    "contractor": "Metro Disposal",
    "rowid": "909351",
    "final_x": "3677936.61902",
    "final_y": "550362.595604",
    "longitude": "-90.07867071150004",
    "latitude": "30.007414004232423",
    "geocoded_column": {
      "latitude": "30.007414004232423",
      "longitude": "-90.07867071150004"
    }
  },
  {
    "service_request": "2022-909350",
    "request_type": "Trash/Recycling",
    "request_reason": "MIssed Recycling Pick-Up",
    "date_created": "2022-08-12T14:59:45.000",
    "date_modified": "2022-08-12T14:59:45.000",
    "request_status": "Pending",
    "responsible_agency": "Department of Sanitation",
    "final_address": "1525 Dufossat St",
    "address_councildis": "B",
    "status": "Assigned to Contractor",
    "contractor": "Richards Disposal",
    "rowid": "909350",
    "final_x": "3668161.69364",
    "final_y": "520678.110521",
    "longitude": "-90.11055336688219",
    "latitude": "29.926082227758133",
    "geocoded_column": {
      "latitude": "29.926082227758133",
      "longitude": "-90.11055336688219"
    }
  },
  {
    "service_request": "2022-909349",
    "request_type": "Property Maintenance",
    "request_reason": "Property Maintenance",
    "date_created": "2022-08-12T14:56:37.000",
    "date_modified": "2022-08-12T14:56:37.000",
    "request_status": "Pending",
    "responsible_agency": "Department of Code Enforcement",
    "final_address": "4739 Plauche Cir",
    "address_councildis": "D",
    "status": "Pending",
    "rowid": "909349",
    "final_x": "3692629.7999",
    "final_y": "551846.197846",
    "longitude": "-90.03219775466647",
    "latitude": "30.011042798558595",
    "geocoded_column": {
      "latitude": "30.011042798558595",
      "longitude": "-90.03219775466647"
    }
  },
  {
    "service_request": "2022-909348",
    "request_type": "Property Maintenance",
    "request_reason": "Property Maintenance",
    "date_created": "2022-08-12T14:56:28.000",
    "date_modified": "2022-08-12T14:56:29.000",
    "request_status": "Pending",
    "responsible_agency": "Department of Code Enforcement",
    "final_address": "4733 Plauche Cir",
    "address_councildis": "D",
    "status": "Pending",
    "rowid": "909348",
    "final_x": "3692644.28643",
    "final_y": "551796.869718",
    "longitude": "-90.03215375588378",
    "latitude": "30.010906712192536",
    "geocoded_column": {
      "latitude": "30.010906712192536",
      "longitude": "-90.03215375588378"
    }
  },
  {
    "service_request": "2022-909347",
    "request_type": "Roads/Drainage",
    "request_reason": "Catch Basin - Broken/Damage",
    "date_created": "2022-08-12T14:48:18.000",
    "date_modified": "2022-08-12T14:48:18.000",
    "request_status": "Pending",
    "responsible_agency": "Department of Public Works",
    "final_address": "1201 N Dupre St",
    "address_councildis": "A",
    "status": "Pending",
    "rowid": "909347",
    "final_x": "3676924.79522",
    "final_y": "539287.142026",
    "longitude": "-90.08224939532633",
    "latitude": "29.97699080767652",
    "geocoded_column": {
      "latitude": "29.97699080767652",
      "longitude": "-90.08224939532633"
    }
  },
  {
    "service_request": "2022-909346",
    "request_type": "Trash/Recycling",
    "request_reason": "Request a Large Item Pick Up",
    "date_created": "2022-08-12T14:48:09.000",
    "date_modified": "2022-08-12T14:48:10.000",
    "request_status": "Pending",
    "responsible_agency": "Department of Sanitation",
    "final_address": "5448 Dayna Ct",
    "address_councildis": "A",
    "status": "Assigned to Contractor",
    "contractor": "Metro Disposal",
    "rowid": "909346",
    "final_x": "3664352.01447",
    "final_y": "543615.440014",
    "longitude": "-90.12181390053874",
    "latitude": "29.989263643512487",
    "geocoded_column": {
      "latitude": "29.989263643512487",
      "longitude": "-90.12181390053874"
    }
  },
  {
    "service_request": "2022-909345",
    "request_type": "Trash/Recycling",
    "request_reason": "Missed Trash Pick-Up",
    "date_created": "2022-08-12T14:44:19.000",
    "date_modified": "2022-08-12T14:44:20.000",
    "request_status": "Pending",
    "responsible_agency": "Department of Sanitation",
    "final_address": "7012 Jeannette St",
    "address_councildis": "A",
    "status": "Assigned to Contractor",
    "contractor": "Richards Disposal",
    "rowid": "909345",
    "final_x": "3665085.96679",
    "final_y": "527035.058558",
    "longitude": "-90.12005010171151",
    "latitude": "29.94365170679247",
    "geocoded_column": {
      "latitude": "29.94365170679247",
      "longitude": "-90.12005010171151"
    }
  },
  {
    "service_request": "2022-909344",
    "request_type": "Trash/Recycling",
    "request_reason": "Request a Large Item Pick Up",
    "date_created": "2022-08-12T14:41:51.000",
    "date_modified": "2022-08-12T14:41:51.000",
    "request_status": "Pending",
    "responsible_agency": "Department of Sanitation",
    "final_address": "411 S St Patrick St",
    "address_councildis": "A",
    "status": "Assigned to Contractor",
    "contractor": "Richards Disposal",
    "rowid": "909344",
    "final_x": "3668263.48135",
    "final_y": "538813.642313",
    "longitude": "-90.10962065833124",
    "latitude": "29.975946030565265",
    "geocoded_column": {
      "latitude": "29.975946030565265",
      "longitude": "-90.10962065833124"
    }
  },
  {
    "service_request": "2022-909343",
    "request_type": "Property Maintenance",
    "request_reason": "Property Maintenance",
    "date_created": "2022-08-12T14:40:06.000",
    "date_modified": "2022-08-12T14:40:06.000",
    "request_status": "Pending",
    "responsible_agency": "Department of Code Enforcement",
    "final_address": "2000 Robert St",
    "address_councildis": "B",
    "status": "Pending",
    "rowid": "909343",
    "final_x": "3668694.51521",
    "final_y": "522901.042875",
    "longitude": "-90.10879640772397",
    "latitude": "29.93217893783565",
    "geocoded_column": {
      "latitude": "29.93217893783565",
      "longitude": "-90.10879640772397"
    }
  },
  {
    "service_request": "2022-909342",
    "request_type": "Trash/Recycling",
    "request_reason": "Missed Trash Pick-Up",
    "date_created": "2022-08-12T14:38:27.000",
    "date_modified": "2022-08-12T14:38:28.000",
    "request_status": "Pending",
    "responsible_agency": "Department of Sanitation",
    "final_address": "5400 BLK Magnolia St",
    "address_councildis": "A",
    "status": "Assigned to Contractor",
    "contractor": "Richards Disposal",
    "rowid": "909342",
    "final_x": "3667895.55951",
    "final_y": "524720.922131",
    "longitude": "-90.11125736702326",
    "latitude": "29.937206476541583",
    "geocoded_column": {
      "latitude": "29.937206476541583",
      "longitude": "-90.11125736702326"
    }
  },
  {
    "service_request": "2022-909341",
    "request_type": "Trash/Recycling",
    "request_reason": "Missed Trash Pick-Up",
    "date_created": "2022-08-12T14:35:41.000",
    "date_modified": "2022-08-12T14:35:42.000",
    "request_status": "Pending",
    "responsible_agency": "Department of Sanitation",
    "final_address": "1007 Piety St",
    "address_councildis": "C",
    "status": "Assigned to Contractor",
    "contractor": "Metro Disposal",
    "rowid": "909341",
    "final_x": "3689768.26569",
    "final_y": "535409.905286",
    "longitude": "-90.04182375639927",
    "latitude": "29.965937934171095",
    "geocoded_column": {
      "latitude": "29.965937934171095",
      "longitude": "-90.04182375639927"
    }
  },
  {
    "service_request": "2022-909340",
    "request_type": "Trash/Recycling",
    "request_reason": "Missed Trash Pick-Up",
    "date_created": "2022-08-12T14:34:23.000",
    "date_modified": "2022-08-12T14:34:24.000",
    "request_status": "Pending",
    "responsible_agency": "Department of Sanitation",
    "final_address": "4 Shepard Ct",
    "address_councildis": "C",
    "status": "Assigned to Contractor",
    "contractor": "Richards Disposal",
    "rowid": "909340",
    "final_x": "3692496.47504",
    "final_y": "524530.700092",
    "longitude": "-90.03359789159687",
    "latitude": "29.935939056447562",
    "geocoded_column": {
      "latitude": "29.935939056447562",
      "longitude": "-90.03359789159687"
    }
  },
  {
    "service_request": "2022-909339",
    "request_type": "Roads/Drainage",
    "request_reason": "Street Subsidence (Sinking)",
    "date_created": "2022-08-12T14:33:23.000",
    "date_modified": "2022-08-12T14:33:24.000",
    "request_status": "Pending",
    "responsible_agency": "Department of Public Works",
    "final_address": "PALMETTO ST & CHERRY ST",
    "address_councildis": "A",
    "status": "Pending",
    "rowid": "909339",
    "final_x": "3665067.5",
    "final_y": "538064.48",
    "longitude": "-90.1197395872712",
    "latitude": "29.973979547653936",
    "geocoded_column": {
      "latitude": "29.973979547653936",
      "longitude": "-90.1197395872712"
    }
  },
  {
    "service_request": "2022-909338",
    "request_type": "Roads/Drainage",
    "request_reason": "Man hole cover issue",
    "date_created": "2022-08-12T14:32:50.000",
    "date_modified": "2022-08-12T14:58:16.000",
    "request_status": "Pending",
    "responsible_agency": "Department of Public Works",
    "final_address": "New Orleans,LA",
    "address_councildis": "B",
    "rowid": "909338",
    "final_x": "3675608.87265",
    "final_y": "519650.509304",
    "longitude": "-90.08708004148518",
    "latitude": "29.92303603226378",
    "geocoded_column": {
      "latitude": "29.92303603226378",
      "longitude": "-90.08708004148518"
    }
  },
  {
    "service_request": "2022-909337",
    "request_type": "Property Maintenance",
    "request_reason": "Property Maintenance",
    "date_created": "2022-08-12T14:32:37.000",
    "date_modified": "2022-08-12T14:32:38.000",
    "request_status": "Pending",
    "responsible_agency": "Department of Code Enforcement",
    "final_address": "1339 Forstall St",
    "address_councildis": "E",
    "status": "Pending",
    "rowid": "909337",
    "final_x": "3696642.82787",
    "final_y": "535079.539718",
    "longitude": "-90.0201261665395",
    "latitude": "29.964814698266096",
    "geocoded_column": {
      "latitude": "29.964814698266096",
      "longitude": "-90.0201261665395"
    }
  },
  {
    "service_request": "2022-909336",
    "request_type": "Roads/Drainage",
    "request_reason": "Pothole",
    "date_created": "2022-08-12T14:29:48.000",
    "date_modified": "2022-08-12T14:29:49.000",
    "request_status": "Pending",
    "responsible_agency": "Department of Public Works",
    "final_address": "9500 BLK Stroelitz St",
    "address_councildis": "A",
    "status": "Pending",
    "rowid": "909336",
    "final_x": "3664076.05534",
    "final_y": "538481.695134",
    "longitude": "-90.12285688661281",
    "latitude": "29.975155586702364",
    "geocoded_column": {
      "latitude": "29.975155586702364",
      "longitude": "-90.12285688661281"
    }
  },
  {
    "service_request": "2022-909335",
    "request_type": "Property Maintenance",
    "request_reason": "Property Maintenance",
    "date_created": "2022-08-12T14:27:02.000",
    "date_modified": "2022-08-12T14:27:02.000",
    "request_status": "Pending",
    "responsible_agency": "Department of Code Enforcement",
    "final_address": "8200 Chef Menteur Hwy",
    "address_councildis": "E",
    "status": "Pending",
    "rowid": "909335",
    "final_x": "3705690.09329",
    "final_y": "552913.083031",
    "longitude": "-89.99089593480188",
    "latitude": "30.013562077923872",
    "geocoded_column": {
      "latitude": "30.013562077923872",
      "longitude": "-89.99089593480188"
    }
  },
  {
    "service_request": "2022-909334",
    "request_type": "Traffic Signals/Signs/Striping/Streetlights",
    "request_reason": "Street Light Outage/Malfunction",
    "date_created": "2022-08-12T14:26:29.000",
    "date_modified": "2022-08-12T14:26:29.000",
    "request_status": "Pending",
    "responsible_agency": "Department of Public Works",
    "final_address": "5741 Waterford Blvd",
    "address_councildis": "E",
    "status": "Pending",
    "contractor": "Legacy Professional Services",
    "rowid": "909334",
    "final_x": "3714096.56229",
    "final_y": "560930.37667",
    "longitude": "-89.96403346983818",
    "latitude": "30.035332976841016",
    "geocoded_column": {
      "latitude": "30.035332976841016",
      "longitude": "-89.96403346983818"
    }
  },
  {
    "service_request": "2022-909333",
    "request_type": "Property Maintenance",
    "request_reason": "Property Maintenance",
    "date_created": "2022-08-12T14:22:19.000",
    "date_modified": "2022-08-12T14:22:19.000",
    "request_status": "Pending",
    "responsible_agency": "Department of Code Enforcement",
    "final_address": "4532 Citrus Dr",
    "address_councildis": "E",
    "status": "Pending",
    "rowid": "909333",
    "final_x": "3710818.60625",
    "final_y": "554880.447",
    "longitude": "-89.97461896500283",
    "latitude": "30.018805356088297",
    "geocoded_column": {
      "latitude": "30.018805356088297",
      "longitude": "-89.97461896500283"
    }
  },
  {
    "service_request": "2022-909332",
    "request_type": "Property Maintenance",
    "request_reason": "Property Maintenance",
    "date_created": "2022-08-12T14:21:27.000",
    "date_modified": "2022-08-12T14:21:28.000",
    "request_status": "Pending",
    "responsible_agency": "Department of Code Enforcement",
    "final_address": "4522 Citrus Dr",
    "address_councildis": "E",
    "status": "Pending",
    "rowid": "909332",
    "final_x": "3710748.09662",
    "final_y": "554888.76188",
    "longitude": "-89.97484143666827",
    "latitude": "30.01883051750671",
    "geocoded_column": {
      "latitude": "30.01883051750671",
      "longitude": "-89.97484143666827"
    }
  },