[
  {
    "service_request": "2024-1092864",
    "request_type": "Roads/Drainage",
    "request_reason": "Catch Basin - Clogged",
    "date_created": "2024-05-13T23:43:42.000",
    "date_modified": "2024-05-13T23:43:42.000",
    "request_status": "Pending",
    "responsible_agency": "Department of Public Works",
    "final_address": "714 N Claiborne Ave",
    "address_councildis": "C",
    "status": "Pending",
    "rowid": "1092864",
    "final_x": "3679900.41551",
    "final_y": "534592.632453",
    "longitude": "-90.07301451626424",
    "latitude": "29.96399284949121",
    "geocoded_column": {
      "latitude": "29.96399284949121",
      "longitude": "-90.07301451626424"
    }
  },
  {
    "service_request": "2024-1092863",
    "request_type": "Mosquito, Termite & Rodent Control",
    "request_reason": "Mosquito Complaint",
    "date_created": "2024-05-13T23:31:41.000",
    "date_modified": "2024-05-13T23:31:41.000",
    "request_status": "Pending",
    "responsible_agency": "Mosquito, Termite & Rodent Control Board",
    "final_address": "714 N Claiborne Ave",
    "address_councildis": "C",
    "status": "Pending",
    "rowid": "1092863",
    "final_x": "3679900.41551",
    "final_y": "534592.632453",
    "longitude": "-90.07301451626424",
    "latitude": "29.96399284949121",
    "geocoded_column": {
      "latitude": "29.96399284949121",
      "longitude": "-90.07301451626424"
    }
  },
  {
    "service_request": "2024-1092862",
    "request_type": "Trash/Recycling",
    "request_reason": "Replace Trash Cart",
    "date_created": "2024-05-13T23:20:24.000",
    "date_modified": "2024-05-13T23:20:25.000",
    "request_status": "Pending",
    "responsible_agency": "Department of Sanitation",
    "final_address": "8429 Hickory St",
    "address_councildis": "A",
    "status": "Assigned to Contractor",
    "contractor": "IV Waste",
    "rowid": "1092862",
    "final_x": "3662427.32947",
    "final_y": "530853.292482",
    "longitude": "-90.12831738866616",
    "latitude": "29.954227763148374",
    "geocoded_column": {
      "latitude": "29.954227763148374",
      "longitude": "-90.12831738866616"
    }
  },
  {
    "service_request": "2024-1092861",
    "request_type": "Health Related Request",
    "request_reason": "Noise Ordinance Complaint",
    "date_created": "2024-05-13T23:05:24.000",
    "date_modified": "2024-05-13T23:05:24.000",
    "request_status": "Pending",
    "responsible_agency": "Health Department",
    "final_address": "214 N Salcedo St, New Orleans, Louisiana, 70119",
    "address_councildis": "B",
    "status": "Pending",
    "rowid": "1092861",
    "final_x": "3674464.95835",
    "final_y": "536518.667463",
    "longitude": "-90.09011322713076",
    "latitude": "29.969452064513483",
    "geocoded_column": {
      "latitude": "29.969452064513483",
      "longitude": "-90.09011322713076"
    }
  },
  {
    "service_request": "2024-1092860",
    "request_type": "Roads/Drainage",
    "request_reason": "Catch Basin - Clogged",
    "date_created": "2024-05-13T22:16:11.000",
    "date_modified": "2024-05-13T22:16:11.000",
    "request_status": "Pending",
    "responsible_agency": "Department of Public Works",
    "final_address": "5231 St Charles Ave",
    "address_councildis": "B",
    "status": "Pending",
    "rowid": "1092860",
    "final_x": "3667943.80679",
    "final_y": "521403.149305",
    "longitude": "-90.11121676372267",
    "latitude": "29.928082245970227",
    "geocoded_column": {
      "latitude": "29.928082245970227",
      "longitude": "-90.11121676372267"
    }
  },
  {
    "service_request": "2024-1092859",
    "request_type": "Traffic Signals/Signs/Striping/Streetlights",
    "request_reason": "Street Light Outage/Malfunction",
    "date_created": "2024-05-13T20:49:04.000",
    "date_modified": "2024-05-13T20:49:05.000",
    "request_status": "Pending",
    "responsible_agency": "Department of Public Works",
    "final_address": "2822 Danneel St",
    "address_councildis": "B",
    "status": "Assigned to Contractor",
    "contractor": "Legacy Professional Services",
    "rowid": "1092859",
    "final_x": "3674980.57422",
    "final_y": "523595.456699",
    "longitude": "-90.08892810055927",
    "latitude": "29.933902136067022",
    "geocoded_column": {
      "latitude": "29.933902136067022",
      "longitude": "-90.08892810055927"
    }
  },
  {
    "service_request": "2024-1092858",
    "request_type": "Roads/Drainage",
    "request_reason": "Pothole",
    "date_created": "2024-05-13T20:45:56.000",
    "date_modified": "2024-05-13T20:45:56.000",
    "request_status": "Pending",
    "responsible_agency": "Department of Public Works",
    "final_address": "4216 Chestnut St",
    "address_councildis": "B",
    "status": "Pending",
    "rowid": "1092858",
    "final_x": "3671574.31393",
    "final_y": "519539.203703",
    "longitude": "-90.09981939416457",
    "latitude": "29.922850019854593",
    "geocoded_column": {
      "latitude": "29.922850019854593",
      "longitude": "-90.09981939416457"
    }
  },
  {
    "service_request": "2024-1092857",
    "request_type": "Roads/Drainage",
    "request_reason": "Pothole",
    "date_created": "2024-05-13T20:41:11.000",
    "date_modified": "2024-05-13T20:41:11.000",
    "request_status": "Pending",
    "responsible_agency": "Department of Public Works",
    "final_address": "6030 Camp St",
    "address_councildis": "A",
    "status": "Pending",
    "rowid": "1092857",
    "final_x": "3664533.87975",
    "final_y": "519586.217464",
    "longitude": "-90.12204180816082",
    "latitude": "29.923185817259107",
    "geocoded_column": {
      "latitude": "29.923185817259107",
      "longitude": "-90.12204180816082"
    }
  },
  {
    "service_request": "2024-1092856",
    "request_type": "Traffic Signals/Signs/Striping/Streetlights",
    "request_reason": "Street Light Outage/Malfunction",
    "date_created": "2024-05-13T20:39:23.000",
    "date_modified": "2024-05-13T20:39:24.000",
    "request_status": "Pending",
    "responsible_agency": "Department of Public Works",
    "final_address": "2421 Burdette St",
    "address_councildis": "A",
    "status": "Assigned to Contractor",
    "contractor": "Legacy Professional Services",
    "rowid": "1092856",
    "final_x": "3665852.24717",
    "final_y": "530917.552898",
    "longitude": "-90.11750067326915",
    "latitude": "29.95430497661269",
    "geocoded_column": {
      "latitude": "29.95430497661269",
      "longitude": "-90.11750067326915"
    }
  },
  {
    "service_request": "2024-1092855",
    "request_type": "Traffic Signals/Signs/Striping/Streetlights",
    "request_reason": "Street Light Outage/Malfunction",
    "date_created": "2024-05-13T20:31:11.000",
    "date_modified": "2024-05-13T20:31:11.000",
    "request_status": "Pending",
    "responsible_agency": "Department of Public Works",
    "final_address": "5934 Memphis St",
    "address_councildis": "A",
    "status": "Assigned to Contractor",
    "contractor": "Legacy Professional Services",
    "rowid": "1092855",
    "final_x": "3669061.58055",
    "final_y": "546845.512337",
    "longitude": "-90.10682849683545",
    "latitude": "29.99800747114059",
    "geocoded_column": {
      "latitude": "29.99800747114059",
      "longitude": "-90.10682849683545"
    }
  },
  {
    "service_request": "2024-1092854",
    "request_type": "Trash/Recycling",
    "request_reason": "Request a Large Item Pick Up",
    "date_created": "2024-05-13T20:26:26.000",
    "date_modified": "2024-05-13T20:26:27.000",
    "request_status": "Pending",
    "responsible_agency": "Department of Sanitation",
    "final_address": "4907 Dryades St",
    "address_councildis": "B",
    "status": "Assigned to Contractor",
    "contractor": "IV Waste",
    "rowid": "1092854",
    "final_x": "3669031.0155",
    "final_y": "521867.427834",
    "longitude": "-90.10776900650795",
    "latitude": "29.92932693437949",
    "geocoded_column": {
      "latitude": "29.92932693437949",
      "longitude": "-90.10776900650795"
    }
  },
  {
    "service_request": "2024-1092853",
    "request_type": "Trash/Recycling",
    "request_reason": "Request a Large Item Pick Up",
    "date_created": "2024-05-13T20:06:45.000",
    "date_modified": "2024-05-13T20:06:45.000",
    "request_status": "Pending",
    "responsible_agency": "Department of Sanitation",
    "final_address": "419 40Th St",
    "address_councildis": "A",
    "status": "Assigned to Contractor",
    "contractor": "IV Waste",
    "rowid": "1092853",
    "final_x": "3664901.37088",
    "final_y": "553418.939415",
    "longitude": "-90.11975066450154",
    "latitude": "30.016203906580778",
    "geocoded_column": {
      "latitude": "30.016203906580778",
      "longitude": "-90.11975066450154"
    }
  },
  {
    "service_request": "2024-1092852",
    "request_type": "Abandoned Vehicles",
    "request_reason": "Abandoned/Junk Vehicles",
    "date_created": "2024-05-13T19:13:21.000",
    "date_modified": "2024-05-13T19:13:21.000",
    "request_status": "Pending",
    "responsible_agency": "Department of Public Works",
    "final_address": "6214 Pasteur Blvd",
    "address_councildis": "D",
    "status": "Pending",
    "rowid": "1092852",
    "final_x": "3682695.63349",
    "final_y": "555909.311833",
    "longitude": "-90.06344144378222",
    "latitude": "30.022521311037597",
    "geocoded_column": {
      "latitude": "30.022521311037597",
      "longitude": "-90.06344144378222"
    }
  },
  {
    "service_request": "2024-1092851",
    "request_type": "Trash/Recycling",
    "request_reason": "Order Trash Cart",
    "date_created": "2024-05-13T18:58:15.000",
    "date_modified": "2024-05-13T18:58:16.000",
    "request_status": "Pending",
    "responsible_agency": "Department of Sanitation",
    "final_address": "5729 Franklin Ave",
    "address_councildis": "D",
    "status": "Assigned to Contractor",
    "contractor": "IV Waste",
    "rowid": "1092851",
    "final_x": "3686582.95586",
    "final_y": "554306.216728",
    "longitude": "-90.05121513585532",
    "latitude": "30.01799436064056",
    "geocoded_column": {
      "latitude": "30.01799436064056",
      "longitude": "-90.05121513585532"
    }
  },
  {
    "service_request": "2024-1092850",
    "request_type": "Mosquito, Termite & Rodent Control",
    "request_reason": "Rodent Complaint (Rats)",
    "date_created": "2024-05-13T18:50:14.000",
    "date_modified": "2024-05-13T18:50:14.000",
    "request_status": "Pending",
    "responsible_agency": "Mosquito, Termite & Rodent Control Board",
    "final_address": "4764 Mandeville St",
    "address_councildis": "D",
    "status": "Pending",
    "rowid": "1092850",
    "final_x": "3684597.18185",
    "final_y": "550616.290132",
    "longitude": "-90.05761921627112",
    "latitude": "30.00790935569562",
    "geocoded_column": {
      "latitude": "30.00790935569562",
      "longitude": "-90.05761921627112"
    }
  },
  {
    "service_request": "2024-1092849",
    "request_type": "Trash/Recycling",
    "request_reason": "Illegal Dumping",
    "date_created": "2024-05-13T18:49:25.000",
    "date_modified": "2024-05-13T18:49:25.000",
    "request_status": "Pending",
    "responsible_agency": "Department of Sanitation",
    "final_address": "3823 Dumaine St",
    "address_councildis": "A",
    "status": "Pending",
    "rowid": "1092849",
    "final_x": "3673639.16123",
    "final_y": "540243.396683",
    "longitude": "-90.09259379388672",
    "latitude": "29.979718413790465",
    "geocoded_column": {
      "latitude": "29.979718413790465",
      "longitude": "-90.09259379388672"
    }
  },
  {
    "service_request": "2024-1092848",
    "request_type": "Utility Poles",
    "request_reason": "Utility Pole Leaning",
    "date_created": "2024-05-13T18:40:11.000",
    "date_modified": "2024-05-13T18:40:16.000",
    "request_status": "Pending",
    "responsible_agency": "Utility Company Collective",
    "final_address": "4732 St Claude Ave",
    "address_councildis": "E",
    "status": "Pending",
    "rowid": "1092848",
    "final_x": "3694923.81027",
    "final_y": "534435.078213",
    "longitude": "-90.02557791317464",
    "latitude": "29.963096716249932",
    "geocoded_column": {
      "latitude": "29.963096716249932",
      "longitude": "-90.02557791317464"
    }
  },
  {
    "service_request": "2024-1092847",
    "request_type": "Traffic Signals/Signs/Striping/Streetlights",
    "request_reason": "Pothole",
    "date_created": "2024-05-13T18:37:19.000",
    "date_modified": "2024-05-13T18:37:19.000",
    "request_status": "Pending",
    "responsible_agency": "Department of Public Works",
    "final_address": "5800 St Charles Ave",
    "address_councildis": "A",
    "status": "Pending",
    "rowid": "1092847",
    "final_x": "3666114.31245",
    "final_y": "522072.620986",
    "longitude": "-90.11696964963089",
    "latitude": "29.92997660822534",
    "geocoded_column": {
      "latitude": "29.92997660822534",
      "longitude": "-90.11696964963089"
    }
  },
  {
    "service_request": "2024-1092846",
    "request_type": "Trash/Recycling",
    "request_reason": "Illegal Dumping",
    "date_created": "2024-05-13T18:31:47.000",
    "date_modified": "2024-05-13T18:31:47.000",
    "request_status": "Pending",
    "responsible_agency": "Department of Sanitation",
    "final_address": "8605 Apple St",
    "address_councildis": "A",
    "status": "Pending",
    "rowid": "1092846",
    "final_x": "3664017.5216",
    "final_y": "533368.427204",
    "longitude": "-90.12321230246143",
    "latitude": "29.96109748579059",
    "geocoded_column": {
      "latitude": "29.96109748579059",
      "longitude": "-90.12321230246143"
    }
  },
  {
    "service_request": "2024-1092845",
    "request_type": "Roads/Drainage",
    "request_reason": "Damaged Sidewalk",
    "date_created": "2024-05-13T18:30:31.000",
    "date_modified": "2024-05-13T18:30:31.000",
    "request_status": "Pending",
    "responsible_agency": "Department of Public Works",
    "final_address": "6823 St Charles Ave",
    "address_councildis": "A",
    "status": "Pending",
    "rowid": "1092845",
    "final_x": "3664251.8256",
    "final_y": "524033.789948",
    "longitude": "-90.1227838277921",
    "latitude": "29.935423435180134",
    "geocoded_column": {
      "latitude": "29.935423435180134",
      "longitude": "-90.1227838277921"
    }
  },
  {
    "service_request": "2024-1092844",
    "request_type": "Parks & Parkways",
    "request_reason": "Request Tree Service (Right of Way/Public Property)",
    "date_created": "2024-05-13T18:26:19.000",
    "date_modified": "2024-05-13T18:26:19.000",
    "request_status": "Pending",
    "responsible_agency": "Department of Parks & Parkway",
    "final_address": "956 Allen Toussaint Blvd",
    "address_councildis": "A",
    "status": "Pending",
    "rowid": "1092844",
    "final_x": "3671058.68615",
    "final_y": "554396.458904",
    "longitude": "-90.10026296128747",
    "latitude": "30.018710986796442",
    "geocoded_column": {
      "latitude": "30.018710986796442",
      "longitude": "-90.10026296128747"
    }
  },
  {
    "service_request": "2024-1092843",
    "request_type": "Property Maintenance",
    "request_reason": "Property Maintenance",
    "date_created": "2024-05-13T18:19:28.000",
    "date_modified": "2024-05-13T18:19:28.000",
    "request_status": "Pending",
    "responsible_agency": "Department of Code Enforcement",
    "final_address": "338 Elmira Ave",
    "address_councildis": "C",
    "status": "Pending",
    "rowid": "1092843",
    "final_x": "3688272.96521",
    "final_y": "530431.684802",
    "longitude": "-90.04672238239118",
    "latitude": "29.952295809200677",
    "geocoded_column": {
      "latitude": "29.952295809200677",
      "longitude": "-90.04672238239118"
    }
  },
  {
    "service_request": "2024-1092842",
    "request_type": "Roads/Drainage",
    "request_reason": "Pothole",
    "date_created": "2024-05-13T18:11:59.000",
    "date_modified": "2024-05-13T18:11:59.000",
    "request_status": "Pending",
    "responsible_agency": "Department of Public Works",
    "final_address": "1312 Milan St",
    "address_councildis": "B",
    "status": "Pending",
    "rowid": "1092842",
    "final_x": "3671625.82823",
    "final_y": "520286.919608",
    "longitude": "-90.09963137110304",
    "latitude": "29.92490447494246",
    "geocoded_column": {
      "latitude": "29.92490447494246",
      "longitude": "-90.09963137110304"
    }
  },
  {
    "service_request": "2024-1092841",
    "request_type": "Roads/Drainage",
    "request_reason": "Pothole",
    "date_created": "2024-05-13T18:10:37.000",
    "date_modified": "2024-05-13T18:10:37.000",
    "request_status": "Pending",
    "responsible_agency": "Department of Public Works",
    "final_address": "2614 Holiday Dr",
    "address_councildis": "C",
    "status": "Pending",
    "rowid": "1092841",
    "final_x": "3698899.67914",
    "final_y": "521515.401401",
    "longitude": "-90.01349261228553",
    "latitude": "29.927446758564923",
    "geocoded_column": {
      "latitude": "29.927446758564923",
      "longitude": "-90.01349261228553"
    }
  },
  {
    "service_request": "2024-1092840",
    "request_type": "Abandoned Vehicles",
    "request_reason": "Abandoned/Junk Vehicles",
    "date_created": "2024-05-13T18:08:36.000",
    "date_modified": "2024-05-13T18:08:36.000",
    "request_status": "Pending",
    "responsible_agency": "Department of Public Works",
    "final_address": "2227 Cambronne St",
    "address_councildis": "A",
    "status": "Pending",
    "rowid": "1092840",
    "final_x": "3663718.47571",
    "final_y": "531840.034179",
    "longitude": "-90.12420756861849",
    "latitude": "29.95690358370799",
    "geocoded_column": {
      "latitude": "29.95690358370799",
      "longitude": "-90.12420756861849"
    }
  },
  {
    "service_request": "2024-1092839",
    "request_type": "Property Maintenance",
    "request_reason": "Property Maintenance",
    "date_created": "2024-05-13T18:07:21.000",
    "date_modified": "2024-05-13T18:07:21.000",
    "request_status": "Pending",
    "responsible_agency": "Department of Code Enforcement",
    "final_address": "3819 Patterson St",
    "address_councildis": "C",
    "status": "Pending",
    "rowid": "1092839",
    "final_x": "3698305.956",
    "final_y": "526988.626302",
    "longitude": "-90.01516807840008",
    "latitude": "29.942515025760702",
    "geocoded_column": {
      "latitude": "29.942515025760702",
      "longitude": "-90.01516807840008"
    }
  },
  {
    "service_request": "2024-1092838",
    "request_type": "Property Maintenance",
    "request_reason": "Property Maintenance",
    "date_created": "2024-05-13T18:05:30.000",
    "date_modified": "2024-05-13T18:05:30.000",
    "request_status": "Pending",
    "responsible_agency": "Department of Code Enforcement",
    "final_address": "3601 Behrman Pl",
    "address_councildis": "C",
    "status": "Pending",
    "rowid": "1092838",
    "final_x": "3697574.77226",
    "final_y": "518475.388854",
    "longitude": "-90.01778517058449",
    "latitude": "29.919129656557388",
    "geocoded_column": {
      "latitude": "29.919129656557388",
      "longitude": "-90.01778517058449"
    }
  },
  {
    "service_request": "2024-1092837",
    "request_type": "Roads/Drainage",
    "request_reason": "Catch Basin - Clogged",
    "date_created": "2024-05-13T18:04:12.000",
    "date_modified": "2024-05-13T18:04:12.000",
    "request_status": "Pending",
    "responsible_agency": "Department of Public Works",
    "final_address": "1526 Lowerline St",
    "address_councildis": "A",
    "status": "Pending",
    "rowid": "1092837",
    "final_x": "3664351.50183",
    "final_y": "527939.152511",
    "longitude": "-90.12233884480733",
    "latitude": "29.94615903852879",
    "geocoded_column": {
      "latitude": "29.94615903852879",
      "longitude": "-90.12233884480733"
    }
  },
  {
    "service_request": "2024-1092836",
    "request_type": "Roads/Drainage",
    "request_reason": "Catch Basin - Clogged",
    "date_created": "2024-05-13T18:02:24.000",
    "date_modified": "2024-05-13T18:02:24.000",
    "request_status": "Pending",
    "responsible_agency": "Department of Public Works",
    "final_address": "1528 Lowerline St",
    "address_councildis": "A",
    "status": "Pending",
    "rowid": "1092836",
    "final_x": "3664356.405",
    "final_y": "527945.641983",
    "longitude": "-90.12232314719351",
    "latitude": "29.946176740002368",
    "geocoded_column": {
      "latitude": "29.946176740002368",
      "longitude": "-90.12232314719351"
    }
  },
  {
    "service_request": "2024-1092835",
    "request_type": "Trash/Recycling",
    "request_reason": "Request a Large Item Pick Up",
    "date_created": "2024-05-13T17:54:33.000",
    "date_modified": "2024-05-13T17:54:34.000",
    "request_status": "Pending",
    "responsible_agency": "Department of Sanitation",
    "final_address": "4822 Nottingham Dr",
    "address_councildis": "E",
    "status": "Assigned to Contractor",
    "contractor": "Waste Pro",
    "rowid": "1092835",
    "final_x": "3716281.04607",
    "final_y": "557266.235803",
    "longitude": "-89.95726927273842",
    "latitude": "30.025186097226108",
    "geocoded_column": {
      "latitude": "30.025186097226108",
      "longitude": "-89.95726927273842"
    }
  },
  {
    "service_request": "2024-1092834",
    "request_type": "Trash/Recycling",
    "request_reason": "Illegal Dumping",
    "date_created": "2024-05-13T17:52:46.000",
    "date_modified": "2024-05-13T17:52:46.000",
    "request_status": "Pending",
    "responsible_agency": "Department of Sanitation",
    "final_address": "6561 Catina St",
    "address_councildis": "A",
    "status": "Pending",
    "rowid": "1092834",
    "final_x": "3667040.42074",
    "final_y": "551410.545813",
    "longitude": "-90.11305975798852",
    "latitude": "30.010619061796735",
    "geocoded_column": {
      "latitude": "30.010619061796735",
      "longitude": "-90.11305975798852"
    }
  },
  {
    "service_request": "2024-1092833",
    "request_type": "Trash/Recycling",
    "request_reason": "Illegal Dumping",
    "date_created": "2024-05-13T17:51:17.000",
    "date_modified": "2024-05-13T17:51:17.000",
    "request_status": "Pending",
    "responsible_agency": "Department of Sanitation",
    "final_address": "6561 Catina St",
    "address_councildis": "A",
    "status": "Pending",
    "rowid": "1092833",
    "final_x": "3667040.42074",
    "final_y": "551410.545813",
    "longitude": "-90.11305975798852",
    "latitude": "30.010619061796735",
    "geocoded_column": {
      "latitude": "30.010619061796735",
      "longitude": "-90.11305975798852"
    }
  },
  {
    "service_request": "2024-1092832",
    "request_type": "Abandoned Vehicles",
    "request_reason": "Abandoned/Junk Vehicles",
    "date_created": "2024-05-13T17:51:00.000",
    "date_modified": "2024-05-13T17:51:00.000",
    "request_status": "Pending",
    "responsible_agency": "Department of Public Works",
    "final_address": "439 Amethyst St",
    "address_councildis": "D",
    "status": "Pending",
    "rowid": "1092832",
    "final_x": "3667695.04583",
    "final_y": "556725.77673",
    "longitude": "-90.11081237147249",
    "latitude": "30.025214883690538",
    "geocoded_column": {
      "latitude": "30.025214883690538",
      "longitude": "-90.11081237147249"
    }
  },
  {
    "service_request": "2024-1092831",
    "request_type": "Traffic Signals/Signs/Striping/Streetlights",
    "request_reason": "Traffic Signal Malfunctioning/Damaged",
    "date_created": "2024-05-13T17:50:49.000",
    "date_modified": "2024-05-13T17:50:49.000",
    "request_status": "Pending",
    "responsible_agency": "Department of Public Works",
    "final_address": "NAPOLEON AVE & TCHOUPITOULAS ST",
    "address_councildis": "B",
    "status": "Pending",
    "rowid": "1092831",
    "final_x": "3671152.2",
    "final_y": "517462.38",
    "longitude": "-90.10122233833027",
    "latitude": "29.91715190210986",
    "geocoded_column": {
      "latitude": "29.91715190210986",
      "longitude": "-90.10122233833027"
    }
  },
  {
    "service_request": "2024-1092830",
    "request_type": "Property Maintenance",
    "request_reason": "Property Maintenance",
    "date_created": "2024-05-13T17:29:30.000",
    "date_modified": "2024-05-13T17:29:30.000",
    "request_status": "Pending",
    "responsible_agency": "Department of Code Enforcement",
    "final_address": "4961 N Claiborne Ave",
    "address_councildis": "E",
    "status": "Pending",
    "rowid": "1092830",
    "final_x": "3696431.71203",
    "final_y": "536208.014727",
    "longitude": "-90.02075203084384",
    "latitude": "29.967924253935248",
    "geocoded_column": {
      "latitude": "29.967924253935248",
      "longitude": "-90.02075203084384"
    }
  },
  {
    "service_request": "2024-1092829",
    "request_type": "Trash/Recycling",
    "request_reason": "Order Recycling Cart",
    "date_created": "2024-05-13T17:29:28.000",
    "date_modified": "2024-05-13T17:29:28.000",
    "request_status": "Pending",
    "responsible_agency": "Department of Sanitation",
    "final_address": "4731 Major Dr",
    "address_councildis": "E",
    "status": "Pending",
    "rowid": "1092829",
    "final_x": "3718339.56601",
    "final_y": "556875.71081",
    "longitude": "-89.95077963572534",
    "latitude": "30.024044175007095",
    "geocoded_column": {
      "latitude": "30.024044175007095",
      "longitude": "-89.95077963572534"
    }
  },
  {
    "service_request": "2024-1092828",
    "request_type": "Trash/Recycling",
    "request_reason": "Order Trash Cart",
    "date_created": "2024-05-13T17:26:52.000",
    "date_modified": "2024-05-13T17:26:52.000",
    "request_status": "Pending",
    "responsible_agency": "Department of Sanitation",
    "final_address": "506 Jackson Ave",
    "address_councildis": "B",
    "status": "Assigned to Contractor",
    "contractor": "IV Waste",
    "rowid": "1092828",
    "final_x": "3680136.77333",
    "final_y": "520319.776312",
    "longitude": "-90.07276397309825",
    "latitude": "29.92474010867613",
    "geocoded_column": {
      "latitude": "29.92474010867613",
      "longitude": "-90.07276397309825"
    }
  },
  {
    "service_request": "2024-1092827",
    "request_type": "Trash/Recycling",
    "request_reason": "Replace Trash Cart",
    "date_created": "2024-05-13T17:23:53.000",
    "date_modified": "2024-05-13T17:23:54.000",
    "request_status": "Pending",
    "responsible_agency": "Department of Sanitation",
    "final_address": "4431 Tchoupitoulas St",
    "address_councildis": "B",
    "status": "Assigned to Contractor",
    "contractor": "IV Waste",
    "rowid": "1092827",
    "final_x": "3670893.28283",
    "final_y": "517466.115766",
    "longitude": "-90.10203946683183",
    "latitude": "29.917169827157387",
    "geocoded_column": {
      "latitude": "29.917169827157387",
      "longitude": "-90.10203946683183"
    }
  },
  {
    "service_request": "2024-1092826",
    "request_type": "Abandoned Vehicles",
    "request_reason": "Abandoned/Junk Vehicles",
    "date_created": "2024-05-13T17:22:09.000",
    "date_modified": "2024-05-13T17:22:09.000",
    "request_status": "Pending",
    "responsible_agency": "Department of Public Works",
    "final_address": "BAUDIN ST & S TELEMACHUS ST",
    "address_councildis": "B",
    "status": "Pending",
    "rowid": "1092826",
    "final_x": "3671371.1",
    "final_y": "536121.78",
    "longitude": "-90.09989739931734",
    "latitude": "29.96845269493647",
    "geocoded_column": {
      "latitude": "29.96845269493647",
      "longitude": "-90.09989739931734"
    }
  },
  {
    "service_request": "2024-1092825",
    "request_type": "Trash/Recycling",
    "request_reason": "Request a Large Item Pick Up",
    "date_created": "2024-05-13T17:20:51.000",
    "date_modified": "2024-05-13T17:20:51.000",
    "request_status": "Pending",
    "responsible_agency": "Department of Sanitation",
    "final_address": "7515 Michigan St",
    "address_councildis": "E",
    "status": "Assigned to Contractor",
    "contractor": "Waste Pro",
    "rowid": "1092825",
    "final_x": "3712231.3877",
    "final_y": "565922.436899",
    "longitude": "-89.9697399367572",
    "latitude": "30.04912028923194",
    "geocoded_column": {
      "latitude": "30.04912028923194",
      "longitude": "-89.9697399367572"
    }
  },
  {
    "service_request": "2024-1092824",
    "request_type": "Trash/Recycling",
    "request_reason": "Request a Large Item Pick Up",
    "date_created": "2024-05-13T17:02:20.000",
    "date_modified": "2024-05-13T17:02:21.000",
    "request_status": "Pending",
    "responsible_agency": "Department of Sanitation",
    "final_address": "4605 Lasalle St, New Orleans, Louisiana, 70115",
    "address_councildis": "B",
    "status": "Assigned to Contractor",
    "contractor": "IV Waste",
    "rowid": "1092824",
    "final_x": "3669749.91783",
    "final_y": "523657.660091",
    "longitude": "-90.10543899920367",
    "latitude": "29.934228336830163",
    "geocoded_column": {
      "latitude": "29.934228336830163",
      "longitude": "-90.10543899920367"
    }
  },
  {
    "service_request": "2024-1092823",
    "request_type": "Abandoned Vehicles",
    "request_reason": "Abandoned/Junk Vehicles",
    "date_created": "2024-05-13T17:00:59.000",
    "date_modified": "2024-05-13T17:00:59.000",
    "request_status": "Pending",
    "responsible_agency": "Department of Public Works",
    "final_address": "401 Austerlitz St",
    "address_councildis": "B",
    "status": "Pending",
    "rowid": "1092823",
    "final_x": "3673090.10542",
    "final_y": "517421.964022",
    "longitude": "-90.095106848418",
    "latitude": "29.916983330694244",
    "geocoded_column": {
      "latitude": "29.916983330694244",
      "longitude": "-90.095106848418"
    }
  },
  {
    "service_request": "2024-1092822",
    "request_type": "Abandoned Vehicles",
    "request_reason": "Abandoned/Junk Vehicles",
    "date_created": "2024-05-13T16:58:06.000",
    "date_modified": "2024-05-13T16:58:06.000",
    "request_status": "Pending",
    "responsible_agency": "Department of Public Works",
    "final_address": "2500 BLK Saint Louis St",
    "address_councildis": "B",
    "status": "Pending",
    "rowid": "1092822",
    "final_x": "3676860.4215",
    "final_y": "535822.4662",
    "longitude": "-90.08257215360321",
    "latitude": "29.967466065697522",
    "geocoded_column": {
      "latitude": "29.967466065697522",
      "longitude": "-90.08257215360321"
    }
  },
  {
    "service_request": "2024-1092821",
    "request_type": "Trash/Recycling",
    "request_reason": "Order Recycling Cart",
    "date_created": "2024-05-13T16:53:35.000",
    "date_modified": "2024-05-13T16:53:35.000",
    "request_status": "Pending",
    "responsible_agency": "Department of Sanitation",
    "final_address": "3821 Octavia St",
    "address_councildis": "A",
    "status": "Pending",
    "rowid": "1092821",
    "final_x": "3668851.79028",
    "final_y": "529503.670849",
    "longitude": "-90.10807701898557",
    "latitude": "29.950329407596872",
    "geocoded_column": {
      "latitude": "29.950329407596872",
      "longitude": "-90.10807701898557"
    }
  },
  {
    "service_request": "2024-1092820",
    "request_type": "Trash/Recycling",
    "request_reason": "Request a Large Item Pick Up",
    "date_created": "2024-05-13T16:50:56.000",
    "date_modified": "2024-05-13T16:50:56.000",
    "request_status": "Pending",
    "responsible_agency": "Department of Sanitation",
    "final_address": "3316 Delachaise St",
    "address_councildis": "B",
    "status": "Assigned to Contractor",
    "contractor": "IV Waste",
    "rowid": "1092820",
    "final_x": "3671484.42619",
    "final_y": "527214.401407",
    "longitude": "-90.0998423262878",
    "latitude": "29.94395699823168",
    "geocoded_column": {
      "latitude": "29.94395699823168",
      "longitude": "-90.0998423262878"
    }
  },
  {
    "service_request": "2024-1092819",
    "request_type": "Abandoned Vehicles",
    "request_reason": "Vehicle Blocking Your Driveway",
    "date_created": "2024-05-13T16:49:49.000",
    "date_modified": "2024-05-13T16:49:49.000",
    "request_status": "Pending",
    "responsible_agency": "Department of Public Works",
    "final_address": "1701 Louisa St",
    "address_councildis": "D",
    "status": "Pending",
    "rowid": "1092819",
    "final_x": "3690175.39612",
    "final_y": "538147.157961",
    "longitude": "-90.04044051984286",
    "latitude": "29.973451791527623",
    "geocoded_column": {
      "latitude": "29.973451791527623",
      "longitude": "-90.04044051984286"
    }
  },
  {
    "service_request": "2024-1092818",
    "request_type": "Trash/Recycling",
    "request_reason": "Request a Large Item Pick Up",
    "date_created": "2024-05-13T16:49:27.000",
    "date_modified": "2024-05-13T16:49:28.000",
    "request_status": "Pending",
    "responsible_agency": "Department of Sanitation",
    "final_address": "7950 Windward Ct",
    "address_councildis": "E",
    "status": "Assigned to Contractor",
    "contractor": "Waste Pro",
    "rowid": "1092818",
    "final_x": "3715001.00152",
    "final_y": "570464.317351",
    "longitude": "-89.9608144320802",
    "latitude": "30.06151767813256",
    "geocoded_column": {
      "latitude": "30.06151767813256",
      "longitude": "-89.9608144320802"
    }
  },
  {
    "service_request": "2024-1092817",
    "request_type": "Trash/Recycling",
    "request_reason": "Request a Large Item Pick Up",
    "date_created": "2024-05-13T16:46:32.000",
    "date_modified": "2024-05-13T16:46:33.000",
    "request_status": "Pending",
    "responsible_agency": "Department of Sanitation",
    "final_address": "1470 N Roman St",
    "address_councildis": "D",
    "status": "Assigned to Contractor",
    "contractor": "IV Waste",
    "rowid": "1092817",
    "final_x": "3681102.96002",
    "final_y": "537501.513224",
    "longitude": "-90.0691156427613",
    "latitude": "29.971954847937184",
    "geocoded_column": {
      "latitude": "29.971954847937184",
      "longitude": "-90.0691156427613"
    }
  },
  {
    "service_request": "2024-1092816",
    "request_type": "Roads/Drainage",
    "request_reason": "Street Subsidence (Sinking)",
    "date_created": "2024-05-13T16:46:15.000",
    "date_modified": "2024-05-13T16:46:15.000",
    "request_status": "Pending",
    "responsible_agency": "Department of Public Works",
    "final_address": "3817 Octavia St",
    "address_councildis": "A",
    "status": "Pending",
    "rowid": "1092816",
    "final_x": "3668845.60481",
    "final_y": "529468.915841",
    "longitude": "-90.10809772294161",
    "latitude": "29.950234024544727",
    "geocoded_column": {
      "latitude": "29.950234024544727",
      "longitude": "-90.10809772294161"
    }
  },
  {
    "service_request": "2024-1092815",
    "request_type": "Abandoned Vehicles",
    "request_reason": "Abandoned/Junk Vehicles",
    "date_created": "2024-05-13T16:44:27.000",
    "date_modified": "2024-05-13T16:44:28.000",
    "request_status": "Pending",
    "responsible_agency": "Department of Public Works",
    "final_address": "1015 Atlantic Ave",
    "address_councildis": "C",
    "status": "Pending",
    "rowid": "1092815",
    "final_x": "3688655.03139",
    "final_y": "527772.923327",
    "longitude": "-90.04561034366614",
    "latitude": "29.944973324102584",
    "geocoded_column": {
      "latitude": "29.944973324102584",
      "longitude": "-90.04561034366614"
    }
  },
  {
    "service_request": "2024-1092814",
    "request_type": "Trash/Recycling",
    "request_reason": "Missed Trash Pick-Up",
    "date_created": "2024-05-13T16:43:09.000",
    "date_modified": "2024-05-13T16:43:10.000",
    "request_status": "Pending",
    "responsible_agency": "Department of Sanitation",
    "final_address": "14650 Emory Rd",
    "address_councildis": "E",
    "status": "Assigned to Contractor",
    "contractor": "Waste Pro",
    "rowid": "1092814",
    "final_x": "3720282.94879",
    "final_y": "573429.90673",
    "longitude": "-89.94400476363846",
    "latitude": "30.069496780351614",
    "geocoded_column": {
      "latitude": "30.069496780351614",
      "longitude": "-89.94400476363846"
    }
  },
  {
    "service_request": "2024-1092813",
    "request_type": "Traffic Signals/Signs/Striping/Streetlights",
    "request_reason": "Street Name Sign Damaged or Missing",
    "date_created": "2024-05-13T16:41:15.000",
    "date_modified": "2024-05-13T16:41:15.000",
    "request_status": "Pending",
    "responsible_agency": "Department of Public Works",
    "final_address": "N DORGENOIS ST & ALVAR ST",
    "address_councildis": "D",
    "status": "Pending",
    "rowid": "1092813",
    "final_x": "3692805.2",
    "final_y": "540657.88",
    "longitude": "-90.03204503570109",
    "latitude": "29.980273528142646",
    "geocoded_column": {
      "latitude": "29.980273528142646",
      "longitude": "-90.03204503570109"
    }
  },
  {
    "service_request": "2024-1092812",
    "request_type": "Trash/Recycling",
    "request_reason": "Order Trash Cart",
    "date_created": "2024-05-13T16:40:49.000",
    "date_modified": "2024-05-13T16:40:50.000",
    "request_status": "Pending",
    "responsible_agency": "Department of Sanitation",
    "final_address": "4720 Duplessis St",
    "address_councildis": "D",
    "status": "Assigned to Contractor",
    "contractor": "IV Waste",
    "rowid": "1092812",
    "final_x": "3678071.81397",
    "final_y": "549929.910292",
    "longitude": "-90.07825856508771",
    "latitude": "30.00622020297718",
    "geocoded_column": {
      "latitude": "30.00622020297718",
      "longitude": "-90.07825856508771"
    }
  },
  {
    "service_request": "2024-1092811",
    "request_type": "Traffic Signals/Signs/Striping/Streetlights",
    "request_reason": "Street Name Sign Damaged or Missing",
    "date_created": "2024-05-13T16:40:35.000",
    "date_modified": "2024-05-13T16:40:35.000",
    "request_status": "Pending",
    "responsible_agency": "Department of Public Works",
    "final_address": "ALVAR ST & LAW ST",
    "address_councildis": "D",
    "status": "Pending",
    "rowid": "1092811",
    "final_x": "3692901.39",
    "final_y": "541052.45",
    "longitude": "-90.03172707188146",
    "latitude": "29.981355450045758",
    "geocoded_column": {
      "latitude": "29.981355450045758",
      "longitude": "-90.03172707188146"
    }
  },
  {
    "service_request": "2024-1092810",
    "request_type": "Traffic Signals/Signs/Striping/Streetlights",
    "request_reason": "Street Name Sign Damaged or Missing",
    "date_created": "2024-05-13T16:40:06.000",
    "date_modified": "2024-05-13T16:40:06.000",
    "request_status": "Pending",
    "responsible_agency": "Department of Public Works",
    "final_address": "PAULINE ST & LAW ST",
    "address_councildis": "D",
    "status": "Pending",
    "rowid": "1092810",
    "final_x": "3692609.87",
    "final_y": "541115.9",
    "longitude": "-90.03264554699696",
    "latitude": "29.98153901700566",
    "geocoded_column": {
      "latitude": "29.98153901700566",
      "longitude": "-90.03264554699696"
    }
  },
  {
    "service_request": "2024-1092809",
    "request_type": "Trash/Recycling",
    "request_reason": "Replace Trash Cart",
    "date_created": "2024-05-13T16:40:02.000",
    "date_modified": "2024-05-13T16:40:03.000",
    "request_status": "Pending",
    "responsible_agency": "Department of Sanitation",
    "final_address": "4363 Fields St",
    "address_councildis": "C",
    "status": "Assigned to Contractor",
    "contractor": "Richards Disposal",
    "rowid": "1092809",
    "final_x": "3707729.50603",
    "final_y": "514805.929459",
    "longitude": "-89.98586835059437",
    "latitude": "29.908715432730016",
    "geocoded_column": {
      "latitude": "29.908715432730016",
      "longitude": "-89.98586835059437"
    }
  },
  {
    "service_request": "2024-1092808",
    "request_type": "Traffic Signals/Signs/Striping/Streetlights",
    "request_reason": "Street Name Sign Damaged or Missing",
    "date_created": "2024-05-13T16:39:20.000",
    "date_modified": "2024-05-13T16:39:20.000",
    "request_status": "Pending",
    "responsible_agency": "Department of Public Works",
    "final_address": "N DORGENOIS ST & PAULINE ST",
    "address_councildis": "D",
    "status": "Pending",
    "rowid": "1092808",
    "final_x": "3692523.0",
    "final_y": "540725.68",
    "longitude": "-90.03293390907047",
    "latitude": "29.980468763023246",
    "geocoded_column": {
      "latitude": "29.980468763023246",
      "longitude": "-90.03293390907047"
    }
  },
  {
    "service_request": "2024-1092807",
    "request_type": "Traffic Signals/Signs/Striping/Streetlights",
    "request_reason": "Street Name Sign Damaged or Missing",
    "date_created": "2024-05-13T16:37:39.000",
    "date_modified": "2024-05-13T16:37:40.000",
    "request_status": "Pending",
    "responsible_agency": "Department of Public Works",
    "final_address": "INDEPENDENCE ST & LAW ST",
    "address_councildis": "D",
    "status": "Pending",
    "rowid": "1092807",
    "final_x": "3692371.36",
    "final_y": "541172.3",
    "longitude": "-90.03339684829537",
    "latitude": "29.98170153907645",
    "geocoded_column": {
      "latitude": "29.98170153907645",
      "longitude": "-90.03339684829537"
    }
  },
  {
    "service_request": "2024-1092806",
    "request_type": "Property Maintenance",
    "request_reason": "Property Maintenance",
    "date_created": "2024-05-13T16:36:36.000",
    "date_modified": "2024-05-13T16:36:36.000",
    "request_status": "Pending",
    "responsible_agency": "Department of Code Enforcement",
    "final_address": "713 S Solomon St",
    "address_councildis": "A",
    "status": "Pending",
    "rowid": "1092806",
    "final_x": "3669065.12346",
    "final_y": "536774.157384",
    "longitude": "-90.10715776355593",
    "latitude": "29.970314566919317",
    "geocoded_column": {
      "latitude": "29.970314566919317",
      "longitude": "-90.10715776355593"
    }
  },
  {
    "service_request": "2024-1092805",
    "request_type": "Trash/Recycling",
    "request_reason": "Repair Recycling Cart",
    "date_created": "2024-05-13T16:35:37.000",
    "date_modified": "2024-05-13T16:35:38.000",
    "request_status": "Pending",
    "responsible_agency": "Department of Sanitation",
    "final_address": "4221 S Robertson St",
    "address_councildis": "B",
    "status": "Pending",
    "rowid": "1092805",
    "final_x": "3671054.16103",
    "final_y": "524484.632636",
    "longitude": "-90.10129346499126",
    "latitude": "29.936463749325025",
    "geocoded_column": {
      "latitude": "29.936463749325025",
      "longitude": "-90.10129346499126"
    }
  },
  {
    "service_request": "2024-1092804",
    "request_type": "Trash/Recycling",
    "request_reason": "Request a Large Item Pick Up",
    "date_created": "2024-05-13T16:34:12.000",
    "date_modified": "2024-05-13T16:34:13.000",
    "request_status": "Pending",
    "responsible_agency": "Department of Sanitation",
    "final_address": "13000 N Lake Carmel Dr",
    "address_councildis": "E",
    "status": "Assigned to Contractor",
    "contractor": "Waste Pro",
    "rowid": "1092804",
    "final_x": "3716608.4597",
    "final_y": "568675.093413",
    "longitude": "-89.9558013131371",
    "latitude": "30.0565450125185",
    "geocoded_column": {
      "latitude": "30.0565450125185",
      "longitude": "-89.9558013131371"
    }
  },
  {
    "service_request": "2024-1092803",
    "request_type": "Parks & Parkways",
    "request_reason": "Request Tree Service (Right of Way/Public Property)",
    "date_created": "2024-05-13T16:29:59.000",
    "date_modified": "2024-05-13T16:29:59.000",
    "request_status": "Pending",
    "responsible_agency": "Department of Parks & Parkway",
    "final_address": "900 Dublin St",
    "address_councildis": "A",
    "status": "Pending",
    "rowid": "1092803",
    "final_x": "3660998.85184",
    "final_y": "527894.907583",
    "longitude": "-90.13292583631699",
    "latitude": "29.946134381967966",
    "geocoded_column": {
      "latitude": "29.946134381967966",
      "longitude": "-90.13292583631699"
    }
  },
  {
    "service_request": "2024-1092802",
    "request_type": "Parks & Parkways",
    "request_reason": "Request Tree Service (Right of Way/Public Property)",
    "date_created": "2024-05-13T16:28:48.000",
    "date_modified": "2024-05-13T16:28:49.000",
    "request_status": "Pending",
    "responsible_agency": "Department of Parks & Parkway",
    "final_address": "DUBLIN ST & BURTHE ST",
    "address_councildis": "A",
    "status": "Pending",
    "rowid": "1092802",
    "final_x": "3660994.5",
    "final_y": "527830.58",
    "longitude": "-90.13294170438625",
    "latitude": "29.945957626980213",
    "geocoded_column": {
      "latitude": "29.945957626980213",
      "longitude": "-90.13294170438625"
    }
  },
  {
    "service_request": "2024-1092801",
    "request_type": "Roads/Drainage",
    "request_reason": "Ditch Issue",
    "date_created": "2024-05-13T16:23:58.000",
    "date_modified": "2024-05-13T16:23:58.000",
    "request_status": "Pending",
    "responsible_agency": "Department of Public Works",
    "final_address": "7900 BLK Pearl St",
    "address_councildis": "A",
    "status": "Pending",
    "rowid": "1092801",
    "final_x": "3660700.77863",
    "final_y": "526196.65704",
    "longitude": "-90.13392308755434",
    "latitude": "29.941473315506933",
    "geocoded_column": {
      "latitude": "29.941473315506933",
      "longitude": "-90.13392308755434"
    }
  },
  {
    "service_request": "2024-1092800",
    "request_type": "Trash/Recycling",
    "request_reason": "Replace Trash Cart",
    "date_created": "2024-05-13T16:23:56.000",
    "date_modified": "2024-05-13T16:23:57.000",
    "request_status": "Pending",
    "responsible_agency": "Department of Sanitation",
    "final_address": "3827 Iberville St",
    "address_councildis": "A",
    "status": "Assigned to Contractor",
    "contractor": "IV Waste",
    "rowid": "1092800",
    "final_x": "3672173.50881",
    "final_y": "538106.857289",
    "longitude": "-90.09729572237372",
    "latitude": "29.97388721298482",
    "geocoded_column": {
      "latitude": "29.97388721298482",
      "longitude": "-90.09729572237372"
    }
  },
  {
    "service_request": "2024-1092799",
    "request_type": "Roads/Drainage",
    "request_reason": "Debris in Roadway",
    "date_created": "2024-05-13T16:21:53.000",
    "date_modified": "2024-05-13T16:21:53.000",
    "request_status": "Pending",
    "responsible_agency": "Department of Public Works",
    "final_address": "900 BLK Dublin St",
    "address_councildis": "A",
    "status": "Pending",
    "rowid": "1092799",
    "final_x": "3661110.9238",
    "final_y": "527959.395312",
    "longitude": "-90.13256985102579",
    "latitude": "29.946308473816813",
    "geocoded_column": {
      "latitude": "29.946308473816813",
      "longitude": "-90.13256985102579"
    }
  },
  {
    "service_request": "2024-1092798",
    "request_type": "Trash/Recycling",
    "request_reason": "Illegal Dumping",
    "date_created": "2024-05-13T16:21:15.000",
    "date_modified": "2024-05-13T16:21:15.000",
    "request_status": "Pending",
    "responsible_agency": "Department of Sanitation",
    "final_address": "1001 Pacific Ave",
    "address_councildis": "C",
    "status": "Pending",
    "rowid": "1092798",
    "final_x": "3688368.63964",
    "final_y": "527893.175679",
    "longitude": "-90.04651030392984",
    "latitude": "29.945312823864455",
    "geocoded_column": {
      "latitude": "29.945312823864455",
      "longitude": "-90.04651030392984"
    }
  },
  {
    "service_request": "2024-1092797",
    "request_type": "Trash/Recycling",
    "request_reason": "Order Trash Cart",
    "date_created": "2024-05-13T16:19:39.000",
    "date_modified": "2024-05-13T16:19:40.000",
    "request_status": "Pending",
    "responsible_agency": "Department of Sanitation",
    "final_address": "2413 Frenchmen St",
    "address_councildis": "D",
    "status": "Assigned to Contractor",
    "contractor": "IV Waste",
    "rowid": "1092797",
    "final_x": "3684226.9533",
    "final_y": "541192.196364",
    "longitude": "-90.05911996887811",
    "latitude": "29.982007792500262",
    "geocoded_column": {
      "latitude": "29.982007792500262",
      "longitude": "-90.05911996887811"
    }
  },
  {
    "service_request": "2024-1092796",
    "request_type": "Trash/Recycling",
    "request_reason": "Order Trash Cart",
    "date_created": "2024-05-13T16:18:50.000",
    "date_modified": "2024-05-13T16:18:50.000",
    "request_status": "Pending",
    "responsible_agency": "Department of Sanitation",
    "final_address": "400 Country Club Dr",
    "address_councildis": "A",
    "status": "Assigned to Contractor",
    "contractor": "IV Waste",
    "rowid": "1092796",
    "final_x": "3664405.82132",
    "final_y": "544229.025166",
    "longitude": "-90.12162344407585",
    "latitude": "29.99094923035679",
    "geocoded_column": {
      "latitude": "29.99094923035679",
      "longitude": "-90.12162344407585"
    }
  },
  {
    "service_request": "2024-1092795",
    "request_type": "Trash/Recycling",
    "request_reason": "Order Trash Cart",
    "date_created": "2024-05-13T16:18:32.000",
    "date_modified": "2024-05-13T16:18:32.000",
    "request_status": "Pending",
    "responsible_agency": "Department of Sanitation",
    "final_address": "7347 W Roadway St",
    "address_councildis": "A",
    "status": "Assigned to Contractor",
    "contractor": "IV Waste",
    "rowid": "1092795",
    "final_x": "3665091.37159",
    "final_y": "555887.617369",
    "longitude": "-90.11906768561698",
    "latitude": "30.022986367630267",
    "geocoded_column": {
      "latitude": "30.022986367630267",
      "longitude": "-90.11906768561698"
    }
  },
  {
    "service_request": "2024-1092794",
    "request_type": "Trash/Recycling",
    "request_reason": "Order Trash Cart",
    "date_created": "2024-05-13T16:17:56.000",
    "date_modified": "2024-05-13T16:17:56.000",
    "request_status": "Pending",
    "responsible_agency": "Department of Sanitation",
    "final_address": "7351 W Roadway St",
    "address_councildis": "A",
    "status": "Assigned to Contractor",
    "contractor": "IV Waste",
    "rowid": "1092794",
    "final_x": "3665091.16896",
    "final_y": "555903.556441",
    "longitude": "-90.11906779217004",
    "latitude": "30.023030200349613",
    "geocoded_column": {
      "latitude": "30.023030200349613",
      "longitude": "-90.11906779217004"
    }
  },
  {
    "service_request": "2024-1092793",
    "request_type": "Trash/Recycling",
    "request_reason": "Order Trash Cart",
    "date_created": "2024-05-13T16:16:41.000",
    "date_modified": "2024-05-13T16:16:42.000",
    "request_status": "Pending",
    "responsible_agency": "Department of Sanitation",
    "final_address": "2413 Frenchmen St",
    "address_councildis": "D",
    "status": "Assigned to Contractor",
    "contractor": "IV Waste",
    "rowid": "1092793",
    "final_x": "3684226.9533",
    "final_y": "541192.196364",
    "longitude": "-90.05911996887811",
    "latitude": "29.982007792500262",
    "geocoded_column": {
      "latitude": "29.982007792500262",
      "longitude": "-90.05911996887811"
    }
  },
  {
    "service_request": "2024-1092792",
    "request_type": "Roads/Drainage",
    "request_reason": "Catch Basin - Broken/Damage",
    "date_created": "2024-05-13T16:16:25.000",
    "date_modified": "2024-05-13T16:16:25.000",
    "request_status": "Pending",
    "responsible_agency": "Department of Public Works",
    "final_address": "4002 Hamilton St",
    "address_councildis": "A",
    "status": "Pending",
    "rowid": "1092792",
    "final_x": "3666097.65402",
    "final_y": "538228.115657",
    "longitude": "-90.11648062827106",
    "latitude": "29.974399450265015",
    "geocoded_column": {
      "latitude": "29.974399450265015",
      "longitude": "-90.11648062827106"
    }
  },
  {
    "service_request": "2024-1092791",
    "request_type": "Traffic Signals/Signs/Striping/Streetlights",
    "request_reason": "Street Light Outage/Malfunction",
    "date_created": "2024-05-13T16:15:32.000",
    "date_modified": "2024-05-13T16:15:33.000",
    "request_status": "Pending",
    "responsible_agency": "Department of Public Works",
    "final_address": "1467 Gardena Dr",
    "address_councildis": "D",
    "status": "Assigned to Contractor",
    "contractor": "Legacy Professional Services",
    "rowid": "1092791",
    "final_x": "3678081.84098",
    "final_y": "551557.094101",
    "longitude": "-90.0781705759347",
    "latitude": "30.01069407440049",
    "geocoded_column": {
      "latitude": "30.01069407440049",
      "longitude": "-90.0781705759347"
    }
  },
  {
    "service_request": "2024-1092790",
    "request_type": "Trash/Recycling",
    "request_reason": "Order Recycling Cart",
    "date_created": "2024-05-13T16:15:23.000",
    "date_modified": "2024-05-13T16:15:23.000",
    "request_status": "Pending",
    "responsible_agency": "Department of Sanitation",
    "final_address": "4610 Haydel St",
    "address_councildis": "E",
    "status": "Pending",
    "rowid": "1092790",
    "final_x": "3699029.91876",
    "final_y": "553721.244247",
    "longitude": "-90.01190903570475",
    "latitude": "30.01599708479943",
    "geocoded_column": {
      "latitude": "30.01599708479943",
      "longitude": "-90.01190903570475"
    }
  },
  {
    "service_request": "2024-1092789",
    "request_type": "Roads/Drainage",
    "request_reason": "Catch Basin - Clogged",
    "date_created": "2024-05-13T16:13:28.000",
    "date_modified": "2024-05-13T16:13:28.000",
    "request_status": "Pending",
    "responsible_agency": "Department of Public Works",
    "final_address": "7341 Spring Lake Dr",
    "address_councildis": "E",
    "status": "Pending",
    "rowid": "1092789",
    "final_x": "3700705.85661",
    "final_y": "559159.696604",
    "longitude": "-90.00641486769798",
    "latitude": "30.030897492870153",
    "geocoded_column": {
      "latitude": "30.030897492870153",
      "longitude": "-90.00641486769798"
    }
  },
  {
    "service_request": "2024-1092788",
    "request_type": "Roads/Drainage",
    "request_reason": "Catch Basin - Broken/Damage",
    "date_created": "2024-05-13T16:09:10.000",
    "date_modified": "2024-05-13T16:09:10.000",
    "request_status": "Pending",
    "responsible_agency": "Department of Public Works",
    "final_address": "9000 BLK Peach St",
    "address_councildis": "A",
    "status": "Pending",
    "rowid": "1092788",
    "final_x": "3666180.96747",
    "final_y": "537986.007477",
    "longitude": "-90.11622562547389",
    "latitude": "29.973731300506184",
    "geocoded_column": {
      "latitude": "29.973731300506184",
      "longitude": "-90.11622562547389"
    }
  },
  {
    "service_request": "2024-1092787",
    "request_type": "Roads/Drainage",
    "request_reason": "Catch Basin - Clogged",
    "date_created": "2024-05-13T16:08:18.000",
    "date_modified": "2024-05-13T16:08:35.000",
    "request_status": "Pending",
    "responsible_agency": "Department of Public Works",
    "final_address": "3510 Desaix Blvd",
    "address_councildis": "A",
    "status": "Pending",
    "rowid": "1092787",
    "final_x": "3676205.34209",
    "final_y": "543568.275598",
    "longitude": "-90.08437428049807",
    "latitude": "29.988784025718303",
    "geocoded_column": {
      "latitude": "29.988784025718303",
      "longitude": "-90.08437428049807"
    }
  },
  {
    "service_request": "2024-1092786",
    "request_type": "Roads/Drainage",
    "request_reason": "Pothole",
    "date_created": "2024-05-13T16:06:09.000",
    "date_modified": "2024-05-13T16:06:10.000",
    "request_status": "Pending",
    "responsible_agency": "Department of Public Works",
    "final_address": "1900 BLK Franklin Ave",
    "address_councildis": "D",
    "status": "Pending",
    "rowid": "1092786",
    "final_x": "3687707.18623",
    "final_y": "539672.204564",
    "longitude": "-90.04818160024085",
    "latitude": "29.977721478712997",
    "geocoded_column": {
      "latitude": "29.977721478712997",
      "longitude": "-90.04818160024085"
    }
  },
  {
    "service_request": "2024-1092785",
    "request_type": "Trash/Recycling",
    "request_reason": "Order Trash Cart",
    "date_created": "2024-05-13T16:05:32.000",
    "date_modified": "2024-05-13T16:05:32.000",
    "request_status": "Pending",
    "responsible_agency": "Department of Sanitation",
    "final_address": "2403 S Saratoga St",
    "address_councildis": "B",
    "status": "Assigned to Contractor",
    "contractor": "IV Waste",
    "rowid": "1092785",
    "final_x": "3675907.65301",
    "final_y": "524703.081084",
    "longitude": "-90.08596328438776",
    "latitude": "29.936920024078113",
    "geocoded_column": {
      "latitude": "29.936920024078113",
      "longitude": "-90.08596328438776"
    }
  },
  {
    "service_request": "2024-1092784",
    "request_type": "Trash/Recycling",
    "request_reason": "Order Trash Cart",
    "date_created": "2024-05-13T16:05:20.000",
    "date_modified": "2024-05-13T16:05:21.000",
    "request_status": "Pending",
    "responsible_agency": "Department of Sanitation",
    "final_address": "2401 S Saratoga St",
    "address_councildis": "B",
    "status": "Assigned to Contractor",
    "contractor": "IV Waste",
    "rowid": "1092784",
    "final_x": "3675921.26408",
    "final_y": "524712.5255",
    "longitude": "-90.08591998888994",
    "latitude": "29.93694558570061",
    "geocoded_column": {
      "latitude": "29.93694558570061",
      "longitude": "-90.08591998888994"
    }
  },
  {
    "service_request": "2024-1092783",
    "request_type": "Trash/Recycling",
    "request_reason": "Replace Trash Cart",
    "date_created": "2024-05-13T16:04:37.000",
    "date_modified": "2024-05-13T16:04:37.000",
    "request_status": "Pending",
    "responsible_agency": "Department of Sanitation",
    "final_address": "3117 N Villere St",
    "address_councildis": "C",
    "status": "Assigned to Contractor",
    "contractor": "IV Waste",
    "rowid": "1092783",
    "final_x": "3689429.97321",
    "final_y": "537103.568072",
    "longitude": "-90.04283183289137",
    "latitude": "29.97060539285459",
    "geocoded_column": {
      "latitude": "29.97060539285459",
      "longitude": "-90.04283183289137"
    }
  },
  {
    "service_request": "2024-1092782",
    "request_type": "Abandoned Vehicles",
    "request_reason": "Abandoned/Junk Vehicles",
    "date_created": "2024-05-13T16:00:23.000",
    "date_modified": "2024-05-13T16:00:23.000",
    "request_status": "Pending",
    "responsible_agency": "Department of Public Works",
    "final_address": "601 S Norman C Francis Pkwy, New Orleans, Louisiana, 70119",
    "status": "Pending",
    "rowid": "1092782",
    "longitude": "0.0",
    "latitude": "0.0",
    "geocoded_column": {
      "latitude": "0.0",
      "longitude": "0.0"
    }
  },
  {
    "service_request": "2024-1092781",
    "request_type": "Property Maintenance",
    "request_reason": "Property Maintenance",
    "date_created": "2024-05-13T15:54:15.000",
    "date_modified": "2024-05-13T15:54:15.000",
    "request_status": "Pending",
    "responsible_agency": "Department of Code Enforcement",
    "final_address": "1900 Bayou Rd",
    "address_councildis": "D",
    "status": "Pending",
    "rowid": "1092781",
    "final_x": "3680451.04111",
    "final_y": "536757.633672",
    "longitude": "-90.07120038394656",
    "latitude": "29.969929196549963",
    "geocoded_column": {
      "latitude": "29.969929196549963",
      "longitude": "-90.07120038394656"
    }
  },
  {
    "service_request": "2024-1092780",
    "request_type": "Roads/Drainage",
    "request_reason": "Damaged Sidewalk",
    "date_created": "2024-05-13T15:52:16.000",
    "date_modified": "2024-05-13T15:52:16.000",
    "request_status": "Pending",
    "responsible_agency": "Department of Public Works",
    "final_address": "130 Chatelain Ct",
    "address_councildis": "E",
    "status": "Pending",
    "rowid": "1092780",
    "final_x": "3715004.51487",
    "final_y": "567456.24458",
    "longitude": "-89.96091721311386",
    "latitude": "30.05324660092427",
    "geocoded_column": {
      "latitude": "30.05324660092427",
      "longitude": "-89.96091721311386"
    }
  },
  {
    "service_request": "2024-1092779",
    "request_type": "Traffic Signals/Signs/Striping/Streetlights",
    "request_reason": "Disabled Parking Sign ",
    "date_created": "2024-05-13T15:51:21.000",
    "date_modified": "2024-05-13T15:51:22.000",
    "request_status": "Pending",
    "responsible_agency": "Department of Public Works",
    "final_address": "400 BLK Conti St",
    "address_councildis": "C",
    "status": "Pending",
    "rowid": "1092779",
    "final_x": "3682534.03089",
    "final_y": "531089.551126",
    "longitude": "-90.06482027481353",
    "latitude": "29.954280658462636",
    "geocoded_column": {
      "latitude": "29.954280658462636",
      "longitude": "-90.06482027481353"
    }
  },
  {
    "service_request": "2024-1092778",
    "request_type": "Trash/Recycling",
    "request_reason": "Missed Trash Pick-Up",
    "date_created": "2024-05-13T15:50:45.000",
    "date_modified": "2024-05-13T15:50:46.000",
    "request_status": "Pending",
    "responsible_agency": "Department of Sanitation",
    "final_address": "2314 Delery St",
    "address_councildis": "E",
    "status": "Assigned to Contractor",
    "contractor": "Waste Pro",
    "rowid": "1092778",
    "final_x": "3702208.70065",
    "final_y": "537434.866696",
    "longitude": "-90.00246323893724",
    "latitude": "29.971114425544155",
    "geocoded_column": {
      "latitude": "29.971114425544155",
      "longitude": "-90.00246323893724"
    }
  },
  {
    "service_request": "2024-1092777",
    "request_type": "Trash/Recycling",
    "request_reason": "Order Recycling Cart",
    "date_created": "2024-05-13T15:48:46.000",
    "date_modified": "2024-05-13T15:48:46.000",
    "request_status": "Pending",
    "responsible_agency": "Department of Sanitation",
    "final_address": "1628 N Dorgenois St",
    "address_councildis": "D",
    "status": "Pending",
    "rowid": "1092777",
    "final_x": "3679727.31304",
    "final_y": "539965.356427",
    "longitude": "-90.07337459466211",
    "latitude": "29.978771227382566",
    "geocoded_column": {
      "latitude": "29.978771227382566",
      "longitude": "-90.07337459466211"
    }
  },
  {
    "service_request": "2024-1092776",
    "request_type": "Trash/Recycling",
    "request_reason": "Request a Large Item Pick Up",
    "date_created": "2024-05-13T15:47:43.000",
    "date_modified": "2024-05-13T15:47:43.000",
    "request_status": "Pending",
    "responsible_agency": "Department of Sanitation",
    "final_address": "2239 Peniston St",
    "address_councildis": "B",
    "status": "Assigned to Contractor",
    "contractor": "IV Waste",
    "rowid": "1092776",
    "final_x": "3672343.41716",
    "final_y": "523499.706875",
    "longitude": "-90.09725676945675",
    "latitude": "29.93371734232109",
    "geocoded_column": {
      "latitude": "29.93371734232109",
      "longitude": "-90.09725676945675"
    }
  },
  {
    "service_request": "2024-1092775",
    "request_type": "Trash/Recycling",
    "request_reason": "Request a Large Item Pick Up",
    "date_created": "2024-05-13T15:46:20.000",
    "date_modified": "2024-05-13T15:46:21.000",
    "request_status": "Pending",
    "responsible_agency": "Department of Sanitation",
    "final_address": "5539 Bellaire Dr",
    "address_councildis": "A",
    "status": "Assigned to Contractor",
    "contractor": "IV Waste",
    "rowid": "1092775",
    "final_x": "3664128.65383",
    "final_y": "544654.504847",
    "longitude": "-90.1224847517453",
    "latitude": "29.992127211490747",
    "geocoded_column": {
      "latitude": "29.992127211490747",
      "longitude": "-90.1224847517453"
    }
  },
  {
    "service_request": "2024-1092774",
    "request_type": "Trash/Recycling",
    "request_reason": "Request a Large Item Pick Up",
    "date_created": "2024-05-13T15:45:27.000",
    "date_modified": "2024-05-13T16:26:04.000",
    "request_status": "Pending",
    "responsible_agency": "Department of Sanitation",
    "final_address": "5539 Bellaire Dr",
    "address_councildis": "A",
    "status": "Assigned to Contractor",
    "contractor": "IV Waste",
    "contractor_action": "Duplicate",
    "rowid": "1092774",
    "final_x": "3664128.65383",
    "final_y": "544654.504847",
    "longitude": "-90.1224847517453",
    "latitude": "29.992127211490747",
    "geocoded_column": {
      "latitude": "29.992127211490747",
      "longitude": "-90.1224847517453"
    }
  },
  {
    "service_request": "2024-1092773",
    "request_type": "Trash/Recycling",
    "request_reason": "Request a Large Item Pick Up",
    "date_created": "2024-05-13T15:43:33.000",
    "date_modified": "2024-05-13T15:43:34.000",
    "request_status": "Pending",
    "responsible_agency": "Department of Sanitation",
    "final_address": "715 Short St, New Orleans, Louisiana, 70118",
    "address_councildis": "A",
    "status": "Assigned to Contractor",
    "contractor": "IV Waste",
    "rowid": "1092773",
    "final_x": "3663597.80378",
    "final_y": "529439.915137",
    "longitude": "-90.12466855789725",
    "latitude": "29.950307534081592",
    "geocoded_column": {
      "latitude": "29.950307534081592",
      "longitude": "-90.12466855789725"
    }
  },
  {
    "service_request": "2024-1092772",
    "request_type": "Roads/Drainage",
    "request_reason": "Catch Basin - Clogged",
    "date_created": "2024-05-13T15:41:25.000",
    "date_modified": "2024-05-13T15:41:26.000",
    "request_status": "Pending",
    "responsible_agency": "Department of Public Works",
    "final_address": "2114 Freret St",
    "address_councildis": "B",
    "status": "Pending",
    "rowid": "1092772",
    "final_x": "3675827.46683",
    "final_y": "526435.974718",
    "longitude": "-90.08615688992354",
    "latitude": "29.941687312682568",
    "geocoded_column": {
      "latitude": "29.941687312682568",
      "longitude": "-90.08615688992354"
    }
  },
  {
    "service_request": "2024-1092771",
    "request_type": "Taxi Issues",
    "request_reason": "Taxi Complaint",
    "date_created": "2024-05-13T15:38:39.000",
    "date_modified": "2024-05-13T15:38:39.000",
    "request_status": "Pending",
    "responsible_agency": "Ground Transportation Bureau",
    "final_address": "555 Canal St",
    "address_councildis": "C",
    "status": "Pending",
    "rowid": "1092771",
    "final_x": "3681657.1156",
    "final_y": "530427.761794",
    "longitude": "-90.06761230467993",
    "latitude": "29.952487626263423",
    "geocoded_column": {
      "latitude": "29.952487626263423",
      "longitude": "-90.06761230467993"
    }
  },
  {
    "service_request": "2024-1092770",
    "request_type": "Trash/Recycling",
    "request_reason": "Return Recycling Cart",
    "date_created": "2024-05-13T15:36:56.000",
    "date_modified": "2024-05-13T15:36:56.000",
    "request_status": "Pending",
    "responsible_agency": "Department of Sanitation",
    "final_address": "1531 Fern St",
    "address_councildis": "A",
    "status": "Pending",
    "rowid": "1092770",
    "final_x": "3663437.3017",
    "final_y": "528780.422144",
    "longitude": "-90.12519729715491",
    "latitude": "29.94849879497353",
    "geocoded_column": {
      "latitude": "29.94849879497353",
      "longitude": "-90.12519729715491"
    }
  },
  {
    "service_request": "2024-1092769",
    "request_type": "Trash/Recycling",
    "request_reason": "Request a Large Item Pick Up",
    "date_created": "2024-05-13T15:34:50.000",
    "date_modified": "2024-05-13T15:34:50.000",
    "request_status": "Pending",
    "responsible_agency": "Department of Sanitation",
    "final_address": "5836 Fleur-De-Lis Dr",
    "address_councildis": "A",
    "status": "Assigned to Contractor",
    "contractor": "IV Waste",
    "rowid": "1092769",
    "final_x": "3664984.59725",
    "final_y": "546633.895313",
    "longitude": "-90.11971476326137",
    "latitude": "29.997544961288977",
    "geocoded_column": {
      "latitude": "29.997544961288977",
      "longitude": "-90.11971476326137"
    }
  },
  {
    "service_request": "2024-1092768",
    "request_type": "Trash/Recycling",
    "request_reason": "Repair Trash Cart",
    "date_created": "2024-05-13T15:34:37.000",
    "date_modified": "2024-05-13T15:34:38.000",
    "request_status": "Pending",
    "responsible_agency": "Department of Sanitation",
    "final_address": "71 Maryland Dr",
    "address_councildis": "A",
    "status": "Assigned to Contractor",
    "contractor": "IV Waste",
    "rowid": "1092768",
    "final_x": "3663741.25325",
    "final_y": "541641.283852",
    "longitude": "-90.12380894989148",
    "latitude": "29.983853121367776",
    "geocoded_column": {
      "latitude": "29.983853121367776",
      "longitude": "-90.12380894989148"
    }
  },
  {
    "service_request": "2024-1092767",
    "request_type": "Trash/Recycling",
    "request_reason": "Request a Large Item Pick Up",
    "date_created": "2024-05-13T15:32:06.000",
    "date_modified": "2024-05-13T15:32:07.000",
    "request_status": "Pending",
    "responsible_agency": "Department of Sanitation",
    "final_address": "2737 Wisteria St",
    "address_councildis": "D",
    "status": "Assigned to Contractor",
    "contractor": "IV Waste",
    "rowid": "1092767",
    "final_x": "3687962.1711",
    "final_y": "548494.557586",
    "longitude": "-90.0470634837786",
    "latitude": "30.001971923131656",
    "geocoded_column": {
      "latitude": "30.001971923131656",
      "longitude": "-90.0470634837786"
    }
  },
  {
    "service_request": "2024-1092766",
    "request_type": "Abandoned Vehicles",
    "request_reason": "Abandoned/Junk Vehicles",
    "date_created": "2024-05-13T15:31:50.000",
    "date_modified": "2024-05-13T15:34:27.000",
    "request_status": "Pending",
    "responsible_agency": "Department of Public Works",
    "final_address": "1515 St Ann St",
    "address_councildis": "C",
    "status": "Pending",
    "rowid": "1092766",
    "final_x": "3680445.5613",
    "final_y": "534578.792709",
    "longitude": "-90.07129347759957",
    "latitude": "29.963938296426466",
    "geocoded_column": {
      "latitude": "29.963938296426466",
      "longitude": "-90.07129347759957"
    }
  },
  {
    "service_request": "2024-1092765",
    "request_type": "Roads/Drainage",
    "request_reason": "Damaged Sidewalk",
    "date_created": "2024-05-13T15:21:23.000",
    "date_modified": "2024-05-13T15:21:23.000",
    "request_status": "Pending",
    "responsible_agency": "Department of Public Works",
    "final_address": "2022 Bienville Ave",
    "address_councildis": "B",
    "status": "Pending",
    "rowid": "1092765",
    "final_x": "3677815.002",
    "final_y": "534143.839109",
    "longitude": "-90.0796155714666",
    "latitude": "29.962821725852937",
    "geocoded_column": {
      "latitude": "29.962821725852937",
      "longitude": "-90.0796155714666"
    }
  },
  {
    "service_request": "2024-1092764",
    "request_type": "Trash/Recycling",
    "request_reason": "Request a Large Item Pick Up",
    "date_created": "2024-05-13T15:18:14.000",
    "date_modified": "2024-05-13T15:18:14.000",
    "request_status": "Pending",
    "responsible_agency": "Department of Sanitation",
    "final_address": "5800 Wright Rd",
    "address_councildis": "E",
    "status": "Assigned to Contractor",
    "contractor": "Waste Pro",
    "rowid": "1092764",
    "final_x": "3714194.11371",
    "final_y": "561117.946846",
    "longitude": "-89.96371810925382",
    "latitude": "30.035845513861418",
    "geocoded_column": {
      "latitude": "30.035845513861418",
      "longitude": "-89.96371810925382"
    }
  },
  {
    "service_request": "2024-1092763",
    "request_type": "Traffic Signals/Signs/Striping/Streetlights",
    "request_reason": "Street Light Outage/Malfunction",
    "date_created": "2024-05-13T15:17:25.000",
    "date_modified": "2024-05-13T15:17:25.000",
    "request_status": "Pending",
    "responsible_agency": "Department of Public Works",
    "final_address": "4100 BLK Vendome Pl",
    "address_councildis": "B",
    "status": "Assigned to Contractor",
    "contractor": "Legacy Professional Services",
    "rowid": "1092763",
    "final_x": "3668887.99519",
    "final_y": "530720.296615",
    "longitude": "-90.1079216201178",
    "latitude": "29.95367366561618",
    "geocoded_column": {
      "latitude": "29.95367366561618",
      "longitude": "-90.1079216201178"
    }
  },
  {
    "service_request": "2024-1092762",
    "request_type": "Traffic Signals/Signs/Striping/Streetlights",
    "request_reason": "Crosswalks and Signage",
    "date_created": "2024-05-13T15:13:17.000",
    "date_modified": "2024-05-13T16:41:21.000",
    "case_close_date": "2024-05-13T11:41:21.000",
    "request_status": "Closed",
    "responsible_agency": "Department of Public Works",
    "final_address": "MONTEGUT ST & CHARTRES ST",
    "address_councildis": "C",
    "status": "Pending",
    "contractor_action": "Additional information required from resident",
    "rowid": "1092762",
    "final_x": "3687972.3",
    "final_y": "534294.08",
    "longitude": "-90.04753488904188",
    "latitude": "29.962925341595437",
    "geocoded_column": {
      "latitude": "29.962925341595437",
      "longitude": "-90.04753488904188"
    }
  },
  {
    "service_request": "2024-1092761",
    "request_type": "Property Maintenance",
    "request_reason": "Property Maintenance",
    "date_created": "2024-05-13T15:12:57.000",
    "date_modified": "2024-05-13T15:12:57.000",
    "request_status": "Pending",
    "responsible_agency": "Department of Code Enforcement",
    "final_address": "4722 Majestic Oaks Dr",
    "address_councildis": "D",
    "status": "Pending",
    "rowid": "1092761",
    "final_x": "3697677.87914",
    "final_y": "554306.931928",
    "longitude": "-90.01615958323194",
    "latitude": "30.01765030807066",
    "geocoded_column": {
      "latitude": "30.01765030807066",
      "longitude": "-90.01615958323194"
    }
  },
  {
    "service_request": "2024-1092760",
    "request_type": "Trash/Recycling",
    "request_reason": "Request a Large Item Pick Up",
    "date_created": "2024-05-13T15:12:37.000",
    "date_modified": "2024-05-13T15:12:38.000",
    "request_status": "Pending",
    "responsible_agency": "Department of Sanitation",
    "final_address": "10934 Curran Rd",
    "address_councildis": "E",
    "status": "Assigned to Contractor",
    "contractor": "Waste Pro",
    "rowid": "1092760",
    "final_x": "3710305.32965",
    "final_y": "565912.629091",
    "longitude": "-89.97582775325162",
    "latitude": "30.049156204447808",
    "geocoded_column": {
      "latitude": "30.049156204447808",
      "longitude": "-89.97582775325162"
    }
  },
  {
    "service_request": "2024-1092759",
    "request_type": "Trash/Recycling",
    "request_reason": "Order Recycling Cart",
    "date_created": "2024-05-13T15:11:41.000",
    "date_modified": "2024-05-13T15:11:42.000",
    "request_status": "Pending",
    "responsible_agency": "Department of Sanitation",
    "final_address": "4556 Marque Dr",
    "address_councildis": "E",
    "status": "Pending",
    "rowid": "1092759",
    "final_x": "3710118.04331",
    "final_y": "554568.90812",
    "longitude": "-89.97684412631453",
    "latitude": "30.017971568491106",
    "geocoded_column": {
      "latitude": "30.017971568491106",
      "longitude": "-89.97684412631453"
    }
  },
  {
    "service_request": "2024-1092758",
    "request_type": "Parks & Parkways",
    "request_reason": "Request Tree Service (Right of Way/Public Property)",
    "date_created": "2024-05-13T15:08:54.000",
    "date_modified": "2024-05-13T15:08:54.000",
    "request_status": "Pending",
    "responsible_agency": "Department of Parks & Parkway",
    "final_address": "2501 Calhoun St",
    "address_councildis": "A",
    "status": "Pending",
    "rowid": "1092758",
    "final_x": "3666239.34465",
    "final_y": "526040.310334",
    "longitude": "-90.11644192222953",
    "latitude": "29.940882837900297",
    "geocoded_column": {
      "latitude": "29.940882837900297",
      "longitude": "-90.11644192222953"
    }
  },
  {
    "service_request": "2024-1092757",
    "request_type": "Traffic Signals/Signs/Striping/Streetlights",
    "request_reason": "Crosswalks and Signage",
    "date_created": "2024-05-13T15:08:39.000",
    "date_modified": "2024-05-13T16:40:22.000",
    "case_close_date": "2024-05-13T11:40:22.000",
    "request_status": "Closed",
    "responsible_agency": "Department of Public Works",
    "final_address": "CHARTRES ST & PRESS ST",
    "address_councildis": "C",
    "status": "Pending",
    "contractor_action": "Additional information required from resident",
    "rowid": "1092757",
    "final_x": "3687594.6",
    "final_y": "534391.28",
    "longitude": "-90.04872417418723",
    "latitude": "29.96320425642926",
    "geocoded_column": {
      "latitude": "29.96320425642926",
      "longitude": "-90.04872417418723"
    }
  },
  {
    "service_request": "2024-1092756",
    "request_type": "Property Maintenance",
    "request_reason": "Property Maintenance",
    "date_created": "2024-05-13T15:07:58.000",
    "date_modified": "2024-05-13T15:07:58.000",
    "request_status": "Pending",
    "responsible_agency": "Department of Code Enforcement",
    "final_address": "1843 Casa Calvo St",
    "address_councildis": "C",
    "status": "Pending",
    "rowid": "1092756",
    "final_x": "3691880.34768",
    "final_y": "524315.060732",
    "longitude": "-90.03555072168241",
    "latitude": "29.93536532405136",
    "geocoded_column": {
      "latitude": "29.93536532405136",
      "longitude": "-90.03555072168241"
    }
  },
  {
    "service_request": "2024-1092755",
    "request_type": "Abandoned Vehicles",
    "request_reason": "Abandoned/Junk Vehicles",
    "date_created": "2024-05-13T15:05:20.000",
    "date_modified": "2024-05-13T15:05:20.000",
    "request_status": "Pending",
    "responsible_agency": "Department of Public Works",
    "final_address": "1701 Louisa St",
    "address_councildis": "D",
    "status": "Pending",
    "rowid": "1092755",
    "final_x": "3690175.39612",
    "final_y": "538147.157961",
    "longitude": "-90.04044051984286",
    "latitude": "29.973451791527623",
    "geocoded_column": {
      "latitude": "29.973451791527623",
      "longitude": "-90.04044051984286"
    }
  },
  {
    "service_request": "2024-1092754",
    "request_type": "Roads/Drainage",
    "request_reason": "Catch Basin - Clogged",
    "date_created": "2024-05-13T15:04:20.000",
    "date_modified": "2024-05-13T15:04:20.000",
    "request_status": "Pending",
    "responsible_agency": "Department of Public Works",
    "final_address": "3605 S Carrollton Ave",
    "address_councildis": "B",
    "status": "Pending",
    "rowid": "1092754",
    "final_x": "3667919.16775",
    "final_y": "534629.593478",
    "longitude": "-90.11084908660588",
    "latitude": "29.964451398599262",
    "geocoded_column": {
      "latitude": "29.964451398599262",
      "longitude": "-90.11084908660588"
    }
  },
  {
    "service_request": "2024-1092753",
    "request_type": "Graffiti Removal",
    "request_reason": "Graffiti Removal",
    "date_created": "2024-05-13T15:04:19.000",
    "date_modified": "2024-05-13T15:40:35.000",
    "request_status": "Pending",
    "responsible_agency": "Department of Code Enforcement",
    "final_address": "2716 Royal St",
    "address_councildis": "C",
    "status": "Processed",
    "rowid": "1092753",
    "final_x": "3687184.34799",
    "final_y": "534831.747334",
    "longitude": "-90.05000412079282",
    "latitude": "29.9644280290077",
    "geocoded_column": {
      "latitude": "29.9644280290077",
      "longitude": "-90.05000412079282"
    }
  },
  {
    "service_request": "2024-1092751",
    "request_type": "Trash/Recycling",
    "request_reason": "Request a Large Item Pick Up",
    "date_created": "2024-05-13T15:00:40.000",
    "date_modified": "2024-05-13T15:00:40.000",
    "request_status": "Pending",
    "responsible_agency": "Department of Sanitation",
    "final_address": "3810 Banks St",
    "address_councildis": "B",
    "status": "Assigned to Contractor",
    "contractor": "IV Waste",
    "rowid": "1092751",
    "final_x": "3671213.80852",
    "final_y": "536657.408903",
    "longitude": "-90.10037593334977",
    "latitude": "29.96993014916908",
    "geocoded_column": {
      "latitude": "29.96993014916908",
      "longitude": "-90.10037593334977"
    }
  },
  {
    "service_request": "2024-1092750",
    "request_type": "Trash/Recycling",
    "request_reason": "Illegal Dumping",
    "date_created": "2024-05-13T15:00:21.000",
    "date_modified": "2024-05-13T15:00:21.000",
    "request_status": "Pending",
    "responsible_agency": "Department of Sanitation",
    "final_address": "904 Thayer St",
    "address_councildis": "C",
    "status": "Pending",
    "rowid": "1092750",
    "final_x": "3689501.04713",
    "final_y": "528201.558464",
    "longitude": "-90.0429239798915",
    "latitude": "29.946125753936304",
    "geocoded_column": {
      "latitude": "29.946125753936304",
      "longitude": "-90.0429239798915"
    }
  },
  {
    "service_request": "2024-1092749",
    "request_type": "Property Maintenance",
    "request_reason": "Property Maintenance",
    "date_created": "2024-05-13T14:59:54.000",
    "date_modified": "2024-05-13T14:59:54.000",
    "request_status": "Pending",
    "responsible_agency": "Department of Code Enforcement",
    "final_address": "327 S Pierce St",
    "address_councildis": "A",
    "status": "Pending",
    "rowid": "1092749",
    "final_x": "3670831.99387",
    "final_y": "537255.418952",
    "longitude": "-90.10156144187984",
    "latitude": "29.971585767016155",
    "geocoded_column": {
      "latitude": "29.971585767016155",
      "longitude": "-90.10156144187984"
    }
  },
  {
    "service_request": "2024-1092748",
    "request_type": "Roads/Drainage",
    "request_reason": "Catch Basin - Broken/Damage",
    "date_created": "2024-05-13T14:59:30.000",
    "date_modified": "2024-05-13T14:59:30.000",
    "request_status": "Pending",
    "responsible_agency": "Department of Public Works",
    "final_address": "3900 BLK General Ogden St",
    "address_councildis": "A",
    "status": "Pending",
    "rowid": "1092748",
    "final_x": "3666451.22743",
    "final_y": "537502.643942",
    "longitude": "-90.11538830894568",
    "latitude": "29.972394315834215",
    "geocoded_column": {
      "latitude": "29.972394315834215",
      "longitude": "-90.11538830894568"
    }
  },
  {
    "service_request": "2024-1092747",
    "request_type": "Safety & Permits",
    "request_reason": "Construction permit",
    "date_created": "2024-05-13T14:55:12.000",
    "date_modified": "2024-05-13T14:55:12.000",
    "request_status": "Pending",
    "responsible_agency": "Department of Code Enforcement",
    "final_address": "538 S Pierce St",
    "address_councildis": "B",
    "status": "Pending",
    "rowid": "1092747",
    "final_x": "3670376.40244",
    "final_y": "536458.956615",
    "longitude": "-90.10302727902595",
    "latitude": "29.969409221812786",
    "geocoded_column": {
      "latitude": "29.969409221812786",
      "longitude": "-90.10302727902595"
    }
  },
  {
    "service_request": "2024-1092746",
    "request_type": "Trash/Recycling",
    "request_reason": "Repair Recycling Cart",
    "date_created": "2024-05-13T14:55:00.000",
    "date_modified": "2024-05-13T14:55:01.000",
    "request_status": "Pending",
    "responsible_agency": "Department of Sanitation",
    "final_address": "4601 Dreux Ave",
    "address_councildis": "D",
    "status": "Pending",
    "rowid": "1092746",
    "final_x": "3690597.62512",
    "final_y": "553073.567831",
    "longitude": "-90.03857436488255",
    "latitude": "30.014480905645957",
    "geocoded_column": {
      "latitude": "30.014480905645957",
      "longitude": "-90.03857436488255"
    }
  },
  {
    "service_request": "2024-1092745",
    "request_type": "Trash/Recycling",
    "request_reason": "Request a Large Item Pick Up",
    "date_created": "2024-05-13T14:53:38.000",
    "date_modified": "2024-05-13T14:53:38.000",
    "request_status": "Pending",
    "responsible_agency": "Department of Sanitation",
    "final_address": "4734 Charlene Dr",
    "address_councildis": "E",
    "status": "Assigned to Contractor",
    "contractor": "Waste Pro",
    "rowid": "1092745",
    "final_x": "3707849.84862",
    "final_y": "555478.379289",
    "longitude": "-89.9839768509684",
    "latitude": "30.020545898584068",
    "geocoded_column": {
      "latitude": "30.020545898584068",
      "longitude": "-89.9839768509684"
    }
  },
  {
    "service_request": "2024-1092744",
    "request_type": "Property Maintenance",
    "request_reason": "Property Maintenance",
    "date_created": "2024-05-13T14:52:13.000",
    "date_modified": "2024-05-13T14:52:13.000",
    "request_status": "Pending",
    "responsible_agency": "Department of Code Enforcement",
    "final_address": "1908 Annette St",
    "address_councildis": "D",
    "status": "Pending",
    "rowid": "1092744",
    "final_x": "3682761.61333",
    "final_y": "539162.506058",
    "longitude": "-90.06381923602164",
    "latitude": "29.976471577911195",
    "geocoded_column": {
      "latitude": "29.976471577911195",
      "longitude": "-90.06381923602164"
    }
  },
  {
    "service_request": "2024-1092742",
    "request_type": "Trash/Recycling",
    "request_reason": "Request a Large Item Pick Up",
    "date_created": "2024-05-13T14:49:27.000",
    "date_modified": "2024-05-13T16:22:04.000",
    "case_close_date": "2024-05-13T11:22:04.000",
    "request_status": "Closed",
    "responsible_agency": "Department of Sanitation",
    "final_address": "222 S Bernadotte St",
    "address_councildis": "A",
    "status": "Assigned to Contractor",
    "contractor": "IV Waste",
    "contractor_action": "Completed",
    "rowid": "1092742",
    "final_x": "3668481.10273",
    "final_y": "539542.897354",
    "longitude": "-90.10890873375813",
    "latitude": "29.977944844030226",
    "geocoded_column": {
      "latitude": "29.977944844030226",
      "longitude": "-90.10890873375813"
    }
  },
  {
    "service_request": "2024-1092741",
    "request_type": "Trash/Recycling",
    "request_reason": "Request a Large Item Pick Up",
    "date_created": "2024-05-13T14:47:44.000",
    "date_modified": "2024-05-13T14:47:45.000",
    "request_status": "Pending",
    "responsible_agency": "Department of Sanitation",
    "final_address": "7419 Freret St",
    "address_councildis": "A",
    "status": "Assigned to Contractor",
    "contractor": "IV Waste",
    "rowid": "1092741",
    "final_x": "3663182.85709",
    "final_y": "526369.235582",
    "longitude": "-90.12608090077768",
    "latitude": "29.941876178305225",
    "geocoded_column": {
      "latitude": "29.941876178305225",
      "longitude": "-90.12608090077768"
    }
  },
  {
    "service_request": "2024-1092740",
    "request_type": "Safety & Permits",
    "request_reason": "Licenses & Permits",
    "date_created": "2024-05-13T14:40:23.000",
    "date_modified": "2024-05-13T14:40:23.000",
    "request_status": "Pending",
    "responsible_agency": "Safety and Permits",
    "final_address": "DICKENS DR & IVORY ST",
    "address_councildis": "C",
    "status": "Pending",
    "rowid": "1092740",
    "final_x": "3708338.9",
    "final_y": "518886.68",
    "longitude": "-89.98379333220562",
    "latitude": "29.919916360984555",
    "geocoded_column": {
      "latitude": "29.919916360984555",
      "longitude": "-89.98379333220562"
    }
  },
  {
    "service_request": "2024-1092739",
    "request_type": "Property Maintenance",
    "request_reason": "Property Maintenance",
    "date_created": "2024-05-13T14:35:08.000",
    "date_modified": "2024-05-13T14:35:08.000",
    "request_status": "Pending",
    "responsible_agency": "Department of Code Enforcement",
    "final_address": "3094 Sullen Pl",
    "address_councildis": "C",
    "status": "Pending",
    "rowid": "1092739",
    "final_x": "3707836.88196",
    "final_y": "518997.073911",
    "longitude": "-89.98537384598524",
    "latitude": "29.920236153966645",
    "geocoded_column": {
      "latitude": "29.920236153966645",
      "longitude": "-89.98537384598524"
    }
  },
  {
    "service_request": "2024-1092738",
    "request_type": "Trash/Recycling",
    "request_reason": "Request a Large Item Pick Up",
    "date_created": "2024-05-13T14:32:41.000",
    "date_modified": "2024-05-13T14:32:41.000",
    "request_status": "Pending",
    "responsible_agency": "Department of Sanitation",
    "final_address": "344 Vallette St",
    "address_councildis": "C",
    "status": "Assigned to Contractor",
    "contractor": "Richards Disposal",
    "rowid": "1092738",
    "final_x": "3687591.12847",
    "final_y": "530425.210114",
    "longitude": "-90.04887553190835",
    "latitude": "29.952299039901305",
    "geocoded_column": {
      "latitude": "29.952299039901305",
      "longitude": "-90.04887553190835"
    }
  },
  {
    "service_request": "2024-1092737",
    "request_type": "Abandoned Vehicles",
    "request_reason": "Abandoned/Junk Vehicles",
    "date_created": "2024-05-13T14:31:18.000",
    "date_modified": "2024-05-13T14:31:19.000",
    "request_status": "Pending",
    "responsible_agency": "Department of Public Works",
    "final_address": "825 Touro St",
    "address_councildis": "C",
    "status": "Pending",
    "rowid": "1092737",
    "final_x": "3684330.49199",
    "final_y": "535380.913414",
    "longitude": "-90.05899707594311",
    "latitude": "29.966025624524786",
    "geocoded_column": {
      "latitude": "29.966025624524786",
      "longitude": "-90.05899707594311"
    }
  },
  {
    "service_request": "2024-1092736",
    "request_type": "Trash/Recycling",
    "request_reason": "Order Recycling Cart",
    "date_created": "2024-05-13T14:25:47.000",
    "date_modified": "2024-05-13T14:25:47.000",
    "request_status": "Pending",
    "responsible_agency": "Department of Sanitation",
    "final_address": "4735 Dodt Ave",
    "address_councildis": "E",
    "status": "Pending",
    "rowid": "1092736",
    "final_x": "3705513.28503",
    "final_y": "555324.252313",
    "longitude": "-89.99136533252776",
    "latitude": "30.0201975598647",
    "geocoded_column": {
      "latitude": "30.0201975598647",
      "longitude": "-89.99136533252776"
    }
  },
  {
    "service_request": "2024-1092735",
    "request_type": "Trash/Recycling",
    "request_reason": "Replace Trash Cart",
    "date_created": "2024-05-13T14:25:38.000",
    "date_modified": "2024-05-13T14:25:38.000",
    "request_status": "Pending",
    "responsible_agency": "Department of Sanitation",
    "final_address": "201 N Norman C Francis Prkwy",
    "address_councildis": "B",
    "status": "Assigned to Contractor",
    "contractor": "IV Waste",
    "rowid": "1092735",
    "final_x": "3673373.43323",
    "final_y": "537206.764808",
    "longitude": "-90.09353684596628",
    "latitude": "29.97137661827631",
    "geocoded_column": {
      "latitude": "29.97137661827631",
      "longitude": "-90.09353684596628"
    }
  },
  {
    "service_request": "2024-1092734",
    "request_type": "Trash/Recycling",
    "request_reason": "Missed Trash Pick-Up",
    "date_created": "2024-05-13T14:23:41.000",
    "date_modified": "2024-05-13T14:23:42.000",
    "request_status": "Pending",
    "responsible_agency": "Department of Sanitation",
    "final_address": "7048 Queensway Dr",
    "address_councildis": "E",
    "status": "Assigned to Contractor",
    "contractor": "Waste Pro",
    "rowid": "1092734",
    "final_x": "3719112.95321",
    "final_y": "569477.60375",
    "longitude": "-89.94785443832542",
    "latitude": "30.05866855635727",
    "geocoded_column": {
      "latitude": "30.05866855635727",
      "longitude": "-89.94785443832542"
    }
  },
  {
    "service_request": "2024-1092733",
    "request_type": "Abandoned Vehicles",
    "request_reason": "Abandoned/Junk Vehicles",
    "date_created": "2024-05-13T14:21:27.000",
    "date_modified": "2024-05-13T15:05:07.000",
    "request_status": "Pending",
    "responsible_agency": "Department of Public Works",
    "final_address": "1600 BLK Chippewa St",
    "address_councildis": "B",
    "status": "Inspected",
    "rowid": "1092733",
    "final_x": "3680982.7397",
    "final_y": "522313.116579",
    "longitude": "-90.07002416655665",
    "latitude": "29.930195522634104",
    "geocoded_column": {
      "latitude": "29.930195522634104",
      "longitude": "-90.07002416655665"
    }
  },
  {
    "service_request": "2024-1092732",
    "request_type": "Abandoned Vehicles",
    "request_reason": "Abandoned/Junk Vehicles",
    "date_created": "2024-05-13T14:18:58.000",
    "date_modified": "2024-05-13T14:20:35.000",
    "request_status": "Pending",
    "responsible_agency": "Department of Public Works",
    "final_address": "GENTILLY BLVD & IRIS ST",
    "address_councildis": "D",
    "status": "Pending",
    "rowid": "1092732",
    "final_x": "3686200.92",
    "final_y": "548833.3",
    "longitude": "-90.05261549898259",
    "latitude": "30.00295758781657",
    "geocoded_column": {
      "latitude": "30.00295758781657",
      "longitude": "-90.05261549898259"
    }
  },
  {
    "service_request": "2024-1092731",
    "request_type": "Trash/Recycling",
    "request_reason": "Request a Large Item Pick Up",
    "date_created": "2024-05-13T14:11:42.000",
    "date_modified": "2024-05-13T14:11:42.000",
    "request_status": "Pending",
    "responsible_agency": "Department of Sanitation",
    "final_address": "4900 Corsica Pl",
    "address_councildis": "E",
    "status": "Assigned to Contractor",
    "contractor": "Waste Pro",
    "rowid": "1092731",
    "final_x": "3727271.58144",
    "final_y": "561865.392031",
    "longitude": "-89.92236245233427",
    "latitude": "30.037464390789193",
    "geocoded_column": {
      "latitude": "30.037464390789193",
      "longitude": "-89.92236245233427"
    }
  },
  {
    "service_request": "2024-1092729",
    "request_type": "Traffic Signals/Signs/Striping/Streetlights",
    "request_reason": "Street Light Outage/Malfunction",
    "date_created": "2024-05-13T14:10:37.000",
    "date_modified": "2024-05-13T14:10:37.000",
    "request_status": "Pending",
    "responsible_agency": "Department of Public Works",
    "final_address": "6700 BLK Orleans Ave",
    "address_councildis": "A",
    "status": "Assigned to Contractor",
    "contractor": "Legacy Professional Services",
    "rowid": "1092729",
    "final_x": "3671347.85838",
    "final_y": "552146.507371",
    "longitude": "-90.09942583291446",
    "latitude": "30.012515859694986",
    "geocoded_column": {
      "latitude": "30.012515859694986",
      "longitude": "-90.09942583291446"
    }
  },
  {
    "service_request": "2024-1092728",
    "request_type": "Abandoned Vehicles",
    "request_reason": "Abandoned/Junk Vehicles",
    "date_created": "2024-05-13T14:03:59.000",
    "date_modified": "2024-05-13T14:03:59.000",
    "request_status": "Pending",
    "responsible_agency": "Department of Public Works",
    "final_address": "1312 Egania St",
    "address_councildis": "E",
    "status": "Inspected",
    "rowid": "1092728",
    "final_x": "3696997.37923",
    "final_y": "534936.319238",
    "longitude": "-90.01901171044764",
    "latitude": "29.964409715234293",
    "geocoded_column": {
      "latitude": "29.964409715234293",
      "longitude": "-90.01901171044764"
    }
  },
  {
    "service_request": "2024-1092727",
    "request_type": "Trash/Recycling",
    "request_reason": "Repair Trash Cart",
    "date_created": "2024-05-13T14:01:27.000",
    "date_modified": "2024-05-13T14:01:27.000",
    "request_status": "Pending",
    "responsible_agency": "Department of Sanitation",
    "final_address": "1592 De Battista Pl",
    "address_councildis": "C",
    "status": "Assigned to Contractor",
    "contractor": "Richards Disposal",
    "rowid": "1092727",
    "final_x": "3699812.13815",
    "final_y": "525051.879741",
    "longitude": "-90.01048333991301",
    "latitude": "29.93714191902129",
    "geocoded_column": {
      "latitude": "29.93714191902129",
      "longitude": "-90.01048333991301"
    }
  },
  {
    "service_request": "2024-1092726",
    "request_type": "Roads/Drainage",
    "request_reason": "Pothole",
    "date_created": "2024-05-13T13:50:31.000",
    "date_modified": "2024-05-13T13:50:50.000",
    "case_close_date": "2024-05-13T08:50:50.000",
    "request_status": "Closed",
    "responsible_agency": "Department of Public Works",
    "final_address": "1300 BLK Harmony St",
    "address_councildis": "B",
    "status": "Resolved",
    "rowid": "1092726",
    "final_x": "3675394.37162",
    "final_y": "520792.160303",
    "longitude": "-90.08771796352512",
    "latitude": "29.926181617440925",
    "geocoded_column": {
      "latitude": "29.926181617440925",
      "longitude": "-90.08771796352512"
    }
  },
  {
    "service_request": "2024-1092725",
    "request_type": "Roads/Drainage",
    "request_reason": "Pothole",
    "date_created": "2024-05-13T13:49:37.000",
    "date_modified": "2024-05-13T13:50:04.000",
    "case_close_date": "2024-05-13T08:50:04.000",
    "request_status": "Closed",
    "responsible_agency": "Department of Public Works",
    "final_address": "1200 BLK Harmony St",
    "address_councildis": "B",
    "status": "Resolved",
    "rowid": "1092725",
    "final_x": "3675589.64878",
    "final_y": "520406.020655",
    "longitude": "-90.08711478610705",
    "latitude": "29.925114019691566",
    "geocoded_column": {
      "latitude": "29.925114019691566",
      "longitude": "-90.08711478610705"
    }
  },
  {
    "service_request": "2024-1092724",
    "request_type": "Roads/Drainage",
    "request_reason": "Pothole",
    "date_created": "2024-05-13T13:47:57.000",
    "date_modified": "2024-05-13T13:48:18.000",
    "case_close_date": "2024-05-13T08:48:18.000",
    "request_status": "Closed",
    "responsible_agency": "Department of Public Works",
    "final_address": "1101 Jackson Ave",
    "address_councildis": "B",
    "status": "Resolved",
    "rowid": "1092724",
    "final_x": "3678876.72501",
    "final_y": "522210.449594",
    "longitude": "-90.07667607223179",
    "latitude": "29.929976899175482",
    "geocoded_column": {
      "latitude": "29.929976899175482",
      "longitude": "-90.07667607223179"
    }
  },
  {
    "service_request": "2024-1092723",
    "request_type": "Roads/Drainage",
    "request_reason": "Pothole",
    "date_created": "2024-05-13T13:45:41.000",
    "date_modified": "2024-05-13T13:46:04.000",
    "case_close_date": "2024-05-13T08:46:04.000",
    "request_status": "Closed",
    "responsible_agency": "Department of Public Works",
    "final_address": "1329 Seventh St",
    "address_councildis": "B",
    "status": "Resolved",
    "rowid": "1092723",
    "final_x": "3675867.67547",
    "final_y": "521215.649721",
    "longitude": "-90.08620932776901",
    "latitude": "29.927331920210193",
    "geocoded_column": {
      "latitude": "29.927331920210193",
      "longitude": "-90.08620932776901"
    }
  },