[
  {
    "service_request": "2026-1262101",
    "request_type": "Trash/Recycling",
    "request_reason": "Replace Trash Cart",
    "date_created": "2026-03-02T22:35:47.000",
    "date_modified": "2026-03-02T22:35:49.000",
    "request_status": "Pending",
    "responsible_agency": "Department of Sanitation",
    "final_address": "2302 Joliet St",
    "address_councildis": "A",
    "status": "Assigned to Contractor",
    "contractor": "IV Waste",
    "rowid": "1262101",
    "final_x": "3663503.62746",
    "final_y": "532243.279811",
    "longitude": "-90.1248725656379",
    "latitude": "29.95801861023591",
    "geocoded_column": {
      "latitude": "29.95801861023591",
      "longitude": "-90.1248725656379"
    }
  },
  {
    "service_request": "2026-1262100",
    "request_type": "Health Related Request",
    "request_reason": "Noise Ordinance Complaint",
    "date_created": "2026-03-02T22:34:35.000",
    "date_modified": "2026-03-02T22:34:36.000",
    "request_status": "Pending",
    "responsible_agency": "Health Department",
    "final_address": "801 Bourbon St",
    "address_councildis": "C",
    "status": "Pending",
    "rowid": "1262100",
    "final_x": "3682490.98735",
    "final_y": "533018.672772",
    "longitude": "-90.06488875731978",
    "latitude": "29.959586396383013",
    "geocoded_column": {
      "latitude": "29.959586396383013",
      "longitude": "-90.06488875731978"
    }
  },
  {
    "service_request": "2026-1262099",
    "request_type": "Trash/Recycling",
    "request_reason": "Request a Large Item Pick Up",
    "date_created": "2026-03-02T22:32:12.000",
    "date_modified": "2026-03-02T22:32:14.000",
    "request_status": "Pending",
    "responsible_agency": "Department of Sanitation",
    "final_address": "7921 Lady Gray St",
    "address_councildis": "E",
    "status": "Assigned to Contractor",
    "contractor": "Waste Pro",
    "rowid": "1262099",
    "final_x": "3709347.16683",
    "final_y": "566411.195363",
    "longitude": "-89.9788374727953",
    "latitude": "30.050558238384692",
    "geocoded_column": {
      "latitude": "30.050558238384692",
      "longitude": "-89.9788374727953"
    }
  },
  {
    "service_request": "2026-1262098",
    "request_type": "Health Related Request",
    "request_reason": "Noise Ordinance Complaint",
    "date_created": "2026-03-02T22:28:38.000",
    "date_modified": "2026-03-02T22:28:41.000",
    "request_status": "Pending",
    "responsible_agency": "Health Department",
    "final_address": "801 Bourbon St",
    "address_councildis": "C",
    "status": "Pending",
    "rowid": "1262098",
    "final_x": "3682490.98735",
    "final_y": "533018.672772",
    "longitude": "-90.06488875731978",
    "latitude": "29.959586396383013",
    "geocoded_column": {
      "latitude": "29.959586396383013",
      "longitude": "-90.06488875731978"
    }
  },
  {
    "service_request": "2026-1262097",
    "request_type": "Safety & Permits",
    "request_reason": "Licenses & Permits",
    "date_created": "2026-03-02T22:09:37.000",
    "date_modified": "2026-03-02T22:09:40.000",
    "request_status": "Pending",
    "responsible_agency": "Safety and Permits",
    "final_address": "505 Warrington Dr",
    "address_councildis": "D",
    "status": "Pending",
    "rowid": "1262097",
    "final_x": "3681406.62312",
    "final_y": "548490.420434",
    "longitude": "-90.0677733191212",
    "latitude": "30.00216126383696",
    "geocoded_column": {
      "latitude": "30.00216126383696",
      "longitude": "-90.0677733191212"
    }
  },
  {
    "service_request": "2026-1262096",
    "request_type": "Trash/Recycling",
    "request_reason": "Replace Trash Cart",
    "date_created": "2026-03-02T21:38:29.000",
    "date_modified": "2026-03-02T21:38:31.000",
    "request_status": "Pending",
    "responsible_agency": "Department of Sanitation",
    "final_address": "3705 Iberville St",
    "address_councildis": "B",
    "status": "Assigned to Contractor",
    "contractor": "IV Waste",
    "rowid": "1262096",
    "final_x": "3672567.33627",
    "final_y": "537813.433928",
    "longitude": "-90.0960619317839",
    "latitude": "29.973068710925205",
    "geocoded_column": {
      "latitude": "29.973068710925205",
      "longitude": "-90.0960619317839"
    }
  },
  {
    "service_request": "2026-1262095",
    "request_type": "Trash/Recycling",
    "request_reason": "Replace Trash Cart",
    "date_created": "2026-03-02T21:36:33.000",
    "date_modified": "2026-03-02T21:36:36.000",
    "request_status": "Pending",
    "responsible_agency": "Department of Sanitation",
    "final_address": "1820 Painters St",
    "address_councildis": "D",
    "status": "Assigned to Contractor",
    "contractor": "IV Waste",
    "rowid": "1262095",
    "final_x": "3687310.25935",
    "final_y": "539236.78529",
    "longitude": "-90.04945063725557",
    "latitude": "29.97653646425582",
    "geocoded_column": {
      "latitude": "29.97653646425582",
      "longitude": "-90.04945063725557"
    }
  },
  {
    "service_request": "2026-1262094",
    "request_type": "Trash/Recycling",
    "request_reason": "Change Size of Trash Cart",
    "date_created": "2026-03-02T21:35:24.000",
    "date_modified": "2026-03-02T21:35:26.000",
    "request_status": "Pending",
    "responsible_agency": "Department of Sanitation",
    "final_address": "4918 Stephen Girard Ave",
    "address_councildis": "D",
    "status": "Assigned to Contractor",
    "contractor": "IV Waste",
    "rowid": "1262094",
    "final_x": "3692284.19491",
    "final_y": "550835.857813",
    "longitude": "-90.03332586953013",
    "latitude": "30.008275523801267",
    "geocoded_column": {
      "latitude": "30.008275523801267",
      "longitude": "-90.03332586953013"
    }
  },
  {
    "service_request": "2026-1262093",
    "request_type": "Trash/Recycling",
    "request_reason": "Order Recycling Cart",
    "date_created": "2026-03-02T21:31:49.000",
    "date_modified": "2026-03-02T21:31:50.000",
    "request_status": "Pending",
    "responsible_agency": "Department of Sanitation",
    "final_address": "3705 Iberville St",
    "address_councildis": "B",
    "status": "Pending",
    "rowid": "1262093",
    "final_x": "3672567.33627",
    "final_y": "537813.433928",
    "longitude": "-90.0960619317839",
    "latitude": "29.973068710925205",
    "geocoded_column": {
      "latitude": "29.973068710925205",
      "longitude": "-90.0960619317839"
    }
  },
  {
    "service_request": "2026-1262092",
    "request_type": "Streetlights",
    "request_reason": "Streetlight Outage/Malfunction",
    "date_created": "2026-03-02T21:30:28.000",
    "date_modified": "2026-03-02T21:30:30.000",
    "request_status": "Pending",
    "responsible_agency": "Department of Public Works",
    "final_address": "3903 Dumaine St",
    "address_councildis": "A",
    "status": "Pending",
    "rowid": "1262092",
    "final_x": "3673567.23348",
    "final_y": "540315.015179",
    "longitude": "-90.09281852244517",
    "latitude": "29.97991748152376",
    "geocoded_column": {
      "latitude": "29.97991748152376",
      "longitude": "-90.09281852244517"
    }
  },
  {
    "service_request": "2026-1262091",
    "request_type": "Trash/Recycling",
    "request_reason": "Request a Large Item Pick Up",
    "date_created": "2026-03-02T21:20:44.000",
    "date_modified": "2026-03-02T21:20:45.000",
    "request_status": "Pending",
    "responsible_agency": "Department of Sanitation",
    "final_address": "5518 Durham Dr",
    "address_councildis": "C",
    "status": "Assigned to Contractor",
    "contractor": "Richards Disposal",
    "rowid": "1262091",
    "final_x": "3704438.76087",
    "final_y": "518824.329399",
    "longitude": "-89.99610637800961",
    "latitude": "29.919870647712727",
    "geocoded_column": {
      "latitude": "29.919870647712727",
      "longitude": "-89.99610637800961"
    }
  },
  {
    "service_request": "2026-1262090",
    "request_type": "Trash/Recycling",
    "request_reason": "Illegal Dumping",
    "date_created": "2026-03-02T21:17:53.000",
    "date_modified": "2026-03-02T21:17:55.000",
    "request_status": "Pending",
    "responsible_agency": "Department of Sanitation",
    "final_address": "5546 Pasteur Blvd",
    "address_councildis": "D",
    "status": "Pending",
    "rowid": "1262090",
    "final_x": "3682765.43477",
    "final_y": "553549.588055",
    "longitude": "-90.06330353140952",
    "latitude": "30.016030807763112",
    "geocoded_column": {
      "latitude": "30.016030807763112",
      "longitude": "-90.06330353140952"
    }
  },
  {
    "service_request": "2026-1262089",
    "request_type": "Streetlights",
    "request_reason": "Streetlight Outage/Malfunction",
    "date_created": "2026-03-02T20:42:30.000",
    "date_modified": "2026-03-02T20:42:32.000",
    "request_status": "Pending",
    "responsible_agency": "Department of Public Works",
    "final_address": "954 Wilson Dr",
    "address_councildis": "A",
    "status": "Pending",
    "rowid": "1262089",
    "final_x": "3674171.8027",
    "final_y": "540292.073163",
    "longitude": "-90.09090982605676",
    "latitude": "29.979836387910506",
    "geocoded_column": {
      "latitude": "29.979836387910506",
      "longitude": "-90.09090982605676"
    }
  },
  {
    "service_request": "2026-1262088",
    "request_type": "Trash/Recycling",
    "request_reason": "Replace Recycling Cart",
    "date_created": "2026-03-02T20:24:26.000",
    "date_modified": "2026-03-02T20:24:27.000",
    "request_status": "Pending",
    "responsible_agency": "Department of Sanitation",
    "final_address": "214 Crystal St",
    "address_councildis": "D",
    "status": "Pending",
    "rowid": "1262088",
    "final_x": "3667242.30273",
    "final_y": "556035.205209",
    "longitude": "-90.11226622933913",
    "latitude": "30.023329331748187",
    "geocoded_column": {
      "latitude": "30.023329331748187",
      "longitude": "-90.11226622933913"
    }
  },
  {
    "service_request": "2026-1262087",
    "request_type": "Abandoned Vehicles",
    "request_reason": "Abandoned/Junk Vehicles",
    "date_created": "2026-03-02T20:23:42.000",
    "date_modified": "2026-03-02T20:23:43.000",
    "request_status": "Pending",
    "responsible_agency": "Department of Public Works",
    "final_address": "221 Jewel St",
    "address_councildis": "D",
    "status": "Pending",
    "rowid": "1262087",
    "final_x": "3667274.70957",
    "final_y": "555915.699225",
    "longitude": "-90.11216785461505",
    "latitude": "30.022999783133542",
    "geocoded_column": {
      "latitude": "30.022999783133542",
      "longitude": "-90.11216785461505"
    }
  },
  {
    "service_request": "2026-1262086",
    "request_type": "Trash/Recycling",
    "request_reason": "Replace Trash Cart",
    "date_created": "2026-03-02T20:21:36.000",
    "date_modified": "2026-03-02T20:21:38.000",
    "request_status": "Pending",
    "responsible_agency": "Department of Sanitation",
    "final_address": "214 Crystal St",
    "address_councildis": "D",
    "status": "Assigned to Contractor",
    "contractor": "IV Waste",
    "rowid": "1262086",
    "final_x": "3667242.30273",
    "final_y": "556035.205209",
    "longitude": "-90.11226622933913",
    "latitude": "30.023329331748187",
    "geocoded_column": {
      "latitude": "30.023329331748187",
      "longitude": "-90.11226622933913"
    }
  },
  {
    "service_request": "2026-1262085",
    "request_type": "Trash/Recycling",
    "request_reason": "Request a Large Item Pick Up",
    "date_created": "2026-03-02T20:21:11.000",
    "date_modified": "2026-03-02T20:21:13.000",
    "request_status": "Pending",
    "responsible_agency": "Department of Sanitation",
    "final_address": "7301 Chatelain Dr",
    "address_councildis": "E",
    "status": "Assigned to Contractor",
    "contractor": "Waste Pro",
    "rowid": "1262085",
    "final_x": "3715272.30098",
    "final_y": "567227.589732",
    "longitude": "-89.96007948312568",
    "latitude": "30.052609072070528",
    "geocoded_column": {
      "latitude": "30.052609072070528",
      "longitude": "-89.96007948312568"
    }
  },
  {
    "service_request": "2026-1262084",
    "request_type": "Abandoned Vehicles",
    "request_reason": "Abandoned/Junk Vehicles",
    "date_created": "2026-03-02T20:20:13.000",
    "date_modified": "2026-03-02T20:20:15.000",
    "request_status": "Pending",
    "responsible_agency": "Department of Public Works",
    "final_address": "3200 Rue Parc Fontaine",
    "address_councildis": "C",
    "status": "Pending",
    "rowid": "1262084",
    "final_x": "3700293.64016",
    "final_y": "518752.176503",
    "longitude": "-90.00919305208963",
    "latitude": "29.919804615575124",
    "geocoded_column": {
      "latitude": "29.919804615575124",
      "longitude": "-90.00919305208963"
    }
  },
  {
    "service_request": "2026-1262083",
    "request_type": "General Services",
    "request_reason": "General Service Request",
    "date_created": "2026-03-02T20:04:48.000",
    "date_modified": "2026-03-02T20:04:50.000",
    "request_status": "Pending",
    "responsible_agency": "Orleans Parish Communication District",
    "final_address": "869 Magazine St",
    "address_councildis": "B",
    "status": "Pending",
    "rowid": "1262083",
    "final_x": "3681011.26427",
    "final_y": "527338.701375",
    "longitude": "-90.06975916844665",
    "latitude": "29.944013348697567",
    "geocoded_column": {
      "latitude": "29.944013348697567",
      "longitude": "-90.06975916844665"
    }
  },
  {
    "service_request": "2026-1262082",
    "request_type": "Abandoned Vehicles",
    "request_reason": "Abandoned/Junk Vehicles",
    "date_created": "2026-03-02T20:02:13.000",
    "date_modified": "2026-03-02T20:02:15.000",
    "request_status": "Pending",
    "responsible_agency": "Department of Public Works",
    "final_address": "3200 Rue Parc Fontaine",
    "address_councildis": "C",
    "status": "Pending",
    "rowid": "1262082",
    "final_x": "3700293.64016",
    "final_y": "518752.176503",
    "longitude": "-90.00919305208963",
    "latitude": "29.919804615575124",
    "geocoded_column": {
      "latitude": "29.919804615575124",
      "longitude": "-90.00919305208963"
    }
  },
  {
    "service_request": "2026-1262081",
    "request_type": "Streetlights",
    "request_reason": "Streetlight Outage/Malfunction",
    "date_created": "2026-03-02T20:00:50.000",
    "date_modified": "2026-03-02T20:00:52.000",
    "request_status": "Pending",
    "responsible_agency": "Department of Public Works",
    "final_address": "2314 Jackson Ave",
    "address_councildis": "B",
    "status": "Pending",
    "rowid": "1262081",
    "final_x": "3675700.59515",
    "final_y": "526118.795134",
    "longitude": "-90.0865683460327",
    "latitude": "29.94081896960699",
    "geocoded_column": {
      "latitude": "29.94081896960699",
      "longitude": "-90.0865683460327"
    }
  },
  {
    "service_request": "2026-1262080",
    "request_type": "Roads and Streets",
    "request_reason": "Pothole",
    "date_created": "2026-03-02T19:51:33.000",
    "date_modified": "2026-03-02T19:51:35.000",
    "request_status": "Pending",
    "responsible_agency": "Department of Public Works",
    "final_address": "7367 Chef Menteur Hwy",
    "address_councildis": "E",
    "status": "Pending",
    "rowid": "1262080",
    "final_x": "3702439.29188",
    "final_y": "552418.926358",
    "longitude": "-90.00118484812147",
    "latitude": "30.01230765577533",
    "geocoded_column": {
      "latitude": "30.01230765577533",
      "longitude": "-90.00118484812147"
    }
  },
  {
    "service_request": "2026-1262079",
    "request_type": "Trash/Recycling",
    "request_reason": "Request a Large Item Pick Up",
    "date_created": "2026-03-02T19:49:20.000",
    "date_modified": "2026-03-02T19:49:22.000",
    "request_status": "Pending",
    "responsible_agency": "Department of Sanitation",
    "final_address": "10 Finch St",
    "address_councildis": "D",
    "status": "Assigned to Contractor",
    "contractor": "IV Waste",
    "rowid": "1262079",
    "final_x": "3672276.16852",
    "final_y": "555360.845081",
    "longitude": "-90.09638325158463",
    "latitude": "30.02132662257969",
    "geocoded_column": {
      "latitude": "30.02132662257969",
      "longitude": "-90.09638325158463"
    }
  },
  {
    "service_request": "2026-1262078",
    "request_type": "Trash/Recycling",
    "request_reason": "Return Trash Cart",
    "date_created": "2026-03-02T19:48:22.000",
    "date_modified": "2026-03-02T19:48:24.000",
    "request_status": "Pending",
    "responsible_agency": "Department of Sanitation",
    "final_address": "2463 N Villere St",
    "address_councildis": "C",
    "status": "Assigned to Contractor",
    "contractor": "IV Waste",
    "rowid": "1262078",
    "final_x": "3686984.67951",
    "final_y": "537607.952648",
    "longitude": "-90.05053650775932",
    "latitude": "29.97206777311726",
    "geocoded_column": {
      "latitude": "29.97206777311726",
      "longitude": "-90.05053650775932"
    }
  },
  {
    "service_request": "2026-1262077",
    "request_type": "Streetlights",
    "request_reason": "Streetlight Outage/Malfunction",
    "date_created": "2026-03-02T19:45:13.000",
    "date_modified": "2026-03-02T19:45:15.000",
    "request_status": "Pending",
    "responsible_agency": "Department of Public Works",
    "final_address": "GENERAL TAYLOR & DANNEEL ST",
    "address_councildis": "B",
    "status": "Pending",
    "rowid": "1262077",
    "final_x": "3672303.8",
    "final_y": "522448.78",
    "longitude": "-90.09741762450162",
    "latitude": "29.93082880772947",
    "geocoded_column": {
      "latitude": "29.93082880772947",
      "longitude": "-90.09741762450162"
    }
  },
  {
    "service_request": "2026-1262076",
    "request_type": "Mosquito, Termite & Rodent Control",
    "request_reason": "Rodent Complaint (Mice & Rats)",
    "date_created": "2026-03-02T19:39:34.000",
    "date_modified": "2026-03-02T19:39:36.000",
    "request_status": "Pending",
    "responsible_agency": "Mosquito, Termite & Rodent Control Board",
    "final_address": "3443 Esplanade Ave Apt 503",
    "address_councildis": "A",
    "status": "Pending",
    "rowid": "1262076",
    "final_x": "3674953.83784",
    "final_y": "541926.850572",
    "longitude": "-90.08838373611862",
    "latitude": "29.984308124264746",
    "geocoded_column": {
      "latitude": "29.984308124264746",
      "longitude": "-90.08838373611862"
    }
  },
  {
    "service_request": "2026-1262075",
    "request_type": "Trash/Recycling",
    "request_reason": "Request a Large Item Pick Up",
    "date_created": "2026-03-02T19:22:35.000",
    "date_modified": "2026-03-02T19:22:37.000",
    "request_status": "Pending",
    "responsible_agency": "Department of Sanitation",
    "final_address": "2224 Lapeyrouse St",
    "address_councildis": "D",
    "status": "Assigned to Contractor",
    "contractor": "IV Waste",
    "rowid": "1262075",
    "final_x": "3680288.93352",
    "final_y": "539182.956682",
    "longitude": "-90.07162799615512",
    "latitude": "29.976602906847997",
    "geocoded_column": {
      "latitude": "29.976602906847997",
      "longitude": "-90.07162799615512"
    }
  },
  {
    "service_request": "2026-1262074",
    "request_type": "Roads and Streets",
    "request_reason": "Pothole",
    "date_created": "2026-03-02T19:15:36.000",
    "date_modified": "2026-03-02T19:15:39.000",
    "request_status": "Pending",
    "responsible_agency": "Department of Public Works",
    "final_address": "2100 BLK N Broad St",
    "address_councildis": "D",
    "status": "Pending",
    "rowid": "1262074",
    "final_x": "3680885.40328",
    "final_y": "542438.245292",
    "longitude": "-90.06963077463091",
    "latitude": "29.985535742837445",
    "geocoded_column": {
      "latitude": "29.985535742837445",
      "longitude": "-90.06963077463091"
    }
  },
  {
    "service_request": "2026-1262073",
    "request_type": "Trash/Recycling",
    "request_reason": "Order Recycling Cart",
    "date_created": "2026-03-02T19:09:28.000",
    "date_modified": "2026-03-02T19:09:30.000",
    "request_status": "Pending",
    "responsible_agency": "Department of Sanitation",
    "final_address": "4474 Painters St",
    "address_councildis": "D",
    "status": "Pending",
    "rowid": "1262073",
    "final_x": "3686214.08073",
    "final_y": "549412.385491",
    "longitude": "-90.05255347393009",
    "latitude": "30.00454945850674",
    "geocoded_column": {
      "latitude": "30.00454945850674",
      "longitude": "-90.05255347393009"
    }
  },
  {
    "service_request": "2026-1262072",
    "request_type": "Trash/Recycling",
    "request_reason": "Request a Large Item Pick Up",
    "date_created": "2026-03-02T19:03:45.000",
    "date_modified": "2026-03-02T19:03:46.000",
    "request_status": "Pending",
    "responsible_agency": "Department of Sanitation",
    "final_address": "1614 Esplanade Ave",
    "address_councildis": "D",
    "status": "Assigned to Contractor",
    "contractor": "IV Waste",
    "rowid": "1262072",
    "final_x": "3681083.77525",
    "final_y": "536640.191047",
    "longitude": "-90.0692062413409",
    "latitude": "29.96958709083489",
    "geocoded_column": {
      "latitude": "29.96958709083489",
      "longitude": "-90.0692062413409"
    }
  },
  {
    "service_request": "2026-1262071",
    "request_type": "Property Maintenance",
    "request_reason": "Property Maintenance",
    "date_created": "2026-03-02T18:55:03.000",
    "date_modified": "2026-03-02T18:55:05.000",
    "request_status": "Pending",
    "responsible_agency": "Department of Code Enforcement",
    "final_address": "DONALD ST & BAILEY ST",
    "address_councildis": "C",
    "status": "Pending",
    "rowid": "1262071",
    "final_x": "3710934.8",
    "final_y": "518840.48",
    "longitude": "-89.97560114583366",
    "latitude": "29.91970500420664",
    "geocoded_column": {
      "latitude": "29.91970500420664",
      "longitude": "-89.97560114583366"
    }
  },
  {
    "service_request": "2026-1262070",
    "request_type": "Trash/Recycling",
    "request_reason": "Request a Large Item Pick Up",
    "date_created": "2026-03-02T18:51:02.000",
    "date_modified": "2026-03-02T18:51:04.000",
    "request_status": "Pending",
    "responsible_agency": "Department of Sanitation",
    "final_address": "4221 Toulouse St",
    "address_councildis": "A",
    "status": "Assigned to Contractor",
    "contractor": "IV Waste",
    "rowid": "1262070",
    "final_x": "3671570.02945",
    "final_y": "540325.797259",
    "longitude": "-90.09912616490463",
    "latitude": "29.98000643105193",
    "geocoded_column": {
      "latitude": "29.98000643105193",
      "longitude": "-90.09912616490463"
    }
  },
  {
    "service_request": "2026-1262069",
    "request_type": "Trash/Recycling",
    "request_reason": "Order Recycling Cart",
    "date_created": "2026-03-02T18:46:10.000",
    "date_modified": "2026-03-02T18:46:13.000",
    "request_status": "Pending",
    "responsible_agency": "Department of Sanitation",
    "final_address": "6777 Colbert St",
    "address_councildis": "A",
    "status": "Pending",
    "rowid": "1262069",
    "final_x": "3667995.38932",
    "final_y": "552713.971286",
    "longitude": "-90.10999866912165",
    "latitude": "30.014175025661768",
    "geocoded_column": {
      "latitude": "30.014175025661768",
      "longitude": "-90.10999866912165"
    }
  },
  {
    "service_request": "2026-1262068",
    "request_type": "Trash/Recycling",
    "request_reason": "Request a Large Item Pick Up",
    "date_created": "2026-03-02T18:41:55.000",
    "date_modified": "2026-03-02T18:41:57.000",
    "request_status": "Pending",
    "responsible_agency": "Department of Sanitation",
    "final_address": "200 E Greenbrier Dr",
    "address_councildis": "E",
    "status": "Assigned to Contractor",
    "contractor": "Waste Pro",
    "rowid": "1262068",
    "final_x": "3717398.06156",
    "final_y": "565435.552674",
    "longitude": "-89.95342885095681",
    "latitude": "30.04761148382391",
    "geocoded_column": {
      "latitude": "30.04761148382391",
      "longitude": "-89.95342885095681"
    }
  },
  {
    "service_request": "2026-1262067",
    "request_type": "Trash/Recycling",
    "request_reason": "Request a Large Item Pick Up",
    "date_created": "2026-03-02T18:40:06.000",
    "date_modified": "2026-03-02T18:40:08.000",
    "request_status": "Pending",
    "responsible_agency": "Department of Sanitation",
    "final_address": "6458 Colbert St",
    "address_councildis": "A",
    "status": "Assigned to Contractor",
    "contractor": "IV Waste",
    "rowid": "1262067",
    "final_x": "3667623.46708",
    "final_y": "550658.996308",
    "longitude": "-90.11124300817106",
    "latitude": "30.008535477415492",
    "geocoded_column": {
      "latitude": "30.008535477415492",
      "longitude": "-90.11124300817106"
    }
  },
  {
    "service_request": "2026-1262066",
    "request_type": "Trash/Recycling",
    "request_reason": "Damaged Caused By Contractor",
    "date_created": "2026-03-02T18:39:31.000",
    "date_modified": "2026-03-02T18:39:32.000",
    "request_status": "Pending",
    "responsible_agency": "Department of Sanitation",
    "final_address": "5818 Chatham Dr",
    "address_councildis": "D",
    "status": "Assigned to Contractor",
    "contractor": "IV Waste",
    "rowid": "1262066",
    "final_x": "3679565.38997",
    "final_y": "554006.128344",
    "longitude": "-90.0733983916079",
    "latitude": "30.017383266043957",
    "geocoded_column": {
      "latitude": "30.017383266043957",
      "longitude": "-90.0733983916079"
    }
  },
  {
    "service_request": "2026-1262065",
    "request_type": "Parks & Parkways",
    "request_reason": "Request Grass Cutting Service (City Owned Property)",
    "date_created": "2026-03-02T18:23:44.000",
    "date_modified": "2026-03-02T18:23:47.000",
    "request_status": "Pending",
    "responsible_agency": "Department of Parks & Parkway",
    "final_address": "2834 Seine St",
    "address_councildis": "C",
    "status": "Pending",
    "rowid": "1262065",
    "final_x": "3693590.48329",
    "final_y": "520943.804345",
    "longitude": "-90.03027287590241",
    "latitude": "29.926042146328907",
    "geocoded_column": {
      "latitude": "29.926042146328907",
      "longitude": "-90.03027287590241"
    }
  },
  {
    "service_request": "2026-1262064",
    "request_type": "Trash/Recycling",
    "request_reason": "Repair Trash Cart",
    "date_created": "2026-03-02T18:12:23.000",
    "date_modified": "2026-03-02T18:12:24.000",
    "request_status": "Pending",
    "responsible_agency": "Department of Sanitation",
    "final_address": "440 S Rendon St",
    "address_councildis": "B",
    "status": "Assigned to Contractor",
    "contractor": "IV Waste",
    "rowid": "1262064",
    "final_x": "3672721.92123",
    "final_y": "535242.45511",
    "longitude": "-90.09566142519154",
    "latitude": "29.96599479567783",
    "geocoded_column": {
      "latitude": "29.96599479567783",
      "longitude": "-90.09566142519154"
    }
  },
  {
    "service_request": "2026-1262063",
    "request_type": "General Services",
    "request_reason": "General Service Request",
    "date_created": "2026-03-02T18:12:17.000",
    "date_modified": "2026-03-02T18:12:18.000",
    "request_status": "Pending",
    "responsible_agency": "Orleans Parish Communication District",
    "final_address": "0 BLK Henry Thomas Dr",
    "address_councildis": "A",
    "status": "Pending",
    "rowid": "1262063",
    "final_x": "3673515.36323",
    "final_y": "545200.029794",
    "longitude": "-90.09281531290317",
    "latitude": "29.993351131303818",
    "geocoded_column": {
      "latitude": "29.993351131303818",
      "longitude": "-90.09281531290317"
    }
  },
  {
    "service_request": "2026-1262062",
    "request_type": "Trash/Recycling",
    "request_reason": "Replace Trash Cart",
    "date_created": "2026-03-02T18:12:05.000",
    "date_modified": "2026-03-02T18:12:07.000",
    "request_status": "Pending",
    "responsible_agency": "Department of Sanitation",
    "final_address": "2307 General Taylor St",
    "address_councildis": "B",
    "status": "Assigned to Contractor",
    "contractor": "IV Waste",
    "rowid": "1262062",
    "final_x": "3672075.59687",
    "final_y": "523605.014587",
    "longitude": "-90.09809868290401",
    "latitude": "29.9340148458952",
    "geocoded_column": {
      "latitude": "29.9340148458952",
      "longitude": "-90.09809868290401"
    }
  },
  {
    "service_request": "2026-1262061",
    "request_type": "Trash/Recycling",
    "request_reason": "Replace Trash Cart",
    "date_created": "2026-03-02T18:05:28.000",
    "date_modified": "2026-03-02T18:05:29.000",
    "request_status": "Pending",
    "responsible_agency": "Department of Sanitation",
    "final_address": "3120 General Ogden St",
    "address_councildis": "A",
    "status": "Assigned to Contractor",
    "contractor": "IV Waste",
    "rowid": "1262061",
    "final_x": "3664564.18016",
    "final_y": "535489.973574",
    "longitude": "-90.12141518912239",
    "latitude": "29.966915155545315",
    "geocoded_column": {
      "latitude": "29.966915155545315",
      "longitude": "-90.12141518912239"
    }
  },
  {
    "service_request": "2026-1262060",
    "request_type": "Trash/Recycling",
    "request_reason": "Order Recycling Cart",
    "date_created": "2026-03-02T17:54:52.000",
    "date_modified": "2026-03-02T17:54:54.000",
    "request_status": "Pending",
    "responsible_agency": "Department of Sanitation",
    "final_address": "4925 Elysian Fields Ave",
    "address_councildis": "D",
    "status": "Pending",
    "rowid": "1262060",
    "final_x": "3683952.35426",
    "final_y": "550909.846805",
    "longitude": "-90.05964610750593",
    "latitude": "30.008736254421557",
    "geocoded_column": {
      "latitude": "30.008736254421557",
      "longitude": "-90.05964610750593"
    }
  },
  {
    "service_request": "2026-1262059",
    "request_type": "Trash/Recycling",
    "request_reason": "Repair Trash Cart",
    "date_created": "2026-03-02T17:44:42.000",
    "date_modified": "2026-03-02T17:44:44.000",
    "request_status": "Pending",
    "responsible_agency": "Department of Sanitation",
    "final_address": "2616 Hyman Pl",
    "address_councildis": "C",
    "status": "Assigned to Contractor",
    "contractor": "Richards Disposal",
    "rowid": "1262059",
    "final_x": "3701110.99524",
    "final_y": "521483.137273",
    "longitude": "-90.00651326119099",
    "latitude": "29.927287821017426",
    "geocoded_column": {
      "latitude": "29.927287821017426",
      "longitude": "-90.00651326119099"
    }
  },
  {
    "service_request": "2026-1262058",
    "request_type": "Healthy Homes",
    "request_reason": "Healthy Homes",
    "date_created": "2026-03-02T17:31:13.000",
    "date_modified": "2026-03-02T17:31:14.000",
    "request_status": "Pending",
    "responsible_agency": "Department of Code Enforcement",
    "final_address": "6802 Lake Kenilworth Dr Apt M104",
    "address_councildis": "E",
    "status": "Pending",
    "rowid": "1262058",
    "final_x": "3699409.29975",
    "final_y": "557737.946459",
    "longitude": "-90.01056386221939",
    "latitude": "30.027029447741654",
    "geocoded_column": {
      "latitude": "30.027029447741654",
      "longitude": "-90.01056386221939"
    }
  },
  {
    "service_request": "2026-1262057",
    "request_type": "Abandoned Vehicles",
    "request_reason": "Abandoned/Junk Vehicles",
    "date_created": "2026-03-02T17:29:52.000",
    "date_modified": "2026-03-02T17:29:54.000",
    "request_status": "Pending",
    "responsible_agency": "Department of Public Works",
    "final_address": "7633 Edward St",
    "address_councildis": "E",
    "status": "Pending",
    "rowid": "1262057",
    "final_x": "3701073.2714",
    "final_y": "561068.596574",
    "longitude": "-90.00518391566126",
    "latitude": "30.03613452231319",
    "geocoded_column": {
      "latitude": "30.03613452231319",
      "longitude": "-90.00518391566126"
    }
  },
  {
    "service_request": "2026-1262056",
    "request_type": "Trash/Recycling",
    "request_reason": "Request a Large Item Pick Up",
    "date_created": "2026-03-02T17:24:51.000",
    "date_modified": "2026-03-02T17:24:53.000",
    "request_status": "Pending",
    "responsible_agency": "Department of Sanitation",
    "final_address": "8722 Morrison Rd",
    "address_councildis": "E",
    "status": "Assigned to Contractor",
    "contractor": "Waste Pro",
    "rowid": "1262056",
    "final_x": "3705293.6691",
    "final_y": "561544.252255",
    "longitude": "-89.99182915285628",
    "latitude": "30.0373072045616",
    "geocoded_column": {
      "latitude": "30.0373072045616",
      "longitude": "-89.99182915285628"
    }
  },
  {
    "service_request": "2026-1262055",
    "request_type": "Abandoned Vehicles",
    "request_reason": "Abandoned/Junk Vehicles",
    "date_created": "2026-03-02T17:21:39.000",
    "date_modified": "2026-03-02T17:21:42.000",
    "request_status": "Pending",
    "responsible_agency": "Department of Public Works",
    "final_address": "2609 Cleveland Ave",
    "address_councildis": "B",
    "status": "Pending",
    "rowid": "1262055",
    "final_x": "3675499.19029",
    "final_y": "534521.656133",
    "longitude": "-90.08691563770483",
    "latitude": "29.963930064035747",
    "geocoded_column": {
      "latitude": "29.963930064035747",
      "longitude": "-90.08691563770483"
    }
  },
  {
    "service_request": "2026-1262054",
    "request_type": "Trash/Recycling",
    "request_reason": "Request a Large Item Pick Up",
    "date_created": "2026-03-02T17:17:22.000",
    "date_modified": "2026-03-02T17:17:23.000",
    "request_status": "Pending",
    "responsible_agency": "Department of Sanitation",
    "final_address": "1439 Alvar St",
    "address_councildis": "D",
    "status": "Assigned to Contractor",
    "contractor": "IV Waste",
    "rowid": "1262054",
    "final_x": "3691886.03574",
    "final_y": "536776.363336",
    "longitude": "-90.03508703561715",
    "latitude": "29.969629407737468",
    "geocoded_column": {
      "latitude": "29.969629407737468",
      "longitude": "-90.03508703561715"
    }
  },
  {
    "service_request": "2026-1262053",
    "request_type": "Streetlights",
    "request_reason": "Streetlight Outage/Malfunction",
    "date_created": "2026-03-02T17:16:10.000",
    "date_modified": "2026-03-02T17:16:11.000",
    "request_status": "Pending",
    "responsible_agency": "Department of Public Works",
    "final_address": "4632 Lafon Dr",
    "address_councildis": "E",
    "status": "Pending",
    "rowid": "1262053",
    "final_x": "3701130.98122",
    "final_y": "553612.219607",
    "longitude": "-90.00527465023877",
    "latitude": "30.015630517026544",
    "geocoded_column": {
      "latitude": "30.015630517026544",
      "longitude": "-90.00527465023877"
    }
  },
  {
    "service_request": "2026-1262052",
    "request_type": "Abandoned Vehicles",
    "request_reason": "Abandoned/Junk Vehicles",
    "date_created": "2026-03-02T17:08:34.000",
    "date_modified": "2026-03-02T17:08:35.000",
    "request_status": "Pending",
    "responsible_agency": "Department of Public Works",
    "final_address": "4500 Carondelet St",
    "address_councildis": "B",
    "status": "Pending",
    "rowid": "1262052",
    "final_x": "3670351.90318",
    "final_y": "521163.731769",
    "longitude": "-90.10362304159537",
    "latitude": "29.927353081989523",
    "geocoded_column": {
      "latitude": "29.927353081989523",
      "longitude": "-90.10362304159537"
    }
  },
  {
    "service_request": "2026-1262050",
    "request_type": "Trash/Recycling",
    "request_reason": "Request a Large Item Pick Up",
    "date_created": "2026-03-02T16:59:53.000",
    "date_modified": "2026-03-02T16:59:54.000",
    "request_status": "Pending",
    "responsible_agency": "Department of Sanitation",
    "final_address": "10941 S Hardy St",
    "address_councildis": "E",
    "status": "Assigned to Contractor",
    "contractor": "Waste Pro",
    "rowid": "1262050",
    "final_x": "3713028.78514",
    "final_y": "561773.520543",
    "longitude": "-89.96737602590312",
    "latitude": "30.037686327197044",
    "geocoded_column": {
      "latitude": "30.037686327197044",
      "longitude": "-89.96737602590312"
    }
  },
  {
    "service_request": "2026-1262049",
    "request_type": "Trash/Recycling",
    "request_reason": "Request a Large Item Pick Up",
    "date_created": "2026-03-02T16:57:43.000",
    "date_modified": "2026-03-02T16:57:45.000",
    "request_status": "Pending",
    "responsible_agency": "Department of Sanitation",
    "final_address": "45 Neron Pl",
    "address_councildis": "A",
    "status": "Assigned to Contractor",
    "contractor": "IV Waste",
    "rowid": "1262049",
    "final_x": "3665506.46138",
    "final_y": "530438.817346",
    "longitude": "-90.11860855704514",
    "latitude": "29.952998693768492",
    "geocoded_column": {
      "latitude": "29.952998693768492",
      "longitude": "-90.11860855704514"
    }
  },
  {
    "service_request": "2026-1262048",
    "request_type": "Trash/Recycling",
    "request_reason": "Request a Large Item Pick Up",
    "date_created": "2026-03-02T16:55:46.000",
    "date_modified": "2026-03-02T16:55:53.000",
    "request_status": "Pending",
    "responsible_agency": "Department of Sanitation",
    "final_address": "2304 Valence St",
    "address_councildis": "B",
    "status": "Assigned to Contractor",
    "contractor": "IV Waste",
    "rowid": "1262048",
    "final_x": "3669442.381",
    "final_y": "523302.403963",
    "longitude": "-90.10642189453927",
    "latitude": "29.933260554749978",
    "geocoded_column": {
      "latitude": "29.933260554749978",
      "longitude": "-90.10642189453927"
    }
  },
  {
    "service_request": "2026-1262047",
    "request_type": "Trash/Recycling",
    "request_reason": "Replace Trash Cart",
    "date_created": "2026-03-02T16:55:25.000",
    "date_modified": "2026-03-02T16:55:27.000",
    "request_status": "Pending",
    "responsible_agency": "Department of Sanitation",
    "final_address": "1134 Odeon St",
    "address_councildis": "C",
    "status": "Assigned to Contractor",
    "contractor": "Richards Disposal",
    "rowid": "1262047",
    "final_x": "3696079.00029",
    "final_y": "527247.051647",
    "longitude": "-90.02218971529307",
    "latitude": "29.943295860794283",
    "geocoded_column": {
      "latitude": "29.943295860794283",
      "longitude": "-90.02218971529307"
    }
  },
  {
    "service_request": "2026-1262046",
    "request_type": "Roads and Streets",
    "request_reason": "Pothole",
    "date_created": "2026-03-02T16:54:53.000",
    "date_modified": "2026-03-02T16:54:54.000",
    "request_status": "Pending",
    "responsible_agency": "Department of Public Works",
    "final_address": "522 S Scott St",
    "address_councildis": "B",
    "status": "Pending",
    "rowid": "1262046",
    "final_x": "3670724.14254",
    "final_y": "536373.783431",
    "longitude": "-90.1019319758035",
    "latitude": "29.969164753046392",
    "geocoded_column": {
      "latitude": "29.969164753046392",
      "longitude": "-90.1019319758035"
    }
  },
  {
    "service_request": "2026-1262045",
    "request_type": "Trash/Recycling",
    "request_reason": "Request a Large Item Pick Up",
    "date_created": "2026-03-02T16:54:52.000",
    "date_modified": "2026-03-02T16:54:54.000",
    "request_status": "Pending",
    "responsible_agency": "Department of Sanitation",
    "final_address": "7576 Briarheath Dr",
    "address_councildis": "E",
    "status": "Assigned to Contractor",
    "contractor": "Waste Pro",
    "rowid": "1262045",
    "final_x": "3715184.62463",
    "final_y": "566536.105251",
    "longitude": "-89.9603827876604",
    "latitude": "30.050710661669463",
    "geocoded_column": {
      "latitude": "30.050710661669463",
      "longitude": "-89.9603827876604"
    }
  },
  {
    "service_request": "2026-1262044",
    "request_type": "Trash/Recycling",
    "request_reason": "Request a Large Item Pick Up",
    "date_created": "2026-03-02T16:53:57.000",
    "date_modified": "2026-03-02T16:53:58.000",
    "request_status": "Pending",
    "responsible_agency": "Department of Sanitation",
    "final_address": "623 Atlantic Ave",
    "address_councildis": "C",
    "status": "Assigned to Contractor",
    "contractor": "Richards Disposal",
    "rowid": "1262044",
    "final_x": "3688724.01481",
    "final_y": "529237.259329",
    "longitude": "-90.0453405732243",
    "latitude": "29.9489976155166",
    "geocoded_column": {
      "latitude": "29.9489976155166",
      "longitude": "-90.0453405732243"
    }
  },
  {
    "service_request": "2026-1262043",
    "request_type": "Trash/Recycling",
    "request_reason": "Order Recycling Cart",
    "date_created": "2026-03-02T16:50:56.000",
    "date_modified": "2026-03-02T16:50:58.000",
    "request_status": "Pending",
    "responsible_agency": "Department of Sanitation",
    "final_address": "624 N Lopez St",
    "address_councildis": "A",
    "status": "Pending",
    "rowid": "1262043",
    "final_x": "3675131.11387",
    "final_y": "537836.098377",
    "longitude": "-90.08796423164283",
    "latitude": "29.973054661194542",
    "geocoded_column": {
      "latitude": "29.973054661194542",
      "longitude": "-90.08796423164283"
    }
  },
  {
    "service_request": "2026-1262042",
    "request_type": "Abandoned Vehicles",
    "request_reason": "Abandoned/Junk Vehicles",
    "date_created": "2026-03-02T16:50:25.000",
    "date_modified": "2026-03-02T16:50:27.000",
    "request_status": "Pending",
    "responsible_agency": "Department of Public Works",
    "final_address": "1236 Spain St",
    "address_councildis": "C",
    "status": "Pending",
    "rowid": "1262042",
    "final_x": "3686001.60777",
    "final_y": "537051.255304",
    "longitude": "-90.05366083832591",
    "latitude": "29.97056727507192",
    "geocoded_column": {
      "latitude": "29.97056727507192",
      "longitude": "-90.05366083832591"
    }
  },
  {
    "service_request": "2026-1262041",
    "request_type": "Trash/Recycling",
    "request_reason": "Order Trash Cart",
    "date_created": "2026-03-02T16:49:44.000",
    "date_modified": "2026-03-02T16:49:46.000",
    "request_status": "Pending",
    "responsible_agency": "Department of Sanitation",
    "final_address": "624 N Lopez St",
    "address_councildis": "A",
    "status": "Assigned to Contractor",
    "contractor": "IV Waste",
    "rowid": "1262041",
    "final_x": "3675131.11387",
    "final_y": "537836.098377",
    "longitude": "-90.08796423164283",
    "latitude": "29.973054661194542",
    "geocoded_column": {
      "latitude": "29.973054661194542",
      "longitude": "-90.08796423164283"
    }
  },
  {
    "service_request": "2026-1262040",
    "request_type": "Trash/Recycling",
    "request_reason": "Request a Large Item Pick Up",
    "date_created": "2026-03-02T16:45:35.000",
    "date_modified": "2026-03-02T16:45:37.000",
    "request_status": "Pending",
    "responsible_agency": "Department of Sanitation",
    "final_address": "1122 Dublin St",
    "address_councildis": "A",
    "status": "Assigned to Contractor",
    "contractor": "IV Waste",
    "rowid": "1262040",
    "final_x": "3661593.44506",
    "final_y": "528537.401344",
    "longitude": "-90.1310272059357",
    "latitude": "29.94788389312134",
    "geocoded_column": {
      "latitude": "29.94788389312134",
      "longitude": "-90.1310272059357"
    }
  },
  {
    "service_request": "2026-1262039",
    "request_type": "Traffic Signals",
    "request_reason": "Traffic Signal Malfunctioning or Damaged",
    "date_created": "2026-03-02T16:43:51.000",
    "date_modified": "2026-03-02T16:43:52.000",
    "request_status": "Pending",
    "responsible_agency": "Department of Public Works",
    "final_address": "100 N Claiborne Ave",
    "address_councildis": "B",
    "status": "Pending",
    "rowid": "1262039",
    "final_x": "3678662.57678",
    "final_y": "532843.416004",
    "longitude": "-90.07698406479805",
    "latitude": "29.959220476171645",
    "geocoded_column": {
      "latitude": "29.959220476171645",
      "longitude": "-90.07698406479805"
    }
  },
  {
    "service_request": "2026-1262038",
    "request_type": "Trash/Recycling",
    "request_reason": "Order Recycling Cart",
    "date_created": "2026-03-02T16:42:25.000",
    "date_modified": "2026-03-02T16:42:27.000",
    "request_status": "Pending",
    "responsible_agency": "Department of Sanitation",
    "final_address": "5 New Basin Way",
    "address_councildis": "A",
    "status": "Pending",
    "rowid": "1262038",
    "final_x": "3666533.2937",
    "final_y": "554252.19164",
    "longitude": "-90.11456648104654",
    "latitude": "30.01844743100406",
    "geocoded_column": {
      "latitude": "30.01844743100406",
      "longitude": "-90.11456648104654"
    }
  },
  {
    "service_request": "2026-1262037",
    "request_type": "Streetlights",
    "request_reason": "New Streetlight Request",
    "date_created": "2026-03-02T16:41:19.000",
    "date_modified": "2026-03-02T16:41:20.000",
    "request_status": "Pending",
    "responsible_agency": "Department of Public Works",
    "final_address": "5347 Royal St",
    "address_councildis": "E",
    "status": "Pending",
    "rowid": "1262037",
    "final_x": "3696718.73533",
    "final_y": "532543.065092",
    "longitude": "-90.01997826721907",
    "latitude": "29.957837899465613",
    "geocoded_column": {
      "latitude": "29.957837899465613",
      "longitude": "-90.01997826721907"
    }
  },
  {
    "service_request": "2026-1262036",
    "request_type": "General Services",
    "request_reason": "General Service Request",
    "date_created": "2026-03-02T16:41:15.000",
    "date_modified": "2026-03-02T16:42:47.000",
    "case_close_date": "2026-03-02T10:42:46.000",
    "request_status": "Closed",
    "responsible_agency": "Orleans Parish Communication District",
    "final_address": "510 Jackson Ave",
    "address_councildis": "B",
    "status": "Referred to External Agency",
    "rowid": "1262036",
    "final_x": "3680111.5757",
    "final_y": "520350.186808",
    "longitude": "-90.0728424575957",
    "latitude": "29.924824489811094",
    "geocoded_column": {
      "latitude": "29.924824489811094",
      "longitude": "-90.0728424575957"
    }
  },
  {
    "service_request": "2026-1262035",
    "request_type": "Streetlights",
    "request_reason": "Streetlight Outage/Malfunction",
    "date_created": "2026-03-02T16:40:48.000",
    "date_modified": "2026-03-02T16:40:50.000",
    "request_status": "Pending",
    "responsible_agency": "Department of Public Works",
    "final_address": "4800 Stemway Dr",
    "address_councildis": "D",
    "status": "Pending",
    "rowid": "1262035",
    "final_x": "3696820.10077",
    "final_y": "554448.170968",
    "longitude": "-90.01886469232556",
    "latitude": "30.018065746632704",
    "geocoded_column": {
      "latitude": "30.018065746632704",
      "longitude": "-90.01886469232556"
    }
  },
  {
    "service_request": "2026-1262034",
    "request_type": "Trash/Recycling",
    "request_reason": "Request a Large Item Pick Up",
    "date_created": "2026-03-02T16:34:40.000",
    "date_modified": "2026-03-02T16:34:42.000",
    "request_status": "Pending",
    "responsible_agency": "Department of Sanitation",
    "final_address": "7201 Restgate Rd",
    "address_councildis": "E",
    "status": "Assigned to Contractor",
    "contractor": "Waste Pro",
    "rowid": "1262034",
    "final_x": "3710742.88837",
    "final_y": "563343.774688",
    "longitude": "-89.97454109645405",
    "latitude": "30.042078627767488",
    "geocoded_column": {
      "latitude": "30.042078627767488",
      "longitude": "-89.97454109645405"
    }
  },
  {
    "service_request": "2026-1262033",
    "request_type": "Trash/Recycling",
    "request_reason": "Request a Large Item Pick Up",
    "date_created": "2026-03-02T16:28:09.000",
    "date_modified": "2026-03-02T16:28:10.000",
    "request_status": "Pending",
    "responsible_agency": "Department of Sanitation",
    "final_address": "149 Mary Jane Ln",
    "address_councildis": "E",
    "status": "Assigned to Contractor",
    "contractor": "Waste Pro",
    "rowid": "1262033",
    "final_x": "3718393.03705",
    "final_y": "571417.375464",
    "longitude": "-89.95005597911239",
    "latitude": "30.064026035272967",
    "geocoded_column": {
      "latitude": "30.064026035272967",
      "longitude": "-89.95005597911239"
    }
  },
  {
    "service_request": "2026-1262032",
    "request_type": "Abandoned Vehicles",
    "request_reason": "Abandoned/Junk Vehicles",
    "date_created": "2026-03-02T16:28:06.000",
    "date_modified": "2026-03-02T16:28:08.000",
    "request_status": "Pending",
    "responsible_agency": "Department of Public Works",
    "final_address": "1400 BLK Henry Clay Ave",
    "address_councildis": "A",
    "status": "Pending",
    "rowid": "1262032",
    "final_x": "3664728.47366",
    "final_y": "521946.659963",
    "longitude": "-90.12134873551145",
    "latitude": "29.929670633841674",
    "geocoded_column": {
      "latitude": "29.929670633841674",
      "longitude": "-90.12134873551145"
    }
  },
  {
    "service_request": "2026-1262031",
    "request_type": "Trash/Recycling",
    "request_reason": "Request a Large Item Pick Up",
    "date_created": "2026-03-02T16:27:43.000",
    "date_modified": "2026-03-02T16:27:44.000",
    "request_status": "Pending",
    "responsible_agency": "Department of Sanitation",
    "final_address": "7400 Camberley Dr",
    "address_councildis": "E",
    "status": "Assigned to Contractor",
    "contractor": "Waste Pro",
    "rowid": "1262031",
    "final_x": "3712809.55864",
    "final_y": "565396.878498",
    "longitude": "-89.96793237978194",
    "latitude": "30.047656285523033",
    "geocoded_column": {
      "latitude": "30.047656285523033",
      "longitude": "-89.96793237978194"
    }
  },
  {
    "service_request": "2026-1262030",
    "request_type": "Safety & Permits",
    "request_reason": "Zoning Enforcement",
    "date_created": "2026-03-02T16:26:30.000",
    "date_modified": "2026-03-02T16:26:31.000",
    "request_status": "Pending",
    "responsible_agency": "Safety and Permits",
    "final_address": "1720 Leonidas St",
    "address_councildis": "A",
    "status": "Pending",
    "rowid": "1262030",
    "final_x": "3661932.77786",
    "final_y": "531036.613826",
    "longitude": "-90.12987291305701",
    "latitude": "29.954746129221363",
    "geocoded_column": {
      "latitude": "29.954746129221363",
      "longitude": "-90.12987291305701"
    }
  },
  {
    "service_request": "2026-1262029",
    "request_type": "Trash/Recycling",
    "request_reason": "Request a Large Item Pick Up",
    "date_created": "2026-03-02T16:26:25.000",
    "date_modified": "2026-03-02T16:26:26.000",
    "request_status": "Pending",
    "responsible_agency": "Department of Sanitation",
    "final_address": "7812 Haney Dr",
    "address_councildis": "E",
    "status": "Assigned to Contractor",
    "contractor": "Waste Pro",
    "rowid": "1262029",
    "final_x": "3712217.36837",
    "final_y": "567785.708324",
    "longitude": "-89.96971416267708",
    "latitude": "30.054243986808753",
    "geocoded_column": {
      "latitude": "30.054243986808753",
      "longitude": "-89.96971416267708"
    }
  },
  {
    "service_request": "2026-1262028",
    "request_type": "Trash/Recycling",
    "request_reason": "Missed Trash Pick-Up",
    "date_created": "2026-03-02T16:25:48.000",
    "date_modified": "2026-03-02T16:25:50.000",
    "request_status": "Pending",
    "responsible_agency": "Department of Sanitation",
    "final_address": "14059 Explorers Ave",
    "address_councildis": "E",
    "status": "Assigned to Contractor",
    "contractor": "Waste Pro",
    "rowid": "1262028",
    "final_x": "3726555.43129",
    "final_y": "570849.080615",
    "longitude": "-89.92427649977449",
    "latitude": "30.06218999932751",
    "geocoded_column": {
      "latitude": "30.06218999932751",
      "longitude": "-89.92427649977449"
    }
  },
  {
    "service_request": "2026-1262027",
    "request_type": "Trash/Recycling",
    "request_reason": "Request a Large Item Pick Up",
    "date_created": "2026-03-02T16:24:00.000",
    "date_modified": "2026-03-02T16:24:01.000",
    "request_status": "Pending",
    "responsible_agency": "Department of Sanitation",
    "final_address": "4927 Michoud Blvd",
    "address_councildis": "E",
    "status": "Assigned to Contractor",
    "contractor": "Waste Pro",
    "rowid": "1262027",
    "final_x": "3725047.27776",
    "final_y": "561331.327774",
    "longitude": "-89.92941235180632",
    "latitude": "30.036071057509417",
    "geocoded_column": {
      "latitude": "30.036071057509417",
      "longitude": "-89.92941235180632"
    }
  },
  {
    "service_request": "2026-1262026",
    "request_type": "Trash/Recycling",
    "request_reason": "Replace Trash Cart",
    "date_created": "2026-03-02T16:23:07.000",
    "date_modified": "2026-03-02T16:23:09.000",
    "request_status": "Pending",
    "responsible_agency": "Department of Sanitation",
    "final_address": "214 N Johnson St",
    "address_councildis": "B",
    "status": "Assigned to Contractor",
    "contractor": "IV Waste",
    "rowid": "1262026",
    "final_x": "3677637.66638",
    "final_y": "534096.884229",
    "longitude": "-90.08017719651862",
    "latitude": "29.962697949843186",
    "geocoded_column": {
      "latitude": "29.962697949843186",
      "longitude": "-90.08017719651862"
    }
  },
  {
    "service_request": "2026-1262025",
    "request_type": "Trash/Recycling",
    "request_reason": "Request a Large Item Pick Up",
    "date_created": "2026-03-02T16:20:24.000",
    "date_modified": "2026-03-02T16:20:26.000",
    "request_status": "Pending",
    "responsible_agency": "Department of Sanitation",
    "final_address": "4782 Camelot Dr",
    "address_councildis": "E",
    "status": "Assigned to Contractor",
    "contractor": "Waste Pro",
    "rowid": "1262025",
    "final_x": "3708274.64516",
    "final_y": "555862.734681",
    "longitude": "-89.9826203179763",
    "latitude": "30.021588964579106",
    "geocoded_column": {
      "latitude": "30.021588964579106",
      "longitude": "-89.9826203179763"
    }
  },
  {
    "service_request": "2026-1262024",
    "request_type": "Trash/Recycling",
    "request_reason": "Order Recycling Cart",
    "date_created": "2026-03-02T16:13:33.000",
    "date_modified": "2026-03-02T16:13:34.000",
    "request_status": "Pending",
    "responsible_agency": "Department of Sanitation",
    "final_address": "1433 Audubon St",
    "address_councildis": "A",
    "status": "Pending",
    "rowid": "1262024",
    "final_x": "3664970.62112",
    "final_y": "527069.674238",
    "longitude": "-90.1204131232288",
    "latitude": "29.9437502465988",
    "geocoded_column": {
      "latitude": "29.9437502465988",
      "longitude": "-90.1204131232288"
    }
  },
  {
    "service_request": "2026-1262023",
    "request_type": "Streetlights",
    "request_reason": "Streetlight Outage/Malfunction",
    "date_created": "2026-03-02T16:13:17.000",
    "date_modified": "2026-03-02T16:14:13.000",
    "request_status": "Pending",
    "responsible_agency": "Department of Public Works",
    "final_address": "7810 Brevard Ave",
    "address_councildis": "E",
    "status": "Pending",
    "rowid": "1262023",
    "final_x": "3706044.62084",
    "final_y": "563936.968417",
    "longitude": "-89.98936730248451",
    "latitude": "30.043862031021455",
    "geocoded_column": {
      "latitude": "30.043862031021455",
      "longitude": "-89.98936730248451"
    }
  },
  {
    "service_request": "2026-1262022",
    "request_type": "Trash/Recycling",
    "request_reason": "Request a Large Item Pick Up",
    "date_created": "2026-03-02T16:12:38.000",
    "date_modified": "2026-03-02T16:12:40.000",
    "request_status": "Pending",
    "responsible_agency": "Department of Sanitation",
    "final_address": "1220 Joliet St",
    "address_councildis": "A",
    "status": "Assigned to Contractor",
    "contractor": "IV Waste",
    "rowid": "1262022",
    "final_x": "3661002.43578",
    "final_y": "529493.895553",
    "longitude": "-90.13286162784152",
    "latitude": "29.95053098453264",
    "geocoded_column": {
      "latitude": "29.95053098453264",
      "longitude": "-90.13286162784152"
    }
  },
  {
    "service_request": "2026-1262021",
    "request_type": "Trash/Recycling",
    "request_reason": "Return Recycling Cart",
    "date_created": "2026-03-02T16:11:18.000",
    "date_modified": "2026-03-02T16:11:20.000",
    "request_status": "Pending",
    "responsible_agency": "Department of Sanitation",
    "final_address": "7111 Camberley Dr",
    "address_councildis": "E",
    "status": "Pending",
    "rowid": "1262021",
    "final_x": "3713417.90559",
    "final_y": "564737.429794",
    "longitude": "-89.9660345547311",
    "latitude": "30.04582312249494",
    "geocoded_column": {
      "latitude": "30.04582312249494",
      "longitude": "-89.9660345547311"
    }
  },
  {
    "service_request": "2026-1262020",
    "request_type": "Trash/Recycling",
    "request_reason": "Request a Large Item Pick Up",
    "date_created": "2026-03-02T16:10:43.000",
    "date_modified": "2026-03-02T16:10:45.000",
    "request_status": "Pending",
    "responsible_agency": "Department of Sanitation",
    "final_address": "7111 Camberley Dr",
    "address_councildis": "E",
    "status": "Assigned to Contractor",
    "contractor": "Waste Pro",
    "rowid": "1262020",
    "final_x": "3713417.90559",
    "final_y": "564737.429794",
    "longitude": "-89.9660345547311",
    "latitude": "30.04582312249494",
    "geocoded_column": {
      "latitude": "30.04582312249494",
      "longitude": "-89.9660345547311"
    }
  },
  {
    "service_request": "2026-1262019",
    "request_type": "Trash/Recycling",
    "request_reason": "Request a Large Item Pick Up",
    "date_created": "2026-03-02T16:10:28.000",
    "date_modified": "2026-03-02T16:10:30.000",
    "request_status": "Pending",
    "responsible_agency": "Department of Sanitation",
    "final_address": "2237 Audubon St",
    "address_councildis": "A",
    "status": "Assigned to Contractor",
    "contractor": "IV Waste",
    "rowid": "1262019",
    "final_x": "3666600.19975",
    "final_y": "529519.826945",
    "longitude": "-90.11518584741388",
    "latitude": "29.950439841751784",
    "geocoded_column": {
      "latitude": "29.950439841751784",
      "longitude": "-90.11518584741388"
    }
  },
  {
    "service_request": "2026-1262018",
    "request_type": "Health Related Request",
    "request_reason": "Homeless Encampment Complaint",
    "date_created": "2026-03-02T16:08:50.000",
    "date_modified": "2026-03-02T16:08:51.000",
    "request_status": "Pending",
    "responsible_agency": "Office Of Homeless Services And Strategy",
    "final_address": "2225 Willow St",
    "address_councildis": "B",
    "status": "Pending",
    "rowid": "1262018",
    "final_x": "3674626.47796",
    "final_y": "527241.915135",
    "longitude": "-90.08992104893684",
    "latitude": "29.943939273093324",
    "geocoded_column": {
      "latitude": "29.943939273093324",
      "longitude": "-90.08992104893684"
    }
  },
  {
    "service_request": "2026-1262017",
    "request_type": "Mosquito, Termite & Rodent Control",
    "request_reason": "Rodent Complaint (Mice & Rats)",
    "date_created": "2026-03-02T16:08:32.000",
    "date_modified": "2026-03-02T16:08:33.000",
    "request_status": "Pending",
    "responsible_agency": "Mosquito, Termite & Rodent Control Board",
    "final_address": "3315 Palmyra St",
    "address_councildis": "B",
    "status": "Pending",
    "rowid": "1262017",
    "final_x": "3673037.54331",
    "final_y": "535969.944775",
    "longitude": "-90.09463986198783",
    "latitude": "29.96798576959588",
    "geocoded_column": {
      "latitude": "29.96798576959588",
      "longitude": "-90.09463986198783"
    }
  },
  {
    "service_request": "2026-1262016",
    "request_type": "Trash/Recycling",
    "request_reason": "Request a Large Item Pick Up",
    "date_created": "2026-03-02T16:07:27.000",
    "date_modified": "2026-03-02T16:07:29.000",
    "request_status": "Pending",
    "responsible_agency": "Department of Sanitation",
    "final_address": "270 Oakmont Dr",
    "address_councildis": "E",
    "status": "Assigned to Contractor",
    "contractor": "Waste Pro",
    "rowid": "1262016",
    "final_x": "3719898.2087",
    "final_y": "562577.0696",
    "longitude": "-89.94563650785209",
    "latitude": "30.03966880290823",
    "geocoded_column": {
      "latitude": "30.03966880290823",
      "longitude": "-89.94563650785209"
    }
  },
  {
    "service_request": "2026-1262015",
    "request_type": "Traffic Signals",
    "request_reason": "Traffic Signal Malfunctioning or Damaged",
    "date_created": "2026-03-02T16:00:45.000",
    "date_modified": "2026-03-02T16:00:47.000",
    "request_status": "Pending",
    "responsible_agency": "Department of Public Works",
    "final_address": "ORLEANS AVE & N MIRO ST",
    "address_councildis": "D",
    "status": "Pending",
    "rowid": "1262015",
    "final_x": "3678157.7",
    "final_y": "536006.38",
    "longitude": "-90.07846896188819",
    "latitude": "29.967932765181075",
    "geocoded_column": {
      "latitude": "29.967932765181075",
      "longitude": "-90.07846896188819"
    }
  },
  {
    "service_request": "2026-1262014",
    "request_type": "Trash/Recycling",
    "request_reason": "Repair Trash Cart",
    "date_created": "2026-03-02T15:57:59.000",
    "date_modified": "2026-03-02T15:58:01.000",
    "request_status": "Pending",
    "responsible_agency": "Department of Sanitation",
    "final_address": "7171 Pinebrook Dr",
    "address_councildis": "E",
    "status": "Assigned to Contractor",
    "contractor": "Waste Pro",
    "rowid": "1262014",
    "final_x": "3719242.53049",
    "final_y": "570380.995943",
    "longitude": "-89.94741032338533",
    "latitude": "30.06114819970051",
    "geocoded_column": {
      "latitude": "30.06114819970051",
      "longitude": "-89.94741032338533"
    }
  },
  {
    "service_request": "2026-1262013",
    "request_type": "Trash/Recycling",
    "request_reason": "Dead Animal Pick Up",
    "date_created": "2026-03-02T15:56:24.000",
    "date_modified": "2026-03-02T15:58:51.000",
    "request_status": "Pending",
    "responsible_agency": "Department of Sanitation",
    "final_address": "6514 Congress Dr",
    "address_councildis": "D",
    "status": "Pending",
    "contractor": "IV Waste",
    "rowid": "1262013",
    "final_x": "3690540.02601",
    "final_y": "557962.181659",
    "longitude": "-90.03858182034428",
    "latitude": "30.02792455604368",
    "geocoded_column": {
      "latitude": "30.02792455604368",
      "longitude": "-90.03858182034428"
    }
  },
  {
    "service_request": "2026-1262012",
    "request_type": "Trash/Recycling",
    "request_reason": "Request a Large Item Pick Up",
    "date_created": "2026-03-02T15:55:33.000",
    "date_modified": "2026-03-02T15:55:35.000",
    "request_status": "Pending",
    "responsible_agency": "Department of Sanitation",
    "final_address": "7171 Pinebrook Dr",
    "address_councildis": "E",
    "status": "Assigned to Contractor",
    "contractor": "Waste Pro",
    "rowid": "1262012",
    "final_x": "3719242.53049",
    "final_y": "570380.995943",
    "longitude": "-89.94741032338533",
    "latitude": "30.06114819970051",
    "geocoded_column": {
      "latitude": "30.06114819970051",
      "longitude": "-89.94741032338533"
    }
  },
  {
    "service_request": "2026-1262011",
    "request_type": "Trash/Recycling",
    "request_reason": "Repair Trash Cart",
    "date_created": "2026-03-02T15:53:44.000",
    "date_modified": "2026-03-02T15:53:46.000",
    "request_status": "Pending",
    "responsible_agency": "Department of Sanitation",
    "final_address": "1821 Dumaine St",
    "address_councildis": "D",
    "status": "Assigned to Contractor",
    "contractor": "IV Waste",
    "rowid": "1262011",
    "final_x": "3679796.40264",
    "final_y": "535551.686534",
    "longitude": "-90.0733096752989",
    "latitude": "29.966633066058975",
    "geocoded_column": {
      "latitude": "29.966633066058975",
      "longitude": "-90.0733096752989"
    }
  },
  {
    "service_request": "2026-1262010",
    "request_type": "Trash/Recycling",
    "request_reason": "Return Trash Cart",
    "date_created": "2026-03-02T15:50:12.000",
    "date_modified": "2026-03-02T15:50:14.000",
    "request_status": "Pending",
    "responsible_agency": "Department of Sanitation",
    "final_address": "5059 Charmes Ct",
    "address_councildis": "E",
    "status": "Assigned to Contractor",
    "contractor": "Waste Pro",
    "rowid": "1262010",
    "final_x": "3726548.40249",
    "final_y": "561413.21859",
    "longitude": "-89.92466540085503",
    "latitude": "30.036245566356655",
    "geocoded_column": {
      "latitude": "30.036245566356655",
      "longitude": "-89.92466540085503"
    }
  },
  {
    "service_request": "2026-1262009",
    "request_type": "Trash/Recycling",
    "request_reason": "Repair Trash Cart",
    "date_created": "2026-03-02T15:48:58.000",
    "date_modified": "2026-03-02T15:48:59.000",
    "request_status": "Pending",
    "responsible_agency": "Department of Sanitation",
    "final_address": "13734 Dwyer Blvd",
    "address_councildis": "E",
    "status": "Assigned to Contractor",
    "contractor": "Waste Pro",
    "rowid": "1262009",
    "final_x": "3727143.85779",
    "final_y": "562304.239199",
    "longitude": "-89.92274901011797",
    "latitude": "30.038675362696466",
    "geocoded_column": {
      "latitude": "30.038675362696466",
      "longitude": "-89.92274901011797"
    }
  },
  {
    "service_request": "2026-1262008",
    "request_type": "Trash/Recycling",
    "request_reason": "Repair Trash Cart",
    "date_created": "2026-03-02T15:48:20.000",
    "date_modified": "2026-03-02T15:48:21.000",
    "request_status": "Pending",
    "responsible_agency": "Department of Sanitation",
    "final_address": "13710 Dwyer Blvd",
    "address_councildis": "E",
    "status": "Assigned to Contractor",
    "contractor": "Waste Pro",
    "rowid": "1262008",
    "final_x": "3726974.49088",
    "final_y": "562243.051231",
    "longitude": "-89.92328662731498",
    "latitude": "30.038512852946763",
    "geocoded_column": {
      "latitude": "30.038512852946763",
      "longitude": "-89.92328662731498"
    }
  },
  {
    "service_request": "2026-1262007",
    "request_type": "Trash/Recycling",
    "request_reason": "Request a Large Item Pick Up",
    "date_created": "2026-03-02T15:48:02.000",
    "date_modified": "2026-03-02T15:48:04.000",
    "request_status": "Pending",
    "responsible_agency": "Department of Sanitation",
    "final_address": "5059 Charmes Ct",
    "address_councildis": "E",
    "status": "Assigned to Contractor",
    "contractor": "Waste Pro",
    "rowid": "1262007",
    "final_x": "3726548.40249",
    "final_y": "561413.21859",
    "longitude": "-89.92466540085503",
    "latitude": "30.036245566356655",
    "geocoded_column": {
      "latitude": "30.036245566356655",
      "longitude": "-89.92466540085503"
    }
  },
  {
    "service_request": "2026-1262006",
    "request_type": "Roads and Streets",
    "request_reason": "Street Subsidence (Sinking)",
    "date_created": "2026-03-02T15:43:23.000",
    "date_modified": "2026-03-02T15:43:25.000",
    "request_status": "Pending",
    "responsible_agency": "Sewerage & Water Board",
    "final_address": "1937 Alvar St",
    "address_councildis": "D",
    "status": "Pending",
    "rowid": "1262006",
    "final_x": "3692363.5599",
    "final_y": "538680.285065",
    "longitude": "-90.03351077124495",
    "latitude": "29.974849631592303",
    "geocoded_column": {
      "latitude": "29.974849631592303",
      "longitude": "-90.03351077124495"
    }
  },
  {
    "service_request": "2026-1262005",
    "request_type": "Trash/Recycling",
    "request_reason": "Replace Trash Cart",
    "date_created": "2026-03-02T15:42:48.000",
    "date_modified": "2026-03-02T15:42:49.000",
    "request_status": "Pending",
    "responsible_agency": "Department of Sanitation",
    "final_address": "4200 Pauger St",
    "address_councildis": "D",
    "status": "Assigned to Contractor",
    "contractor": "IV Waste",
    "rowid": "1262005",
    "final_x": "3682839.10837",
    "final_y": "548040.309394",
    "longitude": "-90.06326369657484",
    "latitude": "30.00088003857211",
    "geocoded_column": {
      "latitude": "30.00088003857211",
      "longitude": "-90.06326369657484"
    }
  },
  {
    "service_request": "2026-1262004",
    "request_type": "Safety & Permits",
    "request_reason": "Zoning Enforcement",
    "date_created": "2026-03-02T15:42:08.000",
    "date_modified": "2026-03-02T15:42:10.000",
    "request_status": "Pending",
    "responsible_agency": "Safety and Permits",
    "final_address": "4019 Erato St",
    "address_councildis": "B",
    "status": "Pending",
    "rowid": "1262004",
    "final_x": "3671605.62855",
    "final_y": "531116.137602",
    "longitude": "-90.09932698897069",
    "latitude": "29.9546819026717",
    "geocoded_column": {
      "latitude": "29.9546819026717",
      "longitude": "-90.09932698897069"
    }
  },
  {
    "service_request": "2026-1262003",
    "request_type": "Trash/Recycling",
    "request_reason": "Missed Trash Pick-Up",
    "date_created": "2026-03-02T15:40:06.000",
    "date_modified": "2026-03-02T15:50:27.000",
    "case_close_date": "2026-03-02T09:50:27.000",
    "request_status": "Closed",
    "responsible_agency": "Department of Sanitation",
    "final_address": "VERSAILLES BLVD & S CLAIBORNE AVE",
    "address_councildis": "A",
    "status": "Invalid Request",
    "contractor": "IV Waste",
    "contractor_action": "Invalid Request",
    "rowid": "1262003",
    "final_x": "3666844.5",
    "final_y": "528636.08",
    "longitude": "-90.11444415452465",
    "latitude": "29.948002680961128",
    "geocoded_column": {
      "latitude": "29.948002680961128",
      "longitude": "-90.11444415452465"
    }
  },
  {
    "service_request": "2026-1262002",
    "request_type": "Trash/Recycling",
    "request_reason": "Request a Large Item Pick Up",
    "date_created": "2026-03-02T15:38:33.000",
    "date_modified": "2026-03-02T15:38:35.000",
    "request_status": "Pending",
    "responsible_agency": "Department of Sanitation",
    "final_address": "1724 St Roch Ave",
    "address_councildis": "D",
    "status": "Assigned to Contractor",
    "contractor": "IV Waste",
    "rowid": "1262002",
    "final_x": "3686221.08822",
    "final_y": "538830.651209",
    "longitude": "-90.05290489895715",
    "latitude": "29.975453249552594",
    "geocoded_column": {
      "latitude": "29.975453249552594",
      "longitude": "-90.05290489895715"
    }
  },
  {
    "service_request": "2026-1262001",
    "request_type": "Trash/Recycling",
    "request_reason": "Request a Large Item Pick Up",
    "date_created": "2026-03-02T15:37:20.000",
    "date_modified": "2026-03-02T15:37:21.000",
    "request_status": "Pending",
    "responsible_agency": "Department of Sanitation",
    "final_address": "9815 E Rockton Cir",
    "address_councildis": "E",
    "status": "Assigned to Contractor",
    "contractor": "Waste Pro",
    "rowid": "1262001",
    "final_x": "3708435.06808",
    "final_y": "562917.438816",
    "longitude": "-89.98185051482938",
    "latitude": "30.04098142150081",
    "geocoded_column": {
      "latitude": "30.04098142150081",
      "longitude": "-89.98185051482938"
    }
  },
  {
    "service_request": "2026-1262000",
    "request_type": "Abandoned Vehicles",
    "request_reason": "Abandoned/Junk Vehicles",
    "date_created": "2026-03-02T15:37:05.000",
    "date_modified": "2026-03-02T15:37:08.000",
    "request_status": "Pending",
    "responsible_agency": "Department of Public Works",
    "final_address": "2617 Joliet St",
    "address_councildis": "A",
    "status": "Pending",
    "rowid": "1262000",
    "final_x": "3664434.37831",
    "final_y": "533154.490052",
    "longitude": "-90.12190308187861",
    "latitude": "29.960497116848643",
    "geocoded_column": {
      "latitude": "29.960497116848643",
      "longitude": "-90.12190308187861"
    }
  },
  {
    "service_request": "2026-1261999",
    "request_type": "Trash/Recycling",
    "request_reason": "Replace Trash Cart",
    "date_created": "2026-03-02T15:34:07.000",
    "date_modified": "2026-03-02T15:34:09.000",
    "request_status": "Pending",
    "responsible_agency": "Department of Sanitation",
    "final_address": "7300 Jade St",
    "address_councildis": "D",
    "status": "Assigned to Contractor",
    "contractor": "IV Waste",
    "rowid": "1261999",
    "final_x": "3670906.51169",
    "final_y": "555196.500761",
    "longitude": "-90.10071658634946",
    "latitude": "30.020915318424038",
    "geocoded_column": {
      "latitude": "30.020915318424038",
      "longitude": "-90.10071658634946"
    }
  },
  {
    "service_request": "2026-1261998",
    "request_type": "Trash/Recycling",
    "request_reason": "Request a Large Item Pick Up",
    "date_created": "2026-03-02T15:32:00.000",
    "date_modified": "2026-03-02T15:32:02.000",
    "request_status": "Pending",
    "responsible_agency": "Department of Sanitation",
    "final_address": "4874 Strasbourg Pl",
    "address_councildis": "E",
    "status": "Assigned to Contractor",
    "contractor": "Waste Pro",
    "rowid": "1261998",
    "final_x": "3725689.71411",
    "final_y": "561484.354847",
    "longitude": "-89.9273762264783",
    "latitude": "30.036470160127596",
    "geocoded_column": {
      "latitude": "30.036470160127596",
      "longitude": "-89.9273762264783"
    }
  },
  {
    "service_request": "2026-1261997",
    "request_type": "Trash/Recycling",
    "request_reason": "Dead Animal Pick Up",
    "date_created": "2026-03-02T15:31:24.000",
    "date_modified": "2026-03-02T15:31:27.000",
    "request_status": "Pending",
    "responsible_agency": "Department of Sanitation",
    "final_address": "3952 Pauger St",
    "address_councildis": "D",
    "status": "Assigned to Contractor",
    "contractor": "IV Waste",
    "rowid": "1261997",
    "final_x": "3683081.39093",
    "final_y": "545506.98888",
    "longitude": "-90.06258706167682",
    "latitude": "29.993906925671883",
    "geocoded_column": {
      "latitude": "29.993906925671883",
      "longitude": "-90.06258706167682"
    }
  },
  {
    "service_request": "2026-1261996",
    "request_type": "Trash/Recycling",
    "request_reason": "Order Trash Cart",
    "date_created": "2026-03-02T15:27:08.000",
    "date_modified": "2026-03-02T15:27:10.000",
    "request_status": "Pending",
    "responsible_agency": "Department of Sanitation",
    "final_address": "3209 Banks St",
    "address_councildis": "B",
    "status": "Assigned to Contractor",
    "contractor": "IV Waste",
    "rowid": "1261996",
    "final_x": "3673107.57243",
    "final_y": "535381.429894",
    "longitude": "-90.09443880201388",
    "latitude": "29.966365470018932",
    "geocoded_column": {
      "latitude": "29.966365470018932",
      "longitude": "-90.09443880201388"
    }
  },
  {
    "service_request": "2026-1261995",
    "request_type": "Trash/Recycling",
    "request_reason": "Request a Large Item Pick Up",
    "date_created": "2026-03-02T15:26:48.000",
    "date_modified": "2026-03-02T15:26:50.000",
    "request_status": "Pending",
    "responsible_agency": "Department of Sanitation",
    "final_address": "1420 Gallier St",
    "address_councildis": "C",
    "status": "Assigned to Contractor",
    "contractor": "IV Waste",
    "rowid": "1261995",
    "final_x": "3690745.98608",
    "final_y": "536924.556488",
    "longitude": "-90.03868211119902",
    "latitude": "29.970072354292874",
    "geocoded_column": {
      "latitude": "29.970072354292874",
      "longitude": "-90.03868211119902"
    }
  },
  {
    "service_request": "2026-1261994",
    "request_type": "Trash/Recycling",
    "request_reason": "Request a Large Item Pick Up",
    "date_created": "2026-03-02T15:26:38.000",
    "date_modified": "2026-03-02T15:26:40.000",
    "request_status": "Pending",
    "responsible_agency": "Department of Sanitation",
    "final_address": "5551 Christian Ln",
    "address_councildis": "E",
    "status": "Assigned to Contractor",
    "contractor": "Waste Pro",
    "rowid": "1261994",
    "final_x": "3704526.48132",
    "final_y": "556806.355226",
    "longitude": "-89.99442858002503",
    "latitude": "30.024304511011003",
    "geocoded_column": {
      "latitude": "30.024304511011003",
      "longitude": "-89.99442858002503"
    }
  },
  {
    "service_request": "2026-1261993",
    "request_type": "Trash/Recycling",
    "request_reason": "Request a Large Item Pick Up",
    "date_created": "2026-03-02T15:24:48.000",
    "date_modified": "2026-03-02T15:24:50.000",
    "request_status": "Pending",
    "responsible_agency": "Department of Sanitation",
    "final_address": "7519 Briarheath Dr",
    "address_councildis": "E",
    "status": "Assigned to Contractor",
    "contractor": "Waste Pro",
    "rowid": "1261993",
    "final_x": "3714780.32319",
    "final_y": "566947.57386",
    "longitude": "-89.96164506245042",
    "latitude": "30.05185534607194",
    "geocoded_column": {
      "latitude": "30.05185534607194",
      "longitude": "-89.96164506245042"
    }
  },
  {
    "service_request": "2026-1261992",
    "request_type": "Trash/Recycling",
    "request_reason": "Request a Large Item Pick Up",
    "date_created": "2026-03-02T15:22:55.000",
    "date_modified": "2026-03-02T15:58:33.000",
    "request_status": "Pending",
    "responsible_agency": "Department of Sanitation",
    "final_address": "6765 Canal Blvd",
    "address_councildis": "A",
    "status": "Assigned to Contractor",
    "contractor": "IV Waste",
    "rowid": "1261992",
    "final_x": "3669121.79207",
    "final_y": "552509.71439",
    "longitude": "-90.10644670146792",
    "latitude": "30.01358027642665",
    "geocoded_column": {
      "latitude": "30.01358027642665",
      "longitude": "-90.10644670146792"
    }
  },
  {
    "service_request": "2026-1261991",
    "request_type": "Trash/Recycling",
    "request_reason": "Request a Large Item Pick Up",
    "date_created": "2026-03-02T15:19:50.000",
    "date_modified": "2026-03-02T15:19:51.000",
    "request_status": "Pending",
    "responsible_agency": "Department of Sanitation",
    "final_address": "10321 Brookfield Dr",
    "address_councildis": "E",
    "status": "Assigned to Contractor",
    "contractor": "Waste Pro",
    "rowid": "1261991",
    "final_x": "3710483.0236",
    "final_y": "563227.483936",
    "longitude": "-89.97536671587568",
    "latitude": "30.04176734543833",
    "geocoded_column": {
      "latitude": "30.04176734543833",
      "longitude": "-89.97536671587568"
    }
  },
  {
    "service_request": "2026-1261989",
    "request_type": "Trash/Recycling",
    "request_reason": "Request a Large Item Pick Up",
    "date_created": "2026-03-02T15:17:48.000",
    "date_modified": "2026-03-02T15:55:03.000",
    "request_status": "Pending",
    "responsible_agency": "Department of Sanitation",
    "final_address": "712 St Louis St HM",
    "address_councildis": "C",
    "status": "Assigned to Contractor",
    "contractor": "IV Waste",
    "rowid": "1261989",
    "final_x": "3681977.99477",
    "final_y": "531925.477251",
    "longitude": "-90.06654683251176",
    "latitude": "29.956596085781438",
    "geocoded_column": {
      "latitude": "29.956596085781438",
      "longitude": "-90.06654683251176"
    }
  },
  {
    "service_request": "2026-1261988",
    "request_type": "Trash/Recycling",
    "request_reason": "Request a Large Item Pick Up",
    "date_created": "2026-03-02T15:16:42.000",
    "date_modified": "2026-03-02T15:16:44.000",
    "request_status": "Pending",
    "responsible_agency": "Department of Sanitation",
    "final_address": "1017 Josephine St",
    "address_councildis": "B",
    "status": "Assigned to Contractor",
    "contractor": "IV Waste",
    "rowid": "1261988",
    "final_x": "3679322.31343",
    "final_y": "522157.698362",
    "longitude": "-90.07527125256283",
    "latitude": "29.92981840589393",
    "geocoded_column": {
      "latitude": "29.92981840589393",
      "longitude": "-90.07527125256283"
    }
  },
  {
    "service_request": "2026-1261987",
    "request_type": "Trash/Recycling",
    "request_reason": "Illegal Dumping",
    "date_created": "2026-03-02T15:15:32.000",
    "date_modified": "2026-03-02T15:17:43.000",
    "request_status": "Pending",
    "responsible_agency": "Department of Sanitation",
    "final_address": "1219 S Gayoso St",
    "address_councildis": "B",
    "status": "Pending",
    "rowid": "1261987",
    "final_x": "3671201.89479",
    "final_y": "531519.612099",
    "longitude": "-90.10058812101984",
    "latitude": "29.955803273533213",
    "geocoded_column": {
      "latitude": "29.955803273533213",
      "longitude": "-90.10058812101984"
    }
  },
  {
    "service_request": "2026-1261986",
    "request_type": "Trash/Recycling",
    "request_reason": "Request a Large Item Pick Up",
    "date_created": "2026-03-02T15:11:30.000",
    "date_modified": "2026-03-02T15:11:31.000",
    "request_status": "Pending",
    "responsible_agency": "Department of Sanitation",
    "final_address": "1422 Arts St",
    "address_councildis": "C",
    "status": "Assigned to Contractor",
    "contractor": "IV Waste",
    "rowid": "1261986",
    "final_x": "3687080.28476",
    "final_y": "537777.961096",
    "longitude": "-90.05022855906367",
    "latitude": "29.972532293419356",
    "geocoded_column": {
      "latitude": "29.972532293419356",
      "longitude": "-90.05022855906367"
    }
  },
  {
    "service_request": "2026-1261985",
    "request_type": "Trash/Recycling",
    "request_reason": "Repair Trash Cart",
    "date_created": "2026-03-02T15:09:28.000",
    "date_modified": "2026-03-02T15:09:30.000",
    "request_status": "Pending",
    "responsible_agency": "Department of Sanitation",
    "final_address": "1632 Dublin St",
    "address_councildis": "A",
    "status": "Assigned to Contractor",
    "contractor": "IV Waste",
    "rowid": "1261985",
    "final_x": "3662781.89824",
    "final_y": "529861.863105",
    "longitude": "-90.12723074878204",
    "latitude": "29.951491394646265",
    "geocoded_column": {
      "latitude": "29.951491394646265",
      "longitude": "-90.12723074878204"
    }
  },
  {
    "service_request": "2026-1261984",
    "request_type": "Abandoned Vehicles",
    "request_reason": "Abandoned/Junk Vehicles",
    "date_created": "2026-03-02T15:09:06.000",
    "date_modified": "2026-03-02T15:09:08.000",
    "request_status": "Pending",
    "responsible_agency": "Department of Public Works",
    "final_address": "1426 S Prieur St Ste A",
    "address_councildis": "B",
    "status": "Pending",
    "rowid": "1261984",
    "final_x": "3674237.45096",
    "final_y": "528748.61664",
    "longitude": "-90.09109774304599",
    "latitude": "29.948093807919676",
    "geocoded_column": {
      "latitude": "29.948093807919676",
      "longitude": "-90.09109774304599"
    }
  },
  {
    "service_request": "2026-1261983",
    "request_type": "Roads and Streets",
    "request_reason": "Debris in Driving Lanes",
    "date_created": "2026-03-02T15:08:20.000",
    "date_modified": "2026-03-02T15:10:30.000",
    "request_status": "Pending",
    "responsible_agency": "Department of Public Works",
    "final_address": "6045 General Meyer Ave",
    "address_councildis": "C",
    "status": "Pending",
    "rowid": "1261983",
    "final_x": "3706253.46564",
    "final_y": "521040.848505",
    "longitude": "-89.99029628187728",
    "latitude": "29.925906945634736",
    "geocoded_column": {
      "latitude": "29.925906945634736",
      "longitude": "-89.99029628187728"
    }
  },
  {
    "service_request": "2026-1261982",
    "request_type": "Trash/Recycling",
    "request_reason": "Replace Trash Cart",
    "date_created": "2026-03-02T15:07:25.000",
    "date_modified": "2026-03-02T15:07:27.000",
    "request_status": "Pending",
    "responsible_agency": "Department of Sanitation",
    "final_address": "6227 London Ave",
    "address_councildis": "D",
    "status": "Assigned to Contractor",
    "contractor": "IV Waste",
    "rowid": "1261982",
    "final_x": "3680615.8196",
    "final_y": "555759.439705",
    "longitude": "-90.0700183791933",
    "latitude": "30.022172432041057",
    "geocoded_column": {
      "latitude": "30.022172432041057",
      "longitude": "-90.0700183791933"
    }
  },
  {
    "service_request": "2026-1261981",
    "request_type": "Trash/Recycling",
    "request_reason": "Repair Trash Cart",
    "date_created": "2026-03-02T15:04:22.000",
    "date_modified": "2026-03-02T15:04:24.000",
    "request_status": "Pending",
    "responsible_agency": "Department of Sanitation",
    "final_address": "2706 Constance St",
    "address_councildis": "B",
    "status": "Assigned to Contractor",
    "contractor": "IV Waste",
    "rowid": "1261981",
    "final_x": "3677481.47579",
    "final_y": "520609.968888",
    "longitude": "-90.08113585705658",
    "latitude": "29.925618099508267",
    "geocoded_column": {
      "latitude": "29.925618099508267",
      "longitude": "-90.08113585705658"
    }
  },
  {
    "service_request": "2026-1261980",
    "request_type": "Trash/Recycling",
    "request_reason": "Request a Large Item Pick Up",
    "date_created": "2026-03-02T15:04:17.000",
    "date_modified": "2026-03-02T15:04:20.000",
    "request_status": "Pending",
    "responsible_agency": "Department of Sanitation",
    "final_address": "818 Jena St",
    "address_councildis": "B",
    "status": "Assigned to Contractor",
    "contractor": "IV Waste",
    "rowid": "1261980",
    "final_x": "3670578.96308",
    "final_y": "518522.806903",
    "longitude": "-90.1029957836485",
    "latitude": "29.92008467691825",
    "geocoded_column": {
      "latitude": "29.92008467691825",
      "longitude": "-90.1029957836485"
    }
  },
  {
    "service_request": "2026-1261979",
    "request_type": "Trash/Recycling",
    "request_reason": "Request a Large Item Pick Up",
    "date_created": "2026-03-02T15:02:08.000",
    "date_modified": "2026-03-02T15:02:09.000",
    "request_status": "Pending",
    "responsible_agency": "Department of Sanitation",
    "final_address": "7700 Wave Dr",
    "address_councildis": "E",
    "status": "Assigned to Contractor",
    "contractor": "Waste Pro",
    "rowid": "1261979",
    "final_x": "3714644.88549",
    "final_y": "569077.494182",
    "longitude": "-89.96199256599522",
    "latitude": "30.057716210539034",
    "geocoded_column": {
      "latitude": "30.057716210539034",
      "longitude": "-89.96199256599522"
    }
  },
  {
    "service_request": "2026-1261978",
    "request_type": "Trash/Recycling",
    "request_reason": "Request a Large Item Pick Up",
    "date_created": "2026-03-02T15:00:26.000",
    "date_modified": "2026-03-02T15:00:28.000",
    "request_status": "Pending",
    "responsible_agency": "Department of Sanitation",
    "final_address": "6737 Deanne St",
    "address_councildis": "D",
    "status": "Assigned to Contractor",
    "contractor": "Waste Pro",
    "rowid": "1261978",
    "final_x": "3695989.65008",
    "final_y": "555561.341145",
    "longitude": "-90.02144831939718",
    "latitude": "30.021152712746023",
    "geocoded_column": {
      "latitude": "30.021152712746023",
      "longitude": "-90.02144831939718"
    }
  },
  {
    "service_request": "2026-1261977",
    "request_type": "Trash/Recycling",
    "request_reason": "Change Size of Trash Cart",
    "date_created": "2026-03-02T14:59:59.000",
    "date_modified": "2026-03-02T15:20:37.000",
    "request_status": "Pending",
    "responsible_agency": "Department of Sanitation",
    "final_address": "4814 Perrier St",
    "address_councildis": "B",
    "status": "Assigned to Contractor",
    "contractor": "IV Waste",
    "rowid": "1261977",
    "final_x": "3669335.9835",
    "final_y": "519874.2798",
    "longitude": "-90.10687362392326",
    "latitude": "29.92383743917425",
    "geocoded_column": {
      "latitude": "29.92383743917425",
      "longitude": "-90.10687362392326"
    }
  },
  {
    "service_request": "2026-1261976",
    "request_type": "Trash/Recycling",
    "request_reason": "Illegal Dumping",
    "date_created": "2026-03-02T14:59:37.000",
    "date_modified": "2026-03-02T14:59:39.000",
    "request_status": "Pending",
    "responsible_agency": "Department of Sanitation",
    "final_address": "NEWTON ST & NUNEZ ST",
    "address_councildis": "C",
    "status": "Pending",
    "rowid": "1261976",
    "final_x": "3686956.0",
    "final_y": "527946.28",
    "longitude": "-90.05096856911986",
    "latitude": "29.945502389117618",
    "geocoded_column": {
      "latitude": "29.945502389117618",
      "longitude": "-90.05096856911986"
    }
  },
  {
    "service_request": "2026-1261975",
    "request_type": "Trash/Recycling",
    "request_reason": "Request a Large Item Pick Up",
    "date_created": "2026-03-02T14:58:16.000",
    "date_modified": "2026-03-02T15:58:00.000",
    "request_status": "Pending",
    "responsible_agency": "Department of Sanitation",
    "final_address": "32 Hawk St",
    "address_councildis": "D",
    "status": "Assigned to Contractor",
    "contractor": "IV Waste",
    "rowid": "1261975",
    "final_x": "3672486.36455",
    "final_y": "555720.977241",
    "longitude": "-90.0957067980446",
    "latitude": "30.022310615912698",
    "geocoded_column": {
      "latitude": "30.022310615912698",
      "longitude": "-90.0957067980446"
    }
  },
  {
    "service_request": "2026-1261974",
    "request_type": "Abandoned Vehicles",
    "request_reason": "Abandoned/Junk Vehicles",
    "date_created": "2026-03-02T14:57:04.000",
    "date_modified": "2026-03-02T14:57:06.000",
    "request_status": "Pending",
    "responsible_agency": "Department of Public Works",
    "final_address": "4321 Dumaine St",
    "address_councildis": "A",
    "status": "Pending",
    "rowid": "1261974",
    "final_x": "3672007.42523",
    "final_y": "541467.253708",
    "longitude": "-90.0977058072879",
    "latitude": "29.983132084840722",
    "geocoded_column": {
      "latitude": "29.983132084840722",
      "longitude": "-90.0977058072879"
    }
  },
  {
    "service_request": "2026-1261973",
    "request_type": "Parks & Parkways",
    "request_reason": "Request Grass Cutting Service (City Owned Property)",
    "date_created": "2026-03-02T14:55:09.000",
    "date_modified": "2026-03-02T14:55:12.000",
    "request_status": "Pending",
    "responsible_agency": "Department of Parks & Parkway",
    "final_address": "2200 Pauger St",
    "address_councildis": "C",
    "status": "Pending",
    "rowid": "1261973",
    "final_x": "3683728.33557",
    "final_y": "537707.225992",
    "longitude": "-90.06081708112623",
    "latitude": "29.972440578756718",
    "geocoded_column": {
      "latitude": "29.972440578756718",
      "longitude": "-90.06081708112623"
    }
  },
  {
    "service_request": "2026-1261972",
    "request_type": "Trash/Recycling",
    "request_reason": "Request a Large Item Pick Up",
    "date_created": "2026-03-02T14:55:05.000",
    "date_modified": "2026-03-02T14:55:09.000",
    "request_status": "Pending",
    "responsible_agency": "Department of Sanitation",
    "final_address": "7736 Dorsett Dr",
    "address_councildis": "E",
    "status": "Assigned to Contractor",
    "contractor": "Waste Pro",
    "rowid": "1261972",
    "final_x": "3712495.98565",
    "final_y": "567820.773476",
    "longitude": "-89.96883220766074",
    "latitude": "30.054331281801",
    "geocoded_column": {
      "latitude": "30.054331281801",
      "longitude": "-89.96883220766074"
    }
  },
  {
    "service_request": "2026-1261971",
    "request_type": "Trash/Recycling",
    "request_reason": "Request a Large Item Pick Up",
    "date_created": "2026-03-02T14:53:52.000",
    "date_modified": "2026-03-02T14:55:49.000",
    "request_status": "Pending",
    "responsible_agency": "Department of Sanitation",
    "final_address": "7801 Haney Dr",
    "address_councildis": "E",
    "status": "Assigned to Contractor",
    "contractor": "Waste Pro",
    "rowid": "1261971",
    "final_x": "3712318.41291",
    "final_y": "567764.826276",
    "longitude": "-89.9693955733758",
    "latitude": "30.05418326292344",
    "geocoded_column": {
      "latitude": "30.05418326292344",
      "longitude": "-89.9693955733758"
    }
  },
  {
    "service_request": "2026-1261970",
    "request_type": "Roads and Streets",
    "request_reason": "Debris in Driving Lanes",
    "date_created": "2026-03-02T14:53:40.000",
    "date_modified": "2026-03-02T14:53:41.000",
    "request_status": "Pending",
    "responsible_agency": "Department of Public Works",
    "final_address": "4621 Lafaye St",
    "address_councildis": "D",
    "status": "Pending",
    "rowid": "1261970",
    "final_x": "3687532.69468",
    "final_y": "549882.2685",
    "longitude": "-90.04837108203652",
    "latitude": "30.005800872766798",
    "geocoded_column": {
      "latitude": "30.005800872766798",
      "longitude": "-90.04837108203652"
    }
  },
  {
    "service_request": "2026-1261969",
    "request_type": "Trash/Recycling",
    "request_reason": "Request a Large Item Pick Up",
    "date_created": "2026-03-02T14:52:40.000",
    "date_modified": "2026-03-02T14:52:42.000",
    "request_status": "Pending",
    "responsible_agency": "Department of Sanitation",
    "final_address": "7731 Haney Dr",
    "address_councildis": "E",
    "status": "Assigned to Contractor",
    "contractor": "Waste Pro",
    "rowid": "1261969",
    "final_x": "3712387.36805",
    "final_y": "567675.680804",
    "longitude": "-89.96918097913306",
    "latitude": "30.053935892172536",
    "geocoded_column": {
      "latitude": "30.053935892172536",
      "longitude": "-89.96918097913306"
    }
  },
  {
    "service_request": "2026-1261968",
    "request_type": "Drainage",
    "request_reason": "Catch Basin Not Draining",
    "date_created": "2026-03-02T14:52:28.000",
    "date_modified": "2026-03-02T14:52:29.000",
    "request_status": "Pending",
    "responsible_agency": "Sewerage & Water Board",
    "final_address": "2100 BLK Napoleon Ave",
    "address_councildis": "B",
    "status": "Pending",
    "rowid": "1261968",
    "final_x": "3670615.30211",
    "final_y": "522818.083089",
    "longitude": "-90.10273546822552",
    "latitude": "29.931894242586544",
    "geocoded_column": {
      "latitude": "29.931894242586544",
      "longitude": "-90.10273546822552"
    }
  },
  {
    "service_request": "2026-1261967",
    "request_type": "Parks & Parkways",
    "request_reason": "Tree Stump (removal, grind)",
    "date_created": "2026-03-02T14:51:24.000",
    "date_modified": "2026-03-02T14:51:25.000",
    "request_status": "Pending",
    "responsible_agency": "Department of Parks & Parkway",
    "final_address": "1300 BLK Amelia St",
    "address_councildis": "B",
    "status": "Pending",
    "rowid": "1261967",
    "final_x": "3673439.65046",
    "final_y": "519992.011313",
    "longitude": "-90.09391578842012",
    "latitude": "29.924039748641313",
    "geocoded_column": {
      "latitude": "29.924039748641313",
      "longitude": "-90.09391578842012"
    }
  },
  {
    "service_request": "2026-1261966",
    "request_type": "Drainage",
    "request_reason": "Catch Basin Not Draining",
    "date_created": "2026-03-02T14:49:22.000",
    "date_modified": "2026-03-02T14:49:24.000",
    "request_status": "Pending",
    "responsible_agency": "Sewerage & Water Board",
    "final_address": "1503 Touro St",
    "address_councildis": "C",
    "status": "Pending",
    "rowid": "1261966",
    "final_x": "3684146.69967",
    "final_y": "537764.936648",
    "longitude": "-90.05949378939103",
    "latitude": "29.972586481028213",
    "geocoded_column": {
      "latitude": "29.972586481028213",
      "longitude": "-90.05949378939103"
    }
  },
  {
    "service_request": "2026-1261965",
    "request_type": "Trash/Recycling",
    "request_reason": "Request a Large Item Pick Up",
    "date_created": "2026-03-02T14:47:26.000",
    "date_modified": "2026-03-02T14:47:27.000",
    "request_status": "Pending",
    "responsible_agency": "Department of Sanitation",
    "final_address": "1738 Prytania St Apt C",
    "address_councildis": "B",
    "status": "Assigned to Contractor",
    "contractor": "IV Waste",
    "rowid": "1261965",
    "final_x": "3679197.06101",
    "final_y": "524380.320636",
    "longitude": "-90.07558963623303",
    "latitude": "29.93593366729043",
    "geocoded_column": {
      "latitude": "29.93593366729043",
      "longitude": "-90.07558963623303"
    }
  },
  {
    "service_request": "2026-1261964",
    "request_type": "Trash/Recycling",
    "request_reason": "Request a Large Item Pick Up",
    "date_created": "2026-03-02T14:46:36.000",
    "date_modified": "2026-03-02T14:46:38.000",
    "request_status": "Pending",
    "responsible_agency": "Department of Sanitation",
    "final_address": "5012 Alcee Fortier Blvd",
    "address_councildis": "E",
    "status": "Assigned to Contractor",
    "contractor": "Waste Pro",
    "rowid": "1261964",
    "final_x": "3729818.99597",
    "final_y": "563602.714721",
    "longitude": "-89.91424415759356",
    "latitude": "30.04215480590474",
    "geocoded_column": {
      "latitude": "30.04215480590474",
      "longitude": "-89.91424415759356"
    }
  },
  {
    "service_request": "2026-1261963",
    "request_type": "Trash/Recycling",
    "request_reason": "Request a Large Item Pick Up",
    "date_created": "2026-03-02T14:42:53.000",
    "date_modified": "2026-03-02T14:42:54.000",
    "request_status": "Pending",
    "responsible_agency": "Department of Sanitation",
    "final_address": "10331 Brookfield Dr",
    "address_councildis": "E",
    "status": "Assigned to Contractor",
    "contractor": "Waste Pro",
    "rowid": "1261963",
    "final_x": "3710528.48203",
    "final_y": "563261.666144",
    "longitude": "-89.97522177133592",
    "latitude": "30.041859851412045",
    "geocoded_column": {
      "latitude": "30.041859851412045",
      "longitude": "-89.97522177133592"
    }
  },
  {
    "service_request": "2026-1261962",
    "request_type": "Property Maintenance",
    "request_reason": "Property Maintenance",
    "date_created": "2026-03-02T14:42:27.000",
    "date_modified": "2026-03-02T14:56:41.000",
    "request_status": "Pending",
    "responsible_agency": "Department of Code Enforcement",
    "final_address": "1505 Touro St",
    "address_councildis": "C",
    "status": "Pending",
    "rowid": "1261962",
    "final_x": "3684139.61282",
    "final_y": "537786.488008",
    "longitude": "-90.05951541426143",
    "latitude": "29.972645956398498",
    "geocoded_column": {
      "latitude": "29.972645956398498",
      "longitude": "-90.05951541426143"
    }
  },