[
  {
    "service_request": "2026-1275531",
    "request_type": "Road Striping",
    "request_reason": "Crosswalks",
    "date_created": "2026-04-21T23:41:15.000",
    "date_modified": "2026-04-21T23:41:18.000",
    "request_status": "Pending",
    "responsible_agency": "Department of Public Works",
    "final_address": "3400 Bienville Ave",
    "address_councildis": "B",
    "status": "Pending",
    "rowid": "1275531",
    "final_x": "3673517.07854",
    "final_y": "537403.287944",
    "longitude": "-90.09307647494279",
    "latitude": "29.971912715918478",
    "geocoded_column": {
      "latitude": "29.971912715918478",
      "longitude": "-90.09307647494279"
    }
  },
  {
    "service_request": "2026-1275530",
    "request_type": "Mosquito, Termite & Rodent Control",
    "request_reason": "Mosquito Complaint",
    "date_created": "2026-04-21T22:54:29.000",
    "date_modified": "2026-04-21T22:54:31.000",
    "request_status": "Pending",
    "responsible_agency": "Mosquito, Termite & Rodent Control Board",
    "final_address": "14211 Chef Menteur Hwy",
    "address_councildis": "E",
    "status": "Pending",
    "rowid": "1275530",
    "final_x": "3729815.82195",
    "final_y": "561325.235294",
    "longitude": "-89.91434332333519",
    "latitude": "30.035892795204653",
    "geocoded_column": {
      "latitude": "30.035892795204653",
      "longitude": "-89.91434332333519"
    }
  },
  {
    "service_request": "2026-1275529",
    "request_type": "Trash/Recycling",
    "request_reason": "Order Recycling Cart",
    "date_created": "2026-04-21T22:48:04.000",
    "date_modified": "2026-04-21T22:48:06.000",
    "request_status": "Pending",
    "responsible_agency": "Department of Sanitation",
    "final_address": "6035 Chamberlain Dr",
    "address_councildis": "D",
    "status": "Pending",
    "rowid": "1275529",
    "final_x": "3679365.24232",
    "final_y": "554716.614104",
    "longitude": "-90.07400610609703",
    "latitude": "30.01934289373655",
    "geocoded_column": {
      "latitude": "30.01934289373655",
      "longitude": "-90.07400610609703"
    }
  },
  {
    "service_request": "2026-1275528",
    "request_type": "Streetlights",
    "request_reason": "Streetlight Outage/Malfunction",
    "date_created": "2026-04-21T22:24:04.000",
    "date_modified": "2026-04-21T22:24:06.000",
    "request_status": "Pending",
    "responsible_agency": "Department of Public Works",
    "final_address": "301 Delacroix Rd",
    "address_councildis": "C",
    "status": "Pending",
    "rowid": "1275528",
    "final_x": "3726487.42496",
    "final_y": "516531.081461",
    "longitude": "-89.92659939796987",
    "latitude": "29.91283911260007",
    "geocoded_column": {
      "latitude": "29.91283911260007",
      "longitude": "-89.92659939796987"
    }
  },
  {
    "service_request": "2026-1275527",
    "request_type": "Streetlights",
    "request_reason": "Streetlight Outage/Malfunction",
    "date_created": "2026-04-21T22:19:10.000",
    "date_modified": "2026-04-21T22:19:12.000",
    "request_status": "Pending",
    "responsible_agency": "Department of Public Works",
    "final_address": "301 Delacroix Rd",
    "address_councildis": "C",
    "status": "Pending",
    "rowid": "1275527",
    "final_x": "3726487.42496",
    "final_y": "516531.081461",
    "longitude": "-89.92659939796987",
    "latitude": "29.91283911260007",
    "geocoded_column": {
      "latitude": "29.91283911260007",
      "longitude": "-89.92659939796987"
    }
  },
  {
    "service_request": "2026-1275526",
    "request_type": "Trash/Recycling",
    "request_reason": "Start Trash Service",
    "date_created": "2026-04-21T22:17:07.000",
    "date_modified": "2026-04-21T22:17:11.000",
    "request_status": "Pending",
    "responsible_agency": "Department of Sanitation",
    "final_address": "14 Arbor Ln",
    "address_councildis": "C",
    "status": "Assigned to Contractor",
    "contractor": "Richards Disposal",
    "rowid": "1275526",
    "final_x": "3716428.54968",
    "final_y": "517840.381302",
    "longitude": "-89.95829816839348",
    "latitude": "29.916774951485657",
    "geocoded_column": {
      "latitude": "29.916774951485657",
      "longitude": "-89.95829816839348"
    }
  },
  {
    "service_request": "2026-1275525",
    "request_type": "Health Related Request",
    "request_reason": "Noise Ordinance Complaint",
    "date_created": "2026-04-21T21:07:02.000",
    "date_modified": "2026-04-21T21:07:03.000",
    "request_status": "Pending",
    "responsible_agency": "Health Department",
    "final_address": "800 Bourbon St, New Orleans, Louisiana, 70116",
    "address_councildis": "C",
    "status": "Pending",
    "rowid": "1275525",
    "final_x": "3682553.51528",
    "final_y": "533013.631428",
    "longitude": "-90.06469148499534",
    "latitude": "29.95957063099051",
    "geocoded_column": {
      "latitude": "29.95957063099051",
      "longitude": "-90.06469148499534"
    }
  },
  {
    "service_request": "2026-1275524",
    "request_type": "Health Related Request",
    "request_reason": "Noise Ordinance Complaint",
    "date_created": "2026-04-21T21:06:37.000",
    "date_modified": "2026-04-21T21:06:39.000",
    "request_status": "Pending",
    "responsible_agency": "Health Department",
    "final_address": "801 Bourbon St, New Orleans, Louisiana, 70116",
    "address_councildis": "C",
    "status": "Pending",
    "rowid": "1275524",
    "final_x": "3682490.98735",
    "final_y": "533018.672772",
    "longitude": "-90.06488875731978",
    "latitude": "29.959586396383013",
    "geocoded_column": {
      "latitude": "29.959586396383013",
      "longitude": "-90.06488875731978"
    }
  },
  {
    "service_request": "2026-1275523",
    "request_type": "Health Related Request",
    "request_reason": "Noise Ordinance Complaint",
    "date_created": "2026-04-21T21:03:03.000",
    "date_modified": "2026-04-21T21:03:05.000",
    "request_status": "Pending",
    "responsible_agency": "Health Department",
    "final_address": "800 Bourbon St, New Orleans, Louisiana, 70116",
    "address_councildis": "C",
    "status": "Pending",
    "rowid": "1275523",
    "final_x": "3682553.51528",
    "final_y": "533013.631428",
    "longitude": "-90.06469148499534",
    "latitude": "29.95957063099051",
    "geocoded_column": {
      "latitude": "29.95957063099051",
      "longitude": "-90.06469148499534"
    }
  },
  {
    "service_request": "2026-1275522",
    "request_type": "Health Related Request",
    "request_reason": "Noise Ordinance Complaint",
    "date_created": "2026-04-21T21:02:24.000",
    "date_modified": "2026-04-21T21:02:26.000",
    "request_status": "Pending",
    "responsible_agency": "Health Department",
    "final_address": "801 Bourbon St, New Orleans, Louisiana, 70116",
    "address_councildis": "C",
    "status": "Pending",
    "rowid": "1275522",
    "final_x": "3682490.98735",
    "final_y": "533018.672772",
    "longitude": "-90.06488875731978",
    "latitude": "29.959586396383013",
    "geocoded_column": {
      "latitude": "29.959586396383013",
      "longitude": "-90.06488875731978"
    }
  },
  {
    "service_request": "2026-1275521",
    "request_type": "Trash/Recycling",
    "request_reason": "Order Recycling Cart",
    "date_created": "2026-04-21T20:14:32.000",
    "date_modified": "2026-04-21T20:14:34.000",
    "request_status": "Pending",
    "responsible_agency": "Department of Sanitation",
    "final_address": "6521 Fleur-De-Lis Dr",
    "address_councildis": "A",
    "status": "Pending",
    "rowid": "1275521",
    "final_x": "3665454.86797",
    "final_y": "551557.158997",
    "longitude": "-90.11806423744162",
    "latitude": "30.01106853076723",
    "geocoded_column": {
      "latitude": "30.01106853076723",
      "longitude": "-90.11806423744162"
    }
  },
  {
    "service_request": "2026-1275520",
    "request_type": "Streetlights",
    "request_reason": "Streetlight Outage/Malfunction",
    "date_created": "2026-04-21T20:03:25.000",
    "date_modified": "2026-04-21T20:03:28.000",
    "request_status": "Pending",
    "responsible_agency": "Department of Public Works",
    "final_address": "2711 Joseph St",
    "address_councildis": "A",
    "status": "Pending",
    "rowid": "1275520",
    "final_x": "3667739.70535",
    "final_y": "525842.226749",
    "longitude": "-90.11171166829712",
    "latitude": "29.9402942734575",
    "geocoded_column": {
      "latitude": "29.9402942734575",
      "longitude": "-90.11171166829712"
    }
  },
  {
    "service_request": "2026-1275519",
    "request_type": "Trash/Recycling",
    "request_reason": "Replace Recycling Cart",
    "date_created": "2026-04-21T19:45:41.000",
    "date_modified": "2026-04-21T19:45:44.000",
    "request_status": "Pending",
    "responsible_agency": "Department of Sanitation",
    "final_address": "2305 Carondelet St",
    "address_councildis": "B",
    "status": "Pending",
    "rowid": "1275519",
    "final_x": "3676862.84078",
    "final_y": "523657.371771",
    "longitude": "-90.08298372922299",
    "latitude": "29.934016039860413",
    "geocoded_column": {
      "latitude": "29.934016039860413",
      "longitude": "-90.08298372922299"
    }
  },
  {
    "service_request": "2026-1275518",
    "request_type": "Trash/Recycling",
    "request_reason": "Replace Trash Cart",
    "date_created": "2026-04-21T19:40:47.000",
    "date_modified": "2026-04-21T19:40:49.000",
    "request_status": "Pending",
    "responsible_agency": "Department of Sanitation",
    "final_address": "2305 Carondelet St",
    "address_councildis": "B",
    "status": "Assigned to Contractor",
    "contractor": "IV Waste",
    "rowid": "1275518",
    "final_x": "3676862.84078",
    "final_y": "523657.371771",
    "longitude": "-90.08298372922299",
    "latitude": "29.934016039860413",
    "geocoded_column": {
      "latitude": "29.934016039860413",
      "longitude": "-90.08298372922299"
    }
  },
  {
    "service_request": "2026-1275517",
    "request_type": "Trash/Recycling",
    "request_reason": "Order Second Trash Cart",
    "date_created": "2026-04-21T19:32:54.000",
    "date_modified": "2026-04-21T19:32:56.000",
    "request_status": "Pending",
    "responsible_agency": "Department of Sanitation",
    "final_address": "26 Marywood Ct",
    "address_councildis": "E",
    "status": "Assigned to Contractor",
    "contractor": "Waste Pro",
    "rowid": "1275517",
    "final_x": "3712474.56178",
    "final_y": "566799.565732",
    "longitude": "-89.96893835740497",
    "latitude": "30.05152407800365",
    "geocoded_column": {
      "latitude": "30.05152407800365",
      "longitude": "-89.96893835740497"
    }
  },
  {
    "service_request": "2026-1275516",
    "request_type": "Trash/Recycling",
    "request_reason": "Request a Large Item Pick Up",
    "date_created": "2026-04-21T19:31:32.000",
    "date_modified": "2026-04-21T19:31:34.000",
    "request_status": "Pending",
    "responsible_agency": "Department of Sanitation",
    "final_address": "7818 Lafourche St",
    "address_councildis": "E",
    "status": "Assigned to Contractor",
    "contractor": "Waste Pro",
    "rowid": "1275516",
    "final_x": "3709740.39723",
    "final_y": "566220.262243",
    "longitude": "-89.97760176093833",
    "latitude": "30.050020462299212",
    "geocoded_column": {
      "latitude": "30.050020462299212",
      "longitude": "-89.97760176093833"
    }
  },
  {
    "service_request": "2026-1275515",
    "request_type": "New Orleans Recreation Development Commission (NORDC)",
    "request_reason": "Facilities and Parks Maintenance/Clean Up",
    "date_created": "2026-04-21T19:16:44.000",
    "date_modified": "2026-04-21T19:16:46.000",
    "request_status": "Pending",
    "responsible_agency": "New Orleans Recreation Development Commission",
    "final_address": "6025 Wildair Dr",
    "address_councildis": "D",
    "status": "Pending",
    "rowid": "1275515",
    "final_x": "3681511.83189",
    "final_y": "554946.28956",
    "longitude": "-90.06721559592441",
    "latitude": "30.019909373406023",
    "geocoded_column": {
      "latitude": "30.019909373406023",
      "longitude": "-90.06721559592441"
    }
  },
  {
    "service_request": "2026-1275514",
    "request_type": "Trash/Recycling",
    "request_reason": "Order Trash Cart",
    "date_created": "2026-04-21T19:04:30.000",
    "date_modified": "2026-04-21T19:04:31.000",
    "request_status": "Pending",
    "responsible_agency": "Department of Sanitation",
    "final_address": "3738 Bruxelles St",
    "address_councildis": "D",
    "status": "Assigned to Contractor",
    "contractor": "IV Waste",
    "rowid": "1275514",
    "final_x": "3679984.76232",
    "final_y": "546174.554512",
    "longitude": "-90.07234565589415",
    "latitude": "29.995836559673712",
    "geocoded_column": {
      "latitude": "29.995836559673712",
      "longitude": "-90.07234565589415"
    }
  },
  {
    "service_request": "2026-1275513",
    "request_type": "Abandoned Vehicles",
    "request_reason": "Abandoned/Junk Vehicles",
    "date_created": "2026-04-21T19:03:05.000",
    "date_modified": "2026-04-21T19:03:07.000",
    "request_status": "Pending",
    "responsible_agency": "Department of Public Works",
    "final_address": "839 Nunez St",
    "address_councildis": "C",
    "status": "Pending",
    "rowid": "1275513",
    "final_x": "3686865.54838",
    "final_y": "528431.440128",
    "longitude": "-90.05123701391015",
    "latitude": "29.94683919762454",
    "geocoded_column": {
      "latitude": "29.94683919762454",
      "longitude": "-90.05123701391015"
    }
  },
  {
    "service_request": "2026-1275512",
    "request_type": "Trash/Recycling",
    "request_reason": "MIssed Recycling Pick-Up",
    "date_created": "2026-04-21T19:03:03.000",
    "date_modified": "2026-04-21T19:03:09.000",
    "request_status": "Pending",
    "responsible_agency": "Department of Sanitation",
    "final_address": "7660 Inlet Ln",
    "address_councildis": "E",
    "status": "Assigned to Contractor",
    "contractor": "Waste Pro",
    "rowid": "1275512",
    "final_x": "3714414.65343",
    "final_y": "568610.150949",
    "longitude": "-89.9627379628669",
    "latitude": "30.056438783072103",
    "geocoded_column": {
      "latitude": "30.056438783072103",
      "longitude": "-89.9627379628669"
    }
  },
  {
    "service_request": "2026-1275511",
    "request_type": "Trash/Recycling",
    "request_reason": "Repair Trash Cart",
    "date_created": "2026-04-21T19:02:47.000",
    "date_modified": "2026-04-21T19:02:49.000",
    "request_status": "Pending",
    "responsible_agency": "Department of Sanitation",
    "final_address": "7410 Seven Oaks Rd",
    "address_councildis": "E",
    "status": "Assigned to Contractor",
    "contractor": "Waste Pro",
    "rowid": "1275511",
    "final_x": "3712512.35531",
    "final_y": "565264.08605",
    "longitude": "-89.96887669617963",
    "latitude": "30.04730089452421",
    "geocoded_column": {
      "latitude": "30.04730089452421",
      "longitude": "-89.96887669617963"
    }
  },
  {
    "service_request": "2026-1275510",
    "request_type": "Property Maintenance",
    "request_reason": "Property Maintenance",
    "date_created": "2026-04-21T18:58:20.000",
    "date_modified": "2026-04-21T18:58:22.000",
    "request_status": "Pending",
    "responsible_agency": "Department of Code Enforcement",
    "final_address": "508 Homer St",
    "address_councildis": "C",
    "status": "Pending",
    "rowid": "1275510",
    "final_x": "3687029.11766",
    "final_y": "528371.629504",
    "longitude": "-90.0507226809044",
    "latitude": "29.946669705324414",
    "geocoded_column": {
      "latitude": "29.946669705324414",
      "longitude": "-90.0507226809044"
    }
  },
  {
    "service_request": "2026-1275509",
    "request_type": "Abandoned Vehicles",
    "request_reason": "Abandoned/Junk Vehicles",
    "date_created": "2026-04-21T18:55:11.000",
    "date_modified": "2026-04-21T18:55:13.000",
    "request_status": "Pending",
    "responsible_agency": "Department of Public Works",
    "final_address": "5512 Camp St",
    "address_councildis": "A",
    "status": "Pending",
    "rowid": "1275509",
    "final_x": "3666380.47412",
    "final_y": "519170.566007",
    "longitude": "-90.1162267296249",
    "latitude": "29.921989101601685",
    "geocoded_column": {
      "latitude": "29.921989101601685",
      "longitude": "-90.1162267296249"
    }
  },
  {
    "service_request": "2026-1275508",
    "request_type": "Trash/Recycling",
    "request_reason": "Replace Trash Cart",
    "date_created": "2026-04-21T18:48:49.000",
    "date_modified": "2026-04-21T18:48:50.000",
    "request_status": "Pending",
    "responsible_agency": "Department of Sanitation",
    "final_address": "2827 Holiday Dr",
    "address_councildis": "C",
    "status": "Assigned to Contractor",
    "contractor": "Richards Disposal",
    "rowid": "1275508",
    "final_x": "3698701.96132",
    "final_y": "520806.076601",
    "longitude": "-90.01414253390085",
    "latitude": "29.925502619338253",
    "geocoded_column": {
      "latitude": "29.925502619338253",
      "longitude": "-90.01414253390085"
    }
  },
  {
    "service_request": "2026-1275507",
    "request_type": "Street and Traffic Signs",
    "request_reason": "Street Name Sign Damaged or Missing",
    "date_created": "2026-04-21T18:48:18.000",
    "date_modified": "2026-04-21T18:48:21.000",
    "request_status": "Pending",
    "responsible_agency": "Department of Public Works",
    "final_address": "9600 BLK Hammond St",
    "address_councildis": "E",
    "status": "Pending",
    "rowid": "1275507",
    "final_x": "3711053.24091",
    "final_y": "556243.53297",
    "longitude": "-89.9738265107922",
    "latitude": "30.022545656587248",
    "geocoded_column": {
      "latitude": "30.022545656587248",
      "longitude": "-89.9738265107922"
    }
  },
  {
    "service_request": "2026-1275506",
    "request_type": "Trash/Recycling",
    "request_reason": "Request a Large Item Pick Up",
    "date_created": "2026-04-21T18:32:22.000",
    "date_modified": "2026-04-21T18:32:25.000",
    "request_status": "Pending",
    "responsible_agency": "Department of Sanitation",
    "final_address": "7526 Freret St",
    "address_councildis": "A",
    "status": "Assigned to Contractor",
    "contractor": "IV Waste",
    "rowid": "1275506",
    "final_x": "3662876.75085",
    "final_y": "526551.892286",
    "longitude": "-90.12704127572809",
    "latitude": "29.94238729048523",
    "geocoded_column": {
      "latitude": "29.94238729048523",
      "longitude": "-90.12704127572809"
    }
  },
  {
    "service_request": "2026-1275505",
    "request_type": "General Services",
    "request_reason": "General Service Request",
    "date_created": "2026-04-21T18:30:36.000",
    "date_modified": "2026-04-21T18:30:39.000",
    "request_status": "Pending",
    "responsible_agency": "Orleans Parish Communication District",
    "final_address": "7925 Willow St",
    "address_councildis": "A",
    "status": "Pending",
    "rowid": "1275505",
    "final_x": "3662901.82093",
    "final_y": "528532.627328",
    "longitude": "-90.12689627992172",
    "latitude": "29.94783295237911",
    "geocoded_column": {
      "latitude": "29.94783295237911",
      "longitude": "-90.12689627992172"
    }
  },
  {
    "service_request": "2026-1275504",
    "request_type": "Abandoned Vehicles",
    "request_reason": "Abandoned/Junk Vehicles",
    "date_created": "2026-04-21T18:29:10.000",
    "date_modified": "2026-04-21T18:29:11.000",
    "request_status": "Pending",
    "responsible_agency": "Department of Public Works",
    "final_address": "4827 Donna Dr",
    "address_councildis": "E",
    "status": "Pending",
    "rowid": "1275504",
    "final_x": "3710987.30257",
    "final_y": "556487.065754",
    "longitude": "-89.97402572962623",
    "latitude": "30.023217427148836",
    "geocoded_column": {
      "latitude": "30.023217427148836",
      "longitude": "-89.97402572962623"
    }
  },
  {
    "service_request": "2026-1275503",
    "request_type": "Trash/Recycling",
    "request_reason": "Request a Large Item Pick Up",
    "date_created": "2026-04-21T18:26:41.000",
    "date_modified": "2026-04-21T18:26:43.000",
    "request_status": "Pending",
    "responsible_agency": "Department of Sanitation",
    "final_address": "4576 Bonita Dr",
    "address_councildis": "E",
    "status": "Assigned to Contractor",
    "contractor": "Waste Pro",
    "rowid": "1275503",
    "final_x": "3704502.26097",
    "final_y": "554233.7398",
    "longitude": "-89.99460008556574",
    "latitude": "30.017231589049242",
    "geocoded_column": {
      "latitude": "30.017231589049242",
      "longitude": "-89.99460008556574"
    }
  },
  {
    "service_request": "2026-1275502",
    "request_type": "Street and Traffic Signs",
    "request_reason": "Traffic or Parking Sign Damaged or Missing",
    "date_created": "2026-04-21T18:21:58.000",
    "date_modified": "2026-04-21T18:22:00.000",
    "request_status": "Pending",
    "responsible_agency": "Department of Public Works",
    "final_address": "1601 Lafitte Ave",
    "address_councildis": "C",
    "status": "Pending",
    "rowid": "1275502",
    "final_x": "3679888.22639",
    "final_y": "534255.789317",
    "longitude": "-90.0730647078564",
    "latitude": "29.963067014315964",
    "geocoded_column": {
      "latitude": "29.963067014315964",
      "longitude": "-90.0730647078564"
    }
  },
  {
    "service_request": "2026-1275501",
    "request_type": "Trash/Recycling",
    "request_reason": "Damaged Caused By Contractor",
    "date_created": "2026-04-21T18:21:53.000",
    "date_modified": "2026-04-21T18:21:54.000",
    "request_status": "Pending",
    "responsible_agency": "Department of Sanitation",
    "final_address": "822 Cadiz St",
    "address_councildis": "B",
    "status": "Assigned to Contractor",
    "contractor": "IV Waste",
    "rowid": "1275501",
    "final_x": "3670287.05601",
    "final_y": "518536.842103",
    "longitude": "-90.1039167212304",
    "latitude": "29.920131884443844",
    "geocoded_column": {
      "latitude": "29.920131884443844",
      "longitude": "-90.1039167212304"
    }
  },
  {
    "service_request": "2026-1275500",
    "request_type": "Trash/Recycling",
    "request_reason": "Order Recycling Cart",
    "date_created": "2026-04-21T18:20:54.000",
    "date_modified": "2026-04-21T18:20:56.000",
    "request_status": "Pending",
    "responsible_agency": "Department of Sanitation",
    "final_address": "8923 Apple St",
    "address_councildis": "A",
    "status": "Pending",
    "rowid": "1275500",
    "final_x": "3663128.13197",
    "final_y": "534177.646021",
    "longitude": "-90.12599392048146",
    "latitude": "29.96334837037641",
    "geocoded_column": {
      "latitude": "29.96334837037641",
      "longitude": "-90.12599392048146"
    }
  },
  {
    "service_request": "2026-1275499",
    "request_type": "Safety & Permits",
    "request_reason": "Zoning Enforcement",
    "date_created": "2026-04-21T18:17:23.000",
    "date_modified": "2026-04-21T18:17:25.000",
    "request_status": "Pending",
    "responsible_agency": "Safety and Permits",
    "final_address": "4827 Donna Dr",
    "address_councildis": "E",
    "status": "Pending",
    "rowid": "1275499",
    "final_x": "3710987.30257",
    "final_y": "556487.065754",
    "longitude": "-89.97402572962623",
    "latitude": "30.023217427148836",
    "geocoded_column": {
      "latitude": "30.023217427148836",
      "longitude": "-89.97402572962623"
    }
  },
  {
    "service_request": "2026-1275498",
    "request_type": "Trash/Recycling",
    "request_reason": "Request a Large Item Pick Up",
    "date_created": "2026-04-21T18:04:19.000",
    "date_modified": "2026-04-21T18:04:21.000",
    "request_status": "Pending",
    "responsible_agency": "Department of Sanitation",
    "final_address": "1100 Southlawn Blvd",
    "address_councildis": "C",
    "status": "Assigned to Contractor",
    "contractor": "Richards Disposal",
    "rowid": "1275498",
    "final_x": "3695287.84496",
    "final_y": "528156.379328",
    "longitude": "-90.02465479142056",
    "latitude": "29.94582106539168",
    "geocoded_column": {
      "latitude": "29.94582106539168",
      "longitude": "-90.02465479142056"
    }
  },
  {
    "service_request": "2026-1275497",
    "request_type": "Trash/Recycling",
    "request_reason": "Illegal Dumping",
    "date_created": "2026-04-21T18:01:59.000",
    "date_modified": "2026-04-21T18:02:01.000",
    "request_status": "Pending",
    "responsible_agency": "Department of Sanitation",
    "final_address": "4827 Donna Dr",
    "address_councildis": "E",
    "status": "Pending",
    "rowid": "1275497",
    "final_x": "3710987.30257",
    "final_y": "556487.065754",
    "longitude": "-89.97402572962623",
    "latitude": "30.023217427148836",
    "geocoded_column": {
      "latitude": "30.023217427148836",
      "longitude": "-89.97402572962623"
    }
  },
  {
    "service_request": "2026-1275496",
    "request_type": "Abandoned Vehicles",
    "request_reason": "Abandoned/Junk Vehicles",
    "date_created": "2026-04-21T18:00:24.000",
    "date_modified": "2026-04-21T18:00:26.000",
    "request_status": "Pending",
    "responsible_agency": "Department of Public Works",
    "final_address": "3930 Perrier St",
    "address_councildis": "B",
    "status": "Pending",
    "rowid": "1275496",
    "final_x": "3672516.81671",
    "final_y": "520195.171",
    "longitude": "-90.0968219322253",
    "latitude": "29.924625787717115",
    "geocoded_column": {
      "latitude": "29.924625787717115",
      "longitude": "-90.0968219322253"
    }
  },
  {
    "service_request": "2026-1275495",
    "request_type": "Trash/Recycling",
    "request_reason": "Illegal Dumping",
    "date_created": "2026-04-21T17:57:28.000",
    "date_modified": "2026-04-21T17:57:30.000",
    "request_status": "Pending",
    "responsible_agency": "Department of Sanitation",
    "final_address": "6028 Pines Blvd",
    "address_councildis": "D",
    "status": "Pending",
    "rowid": "1275495",
    "final_x": "3696008.9759",
    "final_y": "556018.939033",
    "longitude": "-90.02137070056554",
    "latitude": "30.022410325233906",
    "geocoded_column": {
      "latitude": "30.022410325233906",
      "longitude": "-90.02137070056554"
    }
  },
  {
    "service_request": "2026-1275494",
    "request_type": "Abandoned Vehicles",
    "request_reason": "Abandoned/Junk Vehicles",
    "date_created": "2026-04-21T17:44:00.000",
    "date_modified": "2026-04-21T17:44:02.000",
    "request_status": "Pending",
    "responsible_agency": "Department of Public Works",
    "final_address": "PINES BLVD & E LAVERNE ST",
    "address_councildis": "D",
    "status": "Pending",
    "rowid": "1275494",
    "final_x": "3697277.0",
    "final_y": "556478.98",
    "longitude": "-90.01734737834269",
    "latitude": "30.02363528116626",
    "geocoded_column": {
      "latitude": "30.02363528116626",
      "longitude": "-90.01734737834269"
    }
  },
  {
    "service_request": "2026-1275493",
    "request_type": "Trash/Recycling",
    "request_reason": "Replace Recycling Cart",
    "date_created": "2026-04-21T17:34:08.000",
    "date_modified": "2026-04-21T17:34:09.000",
    "request_status": "Pending",
    "responsible_agency": "Department of Sanitation",
    "final_address": "3512 Loyola Ave",
    "address_councildis": "B",
    "status": "Pending",
    "rowid": "1275493",
    "final_x": "3672885.19457",
    "final_y": "523283.405179",
    "longitude": "-90.09555377794274",
    "latitude": "29.933106501286066",
    "geocoded_column": {
      "latitude": "29.933106501286066",
      "longitude": "-90.09555377794274"
    }
  },
  {
    "service_request": "2026-1275492",
    "request_type": "Trash/Recycling",
    "request_reason": "Order Trash Cart",
    "date_created": "2026-04-21T17:33:45.000",
    "date_modified": "2026-04-21T17:33:47.000",
    "request_status": "Pending",
    "responsible_agency": "Department of Sanitation",
    "final_address": "3918 Baronne St",
    "address_councildis": "B",
    "status": "Assigned to Contractor",
    "contractor": "IV Waste",
    "rowid": "1275492",
    "final_x": "3672306.50791",
    "final_y": "521717.000314",
    "longitude": "-90.09743399294057",
    "latitude": "29.92881656885458",
    "geocoded_column": {
      "latitude": "29.92881656885458",
      "longitude": "-90.09743399294057"
    }
  },
  {
    "service_request": "2026-1275491",
    "request_type": "Trash/Recycling",
    "request_reason": "Request a Large Item Pick Up",
    "date_created": "2026-04-21T17:26:05.000",
    "date_modified": "2026-04-21T17:26:07.000",
    "request_status": "Pending",
    "responsible_agency": "Department of Sanitation",
    "final_address": "10341 Flossmoor Dr",
    "address_councildis": "E",
    "status": "Assigned to Contractor",
    "contractor": "Waste Pro",
    "rowid": "1275491",
    "final_x": "3710103.22545",
    "final_y": "564039.000737",
    "longitude": "-89.9765366390249",
    "latitude": "30.04401106233845",
    "geocoded_column": {
      "latitude": "30.04401106233845",
      "longitude": "-89.9765366390249"
    }
  },
  {
    "service_request": "2026-1275490",
    "request_type": "Roads and Streets",
    "request_reason": "Pothole",
    "date_created": "2026-04-21T17:12:29.000",
    "date_modified": "2026-04-21T17:12:31.000",
    "request_status": "Pending",
    "responsible_agency": "Department of Public Works",
    "final_address": "2926 St Peter St",
    "address_councildis": "A",
    "status": "Pending",
    "rowid": "1275490",
    "final_x": "3675716.89083",
    "final_y": "537515.763912",
    "longitude": "-90.086125243269",
    "latitude": "29.9721563317198",
    "geocoded_column": {
      "latitude": "29.9721563317198",
      "longitude": "-90.086125243269"
    }
  },
  {
    "service_request": "2026-1275489",
    "request_type": "Property Maintenance",
    "request_reason": "Property Maintenance",
    "date_created": "2026-04-21T17:07:40.000",
    "date_modified": "2026-04-21T17:07:43.000",
    "request_status": "Pending",
    "responsible_agency": "Department of Code Enforcement",
    "final_address": "1428 Richland Rd",
    "address_councildis": "C",
    "status": "Pending",
    "rowid": "1275489",
    "final_x": "3698053.11869",
    "final_y": "525858.602173",
    "longitude": "-90.01600735591963",
    "latitude": "29.939415847655745",
    "geocoded_column": {
      "latitude": "29.939415847655745",
      "longitude": "-90.01600735591963"
    }
  },
  {
    "service_request": "2026-1275488",
    "request_type": "Property Maintenance",
    "request_reason": "Property Maintenance",
    "date_created": "2026-04-21T17:03:33.000",
    "date_modified": "2026-04-21T17:03:34.000",
    "request_status": "Pending",
    "responsible_agency": "Department of Code Enforcement",
    "final_address": "801 Race St",
    "address_councildis": "B",
    "status": "Pending",
    "rowid": "1275488",
    "final_x": "3681305.7437",
    "final_y": "523682.401915",
    "longitude": "-90.06895679756705",
    "latitude": "29.933950809193036",
    "geocoded_column": {
      "latitude": "29.933950809193036",
      "longitude": "-90.06895679756705"
    }
  },
  {
    "service_request": "2026-1275487",
    "request_type": "Drainage",
    "request_reason": "Catch Basin Frame and Cover Missing or Damaged",
    "date_created": "2026-04-21T16:56:10.000",
    "date_modified": "2026-04-21T16:56:13.000",
    "request_status": "Pending",
    "responsible_agency": "Sewerage & Water Board",
    "final_address": "7310 Voyageur Dr",
    "address_councildis": "E",
    "status": "Pending",
    "rowid": "1275487",
    "final_x": "3726295.22925",
    "final_y": "569161.087782",
    "longitude": "-89.92516456422425",
    "latitude": "30.05755752907608",
    "geocoded_column": {
      "latitude": "30.05755752907608",
      "longitude": "-89.92516456422425"
    }
  },
  {
    "service_request": "2026-1275486",
    "request_type": "Trash/Recycling",
    "request_reason": "Replace Trash Cart",
    "date_created": "2026-04-21T16:49:05.000",
    "date_modified": "2026-04-21T16:49:07.000",
    "request_status": "Pending",
    "responsible_agency": "Department of Sanitation",
    "final_address": "4222 Baudin St",
    "address_councildis": "A",
    "status": "Assigned to Contractor",
    "contractor": "IV Waste",
    "rowid": "1275486",
    "final_x": "3669438.5762",
    "final_y": "537539.745992",
    "longitude": "-90.10595245699622",
    "latitude": "29.972408684968936",
    "geocoded_column": {
      "latitude": "29.972408684968936",
      "longitude": "-90.10595245699622"
    }
  },
  {
    "service_request": "2026-1275485",
    "request_type": "Trash/Recycling",
    "request_reason": "Request a Large Item Pick Up",
    "date_created": "2026-04-21T16:44:30.000",
    "date_modified": "2026-04-21T16:44:31.000",
    "request_status": "Pending",
    "responsible_agency": "Department of Sanitation",
    "final_address": "6059 Airway St",
    "address_councildis": "D",
    "status": "Assigned to Contractor",
    "contractor": "Waste Pro",
    "rowid": "1275485",
    "final_x": "3696767.91626",
    "final_y": "552678.834006",
    "longitude": "-90.01909369494551",
    "latitude": "30.013202382417344",
    "geocoded_column": {
      "latitude": "30.013202382417344",
      "longitude": "-90.01909369494551"
    }
  },
  {
    "service_request": "2026-1275484",
    "request_type": "Trash/Recycling",
    "request_reason": "Request a Large Item Pick Up",
    "date_created": "2026-04-21T16:43:40.000",
    "date_modified": "2026-04-21T16:43:42.000",
    "request_status": "Pending",
    "responsible_agency": "Department of Sanitation",
    "final_address": "4783 Lancelot Dr",
    "address_councildis": "E",
    "status": "Assigned to Contractor",
    "contractor": "Waste Pro",
    "rowid": "1275484",
    "final_x": "3707491.54142",
    "final_y": "555797.698329",
    "longitude": "-89.98509711235381",
    "latitude": "30.02143549900781",
    "geocoded_column": {
      "latitude": "30.02143549900781",
      "longitude": "-89.98509711235381"
    }
  },
  {
    "service_request": "2026-1275483",
    "request_type": "Trash/Recycling",
    "request_reason": "Request a Large Item Pick Up",
    "date_created": "2026-04-21T16:42:14.000",
    "date_modified": "2026-04-21T16:42:17.000",
    "request_status": "Pending",
    "responsible_agency": "Department of Sanitation",
    "final_address": "7524 Willow St",
    "address_councildis": "A",
    "status": "Assigned to Contractor",
    "contractor": "IV Waste",
    "rowid": "1275483",
    "final_x": "3663862.8521",
    "final_y": "527543.787519",
    "longitude": "-90.12389486327835",
    "latitude": "29.945086102892603",
    "geocoded_column": {
      "latitude": "29.945086102892603",
      "longitude": "-90.12389486327835"
    }
  },
  {
    "service_request": "2026-1275482",
    "request_type": "Trash/Recycling",
    "request_reason": "Request a Large Item Pick Up",
    "date_created": "2026-04-21T16:35:25.000",
    "date_modified": "2026-04-21T16:35:26.000",
    "request_status": "Pending",
    "responsible_agency": "Department of Sanitation",
    "final_address": "4743 Redwood St",
    "address_councildis": "E",
    "status": "Assigned to Contractor",
    "contractor": "Waste Pro",
    "rowid": "1275482",
    "final_x": "3712564.0067",
    "final_y": "556184.875226",
    "longitude": "-89.96905510617383",
    "latitude": "30.022334997850134",
    "geocoded_column": {
      "latitude": "30.022334997850134",
      "longitude": "-89.96905510617383"
    }
  },
  {
    "service_request": "2026-1275481",
    "request_type": "Trash/Recycling",
    "request_reason": "Request a Large Item Pick Up",
    "date_created": "2026-04-21T16:34:56.000",
    "date_modified": "2026-04-21T16:34:58.000",
    "request_status": "Pending",
    "responsible_agency": "Department of Sanitation",
    "final_address": "7037 Magazine St",
    "address_councildis": "A",
    "status": "Assigned to Contractor",
    "contractor": "IV Waste",
    "rowid": "1275481",
    "final_x": "3661075.43008",
    "final_y": "521104.801849",
    "longitude": "-90.1329086512856",
    "latitude": "29.927461526825315",
    "geocoded_column": {
      "latitude": "29.927461526825315",
      "longitude": "-90.1329086512856"
    }
  },
  {
    "service_request": "2026-1275480",
    "request_type": "Trash/Recycling",
    "request_reason": "Replace Trash Cart",
    "date_created": "2026-04-21T16:34:37.000",
    "date_modified": "2026-04-21T16:34:39.000",
    "request_status": "Pending",
    "responsible_agency": "Department of Sanitation",
    "final_address": "16 Rosa Park",
    "address_councildis": "A",
    "status": "Assigned to Contractor",
    "contractor": "IV Waste",
    "rowid": "1275480",
    "final_x": "3666128.82272",
    "final_y": "522920.589307",
    "longitude": "-90.11689542469553",
    "latitude": "29.93230782842307",
    "geocoded_column": {
      "latitude": "29.93230782842307",
      "longitude": "-90.11689542469553"
    }
  },
  {
    "service_request": "2026-1275479",
    "request_type": "Trash/Recycling",
    "request_reason": "Replace Trash Cart",
    "date_created": "2026-04-21T16:25:38.000",
    "date_modified": "2026-04-21T16:25:51.000",
    "request_status": "Pending",
    "responsible_agency": "Department of Sanitation",
    "final_address": "5805 Laurel St",
    "address_councildis": "A",
    "status": "Assigned to Contractor",
    "contractor": "IV Waste",
    "rowid": "1275479",
    "final_x": "3665208.05216",
    "final_y": "518052.374198",
    "longitude": "-90.11996496563228",
    "latitude": "29.918948614760634",
    "geocoded_column": {
      "latitude": "29.918948614760634",
      "longitude": "-90.11996496563228"
    }
  },
  {
    "service_request": "2026-1275478",
    "request_type": "Trash/Recycling",
    "request_reason": "Request a Large Item Pick Up",
    "date_created": "2026-04-21T16:24:04.000",
    "date_modified": "2026-04-21T16:24:05.000",
    "request_status": "Pending",
    "responsible_agency": "Department of Sanitation",
    "final_address": "83 English Turn Dr",
    "address_councildis": "C",
    "status": "Assigned to Contractor",
    "contractor": "Richards Disposal",
    "rowid": "1275478",
    "final_x": "3722604.31097",
    "final_y": "512221.495281",
    "longitude": "-89.93902098400201",
    "latitude": "29.901119804227584",
    "geocoded_column": {
      "latitude": "29.901119804227584",
      "longitude": "-89.93902098400201"
    }
  },
  {
    "service_request": "2026-1275477",
    "request_type": "Abandoned Vehicles",
    "request_reason": "Abandoned/Junk Vehicles",
    "date_created": "2026-04-21T16:22:51.000",
    "date_modified": "2026-04-21T16:22:53.000",
    "request_status": "Pending",
    "responsible_agency": "Department of Public Works",
    "final_address": "4021 Behrman Hwy",
    "address_councildis": "C",
    "status": "Pending",
    "rowid": "1275477",
    "final_x": "3696919.80067",
    "final_y": "514982.231219",
    "longitude": "-90.01997895068452",
    "latitude": "29.909545311511863",
    "geocoded_column": {
      "latitude": "29.909545311511863",
      "longitude": "-90.01997895068452"
    }
  },
  {
    "service_request": "2026-1275476",
    "request_type": "Trash/Recycling",
    "request_reason": "Request a Large Item Pick Up",
    "date_created": "2026-04-21T16:14:45.000",
    "date_modified": "2026-04-21T16:14:47.000",
    "request_status": "Pending",
    "responsible_agency": "Department of Sanitation",
    "final_address": "3417 Touro St",
    "address_councildis": "D",
    "status": "Assigned to Contractor",
    "contractor": "IV Waste",
    "rowid": "1275476",
    "final_x": "3683559.54249",
    "final_y": "545246.854479",
    "longitude": "-90.06108577565591",
    "latitude": "29.993177059353258",
    "geocoded_column": {
      "latitude": "29.993177059353258",
      "longitude": "-90.06108577565591"
    }
  },
  {
    "service_request": "2026-1275475",
    "request_type": "Trash/Recycling",
    "request_reason": "Replace Trash Cart",
    "date_created": "2026-04-21T16:12:04.000",
    "date_modified": "2026-04-21T16:12:06.000",
    "request_status": "Pending",
    "responsible_agency": "Department of Sanitation",
    "final_address": "3012 Music St",
    "address_councildis": "D",
    "status": "Assigned to Contractor",
    "contractor": "IV Waste",
    "rowid": "1275475",
    "final_x": "3686189.55241",
    "final_y": "543922.806414",
    "longitude": "-90.05282477213372",
    "latitude": "29.989455844335936",
    "geocoded_column": {
      "latitude": "29.989455844335936",
      "longitude": "-90.05282477213372"
    }
  },
  {
    "service_request": "2026-1275474",
    "request_type": "Trash/Recycling",
    "request_reason": "Request a Large Item Pick Up",
    "date_created": "2026-04-21T16:11:01.000",
    "date_modified": "2026-04-21T16:11:03.000",
    "request_status": "Pending",
    "responsible_agency": "Department of Sanitation",
    "final_address": "11130 N Idlewood Ct",
    "address_councildis": "E",
    "status": "Assigned to Contractor",
    "contractor": "Waste Pro",
    "rowid": "1275474",
    "final_x": "3716039.81464",
    "final_y": "560093.223261",
    "longitude": "-89.95792429316029",
    "latitude": "30.032967146083504",
    "geocoded_column": {
      "latitude": "30.032967146083504",
      "longitude": "-89.95792429316029"
    }
  },
  {
    "service_request": "2026-1275473",
    "request_type": "Trash/Recycling",
    "request_reason": "Request a Large Item Pick Up",
    "date_created": "2026-04-21T16:06:15.000",
    "date_modified": "2026-04-21T16:06:16.000",
    "request_status": "Pending",
    "responsible_agency": "Department of Sanitation",
    "final_address": "5144 Lakeview Ct",
    "address_councildis": "E",
    "status": "Assigned to Contractor",
    "contractor": "Waste Pro",
    "rowid": "1275473",
    "final_x": "3698795.30186",
    "final_y": "556349.930202",
    "longitude": "-90.01255458150585",
    "latitude": "30.023232409327548",
    "geocoded_column": {
      "latitude": "30.023232409327548",
      "longitude": "-90.01255458150585"
    }
  },
  {
    "service_request": "2026-1275472",
    "request_type": "Trash/Recycling",
    "request_reason": "Request a Large Item Pick Up",
    "date_created": "2026-04-21T16:06:11.000",
    "date_modified": "2026-04-21T16:06:12.000",
    "request_status": "Pending",
    "responsible_agency": "Department of Sanitation",
    "final_address": "8010 Gus St",
    "address_councildis": "E",
    "status": "Assigned to Contractor",
    "contractor": "Waste Pro",
    "rowid": "1275472",
    "final_x": "3703361.06103",
    "final_y": "563048.88304",
    "longitude": "-89.99788117588368",
    "latitude": "30.041506419714533",
    "geocoded_column": {
      "latitude": "30.041506419714533",
      "longitude": "-89.99788117588368"
    }
  },
  {
    "service_request": "2026-1275471",
    "request_type": "Drainage",
    "request_reason": "Catch Basin Not Draining",
    "date_created": "2026-04-21T16:03:59.000",
    "date_modified": "2026-04-21T16:04:01.000",
    "request_status": "Pending",
    "responsible_agency": "Sewerage & Water Board",
    "final_address": "3201 Gentilly Blvd",
    "address_councildis": "D",
    "status": "Pending",
    "rowid": "1275471",
    "final_x": "3684247.07145",
    "final_y": "547837.04661",
    "longitude": "-90.05882298250869",
    "latitude": "30.000278152616673",
    "geocoded_column": {
      "latitude": "30.000278152616673",
      "longitude": "-90.05882298250869"
    }
  },
  {
    "service_request": "2026-1275470",
    "request_type": "Trash/Recycling",
    "request_reason": "Request a Large Item Pick Up",
    "date_created": "2026-04-21T16:03:40.000",
    "date_modified": "2026-04-21T16:03:42.000",
    "request_status": "Pending",
    "responsible_agency": "Department of Sanitation",
    "final_address": "4724 Crowder Blvd",
    "address_councildis": "E",
    "status": "Assigned to Contractor",
    "contractor": "Waste Pro",
    "rowid": "1275470",
    "final_x": "3706335.09406",
    "final_y": "555549.775961",
    "longitude": "-89.98876033236083",
    "latitude": "30.02079117251032",
    "geocoded_column": {
      "latitude": "30.02079117251032",
      "longitude": "-89.98876033236083"
    }
  },
  {
    "service_request": "2026-1275469",
    "request_type": "Trash/Recycling",
    "request_reason": "Repair Trash Cart",
    "date_created": "2026-04-21T16:00:42.000",
    "date_modified": "2026-04-21T16:00:43.000",
    "request_status": "Pending",
    "responsible_agency": "Department of Sanitation",
    "final_address": "7320 W Renaissance Ct",
    "address_councildis": "E",
    "status": "Assigned to Contractor",
    "contractor": "Waste Pro",
    "rowid": "1275469",
    "final_x": "3716213.33522",
    "final_y": "568032.864677",
    "longitude": "-89.95707460577216",
    "latitude": "30.054792203394708",
    "geocoded_column": {
      "latitude": "30.054792203394708",
      "longitude": "-89.95707460577216"
    }
  },
  {
    "service_request": "2026-1275468",
    "request_type": "Trash/Recycling",
    "request_reason": "Request a Large Item Pick Up",
    "date_created": "2026-04-21T16:00:34.000",
    "date_modified": "2026-04-21T16:00:35.000",
    "request_status": "Pending",
    "responsible_agency": "Department of Sanitation",
    "final_address": "1820 Louisiana Ave",
    "address_councildis": "B",
    "status": "Assigned to Contractor",
    "contractor": "IV Waste",
    "rowid": "1275468",
    "final_x": "3673776.77985",
    "final_y": "522354.556986",
    "longitude": "-90.09277084670386",
    "latitude": "29.930525956695174",
    "geocoded_column": {
      "latitude": "29.930525956695174",
      "longitude": "-90.09277084670386"
    }
  },
  {
    "service_request": "2026-1275467",
    "request_type": "Trash/Recycling",
    "request_reason": "Return Recycling Cart",
    "date_created": "2026-04-21T15:58:23.000",
    "date_modified": "2026-04-21T15:58:24.000",
    "request_status": "Pending",
    "responsible_agency": "Department of Sanitation",
    "final_address": "4613 St Charles Ave",
    "address_councildis": "B",
    "status": "Pending",
    "rowid": "1275467",
    "final_x": "3669957.80436",
    "final_y": "520844.396345",
    "longitude": "-90.10487792380442",
    "latitude": "29.926486635159563",
    "geocoded_column": {
      "latitude": "29.926486635159563",
      "longitude": "-90.10487792380442"
    }
  },
  {
    "service_request": "2026-1275466",
    "request_type": "Trash/Recycling",
    "request_reason": "Order Trash Cart",
    "date_created": "2026-04-21T15:57:45.000",
    "date_modified": "2026-04-21T15:57:47.000",
    "request_status": "Pending",
    "responsible_agency": "Department of Sanitation",
    "final_address": "300 N Broad St",
    "address_councildis": "B",
    "status": "Assigned to Contractor",
    "contractor": "IV Waste",
    "rowid": "1275466",
    "final_x": "3676178.53237",
    "final_y": "535718.605831",
    "longitude": "-90.08472914828391",
    "latitude": "29.96720093376451",
    "geocoded_column": {
      "latitude": "29.96720093376451",
      "longitude": "-90.08472914828391"
    }
  },
  {
    "service_request": "2026-1275465",
    "request_type": "Trash/Recycling",
    "request_reason": "Repair Trash Cart",
    "date_created": "2026-04-21T15:56:18.000",
    "date_modified": "2026-04-21T15:57:26.000",
    "request_status": "Pending",
    "responsible_agency": "Department of Sanitation",
    "final_address": "6070 Brighton Pl",
    "address_councildis": "C",
    "status": "Assigned to Contractor",
    "contractor": "Richards Disposal",
    "rowid": "1275465",
    "final_x": "3706539.49694",
    "final_y": "520137.174136",
    "longitude": "-89.98942683064678",
    "latitude": "29.923412935197465",
    "geocoded_column": {
      "latitude": "29.923412935197465",
      "longitude": "-89.98942683064678"
    }
  },
  {
    "service_request": "2026-1275464",
    "request_type": "Trash/Recycling",
    "request_reason": "Request a Large Item Pick Up",
    "date_created": "2026-04-21T15:54:56.000",
    "date_modified": "2026-04-21T15:58:28.000",
    "request_status": "Pending",
    "responsible_agency": "Department of Sanitation",
    "final_address": "13701 N Cavelier Dr",
    "address_councildis": "E",
    "status": "Assigned to Contractor",
    "contractor": "Waste Pro",
    "rowid": "1275464",
    "final_x": "3723884.90515",
    "final_y": "570161.333031",
    "longitude": "-89.9327445371507",
    "latitude": "30.060389009654752",
    "geocoded_column": {
      "latitude": "30.060389009654752",
      "longitude": "-89.9327445371507"
    }
  },
  {
    "service_request": "2026-1275463",
    "request_type": "Trash/Recycling",
    "request_reason": "Request a Large Item Pick Up",
    "date_created": "2026-04-21T15:54:12.000",
    "date_modified": "2026-04-21T15:54:14.000",
    "request_status": "Pending",
    "responsible_agency": "Department of Sanitation",
    "final_address": "13200 Maple Wood Dr",
    "address_councildis": "E",
    "status": "Assigned to Contractor",
    "contractor": "Waste Pro",
    "rowid": "1275463",
    "final_x": "3724421.32876",
    "final_y": "563704.204001",
    "longitude": "-89.93129868867888",
    "latitude": "30.042616562169073",
    "geocoded_column": {
      "latitude": "30.042616562169073",
      "longitude": "-89.93129868867888"
    }
  },
  {
    "service_request": "2026-1275462",
    "request_type": "Trash/Recycling",
    "request_reason": "Request a Large Item Pick Up",
    "date_created": "2026-04-21T15:52:49.000",
    "date_modified": "2026-04-21T15:52:51.000",
    "request_status": "Pending",
    "responsible_agency": "Department of Sanitation",
    "final_address": "5635 Brighton Pl",
    "address_councildis": "C",
    "status": "Assigned to Contractor",
    "contractor": "Richards Disposal",
    "rowid": "1275462",
    "final_x": "3704456.59505",
    "final_y": "520314.870264",
    "longitude": "-89.99599517261221",
    "latitude": "29.92396854641596",
    "geocoded_column": {
      "latitude": "29.92396854641596",
      "longitude": "-89.99599517261221"
    }
  },
  {
    "service_request": "2026-1275461",
    "request_type": "Trash/Recycling",
    "request_reason": "Order Recycling Cart",
    "date_created": "2026-04-21T15:52:28.000",
    "date_modified": "2026-04-21T15:52:30.000",
    "request_status": "Pending",
    "responsible_agency": "Department of Sanitation",
    "final_address": "5456 Bellaire Dr",
    "address_councildis": "A",
    "status": "Pending",
    "rowid": "1275461",
    "final_x": "3663963.74682",
    "final_y": "543940.44187",
    "longitude": "-90.1230294870797",
    "latitude": "29.990168570904473",
    "geocoded_column": {
      "latitude": "29.990168570904473",
      "longitude": "-90.1230294870797"
    }
  },
  {
    "service_request": "2026-1275460",
    "request_type": "Tree Service",
    "request_reason": "Tree Trim",
    "date_created": "2026-04-21T15:52:25.000",
    "date_modified": "2026-04-21T15:52:26.000",
    "request_status": "Pending",
    "responsible_agency": "Department of Parks & Parkways",
    "final_address": "1525 Arabella St",
    "address_councildis": "A",
    "status": "Pending",
    "rowid": "1275460",
    "final_x": "3666504.37229",
    "final_y": "521780.748794",
    "longitude": "-90.11574808217632",
    "latitude": "29.92916266099508",
    "geocoded_column": {
      "latitude": "29.92916266099508",
      "longitude": "-90.11574808217632"
    }
  },
  {
    "service_request": "2026-1275459",
    "request_type": "Trash/Recycling",
    "request_reason": "Repair Trash Cart",
    "date_created": "2026-04-21T15:50:52.000",
    "date_modified": "2026-04-21T15:50:55.000",
    "request_status": "Pending",
    "responsible_agency": "Department of Sanitation",
    "final_address": "2612 Soniat St Apt 2A",
    "address_councildis": "B",
    "status": "Assigned to Contractor",
    "contractor": "IV Waste",
    "rowid": "1275459",
    "final_x": "3668481.21159",
    "final_y": "525033.985789",
    "longitude": "-90.10939786433893",
    "latitude": "29.938050112990677",
    "geocoded_column": {
      "latitude": "29.938050112990677",
      "longitude": "-90.10939786433893"
    }
  },
  {
    "service_request": "2026-1275458",
    "request_type": "Trash/Recycling",
    "request_reason": "Repair Trash Cart",
    "date_created": "2026-04-21T15:50:43.000",
    "date_modified": "2026-04-21T15:50:45.000",
    "request_status": "Pending",
    "responsible_agency": "Department of Sanitation",
    "final_address": "2612 Soniat St Apt 1B",
    "address_councildis": "B",
    "status": "Assigned to Contractor",
    "contractor": "IV Waste",
    "rowid": "1275458",
    "final_x": "3668495.40807",
    "final_y": "525033.197053",
    "longitude": "-90.10935307125825",
    "latitude": "29.93804752725136",
    "geocoded_column": {
      "latitude": "29.93804752725136",
      "longitude": "-90.10935307125825"
    }
  },
  {
    "service_request": "2026-1275457",
    "request_type": "Trash/Recycling",
    "request_reason": "Repair Trash Cart",
    "date_created": "2026-04-21T15:50:32.000",
    "date_modified": "2026-04-21T15:50:35.000",
    "request_status": "Pending",
    "responsible_agency": "Department of Sanitation",
    "final_address": "2612 Soniat St Apt 1A",
    "address_councildis": "B",
    "status": "Assigned to Contractor",
    "contractor": "IV Waste",
    "rowid": "1275457",
    "final_x": "3668500.27175",
    "final_y": "525033.197053",
    "longitude": "-90.10933771614384",
    "latitude": "29.938047384395205",
    "geocoded_column": {
      "latitude": "29.938047384395205",
      "longitude": "-90.10933771614384"
    }
  },
  {
    "service_request": "2026-1275456",
    "request_type": "General Services",
    "request_reason": "General Service Request",
    "date_created": "2026-04-21T15:44:23.000",
    "date_modified": "2026-04-21T15:44:25.000",
    "request_status": "Pending",
    "responsible_agency": "Orleans Parish Communication District",
    "final_address": "3421 Dickens Dr",
    "address_councildis": "C",
    "status": "Pending",
    "rowid": "1275456",
    "final_x": "3708224.0908",
    "final_y": "518191.45503",
    "longitude": "-89.98418156438979",
    "latitude": "29.91800845234407",
    "geocoded_column": {
      "latitude": "29.91800845234407",
      "longitude": "-89.98418156438979"
    }
  },
  {
    "service_request": "2026-1275455",
    "request_type": "Trash/Recycling",
    "request_reason": "Repair Trash Cart",
    "date_created": "2026-04-21T15:42:08.000",
    "date_modified": "2026-04-21T15:42:09.000",
    "request_status": "Pending",
    "responsible_agency": "Department of Sanitation",
    "final_address": "323 S Cortez St",
    "address_councildis": "A",
    "status": "Assigned to Contractor",
    "contractor": "IV Waste",
    "rowid": "1275455",
    "final_x": "3671412.44654",
    "final_y": "536826.716744",
    "longitude": "-90.09974285742835",
    "latitude": "29.97038981014391",
    "geocoded_column": {
      "latitude": "29.97038981014391",
      "longitude": "-90.09974285742835"
    }
  },
  {
    "service_request": "2026-1275454",
    "request_type": "Trash/Recycling",
    "request_reason": "Order Recycling Cart",
    "date_created": "2026-04-21T15:41:31.000",
    "date_modified": "2026-04-21T15:41:32.000",
    "request_status": "Pending",
    "responsible_agency": "Department of Sanitation",
    "final_address": "2520 Conti St",
    "address_councildis": "B",
    "status": "Pending",
    "rowid": "1275454",
    "final_x": "3676673.53633",
    "final_y": "535518.03015",
    "longitude": "-90.08317283036175",
    "latitude": "29.96663457784674",
    "geocoded_column": {
      "latitude": "29.96663457784674",
      "longitude": "-90.08317283036175"
    }
  },
  {
    "service_request": "2026-1275453",
    "request_type": "Trash/Recycling",
    "request_reason": "Order Trash Cart",
    "date_created": "2026-04-21T15:40:03.000",
    "date_modified": "2026-04-21T15:54:34.000",
    "request_status": "Pending",
    "responsible_agency": "Department of Sanitation",
    "final_address": "2520 Conti St",
    "address_councildis": "B",
    "status": "Assigned to Contractor",
    "contractor": "IV Waste",
    "rowid": "1275453",
    "final_x": "3676673.53633",
    "final_y": "535518.03015",
    "longitude": "-90.08317283036175",
    "latitude": "29.96663457784674",
    "geocoded_column": {
      "latitude": "29.96663457784674",
      "longitude": "-90.08317283036175"
    }
  },
  {
    "service_request": "2026-1275452",
    "request_type": "Abandoned Vehicles",
    "request_reason": "Abandoned/Junk Vehicles",
    "date_created": "2026-04-21T15:32:39.000",
    "date_modified": "2026-04-21T15:32:48.000",
    "request_status": "Pending",
    "responsible_agency": "Department of Public Works",
    "final_address": "8015 Cohn St",
    "address_councildis": "A",
    "status": "Pending",
    "rowid": "1275452",
    "final_x": "3663920.34247",
    "final_y": "529973.465601",
    "longitude": "-90.12363235952456",
    "latitude": "29.951765266580164",
    "geocoded_column": {
      "latitude": "29.951765266580164",
      "longitude": "-90.12363235952456"
    }
  },
  {
    "service_request": "2026-1275451",
    "request_type": "Abandoned Vehicles",
    "request_reason": "Abandoned/Junk Vehicles",
    "date_created": "2026-04-21T15:30:26.000",
    "date_modified": "2026-04-21T15:30:31.000",
    "request_status": "Pending",
    "responsible_agency": "Department of Public Works",
    "final_address": "1234 N Dorgenois St",
    "address_councildis": "C",
    "status": "Pending",
    "rowid": "1275451",
    "final_x": "3678464.2029",
    "final_y": "538288.262473",
    "longitude": "-90.07742203021935",
    "latitude": "29.974197926942203",
    "geocoded_column": {
      "latitude": "29.974197926942203",
      "longitude": "-90.07742203021935"
    }
  },
  {
    "service_request": "2026-1275450",
    "request_type": "Trash/Recycling",
    "request_reason": "Request a Large Item Pick Up",
    "date_created": "2026-04-21T15:26:36.000",
    "date_modified": "2026-04-21T15:26:38.000",
    "request_status": "Pending",
    "responsible_agency": "Department of Sanitation",
    "final_address": "1221 Aline St",
    "address_councildis": "B",
    "status": "Assigned to Contractor",
    "contractor": "IV Waste",
    "rowid": "1275450",
    "final_x": "3674327.89428",
    "final_y": "519917.485048",
    "longitude": "-90.09111446437606",
    "latitude": "29.92380837704597",
    "geocoded_column": {
      "latitude": "29.92380837704597",
      "longitude": "-90.09111446437606"
    }
  },
  {
    "service_request": "2026-1275449",
    "request_type": "Property Maintenance",
    "request_reason": "Property Maintenance",
    "date_created": "2026-04-21T15:25:02.000",
    "date_modified": "2026-04-21T15:31:22.000",
    "case_close_date": "2026-04-21T10:31:21.000",
    "request_status": "Closed",
    "responsible_agency": "Department of Code Enforcement",
    "final_address": "6765 Canal Blvd",
    "address_councildis": "A",
    "status": "Referred to Code Enforcement",
    "rowid": "1275449",
    "final_x": "3669121.79207",
    "final_y": "552509.71439",
    "longitude": "-90.10644670146792",
    "latitude": "30.01358027642665",
    "geocoded_column": {
      "latitude": "30.01358027642665",
      "longitude": "-90.10644670146792"
    }
  },
  {
    "service_request": "2026-1275448",
    "request_type": "Trash/Recycling",
    "request_reason": "Order Trash Cart",
    "date_created": "2026-04-21T15:24:27.000",
    "date_modified": "2026-04-21T15:24:28.000",
    "request_status": "Pending",
    "responsible_agency": "Department of Sanitation",
    "final_address": "7660 Jonlee Dr",
    "address_councildis": "E",
    "status": "Assigned to Contractor",
    "contractor": "Waste Pro",
    "rowid": "1275448",
    "final_x": "3716867.1157",
    "final_y": "570702.309223",
    "longitude": "-89.95490666925221",
    "latitude": "30.062110463332846",
    "geocoded_column": {
      "latitude": "30.062110463332846",
      "longitude": "-89.95490666925221"
    }
  },
  {
    "service_request": "2026-1275447",
    "request_type": "Trash/Recycling",
    "request_reason": "Request a Large Item Pick Up",
    "date_created": "2026-04-21T15:23:45.000",
    "date_modified": "2026-04-21T15:23:47.000",
    "request_status": "Pending",
    "responsible_agency": "Department of Sanitation",
    "final_address": "5135 Timber Crest Dr",
    "address_councildis": "C",
    "status": "Assigned to Contractor",
    "contractor": "Richards Disposal",
    "rowid": "1275447",
    "final_x": "3703195.92337",
    "final_y": "511151.977648",
    "longitude": "-90.00031112147039",
    "latitude": "29.89881411960551",
    "geocoded_column": {
      "latitude": "29.89881411960551",
      "longitude": "-90.00031112147039"
    }
  },
  {
    "service_request": "2026-1275446",
    "request_type": "Trash/Recycling",
    "request_reason": "Request a Large Item Pick Up",
    "date_created": "2026-04-21T15:22:25.000",
    "date_modified": "2026-04-21T15:22:27.000",
    "request_status": "Pending",
    "responsible_agency": "Department of Sanitation",
    "final_address": "4834 Chrysler St",
    "address_councildis": "E",
    "status": "Assigned to Contractor",
    "contractor": "Waste Pro",
    "rowid": "1275446",
    "final_x": "3715183.51832",
    "final_y": "557247.380443",
    "longitude": "-89.96073796618718",
    "latitude": "30.025170448065666",
    "geocoded_column": {
      "latitude": "30.025170448065666",
      "longitude": "-89.96073796618718"
    }
  },
  {
    "service_request": "2026-1275445",
    "request_type": "Property Maintenance",
    "request_reason": "Property Maintenance",
    "date_created": "2026-04-21T15:21:50.000",
    "date_modified": "2026-04-21T15:21:53.000",
    "request_status": "Pending",
    "responsible_agency": "Department of Code Enforcement",
    "final_address": "6759 Canal Blvd",
    "address_councildis": "A",
    "status": "Pending",
    "rowid": "1275445",
    "final_x": "3669117.91822",
    "final_y": "552464.54063",
    "longitude": "-90.10646046904266",
    "latitude": "30.013456178561853",
    "geocoded_column": {
      "latitude": "30.013456178561853",
      "longitude": "-90.10646046904266"
    }
  },
  {
    "service_request": "2026-1275444",
    "request_type": "RTCC Camera Issue",
    "request_reason": "Unsure if Camera is Operational",
    "date_created": "2026-04-21T15:17:11.000",
    "date_modified": "2026-04-21T15:17:13.000",
    "request_status": "Pending",
    "responsible_agency": "Real Time Crime Center",
    "final_address": "COLAPISSA ST & AUDUBON ST",
    "address_councildis": "B",
    "rowid": "1275444",
    "final_x": "3668129.9",
    "final_y": "531950.98",
    "longitude": "-90.11027389725902",
    "latitude": "29.957079912085117",
    "geocoded_column": {
      "latitude": "29.957079912085117",
      "longitude": "-90.11027389725902"
    }
  },
  {
    "service_request": "2026-1275443",
    "request_type": "Property Maintenance",
    "request_reason": "Property Maintenance",
    "date_created": "2026-04-21T15:15:52.000",
    "date_modified": "2026-04-21T15:15:54.000",
    "request_status": "Pending",
    "responsible_agency": "Department of Code Enforcement",
    "final_address": "1219 N Villere St",
    "address_councildis": "C",
    "status": "Pending",
    "rowid": "1275443",
    "final_x": "3681541.12034",
    "final_y": "535869.034951",
    "longitude": "-90.06778880527546",
    "latitude": "29.967452795461046",
    "geocoded_column": {
      "latitude": "29.967452795461046",
      "longitude": "-90.06778880527546"
    }
  },
  {
    "service_request": "2026-1275442",
    "request_type": "Trash/Recycling",
    "request_reason": "Order Second Trash Cart",
    "date_created": "2026-04-21T15:11:58.000",
    "date_modified": "2026-04-21T15:12:00.000",
    "request_status": "Pending",
    "responsible_agency": "Department of Sanitation",
    "final_address": "1520 Delery St",
    "address_councildis": "E",
    "status": "Assigned to Contractor",
    "contractor": "Waste Pro",
    "rowid": "1275442",
    "final_x": "3701015.50756",
    "final_y": "534484.396421",
    "longitude": "-90.00633938827382",
    "latitude": "29.963039748004427",
    "geocoded_column": {
      "latitude": "29.963039748004427",
      "longitude": "-90.00633938827382"
    }
  },
  {
    "service_request": "2026-1275441",
    "request_type": "Street and Traffic Signs",
    "request_reason": "Additional Signage Request",
    "date_created": "2026-04-21T15:09:53.000",
    "date_modified": "2026-04-21T15:09:54.000",
    "request_status": "Pending",
    "responsible_agency": "Department of Public Works",
    "final_address": "2000 BLK Broadway St",
    "address_councildis": "A",
    "status": "Pending",
    "rowid": "1275441",
    "final_x": "3665860.32868",
    "final_y": "528986.144571",
    "longitude": "-90.11753986442884",
    "latitude": "29.948993995213137",
    "geocoded_column": {
      "latitude": "29.948993995213137",
      "longitude": "-90.11753986442884"
    }
  },
  {
    "service_request": "2026-1275440",
    "request_type": "Street and Traffic Signs",
    "request_reason": "Street Name Sign Damaged or Missing",
    "date_created": "2026-04-21T15:07:00.000",
    "date_modified": "2026-04-21T15:07:03.000",
    "request_status": "Pending",
    "responsible_agency": "Department of Public Works",
    "final_address": "LOUISA DR & GAINES ST",
    "address_councildis": "D",
    "status": "Pending",
    "rowid": "1275440",
    "final_x": "3690847.4",
    "final_y": "551243.68",
    "longitude": "-90.03785056796403",
    "latitude": "30.00944162829333",
    "geocoded_column": {
      "latitude": "30.00944162829333",
      "longitude": "-90.03785056796403"
    }
  },
  {
    "service_request": "2026-1275439",
    "request_type": "Abandoned Vehicles",
    "request_reason": "Abandoned/Junk Vehicles",
    "date_created": "2026-04-21T14:57:59.000",
    "date_modified": "2026-04-21T14:58:01.000",
    "request_status": "Pending",
    "responsible_agency": "Department of Public Works",
    "final_address": "1805 Benton St",
    "address_councildis": "E",
    "status": "Pending",
    "rowid": "1275439",
    "final_x": "3699886.49751",
    "final_y": "536116.833415",
    "longitude": "-90.0098450995889",
    "latitude": "29.967564267800686",
    "geocoded_column": {
      "latitude": "29.967564267800686",
      "longitude": "-90.0098450995889"
    }
  },
  {
    "service_request": "2026-1275438",
    "request_type": "Trash/Recycling",
    "request_reason": "Request a Large Item Pick Up",
    "date_created": "2026-04-21T14:57:07.000",
    "date_modified": "2026-04-21T14:57:09.000",
    "request_status": "Pending",
    "responsible_agency": "Department of Sanitation",
    "final_address": "3541 Bacchus Dr",
    "address_councildis": "C",
    "status": "Assigned to Contractor",
    "contractor": "Richards Disposal",
    "rowid": "1275438",
    "final_x": "3710056.29393",
    "final_y": "517580.288694",
    "longitude": "-89.97842116612955",
    "latitude": "29.916268512970927",
    "geocoded_column": {
      "latitude": "29.916268512970927",
      "longitude": "-89.97842116612955"
    }
  },
  {
    "service_request": "2026-1275437",
    "request_type": "Abandoned Vehicles",
    "request_reason": "Abandoned/Junk Vehicles",
    "date_created": "2026-04-21T14:56:42.000",
    "date_modified": "2026-04-21T14:56:44.000",
    "request_status": "Pending",
    "responsible_agency": "Department of Public Works",
    "final_address": "2831 St Claude Ave",
    "address_councildis": "C",
    "status": "Pending",
    "rowid": "1275437",
    "final_x": "3688006.00092",
    "final_y": "536358.873159",
    "longitude": "-90.04735528804302",
    "latitude": "29.96860176320759",
    "geocoded_column": {
      "latitude": "29.96860176320759",
      "longitude": "-90.04735528804302"
    }
  },
  {
    "service_request": "2026-1275436",
    "request_type": "Street and Traffic Signs",
    "request_reason": "Street Name Sign Damaged or Missing",
    "date_created": "2026-04-21T14:54:35.000",
    "date_modified": "2026-04-21T14:54:37.000",
    "request_status": "Pending",
    "responsible_agency": "Department of Public Works",
    "final_address": "DREUX AVE & METROPOLITAN DR",
    "address_councildis": "D",
    "status": "Pending",
    "rowid": "1275436",
    "final_x": "3690270.0",
    "final_y": "552884.28",
    "longitude": "-90.03961624772514",
    "latitude": "30.01397060944873",
    "geocoded_column": {
      "latitude": "30.01397060944873",
      "longitude": "-90.03961624772514"
    }
  },
  {
    "service_request": "2026-1275435",
    "request_type": "Street and Traffic Signs",
    "request_reason": "Street Name Sign Damaged or Missing",
    "date_created": "2026-04-21T14:54:18.000",
    "date_modified": "2026-04-21T14:54:20.000",
    "request_status": "Pending",
    "responsible_agency": "Department of Public Works",
    "final_address": "DREUX AVE & FELICIANA DR",
    "address_councildis": "D",
    "status": "Pending",
    "rowid": "1275435",
    "final_x": "3689959.4",
    "final_y": "552801.18",
    "longitude": "-90.04060054457159",
    "latitude": "30.013751754090737",
    "geocoded_column": {
      "latitude": "30.013751754090737",
      "longitude": "-90.04060054457159"
    }
  },
  {
    "service_request": "2026-1275434",
    "request_type": "Street and Traffic Signs",
    "request_reason": "Street Name Sign Damaged or Missing",
    "date_created": "2026-04-21T14:53:49.000",
    "date_modified": "2026-04-21T14:53:50.000",
    "request_status": "Pending",
    "responsible_agency": "Department of Public Works",
    "final_address": "CUNNINGHAM CT & PINEDA ST",
    "address_councildis": "D",
    "status": "Pending",
    "rowid": "1275434",
    "final_x": "3690937.1",
    "final_y": "552556.18",
    "longitude": "-90.03752028180241",
    "latitude": "30.013047729156884",
    "geocoded_column": {
      "latitude": "30.013047729156884",
      "longitude": "-90.03752028180241"
    }
  },
  {
    "service_request": "2026-1275433",
    "request_type": "Street and Traffic Signs",
    "request_reason": "Street Name Sign Damaged or Missing",
    "date_created": "2026-04-21T14:53:35.000",
    "date_modified": "2026-04-21T14:53:37.000",
    "request_status": "Pending",
    "responsible_agency": "Department of Public Works",
    "final_address": "DESIRE DR & MIRABEAU AVE",
    "address_councildis": "D",
    "status": "Pending",
    "rowid": "1275433",
    "final_x": "3691718.0",
    "final_y": "551882.58",
    "longitude": "-90.03507718042333",
    "latitude": "30.01117127355997",
    "geocoded_column": {
      "latitude": "30.01117127355997",
      "longitude": "-90.03507718042333"
    }
  },
  {
    "service_request": "2026-1275432",
    "request_type": "Trash/Recycling",
    "request_reason": "Return Recycling Cart",
    "date_created": "2026-04-21T14:51:46.000",
    "date_modified": "2026-04-21T14:51:47.000",
    "request_status": "Pending",
    "responsible_agency": "Department of Sanitation",
    "final_address": "1733 Audubon St",
    "address_councildis": "A",
    "status": "Pending",
    "rowid": "1275432",
    "final_x": "3665599.76583",
    "final_y": "528036.728319",
    "longitude": "-90.11839436278602",
    "latitude": "29.946391006696786",
    "geocoded_column": {
      "latitude": "29.946391006696786",
      "longitude": "-90.11839436278602"
    }
  },
  {
    "service_request": "2026-1275431",
    "request_type": "Trash/Recycling",
    "request_reason": "Order Second Trash Cart",
    "date_created": "2026-04-21T14:50:35.000",
    "date_modified": "2026-04-21T14:50:37.000",
    "request_status": "Pending",
    "responsible_agency": "Department of Sanitation",
    "final_address": "3225 Joliet St",
    "address_councildis": "A",
    "status": "Assigned to Contractor",
    "contractor": "IV Waste",
    "rowid": "1275431",
    "final_x": "3665870.62279",
    "final_y": "534728.91911",
    "longitude": "-90.11731493139051",
    "latitude": "29.964784448110745",
    "geocoded_column": {
      "latitude": "29.964784448110745",
      "longitude": "-90.11731493139051"
    }
  },
  {
    "service_request": "2026-1275429",
    "request_type": "Trash/Recycling",
    "request_reason": "Missed Trash Pick-Up",
    "date_created": "2026-04-21T14:48:36.000",
    "date_modified": "2026-04-21T14:48:37.000",
    "request_status": "Pending",
    "responsible_agency": "Department of Sanitation",
    "final_address": "1245 Southlawn Blvd",
    "address_councildis": "C",
    "status": "Assigned to Contractor",
    "contractor": "Richards Disposal",
    "rowid": "1275429",
    "final_x": "3695125.35389",
    "final_y": "526895.82739",
    "longitude": "-90.02521326385985",
    "latitude": "29.942360086072352",
    "geocoded_column": {
      "latitude": "29.942360086072352",
      "longitude": "-90.02521326385985"
    }
  },
  {
    "service_request": "2026-1275430",
    "request_type": "Trash/Recycling",
    "request_reason": "Request a Large Item Pick Up",
    "date_created": "2026-04-21T14:48:36.000",
    "date_modified": "2026-04-21T14:48:38.000",
    "request_status": "Pending",
    "responsible_agency": "Department of Sanitation",
    "final_address": "1245 Southlawn Blvd",
    "address_councildis": "C",
    "status": "Assigned to Contractor",
    "contractor": "Richards Disposal",
    "rowid": "1275430",
    "final_x": "3695125.35389",
    "final_y": "526895.82739",
    "longitude": "-90.02521326385985",
    "latitude": "29.942360086072352",
    "geocoded_column": {
      "latitude": "29.942360086072352",
      "longitude": "-90.02521326385985"
    }
  },
  {
    "service_request": "2026-1275428",
    "request_type": "General Services",
    "request_reason": "General Service Request",
    "date_created": "2026-04-21T14:47:45.000",
    "date_modified": "2026-04-21T14:47:47.000",
    "request_status": "Pending",
    "responsible_agency": "Orleans Parish Communication District",
    "final_address": "Broad St, New Orleans, Louisiana, 70119",
    "address_councildis": "B",
    "status": "Pending",
    "rowid": "1275428",
    "final_x": "3675144.97185",
    "final_y": "534988.198854",
    "longitude": "-90.08801821587423",
    "latitude": "29.965223489114983",
    "geocoded_column": {
      "latitude": "29.965223489114983",
      "longitude": "-90.08801821587423"
    }
  },
  {
    "service_request": "2026-1275427",
    "request_type": "Streetlights",
    "request_reason": "Streetlight Outage/Malfunction",
    "date_created": "2026-04-21T14:47:13.000",
    "date_modified": "2026-04-21T14:47:15.000",
    "request_status": "Pending",
    "responsible_agency": "Department of Public Works",
    "final_address": "2666 Clover St",
    "address_councildis": "D",
    "status": "Pending",
    "rowid": "1275427",
    "final_x": "3687679.00163",
    "final_y": "546632.413201",
    "longitude": "-90.04802403275175",
    "latitude": "29.996860437406767",
    "geocoded_column": {
      "latitude": "29.996860437406767",
      "longitude": "-90.04802403275175"
    }
  },
  {
    "service_request": "2026-1275426",
    "request_type": "Trash/Recycling",
    "request_reason": "Order Second Trash Cart",
    "date_created": "2026-04-21T14:45:35.000",
    "date_modified": "2026-04-21T14:45:37.000",
    "request_status": "Pending",
    "responsible_agency": "Department of Sanitation",
    "final_address": "5701 Wickfield Dr",
    "address_councildis": "D",
    "status": "Assigned to Contractor",
    "contractor": "IV Waste",
    "rowid": "1275426",
    "final_x": "3681105.80783",
    "final_y": "553694.987223",
    "longitude": "-90.06854214254793",
    "latitude": "30.016481077823563",
    "geocoded_column": {
      "latitude": "30.016481077823563",
      "longitude": "-90.06854214254793"
    }
  },
  {
    "service_request": "2026-1275425",
    "request_type": "Streetlights",
    "request_reason": "Streetlight Outage/Malfunction",
    "date_created": "2026-04-21T14:44:58.000",
    "date_modified": "2026-04-21T14:44:59.000",
    "request_status": "Pending",
    "responsible_agency": "Department of Public Works",
    "final_address": "2666 Clover St",
    "address_councildis": "D",
    "status": "Pending",
    "rowid": "1275425",
    "final_x": "3687679.00163",
    "final_y": "546632.413201",
    "longitude": "-90.04802403275175",
    "latitude": "29.996860437406767",
    "geocoded_column": {
      "latitude": "29.996860437406767",
      "longitude": "-90.04802403275175"
    }
  },
  {
    "service_request": "2026-1275424",
    "request_type": "General Services",
    "request_reason": "General Service Request",
    "date_created": "2026-04-21T14:41:36.000",
    "date_modified": "2026-04-21T14:41:38.000",
    "request_status": "Pending",
    "responsible_agency": "Orleans Parish Communication District",
    "final_address": "1500 BLK Antonine St",
    "address_councildis": "B",
    "status": "Pending",
    "rowid": "1275424",
    "final_x": "3673294.16059",
    "final_y": "520875.624703",
    "longitude": "-90.09434488909022",
    "latitude": "29.92647372815397",
    "geocoded_column": {
      "latitude": "29.92647372815397",
      "longitude": "-90.09434488909022"
    }
  },
  {
    "service_request": "2026-1275423",
    "request_type": "Streetlights",
    "request_reason": "Streetlight Outage/Malfunction",
    "date_created": "2026-04-21T14:38:27.000",
    "date_modified": "2026-04-21T14:38:28.000",
    "request_status": "Pending",
    "responsible_agency": "Department of Public Works",
    "final_address": "2326 Audubon St",
    "address_councildis": "A",
    "status": "Pending",
    "rowid": "1275423",
    "final_x": "3666706.92884",
    "final_y": "529816.104641",
    "longitude": "-90.11483890311456",
    "latitude": "29.951251388760298",
    "geocoded_column": {
      "latitude": "29.951251388760298",
      "longitude": "-90.11483890311456"
    }
  },
  {
    "service_request": "2026-1275422",
    "request_type": "Roads and Streets",
    "request_reason": "Curb Damage",
    "date_created": "2026-04-21T14:36:44.000",
    "date_modified": "2026-04-21T14:36:45.000",
    "request_status": "Pending",
    "responsible_agency": "Department of Public Works",
    "final_address": "1500 BLK Antonine St",
    "address_councildis": "B",
    "status": "Pending",
    "rowid": "1275422",
    "final_x": "3673294.16059",
    "final_y": "520875.624703",
    "longitude": "-90.09434488909022",
    "latitude": "29.92647372815397",
    "geocoded_column": {
      "latitude": "29.92647372815397",
      "longitude": "-90.09434488909022"
    }
  },
  {
    "service_request": "2026-1275421",
    "request_type": "Trash/Recycling",
    "request_reason": "Request a Large Item Pick Up",
    "date_created": "2026-04-21T14:36:30.000",
    "date_modified": "2026-04-21T14:36:32.000",
    "request_status": "Pending",
    "responsible_agency": "Department of Sanitation",
    "final_address": "1504 Reynes St",
    "address_councildis": "E",
    "status": "Assigned to Contractor",
    "contractor": "Waste Pro",
    "rowid": "1275421",
    "final_x": "3696326.59696",
    "final_y": "535843.190151",
    "longitude": "-90.02109718031419",
    "latitude": "29.966924426830293",
    "geocoded_column": {
      "latitude": "29.966924426830293",
      "longitude": "-90.02109718031419"
    }
  },
  {
    "service_request": "2026-1275420",
    "request_type": "Trash/Recycling",
    "request_reason": "Illegal Dumping",
    "date_created": "2026-04-21T14:33:20.000",
    "date_modified": "2026-04-21T14:33:22.000",
    "request_status": "Pending",
    "responsible_agency": "Department of Sanitation",
    "final_address": "N GALVEZ ST & CAFFIN AVE",
    "address_councildis": "E",
    "status": "Pending",
    "rowid": "1275420",
    "final_x": "3699018.7",
    "final_y": "537508.98",
    "longitude": "-90.01253492911698",
    "latitude": "29.971419702692877",
    "geocoded_column": {
      "latitude": "29.971419702692877",
      "longitude": "-90.01253492911698"
    }
  },
  {
    "service_request": "2026-1275419",
    "request_type": "Trash/Recycling",
    "request_reason": "Request a Large Item Pick Up",
    "date_created": "2026-04-21T14:32:51.000",
    "date_modified": "2026-04-21T14:33:20.000",
    "request_status": "Pending",
    "responsible_agency": "Department of Sanitation",
    "final_address": "95 Versailles Blvd",
    "address_councildis": "B",
    "status": "Assigned to Contractor",
    "contractor": "IV Waste",
    "rowid": "1275419",
    "final_x": "3668122.58516",
    "final_y": "530981.349058",
    "longitude": "-90.11032967518172",
    "latitude": "29.954413959885347",
    "geocoded_column": {
      "latitude": "29.954413959885347",
      "longitude": "-90.11032967518172"
    }
  },
  {
    "service_request": "2026-1275418",
    "request_type": "Trash/Recycling",
    "request_reason": "Repair Trash Cart",
    "date_created": "2026-04-21T14:29:37.000",
    "date_modified": "2026-04-21T14:29:39.000",
    "request_status": "Pending",
    "responsible_agency": "Department of Sanitation",
    "final_address": "3133 Broadway St",
    "address_councildis": "B",
    "status": "Assigned to Contractor",
    "contractor": "IV Waste",
    "rowid": "1275418",
    "final_x": "3668102.6377",
    "final_y": "532343.616259",
    "longitude": "-90.1103467504491",
    "latitude": "29.95816033278087",
    "geocoded_column": {
      "latitude": "29.95816033278087",
      "longitude": "-90.1103467504491"
    }
  },
  {
    "service_request": "2026-1275417",
    "request_type": "Abandoned Vehicles",
    "request_reason": "Abandoned/Junk Vehicles",
    "date_created": "2026-04-21T14:29:35.000",
    "date_modified": "2026-04-21T14:31:08.000",
    "request_status": "Pending",
    "responsible_agency": "Department of Public Works",
    "final_address": "1506 Alvar St",
    "address_councildis": "D",
    "status": "Pending",
    "rowid": "1275417",
    "final_x": "3691838.20009",
    "final_y": "536956.376904",
    "longitude": "-90.03523166377539",
    "latitude": "29.970125871599834",
    "geocoded_column": {
      "latitude": "29.970125871599834",
      "longitude": "-90.03523166377539"
    }
  },
  {
    "service_request": "2026-1275416",
    "request_type": "Trash/Recycling",
    "request_reason": "Request a Large Item Pick Up",
    "date_created": "2026-04-21T14:28:46.000",
    "date_modified": "2026-04-21T14:28:48.000",
    "request_status": "Pending",
    "responsible_agency": "Department of Sanitation",
    "final_address": "4948 Chrysler St",
    "address_councildis": "E",
    "status": "Assigned to Contractor",
    "contractor": "Waste Pro",
    "rowid": "1275416",
    "final_x": "3715130.14245",
    "final_y": "557801.687899",
    "longitude": "-89.96088564470875",
    "latitude": "30.026696331180947",
    "geocoded_column": {
      "latitude": "30.026696331180947",
      "longitude": "-89.96088564470875"
    }
  },
  {
    "service_request": "2026-1275415",
    "request_type": "Streetlights",
    "request_reason": "Streetlight Outage/Malfunction",
    "date_created": "2026-04-21T14:27:59.000",
    "date_modified": "2026-04-21T14:28:00.000",
    "request_status": "Pending",
    "responsible_agency": "Department of Public Works",
    "final_address": "1600 BLK Lakeshore Dr",
    "address_councildis": "D",
    "status": "Pending",
    "rowid": "1275415",
    "final_x": "3677967.11614",
    "final_y": "557810.307067",
    "longitude": "-90.07831664910404",
    "latitude": "30.02789159945597",
    "geocoded_column": {
      "latitude": "30.02789159945597",
      "longitude": "-90.07831664910404"
    }
  },
  {
    "service_request": "2026-1275414",
    "request_type": "Trash/Recycling",
    "request_reason": "Request a Large Item Pick Up",
    "date_created": "2026-04-21T14:26:39.000",
    "date_modified": "2026-04-21T14:26:41.000",
    "request_status": "Pending",
    "responsible_agency": "Department of Sanitation",
    "final_address": "1100 Southlawn Blvd",
    "address_councildis": "C",
    "status": "Assigned to Contractor",
    "contractor": "Richards Disposal",
    "rowid": "1275414",
    "final_x": "3695287.84496",
    "final_y": "528156.379328",
    "longitude": "-90.02465479142056",
    "latitude": "29.94582106539168",
    "geocoded_column": {
      "latitude": "29.94582106539168",
      "longitude": "-90.02465479142056"
    }
  },
  {
    "service_request": "2026-1275413",
    "request_type": "Trash/Recycling",
    "request_reason": "Replace Trash Cart",
    "date_created": "2026-04-21T14:23:07.000",
    "date_modified": "2026-04-21T14:23:24.000",
    "request_status": "Pending",
    "responsible_agency": "Department of Sanitation",
    "final_address": "9037 Fig St",
    "address_councildis": "A",
    "status": "Assigned to Contractor",
    "contractor": "IV Waste",
    "rowid": "1275413",
    "final_x": "3663752.14483",
    "final_y": "535513.564038",
    "longitude": "-90.12397882320153",
    "latitude": "29.967003612417024",
    "geocoded_column": {
      "latitude": "29.967003612417024",
      "longitude": "-90.12397882320153"
    }
  },
  {
    "service_request": "2026-1275412",
    "request_type": "Trash/Recycling",
    "request_reason": "Request a Large Item Pick Up",
    "date_created": "2026-04-21T14:14:24.000",
    "date_modified": "2026-04-21T14:14:26.000",
    "request_status": "Pending",
    "responsible_agency": "Department of Sanitation",
    "final_address": "509 Pacific Ave",
    "address_councildis": "C",
    "status": "Assigned to Contractor",
    "contractor": "Richards Disposal",
    "rowid": "1275412",
    "final_x": "3688450.20854",
    "final_y": "529797.817153",
    "longitude": "-90.04618521415007",
    "latitude": "29.95054741731145",
    "geocoded_column": {
      "latitude": "29.95054741731145",
      "longitude": "-90.04618521415007"
    }
  },
  {
    "service_request": "2026-1275411",
    "request_type": "Trash/Recycling",
    "request_reason": "Replace Recycling Cart",
    "date_created": "2026-04-21T14:14:00.000",
    "date_modified": "2026-04-21T14:14:01.000",
    "request_status": "Pending",
    "responsible_agency": "Department of Sanitation",
    "final_address": "329 Bermuda St",
    "address_councildis": "C",
    "status": "Pending",
    "rowid": "1275411",
    "final_x": "3686390.7949",
    "final_y": "530575.530562",
    "longitude": "-90.05266031842326",
    "latitude": "29.952749313015012",
    "geocoded_column": {
      "latitude": "29.952749313015012",
      "longitude": "-90.05266031842326"
    }
  },
  {
    "service_request": "2026-1275410",
    "request_type": "Trash/Recycling",
    "request_reason": "Request a Large Item Pick Up",
    "date_created": "2026-04-21T14:13:57.000",
    "date_modified": "2026-04-21T14:13:59.000",
    "request_status": "Pending",
    "responsible_agency": "Department of Sanitation",
    "final_address": "1942 Fern St",
    "address_councildis": "A",
    "status": "Assigned to Contractor",
    "contractor": "IV Waste",
    "rowid": "1275410",
    "final_x": "3664368.94356",
    "final_y": "529931.368001",
    "longitude": "-90.12221729049782",
    "latitude": "29.951636481674498",
    "geocoded_column": {
      "latitude": "29.951636481674498",
      "longitude": "-90.12221729049782"
    }
  },
  {
    "service_request": "2026-1275409",
    "request_type": "Trash/Recycling",
    "request_reason": "Order Recycling Cart",
    "date_created": "2026-04-21T14:10:50.000",
    "date_modified": "2026-04-21T14:10:51.000",
    "request_status": "Pending",
    "responsible_agency": "Department of Sanitation",
    "final_address": "842 Olga St",
    "address_councildis": "A",
    "status": "Pending",
    "rowid": "1275409",
    "final_x": "3673361.42388",
    "final_y": "540080.608651",
    "longitude": "-90.0934765662578",
    "latitude": "29.979279068720746",
    "geocoded_column": {
      "latitude": "29.979279068720746",
      "longitude": "-90.0934765662578"
    }
  },
  {
    "service_request": "2026-1275408",
    "request_type": "Drainage",
    "request_reason": "Catch Basin Not Draining",
    "date_created": "2026-04-21T14:08:56.000",
    "date_modified": "2026-04-21T14:08:58.000",
    "request_status": "Pending",
    "responsible_agency": "Sewerage & Water Board",
    "final_address": "600 Frenchmen St",
    "address_councildis": "C",
    "status": "Pending",
    "rowid": "1275408",
    "final_x": "3684703.58383",
    "final_y": "534508.649285",
    "longitude": "-90.05784952637325",
    "latitude": "29.963615784985706",
    "geocoded_column": {
      "latitude": "29.963615784985706",
      "longitude": "-90.05784952637325"
    }
  },
  {
    "service_request": "2026-1275407",
    "request_type": "Trash/Recycling",
    "request_reason": "Request a Large Item Pick Up",
    "date_created": "2026-04-21T14:06:50.000",
    "date_modified": "2026-04-21T14:06:52.000",
    "request_status": "Pending",
    "responsible_agency": "Department of Sanitation",
    "final_address": "4767 Rosalia Dr",
    "address_councildis": "E",
    "status": "Assigned to Contractor",
    "contractor": "Waste Pro",
    "rowid": "1275407",
    "final_x": "3711244.81803",
    "final_y": "556012.692569",
    "longitude": "-89.97322983653517",
    "latitude": "30.021904684748193",
    "geocoded_column": {
      "latitude": "30.021904684748193",
      "longitude": "-89.97322983653517"
    }
  },
  {
    "service_request": "2026-1275406",
    "request_type": "Trash/Recycling",
    "request_reason": "Request a Large Item Pick Up",
    "date_created": "2026-04-21T14:05:29.000",
    "date_modified": "2026-04-21T14:05:30.000",
    "request_status": "Pending",
    "responsible_agency": "Department of Sanitation",
    "final_address": "4600 Lynhuber Dr",
    "address_councildis": "D",
    "status": "Assigned to Contractor",
    "contractor": "Waste Pro",
    "rowid": "1275406",
    "final_x": "3698032.61271",
    "final_y": "553537.338263",
    "longitude": "-90.01506674600824",
    "latitude": "30.01552299945265",
    "geocoded_column": {
      "latitude": "30.01552299945265",
      "longitude": "-90.01506674600824"
    }
  },
  {
    "service_request": "2026-1275405",
    "request_type": "Trash/Recycling",
    "request_reason": "Request a Large Item Pick Up",
    "date_created": "2026-04-21T14:05:01.000",
    "date_modified": "2026-04-21T14:34:54.000",
    "request_status": "Pending",
    "responsible_agency": "Department of Sanitation",
    "final_address": "2501 Gravier St",
    "address_councildis": "B",
    "status": "Assigned to Contractor",
    "contractor": "IV Waste",
    "rowid": "1275405",
    "final_x": "3674902.39278",
    "final_y": "532927.285124",
    "longitude": "-90.0888549540379",
    "latitude": "29.959563916310575",
    "geocoded_column": {
      "latitude": "29.959563916310575",
      "longitude": "-90.0888549540379"
    }
  },
  {
    "service_request": "2026-1275404",
    "request_type": "Street and Traffic Signs",
    "request_reason": "Street Name Sign Damaged or Missing",
    "date_created": "2026-04-21T14:02:31.000",
    "date_modified": "2026-04-21T14:02:33.000",
    "request_status": "Pending",
    "responsible_agency": "Department of Public Works",
    "final_address": "DREUX AVE & PIETY DR",
    "address_councildis": "D",
    "status": "Pending",
    "rowid": "1275404",
    "final_x": "3691121.1",
    "final_y": "553111.88",
    "longitude": "-90.03691907865851",
    "latitude": "30.014569975182088",
    "geocoded_column": {
      "latitude": "30.014569975182088",
      "longitude": "-90.03691907865851"
    }
  },
  {
    "service_request": "2026-1275403",
    "request_type": "Trash/Recycling",
    "request_reason": "Request a Large Item Pick Up",
    "date_created": "2026-04-21T14:01:07.000",
    "date_modified": "2026-04-21T14:01:41.000",
    "request_status": "Pending",
    "responsible_agency": "Department of Sanitation",
    "final_address": "4746 Good Dr",
    "address_councildis": "E",
    "status": "Assigned to Contractor",
    "contractor": "Waste Pro",
    "rowid": "1275403",
    "final_x": "3714708.22936",
    "final_y": "556898.54953",
    "longitude": "-89.9622529784388",
    "latitude": "30.02422694770449",
    "geocoded_column": {
      "latitude": "30.02422694770449",
      "longitude": "-89.9622529784388"
    }
  },
  {
    "service_request": "2026-1275402",
    "request_type": "Trash/Recycling",
    "request_reason": "Request a Large Item Pick Up",
    "date_created": "2026-04-21T14:00:11.000",
    "date_modified": "2026-04-21T14:00:13.000",
    "request_status": "Pending",
    "responsible_agency": "Department of Sanitation",
    "final_address": "2501 Gravier St",
    "address_councildis": "B",
    "status": "Assigned to Contractor",
    "contractor": "IV Waste",
    "rowid": "1275402",
    "final_x": "3674902.39278",
    "final_y": "532927.285124",
    "longitude": "-90.0888549540379",
    "latitude": "29.959563916310575",
    "geocoded_column": {
      "latitude": "29.959563916310575",
      "longitude": "-90.0888549540379"
    }
  },
  {
    "service_request": "2026-1275401",
    "request_type": "Drainage",
    "request_reason": "Catch Basin Frame and Cover Missing or Damaged",
    "date_created": "2026-04-21T13:59:42.000",
    "date_modified": "2026-04-21T15:32:11.000",
    "request_status": "Pending",
    "responsible_agency": "Sewerage & Water Board",
    "final_address": "N ROCHEBLAVE ST & BARTHOLOMEW ST",
    "address_councildis": "D",
    "status": "Pending",
    "rowid": "1275401",
    "final_x": "3693021.7",
    "final_y": "540202.78",
    "longitude": "-90.03137757214527",
    "latitude": "29.97901540386858",
    "geocoded_column": {
      "latitude": "29.97901540386858",
      "longitude": "-90.03137757214527"
    }
  },
  {
    "service_request": "2026-1275400",
    "request_type": "Trash/Recycling",
    "request_reason": "Repair Trash Cart",
    "date_created": "2026-04-21T13:57:43.000",
    "date_modified": "2026-04-21T13:58:47.000",
    "request_status": "Pending",
    "responsible_agency": "Department of Sanitation",
    "final_address": "3540 Touro St",
    "address_councildis": "D",
    "status": "Assigned to Contractor",
    "contractor": "IV Waste",
    "rowid": "1275400",
    "final_x": "3683422.80597",
    "final_y": "545766.995344",
    "longitude": "-90.061499465872",
    "latitude": "29.994611435378694",
    "geocoded_column": {
      "latitude": "29.994611435378694",
      "longitude": "-90.061499465872"
    }
  },
  {
    "service_request": "2026-1275399",
    "request_type": "Abandoned Vehicles",
    "request_reason": "Abandoned/Junk Vehicles",
    "date_created": "2026-04-21T13:55:26.000",
    "date_modified": "2026-04-21T13:55:32.000",
    "request_status": "Pending",
    "responsible_agency": "Department of Public Works",
    "final_address": "5000 BLK Perrier St",
    "address_councildis": "B",
    "status": "Pending",
    "rowid": "1275399",
    "final_x": "3668533.44964",
    "final_y": "519893.863215",
    "longitude": "-90.10940628097809",
    "latitude": "29.923914882660526",
    "geocoded_column": {
      "latitude": "29.923914882660526",
      "longitude": "-90.10940628097809"
    }
  },
  {
    "service_request": "2026-1275398",
    "request_type": "Street and Traffic Signs",
    "request_reason": "Street Name Sign Damaged or Missing",
    "date_created": "2026-04-21T13:54:12.000",
    "date_modified": "2026-04-21T13:54:15.000",
    "request_status": "Pending",
    "responsible_agency": "Department of Public Works",
    "final_address": "DREUX AVE & DESIRE DR",
    "address_councildis": "D",
    "status": "Pending",
    "rowid": "1275398",
    "final_x": "3691357.3",
    "final_y": "553177.48",
    "longitude": "-90.03617045878686",
    "latitude": "30.01474300059799",
    "geocoded_column": {
      "latitude": "30.01474300059799",
      "longitude": "-90.03617045878686"
    }
  },
  {
    "service_request": "2026-1275397",
    "request_type": "Trash/Recycling",
    "request_reason": "Repair Trash Cart",
    "date_created": "2026-04-21T13:51:53.000",
    "date_modified": "2026-04-21T13:51:55.000",
    "request_status": "Pending",
    "responsible_agency": "Department of Sanitation",
    "final_address": "1006 S Genois St",
    "address_councildis": "B",
    "status": "Assigned to Contractor",
    "contractor": "IV Waste",
    "rowid": "1275397",
    "final_x": "3670044.84999",
    "final_y": "533644.521669",
    "longitude": "-90.10416969665954",
    "latitude": "29.961680248832995",
    "geocoded_column": {
      "latitude": "29.961680248832995",
      "longitude": "-90.10416969665954"
    }
  },
  {
    "service_request": "2026-1275396",
    "request_type": "Street and Traffic Signs",
    "request_reason": "Street Name Sign Damaged or Missing",
    "date_created": "2026-04-21T13:51:48.000",
    "date_modified": "2026-04-21T13:51:50.000",
    "request_status": "Pending",
    "responsible_agency": "Department of Public Works",
    "final_address": "CONGRESS DR & DEBORE CIR",
    "address_councildis": "D",
    "status": "Pending",
    "rowid": "1275396",
    "final_x": "3692127.2",
    "final_y": "552350.58",
    "longitude": "-90.03376758838908",
    "latitude": "30.01244534542712",
    "geocoded_column": {
      "latitude": "30.01244534542712",
      "longitude": "-90.03376758838908"
    }
  },
  {
    "service_request": "2026-1275395",
    "request_type": "Trash/Recycling",
    "request_reason": "MIssed Recycling Pick-Up",
    "date_created": "2026-04-21T13:51:45.000",
    "date_modified": "2026-04-21T15:30:47.000",
    "case_close_date": "2026-04-21T10:30:46.000",
    "request_status": "Closed",
    "responsible_agency": "Department of Sanitation",
    "final_address": "8923 Apple St",
    "address_councildis": "A",
    "status": "Invalid Request",
    "contractor": "IV Waste",
    "contractor_action": "Invalid Request",
    "rowid": "1275395",
    "final_x": "3663128.13197",
    "final_y": "534177.646021",
    "longitude": "-90.12599392048146",
    "latitude": "29.96334837037641",
    "geocoded_column": {
      "latitude": "29.96334837037641",
      "longitude": "-90.12599392048146"
    }
  },
  {
    "service_request": "2026-1275394",
    "request_type": "Street and Traffic Signs",
    "request_reason": "Street Name Sign Damaged or Missing",
    "date_created": "2026-04-21T13:51:20.000",
    "date_modified": "2026-04-21T13:51:21.000",
    "request_status": "Pending",
    "responsible_agency": "Department of Public Works",
    "final_address": "CONGRESS DR & PAULINA DR",
    "address_councildis": "D",
    "status": "Pending",
    "rowid": "1275394",
    "final_x": "3692398.4",
    "final_y": "551423.18",
    "longitude": "-90.03294400360689",
    "latitude": "30.009886879237865",
    "geocoded_column": {
      "latitude": "30.009886879237865",
      "longitude": "-90.03294400360689"
    }
  },
  {
    "service_request": "2026-1275393",
    "request_type": "Drainage",
    "request_reason": "Illegal Dumping (Sewer Odor)",
    "date_created": "2026-04-21T13:48:23.000",
    "date_modified": "2026-04-21T13:48:25.000",
    "request_status": "Pending",
    "responsible_agency": "Sewerage & Water Board",
    "final_address": "5703 Laurel St",
    "address_councildis": "A",
    "status": "Pending",
    "rowid": "1275393",
    "final_x": "3665536.96173",
    "final_y": "517980.047542",
    "longitude": "-90.1189291832297",
    "latitude": "29.9187401580138",
    "geocoded_column": {
      "latitude": "29.9187401580138",
      "longitude": "-90.1189291832297"
    }
  },