[
  {
    "service_request": "2024-1130524",
    "request_type": "Trash/Recycling",
    "request_reason": "Missed Trash Pick-Up",
    "date_created": "2024-09-12T23:38:48.000",
    "date_modified": "2024-09-12T23:38:49.000",
    "request_status": "Pending",
    "responsible_agency": "Department of Sanitation",
    "final_address": "3921 Amanda St",
    "address_councildis": "C",
    "status": "Assigned to Contractor",
    "contractor": "Richards Disposal",
    "rowid": "1130524",
    "final_x": "3710035.35896",
    "final_y": "516305.415092",
    "longitude": "-89.97853482283286",
    "latitude": "29.91276373588835",
    "geocoded_column": {
      "latitude": "29.91276373588835",
      "longitude": "-89.97853482283286"
    }
  },
  {
    "service_request": "2024-1130523",
    "request_type": "Property Maintenance",
    "request_reason": "Property Maintenance",
    "date_created": "2024-09-12T22:58:43.000",
    "date_modified": "2024-09-12T22:58:43.000",
    "request_status": "Pending",
    "responsible_agency": "Department of Code Enforcement",
    "final_address": "5350 Pratt Dr",
    "address_councildis": "D",
    "status": "Pending",
    "rowid": "1130523",
    "final_x": "3680308.32155",
    "final_y": "552074.866582",
    "longitude": "-90.07111824376224",
    "latitude": "30.01205051288932",
    "geocoded_column": {
      "latitude": "30.01205051288932",
      "longitude": "-90.07111824376224"
    }
  },
  {
    "service_request": "2024-1130522",
    "request_type": "Trash/Recycling",
    "request_reason": "Missed Trash Pick-Up",
    "date_created": "2024-09-12T22:57:56.000",
    "date_modified": "2024-09-12T22:57:57.000",
    "request_status": "Pending",
    "responsible_agency": "Department of Sanitation",
    "final_address": "1021 Henry Clay Ave",
    "address_councildis": "A",
    "status": "Assigned to Contractor",
    "contractor": "IV Waste",
    "rowid": "1130522",
    "final_x": "3664156.70228",
    "final_y": "520320.188152",
    "longitude": "-90.12320795011891",
    "latitude": "29.92521496487658",
    "geocoded_column": {
      "latitude": "29.92521496487658",
      "longitude": "-90.12320795011891"
    }
  },
  {
    "service_request": "2024-1130521",
    "request_type": "Trash/Recycling",
    "request_reason": "Missed Trash Pick-Up",
    "date_created": "2024-09-12T22:55:36.000",
    "date_modified": "2024-09-12T22:55:37.000",
    "request_status": "Pending",
    "responsible_agency": "Department of Sanitation",
    "final_address": "1743 Pressburg Dr",
    "address_councildis": "D",
    "status": "Assigned to Contractor",
    "contractor": "IV Waste",
    "rowid": "1130521",
    "final_x": "3679983.3956",
    "final_y": "554249.806872",
    "longitude": "-90.07206918678429",
    "latitude": "30.01804064875504",
    "geocoded_column": {
      "latitude": "30.01804064875504",
      "longitude": "-90.07206918678429"
    }
  },
  {
    "service_request": "2024-1130520",
    "request_type": "Trash/Recycling",
    "request_reason": "Order Recycling Cart",
    "date_created": "2024-09-12T22:51:02.000",
    "date_modified": "2024-09-12T22:51:02.000",
    "request_status": "Pending",
    "responsible_agency": "Department of Sanitation",
    "final_address": "2331 Napoleon Ave",
    "address_councildis": "B",
    "status": "Pending",
    "rowid": "1130520",
    "final_x": "3670669.71054",
    "final_y": "523656.674555",
    "longitude": "-90.10253526986183",
    "latitude": "29.934198492468987",
    "geocoded_column": {
      "latitude": "29.934198492468987",
      "longitude": "-90.10253526986183"
    }
  },
  {
    "service_request": "2024-1130519",
    "request_type": "Street and Traffic Signs",
    "request_reason": "Stop Sign Missing or Damaged",
    "date_created": "2024-09-12T22:32:19.000",
    "date_modified": "2024-09-12T22:32:19.000",
    "request_status": "Pending",
    "responsible_agency": "Department of Public Works",
    "final_address": "700 BLK Pine St",
    "address_councildis": "A",
    "status": "Pending",
    "rowid": "1130519",
    "final_x": "3663042.72375",
    "final_y": "525354.312924",
    "longitude": "-90.12655708048572",
    "latitude": "29.939089523064066",
    "geocoded_column": {
      "latitude": "29.939089523064066",
      "longitude": "-90.12655708048572"
    }
  },
  {
    "service_request": "2024-1130518",
    "request_type": "Trash/Recycling",
    "request_reason": "Storm Debris Collection",
    "date_created": "2024-09-12T22:25:54.000",
    "date_modified": "2024-09-12T22:25:54.000",
    "request_status": "Pending",
    "responsible_agency": "Department of Sanitation",
    "final_address": "7903 Plum St",
    "address_councildis": "A",
    "status": "Pending",
    "rowid": "1130518",
    "final_x": "3662757.28013",
    "final_y": "528177.268416",
    "longitude": "-90.1273644637923",
    "latitude": "29.946860013110612",
    "geocoded_column": {
      "latitude": "29.946860013110612",
      "longitude": "-90.1273644637923"
    }
  },
  {
    "service_request": "2024-1130517",
    "request_type": "Trash/Recycling",
    "request_reason": "Storm Debris Collection",
    "date_created": "2024-09-12T22:15:31.000",
    "date_modified": "2024-09-12T22:15:31.000",
    "request_status": "Pending",
    "responsible_agency": "Department of Sanitation",
    "final_address": "211 Fairfax Pl",
    "address_councildis": "C",
    "status": "Pending",
    "rowid": "1130517",
    "final_x": "3706445.38046",
    "final_y": "517361.732277",
    "longitude": "-89.98982664200602",
    "latitude": "29.91578446909779",
    "geocoded_column": {
      "latitude": "29.91578446909779",
      "longitude": "-89.98982664200602"
    }
  },
  {
    "service_request": "2024-1130516",
    "request_type": "Trash/Recycling",
    "request_reason": "Replace Trash Cart",
    "date_created": "2024-09-12T21:55:54.000",
    "date_modified": "2024-09-12T21:55:55.000",
    "request_status": "Pending",
    "responsible_agency": "Department of Sanitation",
    "final_address": "410 State St",
    "address_councildis": "A",
    "status": "Assigned to Contractor",
    "contractor": "IV Waste",
    "rowid": "1130516",
    "final_x": "3664235.73511",
    "final_y": "517968.263734",
    "longitude": "-90.12303688669681",
    "latitude": "29.91874561259825",
    "geocoded_column": {
      "latitude": "29.91874561259825",
      "longitude": "-90.12303688669681"
    }
  },
  {
    "service_request": "2024-1130515",
    "request_type": "Traffic Signals",
    "request_reason": "Traffic Signal Malfunctioning or Damaged",
    "date_created": "2024-09-12T21:50:18.000",
    "date_modified": "2024-09-12T21:50:19.000",
    "request_status": "Pending",
    "responsible_agency": "Department of Public Works",
    "final_address": "BROADWAY ST & S CLAIBORNE AVE",
    "address_councildis": "A",
    "status": "Pending",
    "rowid": "1130515",
    "final_x": "3666401.6",
    "final_y": "529792.58",
    "longitude": "-90.11580377358062",
    "latitude": "29.951195627974403",
    "geocoded_column": {
      "latitude": "29.951195627974403",
      "longitude": "-90.11580377358062"
    }
  },
  {
    "service_request": "2024-1130514",
    "request_type": "Drainage",
    "request_reason": "Catch Basin Clogged",
    "date_created": "2024-09-12T21:43:30.000",
    "date_modified": "2024-09-12T21:43:30.000",
    "request_status": "Pending",
    "responsible_agency": "Department of Public Works",
    "final_address": "4515 S Johnson St",
    "address_councildis": "B",
    "status": "Pending",
    "rowid": "1130514",
    "final_x": "3669684.01716",
    "final_y": "527200.219775",
    "longitude": "-90.10552720839407",
    "latitude": "29.94397117274045",
    "geocoded_column": {
      "latitude": "29.94397117274045",
      "longitude": "-90.10552720839407"
    }
  },
  {
    "service_request": "2024-1130513",
    "request_type": "Drainage",
    "request_reason": "Catch Basin Clogged",
    "date_created": "2024-09-12T21:42:16.000",
    "date_modified": "2024-09-12T21:42:16.000",
    "request_status": "Pending",
    "responsible_agency": "Department of Public Works",
    "final_address": "4515 S Johnson St",
    "address_councildis": "B",
    "status": "Pending",
    "rowid": "1130513",
    "final_x": "3669684.01716",
    "final_y": "527200.219775",
    "longitude": "-90.10552720839407",
    "latitude": "29.94397117274045",
    "geocoded_column": {
      "latitude": "29.94397117274045",
      "longitude": "-90.10552720839407"
    }
  },
  {
    "service_request": "2024-1130512",
    "request_type": "Trash/Recycling",
    "request_reason": "Storm Debris Collection",
    "date_created": "2024-09-12T21:41:45.000",
    "date_modified": "2024-09-12T21:41:45.000",
    "request_status": "Pending",
    "responsible_agency": "Department of Sanitation",
    "final_address": "6838 Argonne Blvd",
    "address_councildis": "A",
    "status": "Pending",
    "rowid": "1130512",
    "final_x": "3670615.87015",
    "final_y": "552835.566998",
    "longitude": "-90.10171511528367",
    "latitude": "30.014432183600707",
    "geocoded_column": {
      "latitude": "30.014432183600707",
      "longitude": "-90.10171511528367"
    }
  },
  {
    "service_request": "2024-1130511",
    "request_type": "Drainage",
    "request_reason": "Catch Basin Clogged",
    "date_created": "2024-09-12T21:41:08.000",
    "date_modified": "2024-09-12T21:41:08.000",
    "request_status": "Pending",
    "responsible_agency": "Department of Public Works",
    "final_address": "4515 S Johnson St",
    "address_councildis": "B",
    "status": "Pending",
    "rowid": "1130511",
    "final_x": "3669684.01716",
    "final_y": "527200.219775",
    "longitude": "-90.10552720839407",
    "latitude": "29.94397117274045",
    "geocoded_column": {
      "latitude": "29.94397117274045",
      "longitude": "-90.10552720839407"
    }
  },
  {
    "service_request": "2024-1130510",
    "request_type": "Trash/Recycling",
    "request_reason": "Storm Debris Collection",
    "date_created": "2024-09-12T21:35:43.000",
    "date_modified": "2024-09-12T21:35:43.000",
    "request_status": "Pending",
    "responsible_agency": "Department of Sanitation",
    "final_address": "735 Upperline St",
    "address_councildis": "B",
    "status": "Pending",
    "rowid": "1130510",
    "final_x": "3669032.69607",
    "final_y": "518100.023926",
    "longitude": "-90.10789089333986",
    "latitude": "29.91896771930638",
    "geocoded_column": {
      "latitude": "29.91896771930638",
      "longitude": "-90.10789089333986"
    }
  },
  {
    "service_request": "2024-1130509",
    "request_type": "Trash/Recycling",
    "request_reason": "Replace Trash Cart",
    "date_created": "2024-09-12T21:34:53.000",
    "date_modified": "2024-09-12T21:34:54.000",
    "request_status": "Pending",
    "responsible_agency": "Department of Sanitation",
    "final_address": "1406 Clouet St",
    "address_councildis": "C",
    "status": "Assigned to Contractor",
    "contractor": "IV Waste",
    "rowid": "1130509",
    "final_x": "3689271.22627",
    "final_y": "537185.482888",
    "longitude": "-90.04333026048319",
    "latitude": "29.970835544910834",
    "geocoded_column": {
      "latitude": "29.970835544910834",
      "longitude": "-90.04333026048319"
    }
  },
  {
    "service_request": "2024-1130508",
    "request_type": "Trash/Recycling",
    "request_reason": "Replace Recycling Cart",
    "date_created": "2024-09-12T21:32:20.000",
    "date_modified": "2024-09-12T21:32:20.000",
    "request_status": "Pending",
    "responsible_agency": "Department of Sanitation",
    "final_address": "1406 Clouet St",
    "address_councildis": "C",
    "status": "Pending",
    "rowid": "1130508",
    "final_x": "3689271.22627",
    "final_y": "537185.482888",
    "longitude": "-90.04333026048319",
    "latitude": "29.970835544910834",
    "geocoded_column": {
      "latitude": "29.970835544910834",
      "longitude": "-90.04333026048319"
    }
  },
  {
    "service_request": "2024-1130507",
    "request_type": "Trash/Recycling",
    "request_reason": "Missed Trash Pick-Up",
    "date_created": "2024-09-12T21:24:40.000",
    "date_modified": "2024-09-12T21:24:41.000",
    "request_status": "Pending",
    "responsible_agency": "Department of Sanitation",
    "final_address": "1025 State St",
    "address_councildis": "A",
    "status": "Assigned to Contractor",
    "contractor": "IV Waste",
    "rowid": "1130507",
    "final_x": "3665018.82509",
    "final_y": "520001.34988",
    "longitude": "-90.12049714422076",
    "latitude": "29.924313196102787",
    "geocoded_column": {
      "latitude": "29.924313196102787",
      "longitude": "-90.12049714422076"
    }
  },
  {
    "service_request": "2024-1130506",
    "request_type": "Trash/Recycling",
    "request_reason": "Missed Trash Pick-Up",
    "date_created": "2024-09-12T21:18:05.000",
    "date_modified": "2024-09-12T21:18:06.000",
    "request_status": "Pending",
    "responsible_agency": "Department of Sanitation",
    "final_address": "1517 Broadway St",
    "address_councildis": "A",
    "status": "Assigned to Contractor",
    "contractor": "IV Waste",
    "rowid": "1130506",
    "final_x": "3664909.45504",
    "final_y": "527486.555839",
    "longitude": "-90.12059231120928",
    "latitude": "29.944898317257884",
    "geocoded_column": {
      "latitude": "29.944898317257884",
      "longitude": "-90.12059231120928"
    }
  },
  {
    "service_request": "2024-1130505",
    "request_type": "Trash/Recycling",
    "request_reason": "Order Trash Cart",
    "date_created": "2024-09-12T21:08:40.000",
    "date_modified": "2024-09-12T21:08:41.000",
    "request_status": "Pending",
    "responsible_agency": "Department of Sanitation",
    "final_address": "3127 Milan St",
    "address_councildis": "B",
    "status": "Assigned to Contractor",
    "contractor": "IV Waste",
    "rowid": "1130505",
    "final_x": "3671071.99867",
    "final_y": "526551.290686",
    "longitude": "-90.10116699004622",
    "latitude": "29.942145861197677",
    "geocoded_column": {
      "latitude": "29.942145861197677",
      "longitude": "-90.10116699004622"
    }
  },
  {
    "service_request": "2024-1130504",
    "request_type": "Streetlights",
    "request_reason": "Streetlight Outage/Malfunction",
    "date_created": "2024-09-12T21:05:27.000",
    "date_modified": "2024-09-12T21:05:28.000",
    "request_status": "Pending",
    "responsible_agency": "Department of Public Works",
    "final_address": "I 610 W & FRANKLIN AVE",
    "address_councildis": "D",
    "status": "Pending",
    "contractor": "Legacy Professional Services",
    "rowid": "1130504",
    "final_x": "3687261.46",
    "final_y": "545035.36",
    "longitude": "-90.04939955249115",
    "latitude": "29.992481987138255",
    "geocoded_column": {
      "latitude": "29.992481987138255",
      "longitude": "-90.04939955249115"
    }
  },
  {
    "service_request": "2024-1130503",
    "request_type": "Trash/Recycling",
    "request_reason": "Request a Large Item Pick Up",
    "date_created": "2024-09-12T20:58:37.000",
    "date_modified": "2024-09-12T20:58:38.000",
    "request_status": "Pending",
    "responsible_agency": "Department of Sanitation",
    "final_address": "13932 Wales St, New Orleans, Louisiana, 70128",
    "address_councildis": "E",
    "status": "Assigned to Contractor",
    "contractor": "Waste Pro",
    "rowid": "1130503",
    "final_x": "3718052.4174",
    "final_y": "572387.623593",
    "longitude": "-89.95109569327667",
    "latitude": "30.066705113770553",
    "geocoded_column": {
      "latitude": "30.066705113770553",
      "longitude": "-89.95109569327667"
    }
  },
  {
    "service_request": "2024-1130502",
    "request_type": "Street and Traffic Signs",
    "request_reason": "One Way Sign Missing or Damaged",
    "date_created": "2024-09-12T20:56:39.000",
    "date_modified": "2024-09-12T20:56:39.000",
    "request_status": "Pending",
    "responsible_agency": "Department of Public Works",
    "final_address": "5968 Patton St",
    "address_councildis": "A",
    "status": "Pending",
    "rowid": "1130502",
    "final_x": "3664535.37108",
    "final_y": "518512.921079",
    "longitude": "-90.12207291481566",
    "latitude": "29.92023454450117",
    "geocoded_column": {
      "latitude": "29.92023454450117",
      "longitude": "-90.12207291481566"
    }
  },
  {
    "service_request": "2024-1130501",
    "request_type": "Streetlights",
    "request_reason": "Streetlight Outage/Malfunction",
    "date_created": "2024-09-12T20:55:17.000",
    "date_modified": "2024-09-12T20:55:18.000",
    "request_status": "Pending",
    "responsible_agency": "Department of Public Works",
    "final_address": "9870 E Rockton Cir",
    "address_councildis": "E",
    "status": "Pending",
    "contractor": "Legacy Professional Services",
    "rowid": "1130501",
    "final_x": "3708690.12747",
    "final_y": "563257.83024",
    "longitude": "-89.9810317502557",
    "latitude": "30.041909087935842",
    "geocoded_column": {
      "latitude": "30.041909087935842",
      "longitude": "-89.9810317502557"
    }
  },
  {
    "service_request": "2024-1130500",
    "request_type": "Trash/Recycling",
    "request_reason": "Request a Large Item Pick Up",
    "date_created": "2024-09-12T20:54:43.000",
    "date_modified": "2024-09-12T20:54:44.000",
    "request_status": "Pending",
    "responsible_agency": "Department of Sanitation",
    "final_address": "4444 Dodt Ave, New Orleans, Louisiana, 70126",
    "address_councildis": "E",
    "status": "Assigned to Contractor",
    "contractor": "Waste Pro",
    "rowid": "1130500",
    "final_x": "3705551.04625",
    "final_y": "553695.131799",
    "longitude": "-89.99130630817118",
    "latitude": "30.01571689027482",
    "geocoded_column": {
      "latitude": "30.01571689027482",
      "longitude": "-89.99130630817118"
    }
  },
  {
    "service_request": "2024-1130499",
    "request_type": "Hurricane Francine Tree-Related Issues or Emergencies\t",
    "request_reason": "Hurricane Francine Tree-Related Issues or Emergencies",
    "date_created": "2024-09-12T20:53:58.000",
    "date_modified": "2024-09-12T20:53:58.000",
    "request_status": "Pending",
    "responsible_agency": "Department of Parks & Parkway",
    "final_address": "5968 Patton St",
    "address_councildis": "A",
    "status": "Pending",
    "rowid": "1130499",
    "final_x": "3664535.37108",
    "final_y": "518512.921079",
    "longitude": "-90.12207291481566",
    "latitude": "29.92023454450117",
    "geocoded_column": {
      "latitude": "29.92023454450117",
      "longitude": "-90.12207291481566"
    }
  },
  {
    "service_request": "2024-1130498",
    "request_type": "Streetlights",
    "request_reason": "Streetlight Outage/Malfunction",
    "date_created": "2024-09-12T20:52:15.000",
    "date_modified": "2024-09-12T20:52:16.000",
    "request_status": "Pending",
    "responsible_agency": "Department of Public Works",
    "final_address": "EGANIA ST & DOUGLASS ST",
    "address_councildis": "E",
    "status": "Pending",
    "contractor": "Legacy Professional Services",
    "rowid": "1130498",
    "final_x": "3696217.7",
    "final_y": "531922.78",
    "longitude": "-90.02158280801918",
    "latitude": "29.9561481152437",
    "geocoded_column": {
      "latitude": "29.9561481152437",
      "longitude": "-90.02158280801918"
    }
  },
  {
    "service_request": "2024-1130497",
    "request_type": "Streetlights",
    "request_reason": "Streetlight Outage/Malfunction",
    "date_created": "2024-09-12T20:50:55.000",
    "date_modified": "2024-09-12T20:50:56.000",
    "request_status": "Pending",
    "responsible_agency": "Department of Public Works",
    "final_address": "FRANKLIN EXIT & I 610 E",
    "address_councildis": "D",
    "status": "Pending",
    "contractor": "Legacy Professional Services",
    "rowid": "1130497",
    "final_x": "3677467.8",
    "final_y": "545037.38",
    "longitude": "-90.08033581659782",
    "latitude": "29.992785651431184",
    "geocoded_column": {
      "latitude": "29.992785651431184",
      "longitude": "-90.08033581659782"
    }
  },
  {
    "service_request": "2024-1130496",
    "request_type": "Roads and Streets",
    "request_reason": "Pothole",
    "date_created": "2024-09-12T20:48:01.000",
    "date_modified": "2024-09-12T20:48:01.000",
    "request_status": "Pending",
    "responsible_agency": "Department of Public Works",
    "final_address": "5999 Wisner Blvd",
    "address_councildis": "A",
    "status": "Pending",
    "rowid": "1130496",
    "final_x": "3676372.18805",
    "final_y": "555196.625113",
    "longitude": "-90.08344660830906",
    "latitude": "30.02075286008692",
    "geocoded_column": {
      "latitude": "30.02075286008692",
      "longitude": "-90.08344660830906"
    }
  },
  {
    "service_request": "2024-1130495",
    "request_type": "Trash/Recycling",
    "request_reason": "Missed Trash Pick-Up",
    "date_created": "2024-09-12T20:46:19.000",
    "date_modified": "2024-09-12T20:46:20.000",
    "request_status": "Pending",
    "responsible_agency": "Department of Sanitation",
    "final_address": "4154 State Street Dr",
    "address_councildis": "B",
    "status": "Assigned to Contractor",
    "contractor": "IV Waste",
    "rowid": "1130495",
    "final_x": "3668430.94798",
    "final_y": "531092.962242",
    "longitude": "-90.1093522192121",
    "latitude": "29.95471180599587",
    "geocoded_column": {
      "latitude": "29.95471180599587",
      "longitude": "-90.1093522192121"
    }
  },
  {
    "service_request": "2024-1130494",
    "request_type": "Trash/Recycling",
    "request_reason": "Storm Debris Collection",
    "date_created": "2024-09-12T20:41:07.000",
    "date_modified": "2024-09-12T20:41:07.000",
    "request_status": "Pending",
    "responsible_agency": "Department of Sanitation",
    "final_address": "3312 Banks St",
    "address_councildis": "B",
    "status": "Pending",
    "rowid": "1130494",
    "final_x": "3672710.84577",
    "final_y": "535499.946502",
    "longitude": "-90.09568761824173",
    "latitude": "29.96670313942442",
    "geocoded_column": {
      "latitude": "29.96670313942442",
      "longitude": "-90.09568761824173"
    }
  },
  {
    "service_request": "2024-1130493",
    "request_type": "Trash/Recycling",
    "request_reason": "Request a Large Item Pick Up",
    "date_created": "2024-09-12T20:25:57.000",
    "date_modified": "2024-09-12T20:25:58.000",
    "request_status": "Pending",
    "responsible_agency": "Department of Sanitation",
    "final_address": "1837 Third St",
    "address_councildis": "B",
    "status": "Assigned to Contractor",
    "contractor": "IV Waste",
    "rowid": "1130493",
    "final_x": "3675885.00526",
    "final_y": "523768.434939",
    "longitude": "-90.08606690375161",
    "latitude": "29.934350730681214",
    "geocoded_column": {
      "latitude": "29.934350730681214",
      "longitude": "-90.08606690375161"
    }
  },
  {
    "service_request": "2024-1130492",
    "request_type": "Abandoned Vehicles",
    "request_reason": "Abandoned/Junk Vehicles",
    "date_created": "2024-09-12T20:20:57.000",
    "date_modified": "2024-09-12T20:20:57.000",
    "request_status": "Pending",
    "responsible_agency": "Department of Public Works",
    "final_address": "5152 Forest Park Ln",
    "address_councildis": "C",
    "status": "Pending",
    "rowid": "1130492",
    "final_x": "3703397.9891",
    "final_y": "510764.691695",
    "longitude": "-89.99968766300267",
    "latitude": "29.89774274853978",
    "geocoded_column": {
      "latitude": "29.89774274853978",
      "longitude": "-89.99968766300267"
    }
  },
  {
    "service_request": "2024-1130491",
    "request_type": "Roads and Streets",
    "request_reason": "Pothole",
    "date_created": "2024-09-12T20:20:16.000",
    "date_modified": "2024-09-12T20:20:16.000",
    "request_status": "Pending",
    "responsible_agency": "Department of Public Works",
    "final_address": "6125 Constance St",
    "address_councildis": "A",
    "status": "Pending",
    "rowid": "1130491",
    "final_x": "3663877.94093",
    "final_y": "519203.851639",
    "longitude": "-90.1241251031427",
    "latitude": "29.922153480900363",
    "geocoded_column": {
      "latitude": "29.922153480900363",
      "longitude": "-90.1241251031427"
    }
  },
  {
    "service_request": "2024-1130490",
    "request_type": "Parks & Parkways",
    "request_reason": "Hurricane Francine Tree-Related Issues or Emergencies",
    "date_created": "2024-09-12T20:16:33.000",
    "date_modified": "2024-09-12T21:59:17.000",
    "case_close_date": "2024-09-12T16:59:17.000",
    "request_status": "Closed",
    "responsible_agency": "Department of Parks & Parkway",
    "final_address": "ST PHILIP ST & N JOHNSON ST",
    "address_councildis": "D",
    "status": "Duplicate",
    "rowid": "1130490",
    "final_x": "3679317.6",
    "final_y": "536364.18",
    "longitude": "-90.07479354818776",
    "latitude": "29.968881613885852",
    "geocoded_column": {
      "latitude": "29.968881613885852",
      "longitude": "-90.07479354818776"
    }
  },
  {
    "service_request": "2024-1130489",
    "request_type": "Trash/Recycling",
    "request_reason": "MIssed Recycling Pick-Up",
    "date_created": "2024-09-12T20:15:15.000",
    "date_modified": "2024-09-12T20:15:16.000",
    "request_status": "Pending",
    "responsible_agency": "Department of Sanitation",
    "final_address": "4743 Charlmark Dr",
    "address_councildis": "E",
    "status": "Assigned to Contractor",
    "contractor": "Waste Pro",
    "rowid": "1130489",
    "final_x": "3711512.81662",
    "final_y": "556041.107417",
    "longitude": "-89.97238197222306",
    "latitude": "30.021974064808084",
    "geocoded_column": {
      "latitude": "30.021974064808084",
      "longitude": "-89.97238197222306"
    }
  },
  {
    "service_request": "2024-1130488",
    "request_type": "Trash/Recycling",
    "request_reason": "Missed Trash Pick-Up",
    "date_created": "2024-09-12T20:14:51.000",
    "date_modified": "2024-09-12T20:14:52.000",
    "request_status": "Pending",
    "responsible_agency": "Department of Sanitation",
    "final_address": "6125 Constance St",
    "address_councildis": "A",
    "status": "Assigned to Contractor",
    "contractor": "IV Waste",
    "rowid": "1130488",
    "final_x": "3663877.94093",
    "final_y": "519203.851639",
    "longitude": "-90.1241251031427",
    "latitude": "29.922153480900363",
    "geocoded_column": {
      "latitude": "29.922153480900363",
      "longitude": "-90.1241251031427"
    }
  },
  {
    "service_request": "2024-1130487",
    "request_type": "Trash/Recycling",
    "request_reason": "Request a Large Item Pick Up",
    "date_created": "2024-09-12T20:14:29.000",
    "date_modified": "2024-09-12T20:14:30.000",
    "request_status": "Pending",
    "responsible_agency": "Department of Sanitation",
    "final_address": "7330 Newcastle St",
    "address_councildis": "E",
    "status": "Assigned to Contractor",
    "contractor": "Waste Pro",
    "rowid": "1130487",
    "final_x": "3697403.18192",
    "final_y": "558487.024028",
    "longitude": "-90.01687577349881",
    "latitude": "30.02915264992365",
    "geocoded_column": {
      "latitude": "30.02915264992365",
      "longitude": "-90.01687577349881"
    }
  },
  {
    "service_request": "2024-1130486",
    "request_type": "Trash/Recycling",
    "request_reason": "Missed Trash Pick-Up",
    "date_created": "2024-09-12T20:07:15.000",
    "date_modified": "2024-09-12T20:07:17.000",
    "request_status": "Pending",
    "responsible_agency": "Department of Sanitation",
    "final_address": "5183 De Montluzin St",
    "address_councildis": "D",
    "status": "Assigned to Contractor",
    "contractor": "IV Waste",
    "rowid": "1130486",
    "final_x": "3687101.24066",
    "final_y": "551852.90287",
    "longitude": "-90.04966439676689",
    "latitude": "30.011232694157982",
    "geocoded_column": {
      "latitude": "30.011232694157982",
      "longitude": "-90.04966439676689"
    }
  },
  {
    "service_request": "2024-1130485",
    "request_type": "Trash/Recycling",
    "request_reason": "Storm Debris Collection",
    "date_created": "2024-09-12T20:06:10.000",
    "date_modified": "2024-09-12T20:06:11.000",
    "request_status": "Pending",
    "responsible_agency": "Department of Sanitation",
    "final_address": "4625 Virgilian St",
    "address_councildis": "D",
    "status": "Pending",
    "rowid": "1130485",
    "final_x": "3697616.46071",
    "final_y": "553156.911703",
    "longitude": "-90.01639540205413",
    "latitude": "30.01449012787158",
    "geocoded_column": {
      "latitude": "30.01449012787158",
      "longitude": "-90.01639540205413"
    }
  },
  {
    "service_request": "2024-1130484",
    "request_type": "Property Maintenance",
    "request_reason": "Property Maintenance",
    "date_created": "2024-09-12T20:04:08.000",
    "date_modified": "2024-09-12T20:04:08.000",
    "request_status": "Pending",
    "responsible_agency": "Department of Code Enforcement",
    "final_address": "4611 N Robertson St",
    "address_councildis": "D",
    "status": "Pending",
    "rowid": "1130484",
    "final_x": "3694190.5608",
    "final_y": "536348.767815",
    "longitude": "-90.02782456372283",
    "latitude": "29.9683816759696",
    "geocoded_column": {
      "latitude": "29.9683816759696",
      "longitude": "-90.02782456372283"
    }
  },
  {
    "service_request": "2024-1130483",
    "request_type": "Trash/Recycling",
    "request_reason": "Missed Trash Pick-Up",
    "date_created": "2024-09-12T20:04:02.000",
    "date_modified": "2024-09-12T20:04:03.000",
    "request_status": "Pending",
    "responsible_agency": "Department of Sanitation",
    "final_address": "46 Yosemite Dr",
    "address_councildis": "C",
    "status": "Assigned to Contractor",
    "contractor": "Richards Disposal",
    "rowid": "1130483",
    "final_x": "3700006.52157",
    "final_y": "516906.241461",
    "longitude": "-90.01016662344932",
    "latitude": "29.914738043626386",
    "geocoded_column": {
      "latitude": "29.914738043626386",
      "longitude": "-90.01016662344932"
    }
  },
  {
    "service_request": "2024-1130482",
    "request_type": "Trash/Recycling",
    "request_reason": "Request a Large Item Pick Up",
    "date_created": "2024-09-12T20:01:20.000",
    "date_modified": "2024-09-12T20:01:22.000",
    "request_status": "Pending",
    "responsible_agency": "Department of Sanitation",
    "final_address": "1837 Third St",
    "address_councildis": "B",
    "status": "Assigned to Contractor",
    "contractor": "IV Waste",
    "rowid": "1130482",
    "final_x": "3675885.00526",
    "final_y": "523768.434939",
    "longitude": "-90.08606690375161",
    "latitude": "29.934350730681214",
    "geocoded_column": {
      "latitude": "29.934350730681214",
      "longitude": "-90.08606690375161"
    }
  },
  {
    "service_request": "2024-1130481",
    "request_type": "Trash/Recycling",
    "request_reason": "Repair Trash Cart",
    "date_created": "2024-09-12T19:51:25.000",
    "date_modified": "2024-09-12T19:51:26.000",
    "request_status": "Pending",
    "responsible_agency": "Department of Sanitation",
    "final_address": "200 Alonzo St",
    "address_councildis": "A",
    "status": "Assigned to Contractor",
    "contractor": "IV Waste",
    "rowid": "1130481",
    "final_x": "3664456.84813",
    "final_y": "517096.615925",
    "longitude": "-90.12236802251839",
    "latitude": "29.916342428615057",
    "geocoded_column": {
      "latitude": "29.916342428615057",
      "longitude": "-90.12236802251839"
    }
  },
  {
    "service_request": "2024-1130480",
    "request_type": "Parks & Parkways",
    "request_reason": "Request Tree Service (Right of Way/Public Property)",
    "date_created": "2024-09-12T19:50:11.000",
    "date_modified": "2024-09-12T21:57:57.000",
    "case_close_date": "2024-09-12T16:57:57.000",
    "request_status": "Closed",
    "responsible_agency": "Department of Parks & Parkway",
    "final_address": "2022 St Philip St",
    "address_councildis": "D",
    "status": "Duplicate Request",
    "rowid": "1130480",
    "final_x": "3679408.0109",
    "final_y": "536250.174727",
    "longitude": "-90.07451198019896",
    "latitude": "29.968565407619476",
    "geocoded_column": {
      "latitude": "29.968565407619476",
      "longitude": "-90.07451198019896"
    }
  },
  {
    "service_request": "2024-1130479",
    "request_type": "Trash/Recycling",
    "request_reason": "Request a Large Item Pick Up",
    "date_created": "2024-09-12T19:47:04.000",
    "date_modified": "2024-09-12T19:47:05.000",
    "request_status": "Pending",
    "responsible_agency": "Department of Sanitation",
    "final_address": "13026 Laval St",
    "address_councildis": "E",
    "status": "Assigned to Contractor",
    "contractor": "Waste Pro",
    "rowid": "1130479",
    "final_x": "3723818.83411",
    "final_y": "562361.092319",
    "longitude": "-89.93325465065008",
    "latitude": "30.038943815142815",
    "geocoded_column": {
      "latitude": "30.038943815142815",
      "longitude": "-89.93325465065008"
    }
  },
  {
    "service_request": "2024-1130478",
    "request_type": "Drainage",
    "request_reason": "Catch Basin Clogged",
    "date_created": "2024-09-12T19:42:23.000",
    "date_modified": "2024-09-12T19:42:23.000",
    "request_status": "Pending",
    "responsible_agency": "Department of Public Works",
    "final_address": "8510 Birch St",
    "address_councildis": "A",
    "status": "Pending",
    "rowid": "1130478",
    "final_x": "3661727.23501",
    "final_y": "530434.300482",
    "longitude": "-90.13054190589918",
    "latitude": "29.953095896026888",
    "geocoded_column": {
      "latitude": "29.953095896026888",
      "longitude": "-90.13054190589918"
    }
  },
  {
    "service_request": "2024-1130477",
    "request_type": "Trash/Recycling",
    "request_reason": "Missed Trash Pick-Up",
    "date_created": "2024-09-12T19:41:24.000",
    "date_modified": "2024-09-12T19:41:25.000",
    "request_status": "Pending",
    "responsible_agency": "Department of Sanitation",
    "final_address": "3532 Timber Wolf Ln",
    "address_councildis": "C",
    "status": "Assigned to Contractor",
    "contractor": "Richards Disposal",
    "rowid": "1130477",
    "final_x": "3704520.5578",
    "final_y": "511164.882416",
    "longitude": "-89.99613033500376",
    "latitude": "29.89880716375432",
    "geocoded_column": {
      "latitude": "29.89880716375432",
      "longitude": "-89.99613033500376"
    }
  },
  {
    "service_request": "2024-1130476",
    "request_type": "Drainage",
    "request_reason": "Catch Basin Clogged",
    "date_created": "2024-09-12T19:39:39.000",
    "date_modified": "2024-09-12T19:39:39.000",
    "request_status": "Pending",
    "responsible_agency": "Department of Public Works",
    "final_address": "8510 Birch St",
    "address_councildis": "A",
    "status": "Pending",
    "rowid": "1130476",
    "final_x": "3661727.23501",
    "final_y": "530434.300482",
    "longitude": "-90.13054190589918",
    "latitude": "29.953095896026888",
    "geocoded_column": {
      "latitude": "29.953095896026888",
      "longitude": "-90.13054190589918"
    }
  },
  {
    "service_request": "2024-1130475",
    "request_type": "Mosquito, Termite & Rodent Control",
    "request_reason": "Mosquito Complaint",
    "date_created": "2024-09-12T19:33:47.000",
    "date_modified": "2024-09-12T19:33:47.000",
    "request_status": "Pending",
    "responsible_agency": "Mosquito, Termite & Rodent Control Board",
    "final_address": "300 BLK N Norman C Francis Pkwy",
    "address_councildis": "B",
    "status": "Pending",
    "rowid": "1130475",
    "final_x": "3673734.25847",
    "final_y": "537569.154964",
    "longitude": "-90.09238491182359",
    "latitude": "29.972362328415176",
    "geocoded_column": {
      "latitude": "29.972362328415176",
      "longitude": "-90.09238491182359"
    }
  },
  {
    "service_request": "2024-1130474",
    "request_type": "Hurricane Francine Tree-Related Issues or Emergencies\t",
    "request_reason": "Hurricane Francine Tree-Related Issues or Emergencies",
    "date_created": "2024-09-12T19:32:04.000",
    "date_modified": "2024-09-12T21:57:17.000",
    "case_close_date": "2024-09-12T16:57:17.000",
    "request_status": "Closed",
    "responsible_agency": "Department of Parks & Parkway",
    "final_address": "2022 St Philip St",
    "address_councildis": "D",
    "status": "Duplicate",
    "rowid": "1130474",
    "final_x": "3679408.0109",
    "final_y": "536250.174727",
    "longitude": "-90.07451198019896",
    "latitude": "29.968565407619476",
    "geocoded_column": {
      "latitude": "29.968565407619476",
      "longitude": "-90.07451198019896"
    }
  },
  {
    "service_request": "2024-1130473",
    "request_type": "Trash/Recycling",
    "request_reason": "Order Trash Cart",
    "date_created": "2024-09-12T19:30:00.000",
    "date_modified": "2024-09-12T19:30:01.000",
    "request_status": "Pending",
    "responsible_agency": "Department of Sanitation",
    "final_address": "751 Allen Toussaint Blvd",
    "address_councildis": "D",
    "status": "Assigned to Contractor",
    "contractor": "IV Waste",
    "rowid": "1130473",
    "final_x": "3669747.45274",
    "final_y": "554785.736344",
    "longitude": "-90.10439280855232",
    "latitude": "30.019820095077293",
    "geocoded_column": {
      "latitude": "30.019820095077293",
      "longitude": "-90.10439280855232"
    }
  },
  {
    "service_request": "2024-1130472",
    "request_type": "Trash/Recycling",
    "request_reason": "Request a Large Item Pick Up",
    "date_created": "2024-09-12T19:24:02.000",
    "date_modified": "2024-09-12T19:24:02.000",
    "request_status": "Pending",
    "responsible_agency": "Department of Sanitation",
    "final_address": "5805 Fontainebleau Dr",
    "address_councildis": "B",
    "status": "Assigned to Contractor",
    "contractor": "IV Waste",
    "rowid": "1130472",
    "final_x": "3668477.80218",
    "final_y": "529867.832577",
    "longitude": "-90.10924559784861",
    "latitude": "29.951341724272368",
    "geocoded_column": {
      "latitude": "29.951341724272368",
      "longitude": "-90.10924559784861"
    }
  },
  {
    "service_request": "2024-1130471",
    "request_type": "Drainage",
    "request_reason": "Street Flooding",
    "date_created": "2024-09-12T19:21:57.000",
    "date_modified": "2024-09-12T19:21:58.000",
    "request_status": "Pending",
    "responsible_agency": "Department of Public Works",
    "final_address": "13000 BLK Biscay St",
    "address_councildis": "E",
    "status": "Pending",
    "rowid": "1130471",
    "final_x": "3724124.65834",
    "final_y": "561645.064818",
    "longitude": "-89.93231584127302",
    "latitude": "30.036964755608007",
    "geocoded_column": {
      "latitude": "30.036964755608007",
      "longitude": "-89.93231584127302"
    }
  },
  {
    "service_request": "2024-1130470",
    "request_type": "Drainage",
    "request_reason": "Street Flooding",
    "date_created": "2024-09-12T19:21:41.000",
    "date_modified": "2024-09-12T19:21:41.000",
    "request_status": "Pending",
    "responsible_agency": "Department of Public Works",
    "final_address": "7022 Hickory St",
    "address_councildis": "A",
    "status": "Pending",
    "rowid": "1130470",
    "final_x": "3665724.10317",
    "final_y": "527966.290623",
    "longitude": "-90.11800414332197",
    "latitude": "29.946193700136856",
    "geocoded_column": {
      "latitude": "29.946193700136856",
      "longitude": "-90.11800414332197"
    }
  },
  {
    "service_request": "2024-1130469",
    "request_type": "Trash/Recycling",
    "request_reason": "Replace Trash Cart",
    "date_created": "2024-09-12T19:20:41.000",
    "date_modified": "2024-09-12T19:20:42.000",
    "request_status": "Pending",
    "responsible_agency": "Department of Sanitation",
    "final_address": "534 Henry Clay Ave",
    "address_councildis": "A",
    "status": "Assigned to Contractor",
    "contractor": "IV Waste",
    "rowid": "1130469",
    "final_x": "3663447.96685",
    "final_y": "518907.640055",
    "longitude": "-90.12549221544853",
    "latitude": "29.921351461167102",
    "geocoded_column": {
      "latitude": "29.921351461167102",
      "longitude": "-90.12549221544853"
    }
  },
  {
    "service_request": "2024-1130468",
    "request_type": "Trash/Recycling",
    "request_reason": "Missed Trash Pick-Up",
    "date_created": "2024-09-12T19:19:41.000",
    "date_modified": "2024-09-12T19:19:42.000",
    "request_status": "Pending",
    "responsible_agency": "Department of Sanitation",
    "final_address": "7425 Dominican St",
    "address_councildis": "A",
    "status": "Assigned to Contractor",
    "contractor": "IV Waste",
    "rowid": "1130468",
    "final_x": "3661991.00826",
    "final_y": "524610.097852",
    "longitude": "-90.12990216706399",
    "latitude": "29.93707358198895",
    "geocoded_column": {
      "latitude": "29.93707358198895",
      "longitude": "-90.12990216706399"
    }
  },
  {
    "service_request": "2024-1130467",
    "request_type": "Trash/Recycling",
    "request_reason": "Storm Debris Collection",
    "date_created": "2024-09-12T19:19:11.000",
    "date_modified": "2024-09-12T21:55:37.000",
    "request_status": "Pending",
    "responsible_agency": "Department of Sanitation",
    "final_address": "12960 Chanelle Ct",
    "address_councildis": "E",
    "rowid": "1130467",
    "final_x": "3717140.82821",
    "final_y": "567696.807524",
    "longitude": "-89.95415582029591",
    "latitude": "30.053837521394176",
    "geocoded_column": {
      "latitude": "30.053837521394176",
      "longitude": "-89.95415582029591"
    }
  },
  {
    "service_request": "2024-1130466",
    "request_type": "Roads and Streets",
    "request_reason": "Sidewalk Damaged or Missing",
    "date_created": "2024-09-12T19:15:18.000",
    "date_modified": "2024-09-12T19:15:18.000",
    "request_status": "Pending",
    "responsible_agency": "Department of Public Works",
    "final_address": "2221 Burgundy St",
    "address_councildis": "C",
    "status": "Pending",
    "rowid": "1130466",
    "final_x": "3685311.16341",
    "final_y": "535636.58503",
    "longitude": "-90.0558911463796",
    "latitude": "29.966698607441813",
    "geocoded_column": {
      "latitude": "29.966698607441813",
      "longitude": "-90.0558911463796"
    }
  },
  {
    "service_request": "2024-1130465",
    "request_type": "Roads and Streets",
    "request_reason": "Push-up/Pavement Expansion",
    "date_created": "2024-09-12T19:12:47.000",
    "date_modified": "2024-09-12T19:12:47.000",
    "request_status": "Pending",
    "responsible_agency": "Department of Public Works",
    "final_address": "2221 Burgundy St",
    "address_councildis": "C",
    "status": "Pending",
    "rowid": "1130465",
    "final_x": "3685311.16341",
    "final_y": "535636.58503",
    "longitude": "-90.0558911463796",
    "latitude": "29.966698607441813",
    "geocoded_column": {
      "latitude": "29.966698607441813",
      "longitude": "-90.0558911463796"
    }
  },
  {
    "service_request": "2024-1130464",
    "request_type": "Trash/Recycling",
    "request_reason": "Missed Trash Pick-Up",
    "date_created": "2024-09-12T19:11:56.000",
    "date_modified": "2024-09-12T19:11:57.000",
    "request_status": "Pending",
    "responsible_agency": "Department of Sanitation",
    "final_address": "1523 Valmont St",
    "address_councildis": "B",
    "status": "Assigned to Contractor",
    "contractor": "IV Waste",
    "rowid": "1130464",
    "final_x": "3667842.01402",
    "final_y": "520627.333561",
    "longitude": "-90.11156421509206",
    "latitude": "29.925951983726623",
    "geocoded_column": {
      "latitude": "29.925951983726623",
      "longitude": "-90.11156421509206"
    }
  },
  {
    "service_request": "2024-1130463",
    "request_type": "Trash/Recycling",
    "request_reason": "Storm Debris Collection",
    "date_created": "2024-09-12T19:08:04.000",
    "date_modified": "2024-09-12T19:08:04.000",
    "request_status": "Pending",
    "responsible_agency": "Department of Sanitation",
    "final_address": "715 Eleonore St",
    "address_councildis": "A",
    "status": "Pending",
    "rowid": "1130463",
    "final_x": "3665224.62522",
    "final_y": "518855.425271",
    "longitude": "-90.11988580900595",
    "latitude": "29.921156271529615",
    "geocoded_column": {
      "latitude": "29.921156271529615",
      "longitude": "-90.11988580900595"
    }
  },
  {
    "service_request": "2024-1130462",
    "request_type": "Hurricane Francine Tree-Related Issues or Emergencies\t",
    "request_reason": "Hurricane Francine Tree-Related Issues or Emergencies",
    "date_created": "2024-09-12T19:07:58.000",
    "date_modified": "2024-09-12T19:07:59.000",
    "request_status": "Pending",
    "responsible_agency": "Department of Parks & Parkway",
    "final_address": "3520 Wall Blvd",
    "address_councildis": "C",
    "status": "Pending",
    "rowid": "1130462",
    "final_x": "3697077.99722",
    "final_y": "523880.31174",
    "longitude": "-90.01915755801801",
    "latitude": "29.93400702139722",
    "geocoded_column": {
      "latitude": "29.93400702139722",
      "longitude": "-90.01915755801801"
    }
  },
  {
    "service_request": "2024-1130461",
    "request_type": "Trash/Recycling",
    "request_reason": "Missed Trash Pick-Up",
    "date_created": "2024-09-12T19:03:31.000",
    "date_modified": "2024-09-12T19:03:32.000",
    "request_status": "Pending",
    "responsible_agency": "Department of Sanitation",
    "final_address": "4719 E Adams Ct",
    "address_councildis": "E",
    "status": "Assigned to Contractor",
    "contractor": "Waste Pro",
    "rowid": "1130461",
    "final_x": "3718853.04921",
    "final_y": "556970.611418",
    "longitude": "-89.94915352425402",
    "latitude": "30.0242880681157",
    "geocoded_column": {
      "latitude": "30.0242880681157",
      "longitude": "-89.94915352425402"
    }
  },
  {
    "service_request": "2024-1130458",
    "request_type": "Trash/Recycling",
    "request_reason": "MIssed Recycling Pick-Up",
    "date_created": "2024-09-12T18:45:02.000",
    "date_modified": "2024-09-12T18:45:03.000",
    "request_status": "Pending",
    "responsible_agency": "Department of Sanitation",
    "final_address": "2512 State St",
    "address_councildis": "A",
    "status": "Assigned to Contractor",
    "contractor": "IV Waste",
    "rowid": "1130458",
    "final_x": "3666785.57786",
    "final_y": "525893.633661",
    "longitude": "-90.11472228554123",
    "latitude": "29.9404635619371",
    "geocoded_column": {
      "latitude": "29.9404635619371",
      "longitude": "-90.11472228554123"
    }
  },
  {
    "service_request": "2024-1130457",
    "request_type": "Trash/Recycling",
    "request_reason": "Repair Trash Cart",
    "date_created": "2024-09-12T18:44:07.000",
    "date_modified": "2024-09-12T18:44:09.000",
    "request_status": "Pending",
    "responsible_agency": "Department of Sanitation",
    "final_address": "2419 Mazant St",
    "address_councildis": "D",
    "status": "Assigned to Contractor",
    "contractor": "IV Waste",
    "rowid": "1130457",
    "final_x": "3693407.7768",
    "final_y": "540284.235595",
    "longitude": "-90.03015527265391",
    "latitude": "29.97922730979968",
    "geocoded_column": {
      "latitude": "29.97922730979968",
      "longitude": "-90.03015527265391"
    }
  },
  {
    "service_request": "2024-1130456",
    "request_type": "Trash/Recycling",
    "request_reason": "Repair Trash Cart",
    "date_created": "2024-09-12T18:42:37.000",
    "date_modified": "2024-09-12T18:42:39.000",
    "request_status": "Pending",
    "responsible_agency": "Department of Sanitation",
    "final_address": "520 S Scott St",
    "address_councildis": "B",
    "status": "Assigned to Contractor",
    "contractor": "IV Waste",
    "rowid": "1130456",
    "final_x": "3670734.07681",
    "final_y": "536386.655687",
    "longitude": "-90.1019001656977",
    "latitude": "29.96919985387221",
    "geocoded_column": {
      "latitude": "29.96919985387221",
      "longitude": "-90.1019001656977"
    }
  },
  {
    "service_request": "2024-1130455",
    "request_type": "Trash/Recycling",
    "request_reason": "Dead Animal Pick Up",
    "date_created": "2024-09-12T18:41:58.000",
    "date_modified": "2024-09-12T18:41:59.000",
    "request_status": "Pending",
    "responsible_agency": "Department of Sanitation",
    "final_address": "14300 BLK Michoud Blvd",
    "address_councildis": "E",
    "status": "Assigned to Contractor",
    "contractor": "Waste Pro",
    "rowid": "1130455",
    "final_x": "3727763.42337",
    "final_y": "574215.146633",
    "longitude": "-89.92032686280454",
    "latitude": "30.071404339956963",
    "geocoded_column": {
      "latitude": "30.071404339956963",
      "longitude": "-89.92032686280454"
    }
  },
  {
    "service_request": "2024-1130454",
    "request_type": "Trash/Recycling",
    "request_reason": "Missed Trash Pick-Up",
    "date_created": "2024-09-12T18:40:09.000",
    "date_modified": "2024-09-12T18:40:10.000",
    "request_status": "Pending",
    "responsible_agency": "Department of Sanitation",
    "final_address": "7903 Panola St",
    "address_councildis": "A",
    "status": "Assigned to Contractor",
    "contractor": "IV Waste",
    "rowid": "1130454",
    "final_x": "3664657.23405",
    "final_y": "530246.068801",
    "longitude": "-90.12129649340834",
    "latitude": "29.9524934251563",
    "geocoded_column": {
      "latitude": "29.9524934251563",
      "longitude": "-90.12129649340834"
    }
  },
  {
    "service_request": "2024-1130453",
    "request_type": "Hurricane Francine Tree-Related Issues or Emergencies\t",
    "request_reason": "Hurricane Francine Tree-Related Issues or Emergencies",
    "date_created": "2024-09-12T18:37:12.000",
    "date_modified": "2024-09-12T21:52:47.000",
    "case_close_date": "2024-09-12T16:52:47.000",
    "request_status": "Closed",
    "responsible_agency": "Department of Parks & Parkway",
    "final_address": "1450 State St",
    "address_councildis": "A",
    "status": "Duplicate",
    "rowid": "1130453",
    "final_x": "3665403.60756",
    "final_y": "521613.739321",
    "longitude": "-90.11922858441115",
    "latitude": "29.92873555443688",
    "geocoded_column": {
      "latitude": "29.92873555443688",
      "longitude": "-90.11922858441115"
    }
  },
  {
    "service_request": "2024-1130452",
    "request_type": "Roads and Streets",
    "request_reason": "Street Subsidence (Sinking)",
    "date_created": "2024-09-12T18:36:52.000",
    "date_modified": "2024-09-12T18:36:53.000",
    "request_status": "Pending",
    "responsible_agency": "Department of Public Works",
    "final_address": "920 Third St",
    "address_councildis": "B",
    "status": "Pending",
    "rowid": "1130452",
    "final_x": "3677843.60072",
    "final_y": "520679.812985",
    "longitude": "-90.07999032707814",
    "latitude": "29.925799261620035",
    "geocoded_column": {
      "latitude": "29.925799261620035",
      "longitude": "-90.07999032707814"
    }
  },
  {
    "service_request": "2024-1130451",
    "request_type": "Trash/Recycling",
    "request_reason": "Missed Trash Pick-Up",
    "date_created": "2024-09-12T18:36:27.000",
    "date_modified": "2024-09-12T18:36:28.000",
    "request_status": "Pending",
    "responsible_agency": "Department of Sanitation",
    "final_address": "3285 Elmwood Park Dr",
    "address_councildis": "C",
    "status": "Assigned to Contractor",
    "contractor": "Richards Disposal",
    "rowid": "1130451",
    "final_x": "3695268.92234",
    "final_y": "517967.612406",
    "longitude": "-90.0250818256429",
    "latitude": "29.917806034977218",
    "geocoded_column": {
      "latitude": "29.917806034977218",
      "longitude": "-90.0250818256429"
    }
  },
  {
    "service_request": "2024-1130450",
    "request_type": "Trash/Recycling",
    "request_reason": "Missed Trash Pick-Up",
    "date_created": "2024-09-12T18:34:43.000",
    "date_modified": "2024-09-12T18:34:44.000",
    "request_status": "Pending",
    "responsible_agency": "Department of Sanitation",
    "final_address": "4860 Sierra Madre Dr",
    "address_councildis": "E",
    "status": "Assigned to Contractor",
    "contractor": "Waste Pro",
    "rowid": "1130450",
    "final_x": "3713781.12242",
    "final_y": "556988.002266",
    "longitude": "-89.96517905896258",
    "latitude": "30.024503377712122",
    "geocoded_column": {
      "latitude": "30.024503377712122",
      "longitude": "-89.96517905896258"
    }
  },
  {
    "service_request": "2024-1130449",
    "request_type": "Trash/Recycling",
    "request_reason": "Storm Debris Collection",
    "date_created": "2024-09-12T18:31:53.000",
    "date_modified": "2024-09-12T18:32:37.000",
    "request_status": "Pending",
    "responsible_agency": "Department of Sanitation",
    "final_address": "1728 Abundance St",
    "address_councildis": "D",
    "contractor": "IV Waste",
    "rowid": "1130449",
    "final_x": "3680927.32047",
    "final_y": "543346.548494",
    "longitude": "-90.06946673073774",
    "latitude": "29.988031986626247",
    "geocoded_column": {
      "latitude": "29.988031986626247",
      "longitude": "-90.06946673073774"
    }
  },
  {
    "service_request": "2024-1130448",
    "request_type": "Trash/Recycling",
    "request_reason": "Storm Debris Collection",
    "date_created": "2024-09-12T18:28:36.000",
    "date_modified": "2024-09-12T18:28:36.000",
    "request_status": "Pending",
    "responsible_agency": "Department of Sanitation",
    "final_address": "2013 N Derbigny St",
    "address_councildis": "D",
    "status": "Pending",
    "rowid": "1130448",
    "final_x": "3684194.3686",
    "final_y": "538493.396873",
    "longitude": "-90.05931766295308",
    "latitude": "29.974588035604548",
    "geocoded_column": {
      "latitude": "29.974588035604548",
      "longitude": "-90.05931766295308"
    }
  },
  {
    "service_request": "2024-1130447",
    "request_type": "Trash/Recycling",
    "request_reason": "Missed Trash Pick-Up",
    "date_created": "2024-09-12T18:28:23.000",
    "date_modified": "2024-09-12T18:28:24.000",
    "request_status": "Pending",
    "responsible_agency": "Department of Sanitation",
    "final_address": "1823 Audubon St",
    "address_councildis": "A",
    "status": "Assigned to Contractor",
    "contractor": "IV Waste",
    "rowid": "1130447",
    "final_x": "3665757.93959",
    "final_y": "528257.09824",
    "longitude": "-90.11788757005019",
    "latitude": "29.94699234035736",
    "geocoded_column": {
      "latitude": "29.94699234035736",
      "longitude": "-90.11788757005019"
    }
  },
  {
    "service_request": "2024-1130446",
    "request_type": "Trash/Recycling",
    "request_reason": "Request a Large Item Pick Up",
    "date_created": "2024-09-12T18:27:58.000",
    "date_modified": "2024-09-12T18:27:59.000",
    "request_status": "Pending",
    "responsible_agency": "Department of Sanitation",
    "final_address": "2700 Somerset Dr",
    "address_councildis": "C",
    "status": "Assigned to Contractor",
    "contractor": "Richards Disposal",
    "rowid": "1130446",
    "final_x": "3702909.25444",
    "final_y": "521089.438073",
    "longitude": "-90.00085110504038",
    "latitude": "29.926147906363497",
    "geocoded_column": {
      "latitude": "29.926147906363497",
      "longitude": "-90.00085110504038"
    }
  },
  {
    "service_request": "2024-1130445",
    "request_type": "Drainage",
    "request_reason": "Street Flooding",
    "date_created": "2024-09-12T18:27:40.000",
    "date_modified": "2024-09-12T18:27:40.000",
    "request_status": "Pending",
    "responsible_agency": "Department of Public Works",
    "final_address": "5201 Toulon St",
    "address_councildis": "E",
    "status": "Pending",
    "rowid": "1130445",
    "final_x": "3723657.85055",
    "final_y": "562511.322079",
    "longitude": "-89.93375759795696",
    "latitude": "30.039362292773784",
    "geocoded_column": {
      "latitude": "30.039362292773784",
      "longitude": "-89.93375759795696"
    }
  },
  {
    "service_request": "2024-1130444",
    "request_type": "Traffic Signals",
    "request_reason": "Traffic Signal Malfunctioning or Damaged",
    "date_created": "2024-09-12T18:27:39.000",
    "date_modified": "2024-09-12T18:29:10.000",
    "request_status": "Pending",
    "responsible_agency": "Department of Public Works",
    "final_address": "2140 Magazine St New Orleans, LA  70130",
    "address_councildis": "B",
    "rowid": "1130444",
    "final_x": "3678922.16245",
    "final_y": "522082.969594",
    "longitude": "-90.07653704784515",
    "latitude": "29.929625000618316",
    "geocoded_column": {
      "latitude": "29.929625000618316",
      "longitude": "-90.07653704784515"
    }
  },
  {
    "service_request": "2024-1130443",
    "request_type": "Trash/Recycling",
    "request_reason": "Missed Trash Pick-Up",
    "date_created": "2024-09-12T18:26:13.000",
    "date_modified": "2024-09-12T18:26:14.000",
    "request_status": "Pending",
    "responsible_agency": "Department of Sanitation",
    "final_address": "5215 St Roch Ave",
    "address_councildis": "D",
    "status": "Assigned to Contractor",
    "contractor": "IV Waste",
    "rowid": "1130443",
    "final_x": "3685286.75196",
    "final_y": "552260.725782",
    "longitude": "-90.05538271951586",
    "latitude": "30.012409826589074",
    "geocoded_column": {
      "latitude": "30.012409826589074",
      "longitude": "-90.05538271951586"
    }
  },
  {
    "service_request": "2024-1130441",
    "request_type": "Trash/Recycling",
    "request_reason": "Storm Debris Collection",
    "date_created": "2024-09-12T18:22:27.000",
    "date_modified": "2024-09-12T18:33:24.000",
    "request_status": "Pending",
    "responsible_agency": "Department of Sanitation",
    "final_address": "2600 Somerset Dr",
    "address_councildis": "C",
    "contractor": "Richards Disposal",
    "rowid": "1130441",
    "final_x": "3702925.9059",
    "final_y": "521481.651897",
    "longitude": "-90.0007841431198",
    "latitude": "29.927225825915475",
    "geocoded_column": {
      "latitude": "29.927225825915475",
      "longitude": "-90.0007841431198"
    }
  },
  {
    "service_request": "2024-1130440",
    "request_type": "Trash/Recycling",
    "request_reason": "Missed Trash Pick-Up",
    "date_created": "2024-09-12T18:22:03.000",
    "date_modified": "2024-09-12T18:22:04.000",
    "request_status": "Pending",
    "responsible_agency": "Department of Sanitation",
    "final_address": "4737 Bright Dr",
    "address_councildis": "E",
    "status": "Assigned to Contractor",
    "contractor": "Waste Pro",
    "rowid": "1130440",
    "final_x": "3715897.24428",
    "final_y": "556961.224922",
    "longitude": "-89.9584935773793",
    "latitude": "30.024360106471935",
    "geocoded_column": {
      "latitude": "30.024360106471935",
      "longitude": "-89.9584935773793"
    }
  },
  {
    "service_request": "2024-1130439",
    "request_type": "Trash/Recycling",
    "request_reason": "Storm Debris Collection",
    "date_created": "2024-09-12T18:18:02.000",
    "date_modified": "2024-09-12T18:18:03.000",
    "request_status": "Pending",
    "responsible_agency": "Department of Sanitation",
    "final_address": "6930 Lake Barrington Dr",
    "address_councildis": "E",
    "status": "Pending",
    "rowid": "1130439",
    "final_x": "3712849.36005",
    "final_y": "563685.828833",
    "longitude": "-89.96787103013503",
    "latitude": "30.04295028640755",
    "geocoded_column": {
      "latitude": "30.04295028640755",
      "longitude": "-89.96787103013503"
    }
  },
  {
    "service_request": "2024-1130438",
    "request_type": "Parks & Parkways",
    "request_reason": "Request Tree Service (Right of Way/Public Property)",
    "date_created": "2024-09-12T18:15:10.000",
    "date_modified": "2024-09-12T18:16:30.000",
    "request_status": "Pending",
    "responsible_agency": "Department of Parks & Parkway",
    "final_address": "4674 Wright Rd",
    "address_councildis": "E",
    "rowid": "1130438",
    "final_x": "3716636.62597",
    "final_y": "556652.356058",
    "longitude": "-89.95616902175504",
    "latitude": "30.023486426037813",
    "geocoded_column": {
      "latitude": "30.023486426037813",
      "longitude": "-89.95616902175504"
    }
  },
  {
    "service_request": "2024-1130437",
    "request_type": "Hurricane Francine Tree-Related Issues or Emergencies\t",
    "request_reason": "Hurricane Francine Tree-Related Issues or Emergencies",
    "date_created": "2024-09-12T18:12:05.000",
    "date_modified": "2024-09-12T18:12:06.000",
    "request_status": "Pending",
    "responsible_agency": "Department of Parks & Parkway",
    "final_address": "2020 Gallier St",
    "address_councildis": "D",
    "status": "Pending",
    "rowid": "1130437",
    "final_x": "3691295.80931",
    "final_y": "539180.88833",
    "longitude": "-90.03686509591985",
    "latitude": "29.976259374377314",
    "geocoded_column": {
      "latitude": "29.976259374377314",
      "longitude": "-90.03686509591985"
    }
  },
  {
    "service_request": "2024-1130436",
    "request_type": "Roads and Streets",
    "request_reason": "Street Subsidence (Sinking)",
    "date_created": "2024-09-12T18:11:12.000",
    "date_modified": "2024-09-12T18:11:12.000",
    "request_status": "Pending",
    "responsible_agency": "Department of Public Works",
    "final_address": "10700 BLK Dwyer Rd",
    "address_councildis": "E",
    "status": "Pending",
    "rowid": "1130436",
    "final_x": "3715161.05652",
    "final_y": "558327.980573",
    "longitude": "-89.9607680398089",
    "latitude": "30.02814240829602",
    "geocoded_column": {
      "latitude": "30.02814240829602",
      "longitude": "-89.9607680398089"
    }
  },
  {
    "service_request": "2024-1130435",
    "request_type": "Mosquito, Termite & Rodent Control",
    "request_reason": "Non-Rodent Complaint (Mice, Possums, Snakes)",
    "date_created": "2024-09-12T18:05:59.000",
    "date_modified": "2024-09-12T18:05:59.000",
    "request_status": "Pending",
    "responsible_agency": "Mosquito, Termite & Rodent Control Board",
    "final_address": "4700 Wright Rd",
    "address_councildis": "E",
    "status": "Pending",
    "rowid": "1130435",
    "final_x": "3716622.73484",
    "final_y": "556777.415258",
    "longitude": "-89.95620816511028",
    "latitude": "30.023830748135232",
    "geocoded_column": {
      "latitude": "30.023830748135232",
      "longitude": "-89.95620816511028"
    }
  },
  {
    "service_request": "2024-1130434",
    "request_type": "Trash/Recycling",
    "request_reason": "Storm Debris Collection",
    "date_created": "2024-09-12T18:04:49.000",
    "date_modified": "2024-09-12T18:04:49.000",
    "request_status": "Pending",
    "responsible_agency": "Department of Sanitation",
    "final_address": "4223 Vincennes Pl",
    "address_councildis": "B",
    "status": "Pending",
    "rowid": "1130434",
    "final_x": "3668830.68788",
    "final_y": "531424.619907",
    "longitude": "-90.10807879226563",
    "latitude": "29.95561200848639",
    "geocoded_column": {
      "latitude": "29.95561200848639",
      "longitude": "-90.10807879226563"
    }
  },
  {
    "service_request": "2024-1130433",
    "request_type": "Trash/Recycling",
    "request_reason": "Request a Large Item Pick Up",
    "date_created": "2024-09-12T18:04:23.000",
    "date_modified": "2024-09-12T18:04:24.000",
    "request_status": "Pending",
    "responsible_agency": "Department of Sanitation",
    "final_address": "7321 Symmes Ave",
    "address_councildis": "E",
    "status": "Assigned to Contractor",
    "contractor": "Waste Pro",
    "rowid": "1130433",
    "final_x": "3708417.84651",
    "final_y": "563672.012833",
    "longitude": "-89.9818768141266",
    "latitude": "30.04305675768881",
    "geocoded_column": {
      "latitude": "30.04305675768881",
      "longitude": "-89.9818768141266"
    }
  },
  {
    "service_request": "2024-1130432",
    "request_type": "Trash/Recycling",
    "request_reason": "Missed Trash Pick-Up",
    "date_created": "2024-09-12T18:01:18.000",
    "date_modified": "2024-09-12T18:01:19.000",
    "request_status": "Pending",
    "responsible_agency": "Department of Sanitation",
    "final_address": "5517 Marigny St",
    "address_councildis": "D",
    "status": "Assigned to Contractor",
    "contractor": "IV Waste",
    "rowid": "1130432",
    "final_x": "3684113.81525",
    "final_y": "553228.242903",
    "longitude": "-90.05905454465152",
    "latitude": "30.015106063301182",
    "geocoded_column": {
      "latitude": "30.015106063301182",
      "longitude": "-90.05905454465152"
    }
  },
  {
    "service_request": "2024-1130431",
    "request_type": "Hurricane Francine Tree-Related Issues or Emergencies\t",
    "request_reason": "Hurricane Francine Tree-Related Issues or Emergencies",
    "date_created": "2024-09-12T17:57:49.000",
    "date_modified": "2024-09-12T17:57:49.000",
    "request_status": "Pending",
    "responsible_agency": "Department of Parks & Parkway",
    "final_address": "6821 Louis Xiv St",
    "address_councildis": "A",
    "status": "Pending",
    "rowid": "1130431",
    "final_x": "3668685.48103",
    "final_y": "552911.373271",
    "longitude": "-90.10781164847829",
    "latitude": "30.014697535119637",
    "geocoded_column": {
      "latitude": "30.014697535119637",
      "longitude": "-90.10781164847829"
    }
  },
  {
    "service_request": "2024-1130430",
    "request_type": "Trash/Recycling",
    "request_reason": "Missed Trash Pick-Up",
    "date_created": "2024-09-12T17:55:25.000",
    "date_modified": "2024-09-12T17:55:26.000",
    "request_status": "Pending",
    "responsible_agency": "Department of Sanitation",
    "final_address": "1212 N Gayoso St",
    "address_councildis": "A",
    "status": "Assigned to Contractor",
    "contractor": "IV Waste",
    "rowid": "1130430",
    "final_x": "3676763.55048",
    "final_y": "539421.960906",
    "longitude": "-90.08275401098841",
    "latitude": "29.977366353180507",
    "geocoded_column": {
      "latitude": "29.977366353180507",
      "longitude": "-90.08275401098841"
    }
  },
  {
    "service_request": "2024-1130429",
    "request_type": "Trash/Recycling",
    "request_reason": "Storm Debris Collection",
    "date_created": "2024-09-12T17:55:09.000",
    "date_modified": "2024-09-12T17:55:09.000",
    "request_status": "Pending",
    "responsible_agency": "Department of Sanitation",
    "final_address": "4223 Vincennes Pl",
    "address_councildis": "B",
    "status": "Pending",
    "rowid": "1130429",
    "final_x": "3668830.68788",
    "final_y": "531424.619907",
    "longitude": "-90.10807879226563",
    "latitude": "29.95561200848639",
    "geocoded_column": {
      "latitude": "29.95561200848639",
      "longitude": "-90.10807879226563"
    }
  },
  {
    "service_request": "2024-1130428",
    "request_type": "Trash/Recycling",
    "request_reason": "Storm Debris Collection",
    "date_created": "2024-09-12T17:52:19.000",
    "date_modified": "2024-09-12T17:52:19.000",
    "request_status": "Pending",
    "responsible_agency": "Department of Sanitation",
    "final_address": "4223 Vincennes Pl",
    "address_councildis": "B",
    "status": "Pending",
    "rowid": "1130428",
    "final_x": "3668830.68788",
    "final_y": "531424.619907",
    "longitude": "-90.10807879226563",
    "latitude": "29.95561200848639",
    "geocoded_column": {
      "latitude": "29.95561200848639",
      "longitude": "-90.10807879226563"
    }
  },
  {
    "service_request": "2024-1130427",
    "request_type": "Trash/Recycling",
    "request_reason": "Missed Trash Pick-Up",
    "date_created": "2024-09-12T17:52:06.000",
    "date_modified": "2024-09-12T17:52:07.000",
    "request_status": "Pending",
    "responsible_agency": "Department of Sanitation",
    "final_address": "4468 Arts St",
    "address_councildis": "D",
    "status": "Assigned to Contractor",
    "contractor": "IV Waste",
    "rowid": "1130427",
    "final_x": "3685963.15753",
    "final_y": "549395.479763",
    "longitude": "-90.05334678366779",
    "latitude": "30.004510683501724",
    "geocoded_column": {
      "latitude": "30.004510683501724",
      "longitude": "-90.05334678366779"
    }
  },
  {
    "service_request": "2024-1130426",
    "request_type": "Trash/Recycling",
    "request_reason": "Missed Trash Pick-Up",
    "date_created": "2024-09-12T17:51:45.000",
    "date_modified": "2024-09-12T17:51:46.000",
    "request_status": "Pending",
    "responsible_agency": "Department of Sanitation",
    "final_address": "3707 S Saratoga St",
    "address_councildis": "B",
    "status": "Assigned to Contractor",
    "contractor": "IV Waste",
    "rowid": "1130426",
    "final_x": "3672615.962",
    "final_y": "522940.780219",
    "longitude": "-90.09641540463369",
    "latitude": "29.932172387647693",
    "geocoded_column": {
      "latitude": "29.932172387647693",
      "longitude": "-90.09641540463369"
    }
  },
  {
    "service_request": "2024-1130425",
    "request_type": "Trash/Recycling",
    "request_reason": "Missed Trash Pick-Up",
    "date_created": "2024-09-12T17:47:57.000",
    "date_modified": "2024-09-12T17:47:57.000",
    "request_status": "Pending",
    "responsible_agency": "Department of Sanitation",
    "final_address": "4430 Lancelot Dr, New Orleans, Louisiana, 70127",
    "address_councildis": "E",
    "status": "Assigned to Contractor",
    "contractor": "Waste Pro",
    "rowid": "1130425",
    "final_x": "3707544.13688",
    "final_y": "553760.070743",
    "longitude": "-89.98500668723098",
    "latitude": "30.01583111096896",
    "geocoded_column": {
      "latitude": "30.01583111096896",
      "longitude": "-89.98500668723098"
    }
  },
  {
    "service_request": "2024-1130424",
    "request_type": "Trash/Recycling",
    "request_reason": "MIssed Recycling Pick-Up",
    "date_created": "2024-09-12T17:46:42.000",
    "date_modified": "2024-09-12T17:46:43.000",
    "request_status": "Pending",
    "responsible_agency": "Department of Sanitation",
    "final_address": "3925 Tall Pines Dr. New Orleans LA 70131",
    "address_councildis": "C",
    "status": "Assigned to Contractor",
    "contractor": "Richards Disposal",
    "rowid": "1130424",
    "final_x": "3704698.85143",
    "final_y": "512971.343665",
    "longitude": "-89.99550111085217",
    "latitude": "29.903768596455386",
    "geocoded_column": {
      "latitude": "29.903768596455386",
      "longitude": "-89.99550111085217"
    }
  },
  {
    "service_request": "2024-1130423",
    "request_type": "Hurricane Francine Tree-Related Issues or Emergencies\t",
    "request_reason": "Hurricane Francine Tree-Related Issues or Emergencies",
    "date_created": "2024-09-12T17:45:55.000",
    "date_modified": "2024-09-12T17:45:55.000",
    "request_status": "Pending",
    "responsible_agency": "Department of Parks & Parkway",
    "final_address": "4911 Miles Dr",
    "address_councildis": "D",
    "status": "Pending",
    "rowid": "1130423",
    "final_x": "3680258.03989",
    "final_y": "549509.306579",
    "longitude": "-90.07136637701485",
    "latitude": "30.004997668215562",
    "geocoded_column": {
      "latitude": "30.004997668215562",
      "longitude": "-90.07136637701485"
    }
  },
  {
    "service_request": "2024-1130422",
    "request_type": "Trash/Recycling",
    "request_reason": "Missed Trash Pick-Up",
    "date_created": "2024-09-12T17:45:38.000",
    "date_modified": "2024-09-12T17:45:39.000",
    "request_status": "Pending",
    "responsible_agency": "Department of Sanitation",
    "final_address": "3925 Tall Pines Dr. New Orleans LA 70131",
    "address_councildis": "C",
    "status": "Assigned to Contractor",
    "contractor": "Richards Disposal",
    "rowid": "1130422",
    "final_x": "3704698.85143",
    "final_y": "512971.343665",
    "longitude": "-89.99550111085217",
    "latitude": "29.903768596455386",
    "geocoded_column": {
      "latitude": "29.903768596455386",
      "longitude": "-89.99550111085217"
    }
  },
  {
    "service_request": "2024-1130421",
    "request_type": "Trash/Recycling",
    "request_reason": "Missed Trash Pick-Up",
    "date_created": "2024-09-12T17:43:45.000",
    "date_modified": "2024-09-12T17:43:46.000",
    "request_status": "Pending",
    "responsible_agency": "Department of Sanitation",
    "final_address": "4910 Eunice Dr",
    "address_councildis": "E",
    "status": "Assigned to Contractor",
    "contractor": "Waste Pro",
    "rowid": "1130421",
    "final_x": "3710368.10353",
    "final_y": "556794.792346",
    "longitude": "-89.97597072732894",
    "latitude": "30.02408373753857",
    "geocoded_column": {
      "latitude": "30.02408373753857",
      "longitude": "-89.97597072732894"
    }
  },
  {
    "service_request": "2024-1130420",
    "request_type": "Trash/Recycling",
    "request_reason": "Missed Trash Pick-Up",
    "date_created": "2024-09-12T17:43:24.000",
    "date_modified": "2024-09-12T17:43:25.000",
    "request_status": "Pending",
    "responsible_agency": "Department of Sanitation",
    "final_address": "5560 Norgate Dr",
    "address_councildis": "E",
    "status": "Assigned to Contractor",
    "contractor": "Waste Pro",
    "rowid": "1130420",
    "final_x": "3707275.06468",
    "final_y": "558153.405147",
    "longitude": "-89.98569357130522",
    "latitude": "30.027919776171156",
    "geocoded_column": {
      "latitude": "30.027919776171156",
      "longitude": "-89.98569357130522"
    }
  },
  {
    "service_request": "2024-1130419",
    "request_type": "Trash/Recycling",
    "request_reason": "Missed Trash Pick-Up",
    "date_created": "2024-09-12T17:42:46.000",
    "date_modified": "2024-09-12T17:42:46.000",
    "request_status": "Pending",
    "responsible_agency": "Department of Sanitation",
    "final_address": "4701 Lafaye St",
    "address_councildis": "D",
    "status": "Assigned to Contractor",
    "contractor": "IV Waste",
    "rowid": "1130419",
    "final_x": "3687498.86972",
    "final_y": "550394.42946",
    "longitude": "-90.04845979905612",
    "latitude": "30.00721017152135",
    "geocoded_column": {
      "latitude": "30.00721017152135",
      "longitude": "-90.04845979905612"
    }
  },
  {
    "service_request": "2024-1130418",
    "request_type": "Abandoned Vehicles",
    "request_reason": "Abandoned/Junk Vehicles",
    "date_created": "2024-09-12T17:36:29.000",
    "date_modified": "2024-09-12T17:36:29.000",
    "request_status": "Pending",
    "responsible_agency": "Department of Public Works",
    "final_address": "4641 Murano Rd",
    "address_councildis": "E",
    "status": "Pending",
    "rowid": "1130418",
    "final_x": "3761556.66064",
    "final_y": "574237.20113",
    "longitude": "-89.81349791075753",
    "latitude": "30.070275840367778",
    "geocoded_column": {
      "latitude": "30.070275840367778",
      "longitude": "-89.81349791075753"
    }
  },
  {
    "service_request": "2024-1130417",
    "request_type": "Hurricane Francine Tree-Related Issues or Emergencies\t",
    "request_reason": "Hurricane Francine Tree-Related Issues or Emergencies",
    "date_created": "2024-09-12T17:35:21.000",
    "date_modified": "2024-09-12T17:35:21.000",
    "request_status": "Pending",
    "responsible_agency": "Department of Parks & Parkway",
    "final_address": "4831 Lennox Blvd",
    "address_councildis": "C",
    "status": "Pending",
    "rowid": "1130417",
    "final_x": "3700623.52042",
    "final_y": "512668.296817",
    "longitude": "-90.00837384579427",
    "latitude": "29.903065525062637",
    "geocoded_column": {
      "latitude": "29.903065525062637",
      "longitude": "-90.00837384579427"
    }
  },
  {
    "service_request": "2024-1130416",
    "request_type": "Trash/Recycling",
    "request_reason": "Missed Trash Pick-Up",
    "date_created": "2024-09-12T17:33:51.000",
    "date_modified": "2024-09-12T17:35:15.000",
    "case_close_date": "2024-09-12T12:35:15.000",
    "request_status": "Closed",
    "responsible_agency": "Department of Sanitation",
    "final_address": "4910 Eunice Dr",
    "address_councildis": "E",
    "status": "Invalid Request",
    "contractor": "Waste Pro",
    "contractor_action": "Invalid Request",
    "rowid": "1130416",
    "final_x": "3710368.10353",
    "final_y": "556794.792346",
    "longitude": "-89.97597072732894",
    "latitude": "30.02408373753857",
    "geocoded_column": {
      "latitude": "30.02408373753857",
      "longitude": "-89.97597072732894"
    }
  },
  {
    "service_request": "2024-1130415",
    "request_type": "Trash/Recycling",
    "request_reason": "Missed Trash Pick-Up",
    "date_created": "2024-09-12T17:33:26.000",
    "date_modified": "2024-09-12T17:34:07.000",
    "case_close_date": "2024-09-12T12:34:07.000",
    "request_status": "Closed",
    "responsible_agency": "Department of Sanitation",
    "final_address": "4659 Galahad Dr",
    "address_councildis": "E",
    "status": "Invalid Request",
    "contractor": "Waste Pro",
    "contractor_action": "Invalid Request",
    "rowid": "1130415",
    "final_x": "3707344.15697",
    "final_y": "554871.6454",
    "longitude": "-89.98559721933306",
    "latitude": "30.018893980260277",
    "geocoded_column": {
      "latitude": "30.018893980260277",
      "longitude": "-89.98559721933306"
    }
  },
  {
    "service_request": "2024-1130414",
    "request_type": "Trash/Recycling",
    "request_reason": "Request a Large Item Pick Up",
    "date_created": "2024-09-12T17:32:55.000",
    "date_modified": "2024-09-12T17:32:56.000",
    "request_status": "Pending",
    "responsible_agency": "Department of Sanitation",
    "final_address": "6439 Louisville St",
    "address_councildis": "A",
    "status": "Assigned to Contractor",
    "contractor": "IV Waste",
    "rowid": "1130414",
    "final_x": "3668121.89658",
    "final_y": "550412.794004",
    "longitude": "-90.10967661171455",
    "latitude": "30.007843880650515",
    "geocoded_column": {
      "latitude": "30.007843880650515",
      "longitude": "-90.10967661171455"
    }
  },
  {
    "service_request": "2024-1130413",
    "request_type": "Trash/Recycling",
    "request_reason": "Missed Trash Pick-Up",
    "date_created": "2024-09-12T17:31:37.000",
    "date_modified": "2024-09-12T17:31:38.000",
    "request_status": "Pending",
    "responsible_agency": "Department of Sanitation",
    "final_address": "2302 Nashville Ave",
    "address_councildis": "A",
    "status": "Assigned to Contractor",
    "contractor": "IV Waste",
    "rowid": "1130413",
    "final_x": "3666929.76033",
    "final_y": "524627.502268",
    "longitude": "-90.11430960309754",
    "latitude": "29.93697788967212",
    "geocoded_column": {
      "latitude": "29.93697788967212",
      "longitude": "-90.11430960309754"
    }
  },
  {
    "service_request": "2024-1130412",
    "request_type": "Hurricane Francine Tree-Related Issues or Emergencies\t",
    "request_reason": "Hurricane Francine Tree-Related Issues or Emergencies",
    "date_created": "2024-09-12T17:31:14.000",
    "date_modified": "2024-09-12T17:31:14.000",
    "request_status": "Pending",
    "responsible_agency": "Department of Parks & Parkway",
    "final_address": "1800 Lauradale Dr",
    "address_councildis": "C",
    "status": "Pending",
    "rowid": "1130412",
    "final_x": "3692785.41725",
    "final_y": "524655.26182",
    "longitude": "-90.0326812349807",
    "latitude": "29.936272543501655",
    "geocoded_column": {
      "latitude": "29.936272543501655",
      "longitude": "-90.0326812349807"
    }
  },
  {
    "service_request": "2024-1130411",
    "request_type": "Streetlights",
    "request_reason": "Streetlight Knocked Down/Leaning",
    "date_created": "2024-09-12T17:29:23.000",
    "date_modified": "2024-09-12T17:29:23.000",
    "request_status": "Pending",
    "responsible_agency": "Department of Public Works",
    "final_address": "10 Wren St",
    "address_councildis": "D",
    "status": "Pending",
    "contractor": "Legacy Professional Services",
    "rowid": "1130411",
    "final_x": "3672129.47374",
    "final_y": "555974.084057",
    "longitude": "-90.09682585772734",
    "latitude": "30.023017163248607",
    "geocoded_column": {
      "latitude": "30.023017163248607",
      "longitude": "-90.09682585772734"
    }
  },
  {
    "service_request": "2024-1130410",
    "request_type": "Streetlights",
    "request_reason": "Streetlight Outage/Malfunction",
    "date_created": "2024-09-12T17:28:38.000",
    "date_modified": "2024-09-12T17:28:39.000",
    "request_status": "Pending",
    "responsible_agency": "Department of Public Works",
    "final_address": "6426 Peony St",
    "address_councildis": "C",
    "status": "Pending",
    "contractor": "Legacy Professional Services",
    "rowid": "1130410",
    "final_x": "3707767.78353",
    "final_y": "516488.035701",
    "longitude": "-89.98568510164831",
    "latitude": "29.91333940587741",
    "geocoded_column": {
      "latitude": "29.91333940587741",
      "longitude": "-89.98568510164831"
    }
  },
  {
    "service_request": "2024-1130409",
    "request_type": "Trash/Recycling",
    "request_reason": "Missed Trash Pick-Up",
    "date_created": "2024-09-12T17:28:12.000",
    "date_modified": "2024-09-12T17:28:15.000",
    "request_status": "Pending",
    "responsible_agency": "Department of Sanitation",
    "final_address": "7911 Jeannette St",
    "address_councildis": "A",
    "status": "Assigned to Contractor",
    "contractor": "IV Waste",
    "rowid": "1130409",
    "final_x": "3663202.66061",
    "final_y": "528727.407936",
    "longitude": "-90.12593992459634",
    "latitude": "29.9483598234777",
    "geocoded_column": {
      "latitude": "29.9483598234777",
      "longitude": "-90.12593992459634"
    }
  },
  {
    "service_request": "2024-1130408",
    "request_type": "Trash/Recycling",
    "request_reason": "Missed Trash Pick-Up",
    "date_created": "2024-09-12T17:28:06.000",
    "date_modified": "2024-09-12T17:28:07.000",
    "request_status": "Pending",
    "responsible_agency": "Department of Sanitation",
    "final_address": "3507 Nashville Ave",
    "address_councildis": "A",
    "status": "Assigned to Contractor",
    "contractor": "IV Waste",
    "rowid": "1130408",
    "final_x": "3668279.3778",
    "final_y": "528505.468224",
    "longitude": "-90.10991805566245",
    "latitude": "29.94760149341001",
    "geocoded_column": {
      "latitude": "29.94760149341001",
      "longitude": "-90.10991805566245"
    }
  },
  {
    "service_request": "2024-1130407",
    "request_type": "Streetlights",
    "request_reason": "Streetlight Knocked Down/Leaning",
    "date_created": "2024-09-12T17:26:18.000",
    "date_modified": "2024-09-12T17:26:19.000",
    "request_status": "Pending",
    "responsible_agency": "Department of Public Works",
    "final_address": "10 Wren St",
    "address_councildis": "D",
    "status": "Pending",
    "contractor": "Legacy Professional Services",
    "rowid": "1130407",
    "final_x": "3672129.47374",
    "final_y": "555974.084057",
    "longitude": "-90.09682585772734",
    "latitude": "30.023017163248607",
    "geocoded_column": {
      "latitude": "30.023017163248607",
      "longitude": "-90.09682585772734"
    }
  },
  {
    "service_request": "2024-1130406",
    "request_type": "Trash/Recycling",
    "request_reason": "Missed Trash Pick-Up",
    "date_created": "2024-09-12T17:25:58.000",
    "date_modified": "2024-09-12T17:25:59.000",
    "request_status": "Pending",
    "responsible_agency": "Department of Sanitation",
    "final_address": "1803 Audubon St",
    "address_councildis": "A",
    "status": "Assigned to Contractor",
    "contractor": "IV Waste",
    "rowid": "1130406",
    "final_x": "3665659.38855",
    "final_y": "528111.818943",
    "longitude": "-90.11820359787673",
    "latitude": "29.946595743256587",
    "geocoded_column": {
      "latitude": "29.946595743256587",
      "longitude": "-90.11820359787673"
    }
  },
  {
    "service_request": "2024-1130405",
    "request_type": "Trash/Recycling",
    "request_reason": "Missed Trash Pick-Up",
    "date_created": "2024-09-12T17:22:16.000",
    "date_modified": "2024-09-12T17:22:51.000",
    "case_close_date": "2024-09-12T12:22:51.000",
    "request_status": "Closed",
    "responsible_agency": "Department of Sanitation",
    "final_address": "4733 Camelot Dr",
    "address_councildis": "E",
    "status": "Invalid Request",
    "contractor": "Waste Pro",
    "contractor_action": "Invalid Request",
    "rowid": "1130405",
    "final_x": "3708447.8908",
    "final_y": "555583.744921",
    "longitude": "-89.98208330869649",
    "latitude": "30.020816234917078",
    "geocoded_column": {
      "latitude": "30.020816234917078",
      "longitude": "-89.98208330869649"
    }
  },
  {
    "service_request": "2024-1130404",
    "request_type": "Hurricane Francine Tree-Related Issues or Emergencies\t",
    "request_reason": "Hurricane Francine Tree-Related Issues or Emergencies",
    "date_created": "2024-09-12T17:18:08.000",
    "date_modified": "2024-09-12T17:18:09.000",
    "request_status": "Pending",
    "responsible_agency": "Department of Parks & Parkway",
    "final_address": "1406 Henry Clay Ave",
    "address_councildis": "A",
    "status": "Pending",
    "rowid": "1130404",
    "final_x": "3664495.86836",
    "final_y": "521559.920569",
    "longitude": "-90.12209593796135",
    "latitude": "29.928613985517877",
    "geocoded_column": {
      "latitude": "29.928613985517877",
      "longitude": "-90.12209593796135"
    }
  },
  {
    "service_request": "2024-1130403",
    "request_type": "Hurricane Francine Tree-Related Issues or Emergencies\t",
    "request_reason": "Hurricane Francine Tree-Related Issues or Emergencies",
    "date_created": "2024-09-12T17:17:48.000",
    "date_modified": "2024-09-12T21:46:58.000",
    "case_close_date": "2024-09-12T16:46:58.000",
    "request_status": "Closed",
    "responsible_agency": "Department of Parks & Parkway",
    "final_address": "200 BLK S Saint Patrick St",
    "address_councildis": "A",
    "status": "Duplicate",
    "rowid": "1130403",
    "final_x": "3668751.37736",
    "final_y": "539359.724546",
    "longitude": "-90.10806129539976",
    "latitude": "29.9774332365208",
    "geocoded_column": {
      "latitude": "29.9774332365208",
      "longitude": "-90.10806129539976"
    }
  },
  {
    "service_request": "2024-1130402",
    "request_type": "Trash/Recycling",
    "request_reason": "Storm Debris Collection",
    "date_created": "2024-09-12T17:16:25.000",
    "date_modified": "2024-09-12T17:16:26.000",
    "request_status": "Pending",
    "responsible_agency": "Department of Sanitation",
    "final_address": "6615 Milne Blvd",
    "address_councildis": "A",
    "status": "Pending",
    "rowid": "1130402",
    "final_x": "3667535.85895",
    "final_y": "551642.022997",
    "longitude": "-90.11148667410042",
    "latitude": "30.01124102598863",
    "geocoded_column": {
      "latitude": "30.01124102598863",
      "longitude": "-90.11148667410042"
    }
  },
  {
    "service_request": "2024-1130401",
    "request_type": "Trash/Recycling",
    "request_reason": "Request a Large Item Pick Up",
    "date_created": "2024-09-12T17:14:28.000",
    "date_modified": "2024-09-12T17:14:29.000",
    "request_status": "Pending",
    "responsible_agency": "Department of Sanitation",
    "final_address": "257 Pine St",
    "address_councildis": "A",
    "status": "Assigned to Contractor",
    "contractor": "IV Waste",
    "rowid": "1130401",
    "final_x": "3661517.68877",
    "final_y": "523025.322875",
    "longitude": "-90.13144895100763",
    "latitude": "29.932729610510915",
    "geocoded_column": {
      "latitude": "29.932729610510915",
      "longitude": "-90.13144895100763"
    }
  },
  {
    "service_request": "2024-1130400",
    "request_type": "Trash/Recycling",
    "request_reason": "Request a Large Item Pick Up",
    "date_created": "2024-09-12T17:06:04.000",
    "date_modified": "2024-09-12T17:06:04.000",
    "request_status": "Pending",
    "responsible_agency": "Department of Sanitation",
    "final_address": "2420 Valentine Ct",
    "address_councildis": "C",
    "status": "Assigned to Contractor",
    "contractor": "Richards Disposal",
    "rowid": "1130400",
    "final_x": "3699305.81514",
    "final_y": "522301.990586",
    "longitude": "-90.01218191973277",
    "latitude": "29.92959673857645",
    "geocoded_column": {
      "latitude": "29.92959673857645",
      "longitude": "-90.01218191973277"
    }
  },
  {
    "service_request": "2024-1130399",
    "request_type": "Abandoned Vehicles",
    "request_reason": "Abandoned/Junk Vehicles",
    "date_created": "2024-09-12T17:03:28.000",
    "date_modified": "2024-09-12T17:03:29.000",
    "request_status": "Pending",
    "responsible_agency": "Department of Public Works",
    "final_address": "MORRISON RD & DEVINE AVE",
    "address_councildis": "E",
    "status": "Pending",
    "rowid": "1130399",
    "final_x": "3706151.0",
    "final_y": "562169.88",
    "longitude": "-89.98909661784187",
    "latitude": "30.038999807176307",
    "geocoded_column": {
      "latitude": "30.038999807176307",
      "longitude": "-89.98909661784187"
    }
  },
  {
    "service_request": "2024-1130398",
    "request_type": "Trash/Recycling",
    "request_reason": "Missed Trash Pick-Up",
    "date_created": "2024-09-12T17:01:52.000",
    "date_modified": "2024-09-12T17:01:53.000",
    "request_status": "Pending",
    "responsible_agency": "Department of Sanitation",
    "final_address": "4114 State Street Dr",
    "address_councildis": "B",
    "status": "Assigned to Contractor",
    "contractor": "IV Waste",
    "rowid": "1130398",
    "final_x": "3668323.03342",
    "final_y": "530781.827266",
    "longitude": "-90.10970346438634",
    "latitude": "29.95385945599723",
    "geocoded_column": {
      "latitude": "29.95385945599723",
      "longitude": "-90.10970346438634"
    }
  },
  {
    "service_request": "2024-1130397",
    "request_type": "Trash/Recycling",
    "request_reason": "Storm Debris Collection",
    "date_created": "2024-09-12T17:01:10.000",
    "date_modified": "2024-09-12T17:01:10.000",
    "request_status": "Pending",
    "responsible_agency": "Department of Sanitation",
    "final_address": "11259 Midpoint Dr",
    "address_councildis": "E",
    "status": "Pending",
    "rowid": "1130397",
    "final_x": "3718020.9413",
    "final_y": "559373.829213",
    "longitude": "-89.95169123739944",
    "latitude": "30.030923566250944",
    "geocoded_column": {
      "latitude": "30.030923566250944",
      "longitude": "-89.95169123739944"
    }
  },
  {
    "service_request": "2024-1130396",
    "request_type": "Trash/Recycling",
    "request_reason": "Missed Trash Pick-Up",
    "date_created": "2024-09-12T17:00:31.000",
    "date_modified": "2024-09-12T17:01:30.000",
    "case_close_date": "2024-09-12T12:01:30.000",
    "request_status": "Closed",
    "responsible_agency": "Department of Sanitation",
    "final_address": "11259 Midpoint Dr",
    "address_councildis": "E",
    "status": "Invalid Request",
    "contractor": "Waste Pro",
    "contractor_action": "Invalid Request",
    "rowid": "1130396",
    "final_x": "3718020.9413",
    "final_y": "559373.829213",
    "longitude": "-89.95169123739944",
    "latitude": "30.030923566250944",
    "geocoded_column": {
      "latitude": "30.030923566250944",
      "longitude": "-89.95169123739944"
    }
  },
  {
    "service_request": "2024-1130393",
    "request_type": "Trash/Recycling",
    "request_reason": "Missed Trash Pick-Up",
    "date_created": "2024-09-12T16:58:42.000",
    "date_modified": "2024-09-12T16:58:43.000",
    "request_status": "Pending",
    "responsible_agency": "Department of Sanitation",
    "final_address": "1455 Webster St",
    "address_councildis": "A",
    "status": "Assigned to Contractor",
    "contractor": "IV Waste",
    "rowid": "1130393",
    "final_x": "3665076.29344",
    "final_y": "521848.969594",
    "longitude": "-90.12025399031104",
    "latitude": "29.929391895611417",
    "geocoded_column": {
      "latitude": "29.929391895611417",
      "longitude": "-90.12025399031104"
    }
  },
  {
    "service_request": "2024-1130392",
    "request_type": "Trash/Recycling",
    "request_reason": "Request a Large Item Pick Up",
    "date_created": "2024-09-12T16:58:22.000",
    "date_modified": "2024-09-12T16:58:23.000",
    "request_status": "Pending",
    "responsible_agency": "Department of Sanitation",
    "final_address": "1630 Caton St",
    "address_councildis": "D",
    "status": "Assigned to Contractor",
    "contractor": "IV Waste",
    "rowid": "1130392",
    "final_x": "3679796.57999",
    "final_y": "546829.278737",
    "longitude": "-90.07291735786129",
    "latitude": "29.997642512386232",
    "geocoded_column": {
      "latitude": "29.997642512386232",
      "longitude": "-90.07291735786129"
    }
  },
  {
    "service_request": "2024-1130391",
    "request_type": "Trash/Recycling",
    "request_reason": "Missed Trash Pick-Up",
    "date_created": "2024-09-12T16:57:18.000",
    "date_modified": "2024-09-12T16:57:19.000",
    "request_status": "Pending",
    "responsible_agency": "Department of Sanitation",
    "final_address": "1210 Henry Clay Ave, New Orleans, Louisiana, 70118",
    "address_councildis": "A",
    "status": "Assigned to Contractor",
    "contractor": "IV Waste",
    "rowid": "1130391",
    "final_x": "3664274.28416",
    "final_y": "520983.700537",
    "longitude": "-90.12281465259132",
    "latitude": "29.92703600049723",
    "geocoded_column": {
      "latitude": "29.92703600049723",
      "longitude": "-90.12281465259132"
    }
  },
  {
    "service_request": "2024-1130390",
    "request_type": "Trash/Recycling",
    "request_reason": "Missed Trash Pick-Up",
    "date_created": "2024-09-12T16:55:28.000",
    "date_modified": "2024-09-12T16:55:29.000",
    "request_status": "Pending",
    "responsible_agency": "Department of Sanitation",
    "final_address": "3117 College Ct",
    "address_councildis": "B",
    "status": "Assigned to Contractor",
    "contractor": "IV Waste",
    "rowid": "1130390",
    "final_x": "3668495.77934",
    "final_y": "531823.005891",
    "longitude": "-90.10912287743831",
    "latitude": "29.956717281867782",
    "geocoded_column": {
      "latitude": "29.956717281867782",
      "longitude": "-90.10912287743831"
    }
  },
  {
    "service_request": "2024-1130388",
    "request_type": "Hurricane Francine Tree-Related Issues or Emergencies\t",
    "request_reason": "Hurricane Francine Tree-Related Issues or Emergencies",
    "date_created": "2024-09-12T16:51:54.000",
    "date_modified": "2024-09-12T16:52:13.000",
    "request_status": "Pending",
    "responsible_agency": "Department of Parks & Parkway",
    "final_address": "5000 BLK N Viller St",
    "address_councildis": "E",
    "status": "Pending",
    "rowid": "1130388",
    "final_x": "3696417.66815",
    "final_y": "535336.87498",
    "longitude": "-90.02082789399141",
    "latitude": "29.965529372237043",
    "geocoded_column": {
      "latitude": "29.965529372237043",
      "longitude": "-90.02082789399141"
    }
  },
  {
    "service_request": "2024-1130387",
    "request_type": "Trash/Recycling",
    "request_reason": "Missed Trash Pick-Up",
    "date_created": "2024-09-12T16:51:45.000",
    "date_modified": "2024-09-12T16:53:41.000",
    "case_close_date": "2024-09-12T11:53:41.000",
    "request_status": "Closed",
    "responsible_agency": "Department of Sanitation",
    "final_address": "4711 Sierra Madre Dr",
    "address_councildis": "E",
    "status": "Invalid Request",
    "contractor": "Waste Pro",
    "contractor_action": "Invalid Request",
    "rowid": "1130387",
    "final_x": "3713991.70725",
    "final_y": "556229.684826",
    "longitude": "-89.96454227877199",
    "latitude": "30.022411389194993",
    "geocoded_column": {
      "latitude": "30.022411389194993",
      "longitude": "-89.96454227877199"
    }
  },
  {
    "service_request": "2024-1130386",
    "request_type": "Trash/Recycling",
    "request_reason": "Storm Debris Collection",
    "date_created": "2024-09-12T16:50:22.000",
    "date_modified": "2024-09-12T16:50:23.000",
    "request_status": "Pending",
    "responsible_agency": "Department of Sanitation",
    "final_address": "6820 Curran Rd",
    "address_councildis": "E",
    "status": "Pending",
    "rowid": "1130386",
    "final_x": "3698428.72861",
    "final_y": "560122.886941",
    "longitude": "-90.0135755550882",
    "latitude": "30.03361820560362",
    "geocoded_column": {
      "latitude": "30.03361820560362",
      "longitude": "-90.0135755550882"
    }
  },
  {
    "service_request": "2024-1130385",
    "request_type": "Trash/Recycling",
    "request_reason": "Missed Trash Pick-Up",
    "date_created": "2024-09-12T16:49:38.000",
    "date_modified": "2024-09-12T16:49:39.000",
    "request_status": "Pending",
    "responsible_agency": "Department of Sanitation",
    "final_address": "5118 Music St",
    "address_councildis": "D",
    "status": "Assigned to Contractor",
    "contractor": "IV Waste",
    "rowid": "1130385",
    "final_x": "3685494.08009",
    "final_y": "551613.435861",
    "longitude": "-90.05475049951511",
    "latitude": "30.010623656042313",
    "geocoded_column": {
      "latitude": "30.010623656042313",
      "longitude": "-90.05475049951511"
    }
  },
  {
    "service_request": "2024-1130384",
    "request_type": "Traffic Signals",
    "request_reason": "Traffic Signal Malfunctioning or Damaged",
    "date_created": "2024-09-12T16:48:37.000",
    "date_modified": "2024-09-12T16:48:37.000",
    "request_status": "Pending",
    "responsible_agency": "Department of Public Works",
    "final_address": "ELYSIAN FIELDS AVE & N GALVEZ ST",
    "address_councildis": "D",
    "status": "Pending",
    "rowid": "1130384",
    "final_x": "3684673.9",
    "final_y": "539982.18",
    "longitude": "-90.05775084493696",
    "latitude": "29.978666998970876",
    "geocoded_column": {
      "latitude": "29.978666998970876",
      "longitude": "-90.05775084493696"
    }
  },
  {
    "service_request": "2024-1130383",
    "request_type": "Traffic Signals",
    "request_reason": "Traffic Signal Malfunctioning or Damaged",
    "date_created": "2024-09-12T16:48:17.000",
    "date_modified": "2024-09-12T16:48:18.000",
    "request_status": "Pending",
    "responsible_agency": "Department of Public Works",
    "final_address": "ELYSIAN FIELDS EXIT & N MIRO ST",
    "address_councildis": "D",
    "status": "Pending",
    "rowid": "1130383",
    "final_x": "3684658.1",
    "final_y": "540354.98",
    "longitude": "-90.05778763991917",
    "latitude": "29.979692551727254",
    "geocoded_column": {
      "latitude": "29.979692551727254",
      "longitude": "-90.05778763991917"
    }
  },