[
  {
    "service_request": "2021-850958",
    "request_type": "Traffic Signals/Signs/Striping/Streetlights",
    "request_reason": "Street Light Outage/Malfunction",
    "date_created": "2021-12-30T22:44:35.000",
    "date_modified": "2021-12-30T22:44:36.000",
    "request_status": "Pending",
    "responsible_agency": "Department of Public Works",
    "final_address": "3019 Canal St",
    "address_councildis": "B",
    "status": "Pending",
    "contractor": "Royal Engineering",
    "rowid": "850958",
    "final_x": "3674377.00257",
    "final_y": "536183.248519",
    "longitude": "-90.09040248942972",
    "latitude": "29.96853239965694",
    "geocoded_column": {
      "latitude": "29.96853239965694",
      "longitude": "-90.09040248942972"
    }
  },
  {
    "service_request": "2021-850957",
    "request_type": "Traffic Signals/Signs/Striping/Streetlights",
    "request_reason": "Street Light Outage/Malfunction",
    "date_created": "2021-12-30T22:43:10.000",
    "date_modified": "2021-12-30T22:43:10.000",
    "request_status": "Pending",
    "responsible_agency": "Department of Public Works",
    "final_address": "3019 Canal St",
    "address_councildis": "B",
    "status": "Pending",
    "contractor": "Royal Engineering",
    "rowid": "850957",
    "final_x": "3674377.00257",
    "final_y": "536183.248519",
    "longitude": "-90.09040248942972",
    "latitude": "29.96853239965694",
    "geocoded_column": {
      "latitude": "29.96853239965694",
      "longitude": "-90.09040248942972"
    }
  },
  {
    "service_request": "2021-850956",
    "request_type": "Traffic Signals/Signs/Striping/Streetlights",
    "request_reason": "Street Light Outage/Malfunction",
    "date_created": "2021-12-30T22:40:19.000",
    "date_modified": "2021-12-30T22:40:20.000",
    "request_status": "Pending",
    "responsible_agency": "Department of Public Works",
    "final_address": "3311 Canal St",
    "address_councildis": "B",
    "status": "Pending",
    "contractor": "Royal Engineering",
    "rowid": "850956",
    "final_x": "3673548.49416",
    "final_y": "536642.536903",
    "longitude": "-90.09300326621998",
    "latitude": "29.969819973018254",
    "geocoded_column": {
      "latitude": "29.969819973018254",
      "longitude": "-90.09300326621998"
    }
  },
  {
    "service_request": "2021-850955",
    "request_type": "Traffic Signals/Signs/Striping/Streetlights",
    "request_reason": "Street Light Outage/Malfunction",
    "date_created": "2021-12-30T22:37:33.000",
    "date_modified": "2021-12-30T22:37:33.000",
    "request_status": "Pending",
    "responsible_agency": "Department of Public Works",
    "final_address": "3311 Canal St",
    "address_councildis": "B",
    "status": "Pending",
    "contractor": "Royal Engineering",
    "rowid": "850955",
    "final_x": "3673548.49416",
    "final_y": "536642.536903",
    "longitude": "-90.09300326621998",
    "latitude": "29.969819973018254",
    "geocoded_column": {
      "latitude": "29.969819973018254",
      "longitude": "-90.09300326621998"
    }
  },
  {
    "service_request": "2021-850954",
    "request_type": "Traffic Signals/Signs/Striping/Streetlights",
    "request_reason": "Street Light Outage/Malfunction",
    "date_created": "2021-12-30T22:36:39.000",
    "date_modified": "2021-12-30T22:36:40.000",
    "request_status": "Pending",
    "responsible_agency": "Department of Public Works",
    "final_address": "3311 Canal St",
    "address_councildis": "B",
    "status": "Pending",
    "contractor": "Royal Engineering",
    "rowid": "850954",
    "final_x": "3673548.49416",
    "final_y": "536642.536903",
    "longitude": "-90.09300326621998",
    "latitude": "29.969819973018254",
    "geocoded_column": {
      "latitude": "29.969819973018254",
      "longitude": "-90.09300326621998"
    }
  },
  {
    "service_request": "2021-850953",
    "request_type": "Trash/Recycling",
    "request_reason": "Missed Trash Pick-Up",
    "date_created": "2021-12-30T22:24:50.000",
    "date_modified": "2021-12-30T23:00:51.000",
    "request_status": "Pending",
    "responsible_agency": "Department of Sanitation",
    "final_address": "4033 St Claude Ave",
    "address_councildis": "C",
    "status": "Assigned to Contractor",
    "contractor": "Metro Disposal",
    "rowid": "850953",
    "final_x": "3692077.42038",
    "final_y": "535398.111046",
    "longitude": "-90.03453196541587",
    "latitude": "29.965833736445788",
    "geocoded_column": {
      "latitude": "29.965833736445788",
      "longitude": "-90.03453196541587"
    }
  },
  {
    "service_request": "2021-850952",
    "request_type": "Trash/Recycling",
    "request_reason": "Missed Trash Pick-Up",
    "date_created": "2021-12-30T22:05:39.000",
    "date_modified": "2021-12-30T22:05:39.000",
    "request_status": "Pending",
    "responsible_agency": "Department of Sanitation",
    "final_address": "1400 Congress St",
    "address_councildis": "C",
    "status": "Assigned to Contractor",
    "contractor": "Metro Disposal",
    "rowid": "850952",
    "final_x": "3690962.98851",
    "final_y": "536722.011143",
    "longitude": "-90.03800402913159",
    "latitude": "29.969508682510632",
    "geocoded_column": {
      "latitude": "29.969508682510632",
      "longitude": "-90.03800402913159"
    }
  },
  {
    "service_request": "2021-850951",
    "request_type": "Health Related Questions",
    "request_reason": "Noise Ordinance Complaint",
    "date_created": "2021-12-30T21:34:41.000",
    "date_modified": "2021-12-30T21:34:41.000",
    "request_status": "Pending",
    "responsible_agency": "Health Department",
    "final_address": "239 Decatur St",
    "address_councildis": "C",
    "status": "Pending",
    "rowid": "850951",
    "final_x": "3682195.63317",
    "final_y": "530830.069826",
    "longitude": "-90.06589786183099",
    "latitude": "29.95357746948798",
    "geocoded_column": {
      "latitude": "29.95357746948798",
      "longitude": "-90.06589786183099"
    }
  },
  {
    "service_request": "2021-850950",
    "request_type": "Trash/Recycling",
    "request_reason": "Missed Trash Pick-Up",
    "date_created": "2021-12-30T21:27:14.000",
    "date_modified": "2021-12-30T21:27:15.000",
    "request_status": "Pending",
    "responsible_agency": "Department of Sanitation",
    "final_address": "300 BLK S Saint Patrick St",
    "address_councildis": "A",
    "status": "Assigned to Contractor",
    "contractor": "Richards Disposal",
    "rowid": "850950",
    "final_x": "3668520.09501",
    "final_y": "539054.659867",
    "longitude": "-90.10880206133947",
    "latitude": "29.976601209703997",
    "geocoded_column": {
      "latitude": "29.976601209703997",
      "longitude": "-90.10880206133947"
    }
  },
  {
    "service_request": "2021-850949",
    "request_type": "Roads/Drainage",
    "request_reason": "Street Subsidence (Sinking)",
    "date_created": "2021-12-30T21:10:45.000",
    "date_modified": "2021-12-30T21:10:45.000",
    "request_status": "Pending",
    "responsible_agency": "Department of Public Works",
    "final_address": "5353 Magazine St",
    "address_councildis": "B",
    "status": "Pending",
    "rowid": "850949",
    "final_x": "3667009.40084",
    "final_y": "518819.188343",
    "longitude": "-90.114253265338",
    "latitude": "29.921004539561938",
    "geocoded_column": {
      "latitude": "29.921004539561938",
      "longitude": "-90.114253265338"
    }
  },
  {
    "service_request": "2021-850948",
    "request_type": "Trash/Recycling",
    "request_reason": "Missed Trash Pick-Up",
    "date_created": "2021-12-30T21:09:17.000",
    "date_modified": "2021-12-30T22:00:37.000",
    "request_status": "Pending",
    "responsible_agency": "Department of Sanitation",
    "final_address": "1602 S Carrollton Ave",
    "address_councildis": "A",
    "status": "Assigned to Contractor",
    "contractor": "Richards Disposal",
    "rowid": "850948",
    "final_x": "3662941.54567",
    "final_y": "529480.309569",
    "longitude": "-90.12673934388177",
    "latitude": "29.95043762374432",
    "geocoded_column": {
      "latitude": "29.95043762374432",
      "longitude": "-90.12673934388177"
    }
  },
  {
    "service_request": "2021-850947",
    "request_type": "Trash/Recycling",
    "request_reason": "Missed Trash Pick-Up",
    "date_created": "2021-12-30T21:07:58.000",
    "date_modified": "2021-12-30T22:00:39.000",
    "request_status": "Pending",
    "responsible_agency": "Department of Sanitation",
    "final_address": "11221 N Forest Park Ct",
    "address_councildis": "E",
    "status": "Assigned to Contractor",
    "contractor": "Metro Disposal",
    "rowid": "850947",
    "final_x": "3716917.12338",
    "final_y": "558901.897756",
    "longitude": "-89.95519722800496",
    "latitude": "30.029662494514362",
    "geocoded_column": {
      "latitude": "30.029662494514362",
      "longitude": "-89.95519722800496"
    }
  },
  {
    "service_request": "2021-850946",
    "request_type": "Trash/Recycling",
    "request_reason": "Replace Trash Cart",
    "date_created": "2021-12-30T21:03:29.000",
    "date_modified": "2021-12-30T21:03:29.000",
    "request_status": "Pending",
    "responsible_agency": "Department of Sanitation",
    "final_address": "1410 Thalia St",
    "address_councildis": "B",
    "status": "Assigned to Contractor",
    "contractor": "Richards Disposal",
    "rowid": "850946",
    "final_x": "3679969.49877",
    "final_y": "525375.765245",
    "longitude": "-90.0731164711927",
    "latitude": "29.938647474163314",
    "geocoded_column": {
      "latitude": "29.938647474163314",
      "longitude": "-90.0731164711927"
    }
  },
  {
    "service_request": "2021-850945",
    "request_type": "Trash/Recycling",
    "request_reason": "Missed Trash Pick-Up",
    "date_created": "2021-12-30T21:00:42.000",
    "date_modified": "2021-12-30T21:00:42.000",
    "request_status": "Pending",
    "responsible_agency": "Department of Sanitation",
    "final_address": "3619 Dauphine St",
    "address_councildis": "C",
    "status": "Assigned to Contractor",
    "contractor": "Metro Disposal",
    "rowid": "850945",
    "final_x": "3690602.49033",
    "final_y": "534417.808581",
    "longitude": "-90.03922469303436",
    "latitude": "29.963184134964205",
    "geocoded_column": {
      "latitude": "29.963184134964205",
      "longitude": "-90.03922469303436"
    }
  },
  {
    "service_request": "2021-850944",
    "request_type": "Trash/Recycling",
    "request_reason": "Request a Large Item Pick Up",
    "date_created": "2021-12-30T20:50:41.000",
    "date_modified": "2021-12-30T20:50:41.000",
    "request_status": "Pending",
    "responsible_agency": "Department of Sanitation",
    "final_address": "1514 Gallier St",
    "address_councildis": "D",
    "status": "Assigned to Contractor",
    "contractor": "Metro Disposal",
    "rowid": "850944",
    "final_x": "3690811.65404",
    "final_y": "537265.12052",
    "longitude": "-90.03846257167017",
    "latitude": "29.97100674491652",
    "geocoded_column": {
      "latitude": "29.97100674491652",
      "longitude": "-90.03846257167017"
    }
  },
  {
    "service_request": "2021-850943",
    "request_type": "Trash/Recycling",
    "request_reason": "Missed Trash Pick-Up",
    "date_created": "2021-12-30T20:50:26.000",
    "date_modified": "2021-12-30T21:00:53.000",
    "request_status": "Pending",
    "responsible_agency": "Department of Sanitation",
    "final_address": "939 Montegut St",
    "address_councildis": "C",
    "status": "Assigned to Contractor",
    "contractor": "Metro Disposal",
    "rowid": "850943",
    "final_x": "3688343.36534",
    "final_y": "535666.09159",
    "longitude": "-90.04631444977329",
    "latitude": "29.966686440891067",
    "geocoded_column": {
      "latitude": "29.966686440891067",
      "longitude": "-90.04631444977329"
    }
  },
  {
    "service_request": "2021-850942",
    "request_type": "Trash/Recycling",
    "request_reason": "Missed Trash Pick-Up",
    "date_created": "2021-12-30T20:36:45.000",
    "date_modified": "2021-12-30T20:36:46.000",
    "request_status": "Pending",
    "responsible_agency": "Department of Sanitation",
    "final_address": "1834 Desire St",
    "address_councildis": "D",
    "status": "Assigned to Contractor",
    "contractor": "Metro Disposal",
    "rowid": "850942",
    "final_x": "3690865.58601",
    "final_y": "538615.165193",
    "longitude": "-90.03824405847136",
    "latitude": "29.97471721420109",
    "geocoded_column": {
      "latitude": "29.97471721420109",
      "longitude": "-90.03824405847136"
    }
  },
  {
    "service_request": "2021-850941",
    "request_type": "Trash/Recycling",
    "request_reason": "Missed Trash Pick-Up",
    "date_created": "2021-12-30T20:32:28.000",
    "date_modified": "2021-12-30T20:32:29.000",
    "request_status": "Pending",
    "responsible_agency": "Department of Sanitation",
    "final_address": "3650 Plymouth Pl",
    "address_councildis": "C",
    "status": "Assigned to Contractor",
    "contractor": "Richards Disposal",
    "rowid": "850941",
    "final_x": "3702815.25694",
    "final_y": "517208.281141",
    "longitude": "-90.00129025181778",
    "latitude": "29.915479067522813",
    "geocoded_column": {
      "latitude": "29.915479067522813",
      "longitude": "-90.00129025181778"
    }
  },
  {
    "service_request": "2021-850940",
    "request_type": "Trash/Recycling",
    "request_reason": "Missed Trash Pick-Up",
    "date_created": "2021-12-30T20:32:03.000",
    "date_modified": "2021-12-30T20:32:04.000",
    "request_status": "Pending",
    "responsible_agency": "Department of Sanitation",
    "final_address": "1241 Louisa St",
    "address_councildis": "C",
    "status": "Assigned to Contractor",
    "contractor": "Metro Disposal",
    "rowid": "850940",
    "final_x": "3689769.20848",
    "final_y": "536543.812295",
    "longitude": "-90.04178041706983",
    "latitude": "29.96905575152679",
    "geocoded_column": {
      "latitude": "29.96905575152679",
      "longitude": "-90.04178041706983"
    }
  },
  {
    "service_request": "2021-850938",
    "request_type": "Trash/Recycling",
    "request_reason": "Missed Trash Pick-Up",
    "date_created": "2021-12-30T20:18:08.000",
    "date_modified": "2021-12-30T20:18:09.000",
    "request_status": "Pending",
    "responsible_agency": "Department of Sanitation",
    "final_address": "918 Gordon St",
    "address_councildis": "E",
    "status": "Assigned to Contractor",
    "contractor": "Metro Disposal",
    "rowid": "850938",
    "final_x": "3698877.90666",
    "final_y": "532856.323972",
    "longitude": "-90.01314886637023",
    "latitude": "29.95863102426781",
    "geocoded_column": {
      "latitude": "29.95863102426781",
      "longitude": "-90.01314886637023"
    }
  },
  {
    "service_request": "2021-850937",
    "request_type": "Traffic Signals/Signs/Striping/Streetlights",
    "request_reason": "Additional signage",
    "date_created": "2021-12-30T20:13:08.000",
    "date_modified": "2021-12-30T20:13:08.000",
    "request_status": "Pending",
    "responsible_agency": "Department of Public Works",
    "final_address": "5641 Bentley Dr",
    "address_councildis": "E",
    "status": "Pending",
    "rowid": "850937",
    "final_x": "3703914.0851",
    "final_y": "556891.987482",
    "longitude": "-89.99636046889393",
    "latitude": "30.024559628149884",
    "geocoded_column": {
      "latitude": "30.024559628149884",
      "longitude": "-89.99636046889393"
    }
  },
  {
    "service_request": "2021-850936",
    "request_type": "Trash/Recycling",
    "request_reason": "Order Recycling Cart",
    "date_created": "2021-12-30T20:12:05.000",
    "date_modified": "2021-12-30T20:12:05.000",
    "request_status": "Pending",
    "responsible_agency": "Department of Sanitation",
    "final_address": "184 Forest Oaks Dr",
    "address_councildis": "C",
    "status": "Pending",
    "rowid": "850936",
    "final_x": "3722936.74227",
    "final_y": "510487.878767",
    "longitude": "-89.93803849410781",
    "latitude": "29.89634184734031",
    "geocoded_column": {
      "latitude": "29.89634184734031",
      "longitude": "-89.93803849410781"
    }
  },
  {
    "service_request": "2021-850935",
    "request_type": "Trash/Recycling",
    "request_reason": "Missed Trash Pick-Up",
    "date_created": "2021-12-30T20:10:18.000",
    "date_modified": "2021-12-30T21:00:56.000",
    "request_status": "Pending",
    "responsible_agency": "Department of Sanitation",
    "final_address": "2713 Hamilton St",
    "address_councildis": "A",
    "status": "Assigned to Contractor",
    "contractor": "Richards Disposal",
    "rowid": "850935",
    "final_x": "3663089.57479",
    "final_y": "534805.094278",
    "longitude": "-90.12609480447685",
    "latitude": "29.965074764695462",
    "geocoded_column": {
      "latitude": "29.965074764695462",
      "longitude": "-90.12609480447685"
    }
  },
  {
    "service_request": "2021-850934",
    "request_type": "Property Maintenance",
    "request_reason": "Property Maintenance",
    "date_created": "2021-12-30T20:09:31.000",
    "date_modified": "2021-12-30T20:09:31.000",
    "request_status": "Pending",
    "responsible_agency": "Department of Code Enforcement",
    "final_address": "2233 Louisiana Ave",
    "address_councildis": "B",
    "status": "Pending",
    "rowid": "850934",
    "final_x": "3673295.34958",
    "final_y": "523807.635131",
    "longitude": "-90.09424104787395",
    "latitude": "29.93453577450784",
    "geocoded_column": {
      "latitude": "29.93453577450784",
      "longitude": "-90.09424104787395"
    }
  },
  {
    "service_request": "2021-850933",
    "request_type": "Trash/Recycling",
    "request_reason": "Missed Trash Pick-Up",
    "date_created": "2021-12-30T20:06:48.000",
    "date_modified": "2021-12-30T21:00:57.000",
    "request_status": "Pending",
    "responsible_agency": "Department of Sanitation",
    "final_address": "1917 Dublin St",
    "address_councildis": "A",
    "status": "Assigned to Contractor",
    "contractor": "Richards Disposal",
    "rowid": "850933",
    "final_x": "3663495.89127",
    "final_y": "530524.773954",
    "longitude": "-90.12495422191257",
    "latitude": "29.953293500983378",
    "geocoded_column": {
      "latitude": "29.953293500983378",
      "longitude": "-90.12495422191257"
    }
  },
  {
    "service_request": "2021-850932",
    "request_type": "Property Maintenance",
    "request_reason": "Property Maintenance",
    "date_created": "2021-12-30T20:01:21.000",
    "date_modified": "2021-12-30T20:01:21.000",
    "request_status": "Pending",
    "responsible_agency": "Department of Code Enforcement",
    "final_address": "2235 Louisiana Ave",
    "address_councildis": "B",
    "status": "Pending",
    "rowid": "850932",
    "final_x": "3673301.03771",
    "final_y": "523794.976059",
    "longitude": "-90.09422352272192",
    "latitude": "29.934500797032108",
    "geocoded_column": {
      "latitude": "29.934500797032108",
      "longitude": "-90.09422352272192"
    }
  },
  {
    "service_request": "2021-850930",
    "request_type": "Trash/Recycling",
    "request_reason": "Order Trash Cart",
    "date_created": "2021-12-30T19:38:44.000",
    "date_modified": "2021-12-30T20:01:12.000",
    "request_status": "Pending",
    "responsible_agency": "Department of Sanitation",
    "final_address": "116 Wilshire Pl",
    "address_councildis": "D",
    "status": "Assigned to Contractor",
    "contractor": "Metro Disposal",
    "rowid": "850930",
    "final_x": "3677430.7428",
    "final_y": "544530.578447",
    "longitude": "-90.08047037789763",
    "latitude": "29.991393238862944",
    "geocoded_column": {
      "latitude": "29.991393238862944",
      "longitude": "-90.08047037789763"
    }
  },
  {
    "service_request": "2021-850929",
    "request_type": "Safety & Permits",
    "request_reason": "Safety & Permits Request (Cyber Incident Back Up)",
    "date_created": "2021-12-30T19:27:41.000",
    "date_modified": "2021-12-30T19:27:41.000",
    "request_status": "Pending",
    "responsible_agency": "Safety and Permits",
    "final_address": "5932 Tullis Dr",
    "address_councildis": "C",
    "status": "Pending",
    "rowid": "850929",
    "final_x": "3706488.39959",
    "final_y": "513950.90821",
    "longitude": "-89.98981708945729",
    "latitude": "29.9064044907273",
    "geocoded_column": {
      "latitude": "29.9064044907273",
      "longitude": "-89.98981708945729"
    }
  },
  {
    "service_request": "2021-850928",
    "request_type": "Trash/Recycling",
    "request_reason": "Replace Trash Cart",
    "date_created": "2021-12-30T19:20:31.000",
    "date_modified": "2021-12-30T20:01:14.000",
    "request_status": "Pending",
    "responsible_agency": "Department of Sanitation",
    "final_address": "1700 Frenchmen St",
    "address_councildis": "D",
    "status": "Assigned to Contractor",
    "contractor": "Metro Disposal",
    "rowid": "850928",
    "final_x": "3684379.23957",
    "final_y": "538511.813833",
    "longitude": "-90.05873314920596",
    "latitude": "29.974633022584438",
    "geocoded_column": {
      "latitude": "29.974633022584438",
      "longitude": "-90.05873314920596"
    }
  },
  {
    "service_request": "2021-850927",
    "request_type": "Safety & Permits",
    "request_reason": "Licenses & Permits",
    "date_created": "2021-12-30T19:17:46.000",
    "date_modified": "2021-12-30T19:17:46.000",
    "request_status": "Pending",
    "responsible_agency": "Safety and Permits",
    "final_address": "538 Jackson Ave",
    "address_councildis": "B",
    "status": "Pending",
    "rowid": "850927",
    "final_x": "3679978.27586",
    "final_y": "520524.056568",
    "longitude": "-90.07325720539292",
    "latitude": "29.925306606257028",
    "geocoded_column": {
      "latitude": "29.925306606257028",
      "longitude": "-90.07325720539292"
    }
  },
  {
    "service_request": "2021-850926",
    "request_type": "Trash/Recycling",
    "request_reason": "Replace Recycling Cart",
    "date_created": "2021-12-30T19:07:36.000",
    "date_modified": "2021-12-30T19:07:36.000",
    "request_status": "Pending",
    "responsible_agency": "Department of Sanitation",
    "final_address": "60 Fontainebleau Dr",
    "address_councildis": "A",
    "status": "Pending",
    "rowid": "850926",
    "final_x": "3666501.05255",
    "final_y": "530931.71949",
    "longitude": "-90.11545152075792",
    "latitude": "29.954324984450697",
    "geocoded_column": {
      "latitude": "29.954324984450697",
      "longitude": "-90.11545152075792"
    }
  },
  {
    "service_request": "2021-850925",
    "request_type": "Trash/Recycling",
    "request_reason": "Replace Trash Cart",
    "date_created": "2021-12-30T19:05:22.000",
    "date_modified": "2021-12-30T19:05:23.000",
    "request_status": "Pending",
    "responsible_agency": "Department of Sanitation",
    "final_address": "60 Fontainebleau Dr",
    "address_councildis": "A",
    "status": "Assigned to Contractor",
    "contractor": "Richards Disposal",
    "rowid": "850925",
    "final_x": "3666501.05255",
    "final_y": "530931.71949",
    "longitude": "-90.11545152075792",
    "latitude": "29.954324984450697",
    "geocoded_column": {
      "latitude": "29.954324984450697",
      "longitude": "-90.11545152075792"
    }
  },
  {
    "service_request": "2021-850924",
    "request_type": "Trash/Recycling",
    "request_reason": "Missed Trash Pick-Up",
    "date_created": "2021-12-30T19:04:09.000",
    "date_modified": "2021-12-30T19:04:10.000",
    "request_status": "Pending",
    "responsible_agency": "Department of Sanitation",
    "final_address": "910 Piety St",
    "address_councildis": "C",
    "status": "Assigned to Contractor",
    "contractor": "Metro Disposal",
    "rowid": "850924",
    "final_x": "3689630.76156",
    "final_y": "535108.50087",
    "longitude": "-90.04226871357393",
    "latitude": "29.96511343830445",
    "geocoded_column": {
      "latitude": "29.96511343830445",
      "longitude": "-90.04226871357393"
    }
  },
  {
    "service_request": "2021-850923",
    "request_type": "Trash/Recycling",
    "request_reason": "Missed Trash Pick-Up",
    "date_created": "2021-12-30T18:56:59.000",
    "date_modified": "2021-12-30T18:57:00.000",
    "request_status": "Pending",
    "responsible_agency": "Department of Sanitation",
    "final_address": "5302 Dauphine St",
    "address_councildis": "E",
    "status": "Assigned to Contractor",
    "contractor": "Metro Disposal",
    "rowid": "850923",
    "final_x": "3696529.01296",
    "final_y": "532879.245508",
    "longitude": "-90.02056519090353",
    "latitude": "29.958768254947763",
    "geocoded_column": {
      "latitude": "29.958768254947763",
      "longitude": "-90.02056519090353"
    }
  },
  {
    "service_request": "2021-850922",
    "request_type": "Trash/Recycling",
    "request_reason": "Missed Trash Pick-Up",
    "date_created": "2021-12-30T18:52:54.000",
    "date_modified": "2021-12-30T19:00:40.000",
    "request_status": "Pending",
    "responsible_agency": "Department of Sanitation",
    "final_address": "4119 St Peter St",
    "address_councildis": "A",
    "status": "Assigned to Contractor",
    "contractor": "Richards Disposal",
    "rowid": "850922",
    "final_x": "3672418.01492",
    "final_y": "540090.028875",
    "longitude": "-90.09645590705347",
    "latitude": "29.979333006310693",
    "geocoded_column": {
      "latitude": "29.979333006310693",
      "longitude": "-90.09645590705347"
    }
  },
  {
    "service_request": "2021-850921",
    "request_type": "Trash/Recycling",
    "request_reason": "Missed Trash Pick-Up",
    "date_created": "2021-12-30T18:52:41.000",
    "date_modified": "2021-12-30T19:00:41.000",
    "request_status": "Pending",
    "responsible_agency": "Department of Sanitation",
    "final_address": "4117 St Peter St",
    "address_councildis": "A",
    "status": "Assigned to Contractor",
    "contractor": "Richards Disposal",
    "rowid": "850921",
    "final_x": "3672430.24673",
    "final_y": "540080.415947",
    "longitude": "-90.09641760184233",
    "latitude": "29.97930621097625",
    "geocoded_column": {
      "latitude": "29.97930621097625",
      "longitude": "-90.09641760184233"
    }
  },
  {
    "service_request": "2021-850920",
    "request_type": "Trash/Recycling",
    "request_reason": "Missed Trash Pick-Up",
    "date_created": "2021-12-30T18:50:14.000",
    "date_modified": "2021-12-30T18:50:15.000",
    "request_status": "Pending",
    "responsible_agency": "Department of Sanitation",
    "final_address": "3605 St Claude Ave",
    "address_councildis": "C",
    "status": "Assigned to Contractor",
    "contractor": "Metro Disposal",
    "rowid": "850920",
    "final_x": "3690806.21264",
    "final_y": "535664.449478",
    "longitude": "-90.0385368790018",
    "latitude": "29.966605632285624",
    "geocoded_column": {
      "latitude": "29.966605632285624",
      "longitude": "-90.0385368790018"
    }
  },
  {
    "service_request": "2021-850919",
    "request_type": "Trash/Recycling",
    "request_reason": "Missed Trash Pick-Up",
    "date_created": "2021-12-30T18:42:20.000",
    "date_modified": "2021-12-30T18:42:21.000",
    "request_status": "Pending",
    "responsible_agency": "Department of Sanitation",
    "final_address": "3700 N Rampart St",
    "address_councildis": "C",
    "status": "Assigned to Contractor",
    "contractor": "Metro Disposal",
    "rowid": "850919",
    "final_x": "3690875.87049",
    "final_y": "535021.831494",
    "longitude": "-90.03833983631587",
    "latitude": "29.964836493852683",
    "geocoded_column": {
      "latitude": "29.964836493852683",
      "longitude": "-90.03833983631587"
    }
  },
  {
    "service_request": "2021-850918",
    "request_type": "Trash/Recycling",
    "request_reason": "Order Recycling Cart",
    "date_created": "2021-12-30T18:41:49.000",
    "date_modified": "2021-12-30T19:00:43.000",
    "request_status": "Pending",
    "responsible_agency": "Department of Sanitation",
    "final_address": "5630 Brighton Pl",
    "address_councildis": "C",
    "status": "Pending",
    "rowid": "850918",
    "final_x": "3704452.86519",
    "final_y": "520424.771576",
    "longitude": "-89.99600289741117",
    "latitude": "29.924270856562824",
    "geocoded_column": {
      "latitude": "29.924270856562824",
      "longitude": "-89.99600289741117"
    }
  },
  {
    "service_request": "2021-850917",
    "request_type": "Trash/Recycling",
    "request_reason": "Missed Trash Pick-Up",
    "date_created": "2021-12-30T18:39:05.000",
    "date_modified": "2021-12-30T18:39:05.000",
    "request_status": "Pending",
    "responsible_agency": "Department of Sanitation",
    "final_address": "1020 Pauline St",
    "address_councildis": "C",
    "status": "Assigned to Contractor",
    "contractor": "Metro Disposal",
    "rowid": "850917",
    "final_x": "3691117.51459",
    "final_y": "535195.48679",
    "longitude": "-90.03757054119713",
    "latitude": "29.965306473488177",
    "geocoded_column": {
      "latitude": "29.965306473488177",
      "longitude": "-90.03757054119713"
    }
  },
  {
    "service_request": "2021-850916",
    "request_type": "Trash/Recycling",
    "request_reason": "Missed Trash Pick-Up",
    "date_created": "2021-12-30T18:37:19.000",
    "date_modified": "2021-12-30T18:37:20.000",
    "request_status": "Pending",
    "responsible_agency": "Department of Sanitation",
    "final_address": "3650 Plymouth Pl",
    "address_councildis": "C",
    "status": "Assigned to Contractor",
    "contractor": "Richards Disposal",
    "rowid": "850916",
    "final_x": "3702815.25694",
    "final_y": "517208.281141",
    "longitude": "-90.00129025181778",
    "latitude": "29.915479067522813",
    "geocoded_column": {
      "latitude": "29.915479067522813",
      "longitude": "-90.00129025181778"
    }
  },
  {
    "service_request": "2021-850915",
    "request_type": "Trash/Recycling",
    "request_reason": "Missed Trash Pick-Up",
    "date_created": "2021-12-30T18:32:25.000",
    "date_modified": "2021-12-30T18:32:26.000",
    "request_status": "Pending",
    "responsible_agency": "Department of Sanitation",
    "final_address": "3117 N Villere St",
    "address_councildis": "C",
    "status": "Assigned to Contractor",
    "contractor": "Metro Disposal",
    "rowid": "850915",
    "final_x": "3689429.97321",
    "final_y": "537103.568072",
    "longitude": "-90.04283183289137",
    "latitude": "29.97060539285459",
    "geocoded_column": {
      "latitude": "29.97060539285459",
      "longitude": "-90.04283183289137"
    }
  },
  {
    "service_request": "2021-850914",
    "request_type": "Traffic Signals/Signs/Striping/Streetlights",
    "request_reason": "Street Light Outage/Malfunction",
    "date_created": "2021-12-30T18:30:29.000",
    "date_modified": "2021-12-30T18:30:29.000",
    "request_status": "Pending",
    "responsible_agency": "Department of Public Works",
    "final_address": "6508 Orleans Ave",
    "address_councildis": "A",
    "status": "Pending",
    "contractor": "Royal Engineering",
    "rowid": "850914",
    "final_x": "3671160.26356",
    "final_y": "550597.502996",
    "longitude": "-90.10007120373695",
    "latitude": "30.008262197512423",
    "geocoded_column": {
      "latitude": "30.008262197512423",
      "longitude": "-90.10007120373695"
    }
  },
  {
    "service_request": "2021-850913",
    "request_type": "Traffic Signals/Signs/Striping/Streetlights",
    "request_reason": "Street Light Outage/Malfunction",
    "date_created": "2021-12-30T18:29:46.000",
    "date_modified": "2021-12-30T18:29:46.000",
    "request_status": "Pending",
    "responsible_agency": "Department of Public Works",
    "final_address": "6508 Orleans Ave",
    "address_councildis": "A",
    "status": "Pending",
    "contractor": "Royal Engineering",
    "rowid": "850913",
    "final_x": "3671160.26356",
    "final_y": "550597.502996",
    "longitude": "-90.10007120373695",
    "latitude": "30.008262197512423",
    "geocoded_column": {
      "latitude": "30.008262197512423",
      "longitude": "-90.10007120373695"
    }
  },
  {
    "service_request": "2021-850912",
    "request_type": "Trash/Recycling",
    "request_reason": "Missed Trash Pick-Up",
    "date_created": "2021-12-30T18:29:23.000",
    "date_modified": "2021-12-30T18:29:24.000",
    "request_status": "Pending",
    "responsible_agency": "Department of Sanitation",
    "final_address": "939 Jourdan Ave",
    "address_councildis": "E",
    "status": "Assigned to Contractor",
    "contractor": "Metro Disposal",
    "rowid": "850912",
    "final_x": "3694946.17322",
    "final_y": "534011.921285",
    "longitude": "-90.02552254565832",
    "latitude": "29.961932482358126",
    "geocoded_column": {
      "latitude": "29.961932482358126",
      "longitude": "-90.02552254565832"
    }
  },
  {
    "service_request": "2021-850911",
    "request_type": "Trash/Recycling",
    "request_reason": "Missed Trash Pick-Up",
    "date_created": "2021-12-30T18:28:00.000",
    "date_modified": "2021-12-30T19:00:44.000",
    "request_status": "Pending",
    "responsible_agency": "Department of Sanitation",
    "final_address": "4531 Bienville Ave",
    "address_councildis": "A",
    "status": "Assigned to Contractor",
    "contractor": "Richards Disposal",
    "rowid": "850911",
    "final_x": "3670024.30791",
    "final_y": "540265.340107",
    "longitude": "-90.10401025801677",
    "latitude": "29.97988588360446",
    "geocoded_column": {
      "latitude": "29.97988588360446",
      "longitude": "-90.10401025801677"
    }
  },
  {
    "service_request": "2021-850910",
    "request_type": "Trash/Recycling",
    "request_reason": "Missed Trash Pick-Up",
    "date_created": "2021-12-30T18:21:55.000",
    "date_modified": "2021-12-30T18:21:56.000",
    "request_status": "Pending",
    "responsible_agency": "Department of Sanitation",
    "final_address": "3600 BLK Frenchmen St",
    "address_councildis": "D",
    "status": "Assigned to Contractor",
    "contractor": "Metro Disposal",
    "rowid": "850910",
    "final_x": "3683804.42501",
    "final_y": "546030.754839",
    "longitude": "-90.06028472273498",
    "latitude": "29.995325027388855",
    "geocoded_column": {
      "latitude": "29.995325027388855",
      "longitude": "-90.06028472273498"
    }
  },
  {
    "service_request": "2021-850909",
    "request_type": "Roads/Drainage",
    "request_reason": "Pothole",
    "date_created": "2021-12-30T18:10:50.000",
    "date_modified": "2021-12-30T19:00:49.000",
    "request_status": "Pending",
    "responsible_agency": "Department of Public Works",
    "final_address": "718 St Peter St",
    "address_councildis": "C",
    "status": "Pending",
    "rowid": "850909",
    "final_x": "3682364.44316",
    "final_y": "532519.320068",
    "longitude": "-90.06530580417049",
    "latitude": "29.958217198020957",
    "geocoded_column": {
      "latitude": "29.958217198020957",
      "longitude": "-90.06530580417049"
    }
  },
  {
    "service_request": "2021-850908",
    "request_type": "Trash/Recycling",
    "request_reason": "Missed Trash Pick-Up",
    "date_created": "2021-12-30T18:07:45.000",
    "date_modified": "2021-12-30T18:07:46.000",
    "request_status": "Pending",
    "responsible_agency": "Department of Sanitation",
    "final_address": "9037 Green St",
    "address_councildis": "A",
    "status": "Assigned to Contractor",
    "contractor": "Richards Disposal",
    "rowid": "850908",
    "final_x": "3660614.4905",
    "final_y": "532039.712067",
    "longitude": "-90.13400242875093",
    "latitude": "29.957542331551803",
    "geocoded_column": {
      "latitude": "29.957542331551803",
      "longitude": "-90.13400242875093"
    }
  },
  {
    "service_request": "2021-850907",
    "request_type": "Roads/Drainage",
    "request_reason": "Pothole",
    "date_created": "2021-12-30T18:07:02.000",
    "date_modified": "2021-12-30T19:00:51.000",
    "request_status": "Pending",
    "responsible_agency": "Department of Public Works",
    "final_address": "540 Toulouse St",
    "address_councildis": "C",
    "status": "Pending",
    "rowid": "850907",
    "final_x": "3682653.64636",
    "final_y": "531872.674307",
    "longitude": "-90.06441519324036",
    "latitude": "29.956430339270263",
    "geocoded_column": {
      "latitude": "29.956430339270263",
      "longitude": "-90.06441519324036"
    }
  },
  {
    "service_request": "2021-850906",
    "request_type": "Roads/Drainage",
    "request_reason": "Leaking Hydrant",
    "date_created": "2021-12-30T18:04:22.000",
    "date_modified": "2021-12-30T18:04:22.000",
    "request_status": "Pending",
    "responsible_agency": "Department of Public Works",
    "final_address": "LAUREL ST & LEONTINE ST",
    "address_councildis": "B",
    "status": "Pending",
    "rowid": "850906",
    "final_x": "3667059.4",
    "final_y": "517891.08",
    "longitude": "-90.11412661198831",
    "latitude": "29.918451070309054",
    "geocoded_column": {
      "latitude": "29.918451070309054",
      "longitude": "-90.11412661198831"
    }
  },
  {
    "service_request": "2021-850905",
    "request_type": "Trash/Recycling",
    "request_reason": "Missed Trash Pick-Up",
    "date_created": "2021-12-30T18:04:05.000",
    "date_modified": "2021-12-30T18:04:06.000",
    "request_status": "Pending",
    "responsible_agency": "Department of Sanitation",
    "final_address": "9037 Green St",
    "address_councildis": "A",
    "status": "Assigned to Contractor",
    "contractor": "Richards Disposal",
    "rowid": "850905",
    "final_x": "3660614.4905",
    "final_y": "532039.712067",
    "longitude": "-90.13400242875093",
    "latitude": "29.957542331551803",
    "geocoded_column": {
      "latitude": "29.957542331551803",
      "longitude": "-90.13400242875093"
    }
  },
  {
    "service_request": "2021-850904",
    "request_type": "Trash/Recycling",
    "request_reason": "Missed Trash Pick-Up",
    "date_created": "2021-12-30T18:03:27.000",
    "date_modified": "2021-12-30T18:03:27.000",
    "request_status": "Pending",
    "responsible_agency": "Department of Sanitation",
    "final_address": "2729 Edna St",
    "address_councildis": "D",
    "status": "Assigned to Contractor",
    "contractor": "Metro Disposal",
    "rowid": "850904",
    "final_x": "3689619.9638",
    "final_y": "545327.968975",
    "longitude": "-90.04193909236174",
    "latitude": "29.993213679326495",
    "geocoded_column": {
      "latitude": "29.993213679326495",
      "longitude": "-90.04193909236174"
    }
  },
  {
    "service_request": "2021-850903",
    "request_type": "Trash/Recycling",
    "request_reason": "Missed Trash Pick-Up",
    "date_created": "2021-12-30T18:02:06.000",
    "date_modified": "2021-12-30T18:02:06.000",
    "request_status": "Pending",
    "responsible_agency": "Department of Sanitation",
    "final_address": "9037 Green St",
    "address_councildis": "A",
    "status": "Assigned to Contractor",
    "contractor": "Richards Disposal",
    "rowid": "850903",
    "final_x": "3660614.4905",
    "final_y": "532039.712067",
    "longitude": "-90.13400242875093",
    "latitude": "29.957542331551803",
    "geocoded_column": {
      "latitude": "29.957542331551803",
      "longitude": "-90.13400242875093"
    }
  },
  {
    "service_request": "2021-850902",
    "request_type": "Trash/Recycling",
    "request_reason": "Request a Large Item Pick Up",
    "date_created": "2021-12-30T18:00:56.000",
    "date_modified": "2021-12-30T18:00:57.000",
    "request_status": "Pending",
    "responsible_agency": "Department of Sanitation",
    "final_address": "725 Herald St",
    "address_councildis": "C",
    "status": "Assigned to Contractor",
    "contractor": "Richards Disposal",
    "rowid": "850902",
    "final_x": "3702215.65265",
    "final_y": "519753.081272",
    "longitude": "-90.0030895639284",
    "latitude": "29.92249554667411",
    "geocoded_column": {
      "latitude": "29.92249554667411",
      "longitude": "-90.0030895639284"
    }
  },
  {
    "service_request": "2021-850901",
    "request_type": "Trash/Recycling",
    "request_reason": "Request a Large Item Pick Up",
    "date_created": "2021-12-30T17:26:35.000",
    "date_modified": "2021-12-30T18:00:31.000",
    "request_status": "Pending",
    "responsible_agency": "Department of Sanitation",
    "final_address": "7704 Birch St",
    "address_councildis": "A",
    "status": "Assigned to Contractor",
    "contractor": "Richards Disposal",
    "rowid": "850901",
    "final_x": "3663898.98919",
    "final_y": "528460.776704",
    "longitude": "-90.12375020390267",
    "latitude": "29.947606479755436",
    "geocoded_column": {
      "latitude": "29.947606479755436",
      "longitude": "-90.12375020390267"
    }
  },
  {
    "service_request": "2021-850900",
    "request_type": "Trash/Recycling",
    "request_reason": "Missed Trash Pick-Up",
    "date_created": "2021-12-30T17:24:16.000",
    "date_modified": "2021-12-30T17:24:16.000",
    "request_status": "Pending",
    "responsible_agency": "Department of Sanitation",
    "final_address": "4713 Baudin St",
    "address_councildis": "A",
    "status": "Assigned to Contractor",
    "contractor": "Richards Disposal",
    "rowid": "850900",
    "final_x": "3668069.05716",
    "final_y": "538675.029385",
    "longitude": "-90.11023938073886",
    "latitude": "29.975570599468433",
    "geocoded_column": {
      "latitude": "29.975570599468433",
      "longitude": "-90.11023938073886"
    }
  },
  {
    "service_request": "2021-850899",
    "request_type": "Traffic Signals/Signs/Striping/Streetlights",
    "request_reason": "Traffic Signal Malfunctioning/Damaged",
    "date_created": "2021-12-30T17:21:01.000",
    "date_modified": "2021-12-30T18:00:32.000",
    "request_status": "Pending",
    "responsible_agency": "Department of Public Works",
    "final_address": "I-610 E, New Orleans, Louisiana, 70122",
    "status": "Pending",
    "rowid": "850899",
    "longitude": "0.0",
    "latitude": "0.0",
    "geocoded_column": {
      "latitude": "0.0",
      "longitude": "0.0"
    }
  },
  {
    "service_request": "2021-850898",
    "request_type": "Trash/Recycling",
    "request_reason": "Missed Trash Pick-Up",
    "date_created": "2021-12-30T17:20:41.000",
    "date_modified": "2021-12-30T18:00:34.000",
    "request_status": "Pending",
    "responsible_agency": "Department of Sanitation",
    "final_address": "500 Passera Ct, New Orleans, Louisiana, 70119",
    "address_councildis": "A",
    "status": "Assigned to Contractor",
    "contractor": "Richards Disposal",
    "rowid": "850898",
    "final_x": "3670524.39233",
    "final_y": "540681.272395",
    "longitude": "-90.10241666911767",
    "latitude": "29.98101479413959",
    "geocoded_column": {
      "latitude": "29.98101479413959",
      "longitude": "-90.10241666911767"
    }
  },
  {
    "service_request": "2021-850897",
    "request_type": "Abandoned Vehicles",
    "request_reason": "Abandoned/Junk Vehicles",
    "date_created": "2021-12-30T17:15:17.000",
    "date_modified": "2021-12-30T17:15:17.000",
    "request_status": "Pending",
    "responsible_agency": "Department of Public Works",
    "final_address": "6232 Pasteur Blvd",
    "address_councildis": "D",
    "status": "Pending",
    "rowid": "850897",
    "final_x": "3682675.01589",
    "final_y": "556126.53705",
    "longitude": "-90.06349898388004",
    "latitude": "30.023119228761402",
    "geocoded_column": {
      "latitude": "30.023119228761402",
      "longitude": "-90.06349898388004"
    }
  },
  {
    "service_request": "2021-850896",
    "request_type": "Tax and Revenue",
    "request_reason": "Pay Property Tax",
    "date_created": "2021-12-30T17:12:05.000",
    "date_modified": "2021-12-30T18:00:36.000",
    "request_status": "Pending",
    "responsible_agency": "Bureau of Treasury",
    "final_address": "3623 Constance St",
    "address_councildis": "B",
    "status": "Pending",
    "rowid": "850896",
    "final_x": "3674065.9595",
    "final_y": "518966.330487",
    "longitude": "-90.091973826238",
    "latitude": "29.921200812635217",
    "geocoded_column": {
      "latitude": "29.921200812635217",
      "longitude": "-90.091973826238"
    }
  },
  {
    "service_request": "2021-850895",
    "request_type": "Trash/Recycling",
    "request_reason": "Missed Trash Pick-Up",
    "date_created": "2021-12-30T17:10:42.000",
    "date_modified": "2021-12-30T17:10:43.000",
    "request_status": "Pending",
    "responsible_agency": "Department of Sanitation",
    "final_address": "4822 Cleveland Ave",
    "address_councildis": "A",
    "status": "Assigned to Contractor",
    "contractor": "Richards Disposal",
    "rowid": "850895",
    "final_x": "3668365.69857",
    "final_y": "539808.562826",
    "longitude": "-90.10926425820907",
    "latitude": "29.97867872482772",
    "geocoded_column": {
      "latitude": "29.97867872482772",
      "longitude": "-90.10926425820907"
    }
  },
  {
    "service_request": "2021-850894",
    "request_type": "Trash/Recycling",
    "request_reason": "Missed Trash Pick-Up",
    "date_created": "2021-12-30T17:08:37.000",
    "date_modified": "2021-12-30T18:00:38.000",
    "request_status": "Pending",
    "responsible_agency": "Department of Sanitation",
    "final_address": "2615 Prentiss Ave, New Orleans, Louisiana, 70122",
    "address_councildis": "D",
    "status": "Assigned to Contractor",
    "contractor": "Metro Disposal",
    "rowid": "850894",
    "final_x": "3686684.50927",
    "final_y": "554153.423832",
    "longitude": "-90.05089966970364",
    "latitude": "30.01757111170995",
    "geocoded_column": {
      "latitude": "30.01757111170995",
      "longitude": "-90.05089966970364"
    }
  },
  {
    "service_request": "2021-850893",
    "request_type": "Trash/Recycling",
    "request_reason": "Order Trash Cart",
    "date_created": "2021-12-30T17:08:20.000",
    "date_modified": "2021-12-30T18:00:41.000",
    "request_status": "Pending",
    "responsible_agency": "Department of Sanitation",
    "final_address": "8071 Driftwood Dr",
    "address_councildis": "E",
    "status": "Assigned to Contractor",
    "contractor": "Metro Disposal",
    "rowid": "850893",
    "final_x": "3702552.04919",
    "final_y": "561977.888543",
    "longitude": "-90.00047730049396",
    "latitude": "30.038587506287616",
    "geocoded_column": {
      "latitude": "30.038587506287616",
      "longitude": "-90.00047730049396"
    }
  },
  {
    "service_request": "2021-850892",
    "request_type": "Trash/Recycling",
    "request_reason": "Missed Trash Pick-Up",
    "date_created": "2021-12-30T17:00:20.000",
    "date_modified": "2021-12-30T17:00:31.000",
    "request_status": "Pending",
    "responsible_agency": "Department of Sanitation",
    "final_address": "835 Montegut St",
    "address_councildis": "C",
    "status": "Assigned to Contractor",
    "contractor": "Metro Disposal",
    "rowid": "850892",
    "final_x": "3688246.0374",
    "final_y": "535267.634822",
    "longitude": "-90.04663594004876",
    "latitude": "29.96559382935748",
    "geocoded_column": {
      "latitude": "29.96559382935748",
      "longitude": "-90.04663594004876"
    }
  },
  {
    "service_request": "2021-850891",
    "request_type": "Trash/Recycling",
    "request_reason": "Missed Trash Pick-Up",
    "date_created": "2021-12-30T16:59:32.000",
    "date_modified": "2021-12-30T16:59:33.000",
    "request_status": "Pending",
    "responsible_agency": "Department of Sanitation",
    "final_address": "3000 Burgundy St",
    "address_councildis": "C",
    "status": "Assigned to Contractor",
    "contractor": "Metro Disposal",
    "rowid": "850891",
    "final_x": "3688291.36003",
    "final_y": "535300.28071",
    "longitude": "-90.04649165561362",
    "latitude": "29.96568219467396",
    "geocoded_column": {
      "latitude": "29.96568219467396",
      "longitude": "-90.04649165561362"
    }
  },
  {
    "service_request": "2021-850890",
    "request_type": "Trash/Recycling",
    "request_reason": "Illegal Dumping",
    "date_created": "2021-12-30T16:52:25.000",
    "date_modified": "2021-12-30T17:00:33.000",
    "request_status": "Pending",
    "responsible_agency": "Department of Code Enforcement",
    "final_address": "CLIO ST & S LIBERTY ST",
    "address_councildis": "B",
    "status": "Pending",
    "rowid": "850890",
    "final_x": "3677486.2",
    "final_y": "527772.68",
    "longitude": "-90.08087380040521",
    "latitude": "29.94531306197041",
    "geocoded_column": {
      "latitude": "29.94531306197041",
      "longitude": "-90.08087380040521"
    }
  },
  {
    "service_request": "2021-850889",
    "request_type": "Trash/Recycling",
    "request_reason": "Missed Trash Pick-Up",
    "date_created": "2021-12-30T16:51:47.000",
    "date_modified": "2021-12-30T16:51:48.000",
    "request_status": "Pending",
    "responsible_agency": "Department of Sanitation",
    "final_address": "4309 Reynes St",
    "address_councildis": "E",
    "status": "Assigned to Contractor",
    "contractor": "Metro Disposal",
    "rowid": "850889",
    "final_x": "3699425.93341",
    "final_y": "552614.573526",
    "longitude": "-90.01069817409913",
    "latitude": "30.012941595718594",
    "geocoded_column": {
      "latitude": "30.012941595718594",
      "longitude": "-90.01069817409913"
    }
  },
  {
    "service_request": "2021-850888",
    "request_type": "Trash/Recycling",
    "request_reason": "Missed Trash Pick-Up",
    "date_created": "2021-12-30T16:45:05.000",
    "date_modified": "2021-12-30T16:45:06.000",
    "request_status": "Pending",
    "responsible_agency": "Department of Sanitation",
    "final_address": "2536 Hamilton St",
    "address_councildis": "A",
    "status": "Assigned to Contractor",
    "contractor": "Richards Disposal",
    "rowid": "850888",
    "final_x": "3662661.10003",
    "final_y": "534439.592645",
    "longitude": "-90.12746005706998",
    "latitude": "29.96408216075535",
    "geocoded_column": {
      "latitude": "29.96408216075535",
      "longitude": "-90.12746005706998"
    }
  },
  {
    "service_request": "2021-850887",
    "request_type": "Abandoned Vehicles",
    "request_reason": "Abandoned/Junk Vehicles",
    "date_created": "2021-12-30T16:44:31.000",
    "date_modified": "2021-12-30T16:44:31.000",
    "request_status": "Pending",
    "responsible_agency": "Department of Public Works",
    "final_address": "2019 Royal St",
    "address_councildis": "C",
    "status": "Pending",
    "rowid": "850887",
    "final_x": "3684507.12425",
    "final_y": "534846.442118",
    "longitude": "-90.05845805607306",
    "latitude": "29.964550610458296",
    "geocoded_column": {
      "latitude": "29.964550610458296",
      "longitude": "-90.05845805607306"
    }
  },
  {
    "service_request": "2021-850886",
    "request_type": "Trash/Recycling",
    "request_reason": "Request a Large Item Pick Up",
    "date_created": "2021-12-30T16:43:41.000",
    "date_modified": "2021-12-30T16:43:42.000",
    "request_status": "Pending",
    "responsible_agency": "Department of Sanitation",
    "final_address": "7711 Birch St",
    "address_councildis": "A",
    "status": "Assigned to Contractor",
    "contractor": "Richards Disposal",
    "rowid": "850886",
    "final_x": "3663954.26714",
    "final_y": "528521.214976",
    "longitude": "-90.1235736543242",
    "latitude": "29.947771060925213",
    "geocoded_column": {
      "latitude": "29.947771060925213",
      "longitude": "-90.1235736543242"
    }
  },
  {
    "service_request": "2021-850885",
    "request_type": "Trash/Recycling",
    "request_reason": "Request a Large Item Pick Up",
    "date_created": "2021-12-30T16:39:57.000",
    "date_modified": "2021-12-30T16:39:58.000",
    "request_status": "Pending",
    "responsible_agency": "Department of Sanitation",
    "final_address": "5624 Annunciation St",
    "address_councildis": "A",
    "status": "Assigned to Contractor",
    "contractor": "Richards Disposal",
    "rowid": "850885",
    "final_x": "3665590.24634",
    "final_y": "517503.879542",
    "longitude": "-90.11877692239632",
    "latitude": "29.917429291783687",
    "geocoded_column": {
      "latitude": "29.917429291783687",
      "longitude": "-90.11877692239632"
    }
  },
  {
    "service_request": "2021-850884",
    "request_type": "Trash/Recycling",
    "request_reason": "Request a Large Item Pick Up",
    "date_created": "2021-12-30T16:36:26.000",
    "date_modified": "2021-12-30T16:36:26.000",
    "request_status": "Pending",
    "responsible_agency": "Department of Sanitation",
    "final_address": "4120 Erato St",
    "address_councildis": "B",
    "status": "Assigned to Contractor",
    "contractor": "Richards Disposal",
    "rowid": "850884",
    "final_x": "3671234.6523",
    "final_y": "531230.559938",
    "longitude": "-90.1004945042858",
    "latitude": "29.95500750656508",
    "geocoded_column": {
      "latitude": "29.95500750656508",
      "longitude": "-90.1004945042858"
    }
  },
  {
    "service_request": "2021-850883",
    "request_type": "Trash/Recycling",
    "request_reason": "Missed Trash Pick-Up",
    "date_created": "2021-12-30T16:33:53.000",
    "date_modified": "2021-12-30T17:00:34.000",
    "request_status": "Pending",
    "responsible_agency": "Department of Sanitation",
    "final_address": "315 N Bernadotte St, New Orleans, Louisiana, 70119",
    "address_councildis": "A",
    "status": "Assigned to Contractor",
    "contractor": "Richards Disposal",
    "rowid": "850883",
    "final_x": "3669346.87566",
    "final_y": "540857.626891",
    "longitude": "-90.1061298391489",
    "latitude": "29.9815344382555",
    "geocoded_column": {
      "latitude": "29.9815344382555",
      "longitude": "-90.1061298391489"
    }
  },
  {
    "service_request": "2021-850882",
    "request_type": "Abandoned Vehicles",
    "request_reason": "Abandoned/Junk Vehicles",
    "date_created": "2021-12-30T16:32:18.000",
    "date_modified": "2021-12-30T16:32:18.000",
    "request_status": "Pending",
    "responsible_agency": "Department of Public Works",
    "final_address": "LE BOEUF ST & PELICAN AVE",
    "address_councildis": "C",
    "status": "Pending",
    "rowid": "850882",
    "final_x": "3689881.4",
    "final_y": "530681.58",
    "longitude": "-90.04163480904984",
    "latitude": "29.952933176866093",
    "geocoded_column": {
      "latitude": "29.952933176866093",
      "longitude": "-90.04163480904984"
    }
  },
  {
    "service_request": "2021-850881",
    "request_type": "Traffic Signals/Signs/Striping/Streetlights",
    "request_reason": "Street Light Outage/Malfunction",
    "date_created": "2021-12-30T16:31:54.000",
    "date_modified": "2021-12-30T16:31:54.000",
    "request_status": "Pending",
    "responsible_agency": "Department of Public Works",
    "final_address": "2813 N Rocheblave St",
    "address_councildis": "D",
    "status": "Pending",
    "contractor": "Royal Engineering",
    "rowid": "850881",
    "final_x": "3687993.66825",
    "final_y": "541400.694988",
    "longitude": "-90.04721551922103",
    "latitude": "29.98246537698982",
    "geocoded_column": {
      "latitude": "29.98246537698982",
      "longitude": "-90.04721551922103"
    }
  },
  {
    "service_request": "2021-850880",
    "request_type": "Trash/Recycling",
    "request_reason": "Request a Large Item Pick Up",
    "date_created": "2021-12-30T16:31:42.000",
    "date_modified": "2021-12-30T16:31:42.000",
    "request_status": "Pending",
    "responsible_agency": "Department of Sanitation",
    "final_address": "2308 N Johnson St",
    "address_councildis": "D",
    "status": "Assigned to Contractor",
    "contractor": "Metro Disposal",
    "rowid": "850880",
    "final_x": "3685616.4285",
    "final_y": "539654.679178",
    "longitude": "-90.05478553562844",
    "latitude": "29.977737602429983",
    "geocoded_column": {
      "latitude": "29.977737602429983",
      "longitude": "-90.05478553562844"
    }
  },
  {
    "service_request": "2021-850879",
    "request_type": "Trash/Recycling",
    "request_reason": "Request a Large Item Pick Up",
    "date_created": "2021-12-30T16:21:47.000",
    "date_modified": "2021-12-30T17:00:35.000",
    "request_status": "Pending",
    "responsible_agency": "Department of Sanitation",
    "final_address": "4435 Carondelet St",
    "address_councildis": "B",
    "status": "Assigned to Contractor",
    "contractor": "Richards Disposal",
    "rowid": "850879",
    "final_x": "3670510.50484",
    "final_y": "521301.339705",
    "longitude": "-90.10311771073995",
    "latitude": "29.92772677864005",
    "geocoded_column": {
      "latitude": "29.92772677864005",
      "longitude": "-90.10311771073995"
    }
  },
  {
    "service_request": "2021-850878",
    "request_type": "Trash/Recycling",
    "request_reason": "Missed Trash Pick-Up",
    "date_created": "2021-12-30T16:13:47.000",
    "date_modified": "2021-12-30T16:13:48.000",
    "request_status": "Pending",
    "responsible_agency": "Department of Sanitation",
    "final_address": "821 Louisa St",
    "address_councildis": "C",
    "status": "Assigned to Contractor",
    "contractor": "Metro Disposal",
    "rowid": "850878",
    "final_x": "3689346.08508",
    "final_y": "534883.912518",
    "longitude": "-90.04317568887538",
    "latitude": "29.96450471541891",
    "geocoded_column": {
      "latitude": "29.96450471541891",
      "longitude": "-90.04317568887538"
    }
  },
  {
    "service_request": "2021-850877",
    "request_type": "Trash/Recycling",
    "request_reason": "Missed Trash Pick-Up",
    "date_created": "2021-12-30T16:09:50.000",
    "date_modified": "2021-12-30T16:09:51.000",
    "request_status": "Pending",
    "responsible_agency": "Department of Sanitation",
    "final_address": "3300 BLK Marais St",
    "address_councildis": "C",
    "status": "Assigned to Contractor",
    "contractor": "Metro Disposal",
    "rowid": "850877",
    "final_x": "3690096.29923",
    "final_y": "536097.879692",
    "longitude": "-90.04076333156608",
    "latitude": "29.967819451923624",
    "geocoded_column": {
      "latitude": "29.967819451923624",
      "longitude": "-90.04076333156608"
    }
  },
  {
    "service_request": "2021-850876",
    "request_type": "Trash/Recycling",
    "request_reason": "Missed Trash Pick-Up",
    "date_created": "2021-12-30T16:02:25.000",
    "date_modified": "2021-12-30T16:02:25.000",
    "request_status": "Pending",
    "responsible_agency": "Department of Sanitation",
    "final_address": "1618 S Liberty St",
    "address_councildis": "B",
    "status": "Assigned to Contractor",
    "contractor": "Richards Disposal",
    "rowid": "850876",
    "final_x": "3676745.19873",
    "final_y": "526531.537982",
    "longitude": "-90.08325613022687",
    "latitude": "29.941922581934552",
    "geocoded_column": {
      "latitude": "29.941922581934552",
      "longitude": "-90.08325613022687"
    }
  },
  {
    "service_request": "2021-850875",
    "request_type": "Trash/Recycling",
    "request_reason": "Illegal Dumping",
    "date_created": "2021-12-30T15:58:07.000",
    "date_modified": "2021-12-30T16:00:46.000",
    "request_status": "Pending",
    "responsible_agency": "Department of Code Enforcement",
    "final_address": "6311 St Claude Ave",
    "address_councildis": "E",
    "status": "Pending",
    "rowid": "850875",
    "final_x": "3700255.25591",
    "final_y": "533150.182916",
    "longitude": "-90.00878885874964",
    "latitude": "29.959395324941273",
    "geocoded_column": {
      "latitude": "29.959395324941273",
      "longitude": "-90.00878885874964"
    }
  },
  {
    "service_request": "2021-850874",
    "request_type": "Trash/Recycling",
    "request_reason": "Missed Trash Pick-Up",
    "date_created": "2021-12-30T15:57:35.000",
    "date_modified": "2021-12-30T15:57:36.000",
    "request_status": "Pending",
    "responsible_agency": "Department of Sanitation",
    "final_address": "2133 Port St",
    "address_councildis": "D",
    "status": "Assigned to Contractor",
    "contractor": "Metro Disposal",
    "rowid": "850874",
    "final_x": "3688479.83273",
    "final_y": "540409.618763",
    "longitude": "-90.04571515248844",
    "latitude": "29.979725255954794",
    "geocoded_column": {
      "latitude": "29.979725255954794",
      "longitude": "-90.04571515248844"
    }
  },
  {
    "service_request": "2021-850873",
    "request_type": "Trash/Recycling",
    "request_reason": "Illegal Dumping",
    "date_created": "2021-12-30T15:57:06.000",
    "date_modified": "2021-12-30T16:00:47.000",
    "request_status": "Pending",
    "responsible_agency": "Department of Sanitation",
    "final_address": "1420 Tennessee St",
    "address_councildis": "E",
    "status": "Pending",
    "rowid": "850873",
    "final_x": "3695950.9752",
    "final_y": "535624.670278",
    "longitude": "-90.02229128406076",
    "latitude": "29.966335397707695",
    "geocoded_column": {
      "latitude": "29.966335397707695",
      "longitude": "-90.02229128406076"
    }
  },
  {
    "service_request": "2021-850872",
    "request_type": "Trash/Recycling",
    "request_reason": "Missed Trash Pick-Up",
    "date_created": "2021-12-30T15:53:45.000",
    "date_modified": "2021-12-30T15:53:46.000",
    "request_status": "Pending",
    "responsible_agency": "Department of Sanitation",
    "final_address": "1014 Desire St",
    "address_councildis": "C",
    "status": "Assigned to Contractor",
    "contractor": "Metro Disposal",
    "rowid": "850872",
    "final_x": "3690078.27043",
    "final_y": "535408.076614",
    "longitude": "-90.04084483903002",
    "latitude": "29.96592329460682",
    "geocoded_column": {
      "latitude": "29.96592329460682",
      "longitude": "-90.04084483903002"
    }
  },
  {
    "service_request": "2021-850871",
    "request_type": "Trash/Recycling",
    "request_reason": "Missed Trash Pick-Up",
    "date_created": "2021-12-30T15:52:13.000",
    "date_modified": "2021-12-30T15:52:14.000",
    "request_status": "Pending",
    "responsible_agency": "Department of Sanitation",
    "final_address": "5300 BLK Douglass St",
    "address_councildis": "E",
    "status": "Assigned to Contractor",
    "contractor": "Metro Disposal",
    "rowid": "850871",
    "final_x": "3696391.06584",
    "final_y": "531873.862877",
    "longitude": "-90.02103714947656",
    "latitude": "29.956008152043083",
    "geocoded_column": {
      "latitude": "29.956008152043083",
      "longitude": "-90.02103714947656"
    }
  },
  {
    "service_request": "2021-850870",
    "request_type": "Trash/Recycling",
    "request_reason": "Order Trash Cart",
    "date_created": "2021-12-30T15:36:46.000",
    "date_modified": "2021-12-30T16:00:49.000",
    "request_status": "Pending",
    "responsible_agency": "Department of Sanitation",
    "final_address": "2205 Rev. John Raphael, Jr. Way",
    "address_councildis": "B",
    "status": "Assigned to Contractor",
    "contractor": "Richards Disposal",
    "rowid": "850870",
    "final_x": "3675723.82651",
    "final_y": "526013.756477",
    "longitude": "-90.08649860902364",
    "latitude": "29.94052945275641",
    "geocoded_column": {
      "latitude": "29.94052945275641",
      "longitude": "-90.08649860902364"
    }
  },
  {
    "service_request": "2021-850869",
    "request_type": "Trash/Recycling",
    "request_reason": "Order Trash Cart",
    "date_created": "2021-12-30T15:36:34.000",
    "date_modified": "2021-12-30T16:00:50.000",
    "request_status": "Pending",
    "responsible_agency": "Department of Sanitation",
    "final_address": "2201 Rev. John Raphael, Jr. Way",
    "address_councildis": "B",
    "status": "Assigned to Contractor",
    "contractor": "Richards Disposal",
    "rowid": "850869",
    "final_x": "3675754.14472",
    "final_y": "526037.078718",
    "longitude": "-90.08640208800588",
    "latitude": "29.940592674090393",
    "geocoded_column": {
      "latitude": "29.940592674090393",
      "longitude": "-90.08640208800588"
    }
  },
  {
    "service_request": "2021-850868",
    "request_type": "Trash/Recycling",
    "request_reason": "Order Trash Cart",
    "date_created": "2021-12-30T15:36:19.000",
    "date_modified": "2021-12-30T16:00:52.000",
    "request_status": "Pending",
    "responsible_agency": "Department of Sanitation",
    "final_address": "2203 Rev. John Raphael, Jr. Way",
    "address_councildis": "B",
    "status": "Assigned to Contractor",
    "contractor": "Richards Disposal",
    "rowid": "850868",
    "final_x": "3675741.37857",
    "final_y": "526027.504382",
    "longitude": "-90.08644272186913",
    "latitude": "29.940566729803024",
    "geocoded_column": {
      "latitude": "29.940566729803024",
      "longitude": "-90.08644272186913"
    }
  },
  {
    "service_request": "2021-850867",
    "request_type": "Trash/Recycling",
    "request_reason": "Missed Trash Pick-Up",
    "date_created": "2021-12-30T15:34:26.000",
    "date_modified": "2021-12-30T15:34:26.000",
    "request_status": "Pending",
    "responsible_agency": "Department of Sanitation",
    "final_address": "1255 Foy St",
    "address_councildis": "D",
    "status": "Assigned to Contractor",
    "contractor": "Metro Disposal",
    "rowid": "850867",
    "final_x": "3677072.98894",
    "final_y": "546449.048081",
    "longitude": "-90.08153423895939",
    "latitude": "29.996679108277736",
    "geocoded_column": {
      "latitude": "29.996679108277736",
      "longitude": "-90.08153423895939"
    }
  },
  {
    "service_request": "2021-850865",
    "request_type": "Trash/Recycling",
    "request_reason": "Missed Trash Pick-Up",
    "date_created": "2021-12-30T15:22:35.000",
    "date_modified": "2021-12-30T15:22:36.000",
    "request_status": "Pending",
    "responsible_agency": "Department of Sanitation",
    "final_address": "6840 Coventry St",
    "address_councildis": "E",
    "status": "Assigned to Contractor",
    "contractor": "Metro Disposal",
    "rowid": "850865",
    "final_x": "3698739.78237",
    "final_y": "559662.968605",
    "longitude": "-90.01260934793656",
    "latitude": "30.032343753097507",
    "geocoded_column": {
      "latitude": "30.032343753097507",
      "longitude": "-90.01260934793656"
    }
  },
  {
    "service_request": "2021-850864",
    "request_type": "Mosquito, Termite & Rodent Control",
    "request_reason": "Rodent Complaint (Rats)",
    "date_created": "2021-12-30T15:22:27.000",
    "date_modified": "2021-12-30T16:00:53.000",
    "request_status": "Pending",
    "responsible_agency": "Mosquito, Termite & Rodent Control Board",
    "final_address": "7701 Dwyer Rd",
    "address_councildis": "E",
    "status": "Pending",
    "rowid": "850864",
    "final_x": "3703024.10654",
    "final_y": "556078.502746",
    "longitude": "-89.9992025545671",
    "latitude": "30.02235138178073",
    "geocoded_column": {
      "latitude": "30.02235138178073",
      "longitude": "-89.9992025545671"
    }
  },
  {
    "service_request": "2021-850863",
    "request_type": "Trash/Recycling",
    "request_reason": "Dead Animal Pick Up",
    "date_created": "2021-12-30T15:21:21.000",
    "date_modified": "2021-12-30T15:21:21.000",
    "request_status": "Pending",
    "responsible_agency": "Department of Sanitation",
    "final_address": "1833 Shirley Dr",
    "address_councildis": "C",
    "status": "Assigned to Contractor",
    "contractor": "Richards Disposal",
    "rowid": "850863",
    "final_x": "3692867.13379",
    "final_y": "522720.500282",
    "longitude": "-90.03249259784926",
    "latitude": "29.93095005737129",
    "geocoded_column": {
      "latitude": "29.93095005737129",
      "longitude": "-90.03249259784926"
    }
  },
  {
    "service_request": "2021-850862",
    "request_type": "Trash/Recycling",
    "request_reason": "Replace Trash Cart",
    "date_created": "2021-12-30T15:18:40.000",
    "date_modified": "2021-12-30T16:00:55.000",
    "request_status": "Pending",
    "responsible_agency": "Department of Sanitation",
    "final_address": "905 7th St, New Orleans, Louisiana, 70115",
    "status": "Assigned to Contractor",
    "rowid": "850862",
    "longitude": "0.0",
    "latitude": "0.0",
    "geocoded_column": {
      "latitude": "0.0",
      "longitude": "0.0"
    }
  },
  {
    "service_request": "2021-850861",
    "request_type": "Trash/Recycling",
    "request_reason": "Replace Trash Cart",
    "date_created": "2021-12-30T15:17:17.000",
    "date_modified": "2021-12-30T16:00:56.000",
    "request_status": "Pending",
    "responsible_agency": "Department of Sanitation",
    "final_address": "903 7th St, New Orleans, Louisiana, 70115",
    "status": "Assigned to Contractor",
    "rowid": "850861",
    "longitude": "0.0",
    "latitude": "0.0",
    "geocoded_column": {
      "latitude": "0.0",
      "longitude": "0.0"
    }
  },
  {
    "service_request": "2021-850860",
    "request_type": "Trash/Recycling",
    "request_reason": "Repair Trash Cart",
    "date_created": "2021-12-30T15:16:47.000",
    "date_modified": "2021-12-30T16:00:58.000",
    "request_status": "Pending",
    "responsible_agency": "Department of Sanitation",
    "final_address": "26 Castle Pines Dr",
    "address_councildis": "C",
    "status": "Assigned to Contractor",
    "contractor": "Richards Disposal",
    "rowid": "850860",
    "final_x": "3718971.43109",
    "final_y": "511606.576048",
    "longitude": "-89.95050933873908",
    "latitude": "29.899550046584437",
    "geocoded_column": {
      "latitude": "29.899550046584437",
      "longitude": "-89.95050933873908"
    }
  },
  {
    "service_request": "2021-850859",
    "request_type": "Trash/Recycling",
    "request_reason": "Missed Trash Pick-Up",
    "date_created": "2021-12-30T15:03:18.000",
    "date_modified": "2021-12-30T15:03:19.000",
    "request_status": "Pending",
    "responsible_agency": "Department of Sanitation",
    "final_address": "1208 Camp St",
    "address_councildis": "B",
    "status": "Assigned to Contractor",
    "contractor": "Richards Disposal",
    "rowid": "850859",
    "final_x": "3680260.99183",
    "final_y": "525618.957437",
    "longitude": "-90.07218774628612",
    "latitude": "29.939307353623576",
    "geocoded_column": {
      "latitude": "29.939307353623576",
      "longitude": "-90.07218774628612"
    }
  },
  {
    "service_request": "2021-850858",
    "request_type": "Roads/Drainage",
    "request_reason": "Street Subsidence (Sinking)",
    "date_created": "2021-12-30T15:01:30.000",
    "date_modified": "2021-12-30T15:01:30.000",
    "request_status": "Pending",
    "responsible_agency": "Department of Public Works",
    "final_address": "3131 N Tonti St",
    "address_councildis": "D",
    "status": "Pending",
    "rowid": "850858",
    "final_x": "3690420.64873",
    "final_y": "540558.218443",
    "longitude": "-90.03957998802869",
    "latitude": "29.980073740672868",
    "geocoded_column": {
      "latitude": "29.980073740672868",
      "longitude": "-90.03957998802869"
    }
  },
  {
    "service_request": "2021-850857",
    "request_type": "Roads/Drainage",
    "request_reason": "Man hole cover issue",
    "date_created": "2021-12-30T15:00:48.000",
    "date_modified": "2021-12-30T15:00:48.000",
    "request_status": "Pending",
    "responsible_agency": "Department of Public Works",
    "final_address": "4702 St Claude Ave",
    "address_councildis": "E",
    "status": "Pending",
    "rowid": "850857",
    "final_x": "3694685.70134",
    "final_y": "534525.550917",
    "longitude": "-90.02632657024841",
    "latitude": "29.963352954410013",
    "geocoded_column": {
      "latitude": "29.963352954410013",
      "longitude": "-90.02632657024841"
    }
  },
  {
    "service_request": "2021-850856",
    "request_type": "Roads/Drainage",
    "request_reason": "Street Subsidence (Sinking)",
    "date_created": "2021-12-30T14:58:33.000",
    "date_modified": "2021-12-30T14:58:33.000",
    "request_status": "Pending",
    "responsible_agency": "Department of Public Works",
    "final_address": "4702 St Claude Ave",
    "address_councildis": "E",
    "status": "Pending",
    "rowid": "850856",
    "final_x": "3694685.70134",
    "final_y": "534525.550917",
    "longitude": "-90.02632657024841",
    "latitude": "29.963352954410013",
    "geocoded_column": {
      "latitude": "29.963352954410013",
      "longitude": "-90.02632657024841"
    }
  },
  {
    "service_request": "2021-850855",
    "request_type": "Trash/Recycling",
    "request_reason": "Request a Large Item Pick Up",
    "date_created": "2021-12-30T14:58:14.000",
    "date_modified": "2021-12-30T14:58:15.000",
    "request_status": "Pending",
    "responsible_agency": "Department of Sanitation",
    "final_address": "3235 River Oaks Dr",
    "address_councildis": "C",
    "status": "Assigned to Contractor",
    "contractor": "Richards Disposal",
    "rowid": "850855",
    "final_x": "3701379.31613",
    "final_y": "519221.142135",
    "longitude": "-90.00574897673062",
    "latitude": "29.92105956774159",
    "geocoded_column": {
      "latitude": "29.92105956774159",
      "longitude": "-90.00574897673062"
    }
  },
  {
    "service_request": "2021-850854",
    "request_type": "Trash/Recycling",
    "request_reason": "Request a Large Item Pick Up",
    "date_created": "2021-12-30T14:57:06.000",
    "date_modified": "2021-12-30T15:00:55.000",
    "request_status": "Pending",
    "responsible_agency": "Department of Sanitation",
    "final_address": "524 Bouny St, New Orleans, Louisiana, 70114",
    "address_councildis": "C",
    "status": "Assigned to Contractor",
    "contractor": "Richards Disposal",
    "rowid": "850854",
    "final_x": "3686268.4847",
    "final_y": "529590.171969",
    "longitude": "-90.0530812814291",
    "latitude": "29.95004367170826",
    "geocoded_column": {
      "latitude": "29.95004367170826",
      "longitude": "-90.0530812814291"
    }
  },
  {
    "service_request": "2021-850853",
    "request_type": "Roads/Drainage",
    "request_reason": "Damaged Sidewalk",
    "date_created": "2021-12-30T14:57:02.000",
    "date_modified": "2021-12-30T14:57:04.000",
    "request_status": "Pending",
    "responsible_agency": "Department of Public Works",
    "final_address": "616 N Olympia St",
    "address_councildis": "A",
    "status": "Pending",
    "rowid": "850853",
    "final_x": "3670624.43873",
    "final_y": "541147.969548",
    "longitude": "-90.10208483788853",
    "latitude": "29.982295096879756",
    "geocoded_column": {
      "latitude": "29.982295096879756",
      "longitude": "-90.10208483788853"
    }
  },
  {
    "service_request": "2021-850852",
    "request_type": "Trash/Recycling",
    "request_reason": "Request a Large Item Pick Up",
    "date_created": "2021-12-30T14:52:57.000",
    "date_modified": "2021-12-30T15:00:56.000",
    "request_status": "Pending",
    "responsible_agency": "Department of Sanitation",
    "final_address": "3319 Banks St",
    "address_councildis": "B",
    "status": "Assigned to Contractor",
    "contractor": "Richards Disposal",
    "rowid": "850852",
    "final_x": "3672749.25524",
    "final_y": "535633.489158",
    "longitude": "-90.09556176548396",
    "latitude": "29.96706919602034",
    "geocoded_column": {
      "latitude": "29.96706919602034",
      "longitude": "-90.09556176548396"
    }
  },
  {
    "service_request": "2021-850851",
    "request_type": "Trash/Recycling",
    "request_reason": "Request a Large Item Pick Up",
    "date_created": "2021-12-30T14:51:19.000",
    "date_modified": "2021-12-30T14:51:20.000",
    "request_status": "Pending",
    "responsible_agency": "Department of Sanitation",
    "final_address": "ST CLAUDE AVE & FRANKLIN AVE",
    "address_councildis": "C",
    "status": "Assigned to Contractor",
    "contractor": "Metro Disposal",
    "rowid": "850851",
    "final_x": "3687068.7",
    "final_y": "536547.68",
    "longitude": "-90.05030865196827",
    "latitude": "29.96914980739771",
    "geocoded_column": {
      "latitude": "29.96914980739771",
      "longitude": "-90.05030865196827"
    }
  },
  {
    "service_request": "2021-850850",
    "request_type": "Property Maintenance",
    "request_reason": "Property Maintenance",
    "date_created": "2021-12-30T14:48:17.000",
    "date_modified": "2021-12-30T14:48:18.000",
    "request_status": "Pending",
    "responsible_agency": "Department of Code Enforcement",
    "final_address": "3417 Thalia St Apt A",
    "address_councildis": "B",
    "status": "Pending",
    "rowid": "850850",
    "final_x": "3673528.45774",
    "final_y": "529523.774849",
    "longitude": "-90.09330983947025",
    "latitude": "29.950246353079088",
    "geocoded_column": {
      "latitude": "29.950246353079088",
      "longitude": "-90.09330983947025"
    }
  },
  {
    "service_request": "2021-850849",
    "request_type": "Trash/Recycling",
    "request_reason": "Missed Trash Pick-Up",
    "date_created": "2021-12-30T14:36:00.000",
    "date_modified": "2021-12-30T14:36:00.000",
    "request_status": "Pending",
    "responsible_agency": "Department of Sanitation",
    "final_address": "934 Desire St",
    "address_councildis": "C",
    "status": "Assigned to Contractor",
    "contractor": "Metro Disposal",
    "rowid": "850849",
    "final_x": "3690018.37027",
    "final_y": "535188.149254",
    "longitude": "-90.04104183421296",
    "latitude": "29.96532042909405",
    "geocoded_column": {
      "latitude": "29.96532042909405",
      "longitude": "-90.04104183421296"
    }
  },
  {
    "service_request": "2021-850848",
    "request_type": "Trash/Recycling",
    "request_reason": "Repair Trash Cart",
    "date_created": "2021-12-30T14:32:57.000",
    "date_modified": "2021-12-30T14:32:58.000",
    "request_status": "Pending",
    "responsible_agency": "Department of Sanitation",
    "final_address": "6 Bear Creek Dr",
    "address_councildis": "C",
    "status": "Assigned to Contractor",
    "contractor": "Richards Disposal",
    "rowid": "850848",
    "final_x": "3718417.36191",
    "final_y": "514978.551347",
    "longitude": "-89.9521296146445",
    "latitude": "29.908840163356754",
    "geocoded_column": {
      "latitude": "29.908840163356754",
      "longitude": "-89.9521296146445"
    }
  },
  {
    "service_request": "2021-850847",
    "request_type": "Trash/Recycling",
    "request_reason": "Illegal Dumping",
    "date_created": "2021-12-30T14:29:58.000",
    "date_modified": "2021-12-30T14:29:58.000",
    "request_status": "Pending",
    "responsible_agency": "Department of Sanitation",
    "final_address": "13000 Michoud Blvd",
    "address_councildis": "E",
    "status": "Pending",
    "rowid": "850847",
    "final_x": "3725206.92864",
    "final_y": "571018.173607",
    "longitude": "-89.928532526993",
    "latitude": "30.062700460418675",
    "geocoded_column": {
      "latitude": "30.062700460418675",
      "longitude": "-89.928532526993"
    }
  },
  {
    "service_request": "2021-850846",
    "request_type": "Trash/Recycling",
    "request_reason": "Damaged Caused By Contractor",
    "date_created": "2021-12-30T14:17:59.000",
    "date_modified": "2021-12-30T15:00:58.000",
    "request_status": "Pending",
    "responsible_agency": "Department of Sanitation",
    "final_address": "2800 Donner Dr",
    "address_councildis": "C",
    "status": "Assigned to Contractor",
    "contractor": "Richards Disposal",
    "rowid": "850846",
    "final_x": "3692508.22576",
    "final_y": "519533.572983",
    "longitude": "-90.03373972346618",
    "latitude": "29.922198282353026",
    "geocoded_column": {
      "latitude": "29.922198282353026",
      "longitude": "-90.03373972346618"
    }
  },
  {
    "service_request": "2021-850844",
    "request_type": "Trash/Recycling",
    "request_reason": "Order Trash Cart",
    "date_created": "2021-12-30T14:15:42.000",
    "date_modified": "2021-12-30T14:15:43.000",
    "request_status": "Pending",
    "responsible_agency": "Department of Sanitation",
    "final_address": "906 N Hennessey St",
    "address_councildis": "A",
    "status": "Assigned to Contractor",
    "contractor": "Richards Disposal",
    "rowid": "850844",
    "final_x": "3672192.79233",
    "final_y": "541396.18062",
    "longitude": "-90.09712274326823",
    "latitude": "29.982931160524736",
    "geocoded_column": {
      "latitude": "29.982931160524736",
      "longitude": "-90.09712274326823"
    }
  },
  {
    "service_request": "2021-850843",
    "request_type": "Trash/Recycling",
    "request_reason": "Order Trash Cart",
    "date_created": "2021-12-30T14:14:13.000",
    "date_modified": "2021-12-30T14:14:13.000",
    "request_status": "Pending",
    "responsible_agency": "Department of Sanitation",
    "final_address": "914 N Hennessey St",
    "address_councildis": "A",
    "status": "Assigned to Contractor",
    "contractor": "Richards Disposal",
    "rowid": "850843",
    "final_x": "3672228.61409",
    "final_y": "541436.21582",
    "longitude": "-90.09700823533538",
    "latitude": "29.983040180916188",
    "geocoded_column": {
      "latitude": "29.983040180916188",
      "longitude": "-90.09700823533538"
    }
  },
  {
    "service_request": "2021-850842",
    "request_type": "Trash/Recycling",
    "request_reason": "Order Recycling Cart",
    "date_created": "2021-12-30T14:13:42.000",
    "date_modified": "2021-12-30T15:00:59.000",
    "request_status": "Pending",
    "responsible_agency": "Department of Sanitation",
    "final_address": "1415 Louisiana Ave",
    "address_councildis": "B",
    "status": "Pending",
    "rowid": "850842",
    "final_x": "3674629.30772",
    "final_y": "520743.865017",
    "longitude": "-90.0901347078156",
    "latitude": "29.92607166737115",
    "geocoded_column": {
      "latitude": "29.92607166737115",
      "longitude": "-90.0901347078156"
    }
  },
  {
    "service_request": "2021-850841",
    "request_type": "Trash/Recycling",
    "request_reason": "Replace Trash Cart",
    "date_created": "2021-12-30T14:04:56.000",
    "date_modified": "2021-12-30T14:04:56.000",
    "request_status": "Pending",
    "responsible_agency": "Department of Sanitation",
    "final_address": "6941 Louisville St",
    "address_councildis": "A",
    "status": "Assigned to Contractor",
    "contractor": "Metro Disposal",
    "rowid": "850841",
    "final_x": "3668419.91354",
    "final_y": "553697.348567",
    "longitude": "-90.10862417314803",
    "latitude": "30.0168664970528",
    "geocoded_column": {
      "latitude": "30.0168664970528",
      "longitude": "-90.10862417314803"
    }
  },
  {
    "service_request": "2021-850840",
    "request_type": "Property Maintenance",
    "request_reason": "Property Maintenance",
    "date_created": "2021-12-30T13:53:54.000",
    "date_modified": "2021-12-30T13:53:54.000",
    "request_status": "Pending",
    "responsible_agency": "Department of Code Enforcement",
    "final_address": "815 Third St",
    "address_councildis": "B",
    "status": "Pending",
    "rowid": "850840",
    "final_x": "3678131.32302",
    "final_y": "520383.657272",
    "longitude": "-90.07909230681322",
    "latitude": "29.92497627288507",
    "geocoded_column": {
      "latitude": "29.92497627288507",
      "longitude": "-90.07909230681322"
    }
  },
  {
    "service_request": "2021-850839",
    "request_type": "Traffic Signals/Signs/Striping/Streetlights",
    "request_reason": "Traffic Signal Malfunctioning/Damaged",
    "date_created": "2021-12-30T13:46:12.000",
    "date_modified": "2021-12-30T13:46:12.000",
    "request_status": "Pending",
    "responsible_agency": "Department of Public Works",
    "final_address": "3000 Franklin Ave",
    "address_councildis": "D",
    "status": "Pending",
    "rowid": "850839",
    "final_x": "3687229.58447",
    "final_y": "543956.548814",
    "longitude": "-90.04953842138163",
    "latitude": "29.989516624700542",
    "geocoded_column": {
      "latitude": "29.989516624700542",
      "longitude": "-90.04953842138163"
    }
  },
  {
    "service_request": "2021-850838",
    "request_type": "Traffic Signals/Signs/Striping/Streetlights",
    "request_reason": "Street Light Outage/Malfunction",
    "date_created": "2021-12-30T13:36:24.000",
    "date_modified": "2021-12-30T13:36:25.000",
    "request_status": "Pending",
    "responsible_agency": "Department of Public Works",
    "final_address": "6971 Vicksburg St",
    "address_councildis": "A",
    "status": "Pending",
    "contractor": "Royal Engineering",
    "rowid": "850838",
    "final_x": "3669531.7801",
    "final_y": "553844.255319",
    "longitude": "-90.10510615297497",
    "latitude": "30.01723771505147",
    "geocoded_column": {
      "latitude": "30.01723771505147",
      "longitude": "-90.10510615297497"
    }
  },
  {
    "service_request": "2021-850837",
    "request_type": "Roads/Drainage",
    "request_reason": "Accessibility Ramps, Curbs and Sidewalk Repair",
    "date_created": "2021-12-30T13:34:05.000",
    "date_modified": "2021-12-30T14:00:27.000",
    "request_status": "Pending",
    "responsible_agency": "Department of Public Works",
    "final_address": "2108 Ellen Park Pl",
    "address_councildis": "C",
    "status": "Pending",
    "rowid": "850837",
    "final_x": "3702998.86052",
    "final_y": "523124.798587",
    "longitude": "-90.00049351074013",
    "latitude": "29.93174157464847",
    "geocoded_column": {
      "latitude": "29.93174157464847",
      "longitude": "-90.00049351074013"
    }
  },
  {
    "service_request": "2021-850836",
    "request_type": "Trash/Recycling",
    "request_reason": "Request a Large Item Pick Up",
    "date_created": "2021-12-30T13:33:54.000",
    "date_modified": "2021-12-30T14:00:30.000",
    "request_status": "Pending",
    "responsible_agency": "Department of Sanitation",
    "final_address": "1209 Desire St",
    "address_councildis": "C",
    "status": "Assigned to Contractor",
    "contractor": "Metro Disposal",
    "rowid": "850836",
    "final_x": "3690328.73584",
    "final_y": "536152.907655",
    "longitude": "-90.0400273308647",
    "latitude": "29.967963547815195",
    "geocoded_column": {
      "latitude": "29.967963547815195",
      "longitude": "-90.0400273308647"
    }
  },
  {
    "service_request": "2021-850835",
    "request_type": "Trash/Recycling",
    "request_reason": "Request a Large Item Pick Up",
    "date_created": "2021-12-30T13:26:08.000",
    "date_modified": "2021-12-30T14:00:31.000",
    "request_status": "Pending",
    "responsible_agency": "Department of Sanitation",
    "final_address": "7 Swan St, New Orleans, Louisiana, 70124",
    "address_councildis": "D",
    "status": "Assigned to Contractor",
    "contractor": "Metro Disposal",
    "rowid": "850835",
    "final_x": "3672656.3138",
    "final_y": "557546.958683",
    "longitude": "-90.09510745044808",
    "latitude": "30.02732635849321",
    "geocoded_column": {
      "latitude": "30.02732635849321",
      "longitude": "-90.09510745044808"
    }
  },
  {
    "service_request": "2021-850834",
    "request_type": "Trash/Recycling",
    "request_reason": "Order Recycling Cart",
    "date_created": "2021-12-30T13:26:03.000",
    "date_modified": "2021-12-30T14:00:32.000",
    "request_status": "Pending",
    "responsible_agency": "Department of Sanitation",
    "final_address": "60 N Wren St",
    "address_councildis": "D",
    "status": "Pending",
    "rowid": "850834",
    "final_x": "3672727.7892",
    "final_y": "556189.82761",
    "longitude": "-90.09492794240845",
    "latitude": "30.023592613575097",
    "geocoded_column": {
      "latitude": "30.023592613575097",
      "longitude": "-90.09492794240845"
    }
  },
  {
    "service_request": "2021-850833",
    "request_type": "Health Related Questions",
    "request_reason": "Noise Ordinance Complaint",
    "date_created": "2021-12-30T13:25:35.000",
    "date_modified": "2021-12-30T13:25:35.000",
    "request_status": "Pending",
    "responsible_agency": "Health Department",
    "final_address": "1900 River Oaks Dr",
    "address_councildis": "C",
    "status": "Pending",
    "rowid": "850833",
    "final_x": "3701728.37463",
    "final_y": "523777.384251",
    "longitude": "-90.00448037312127",
    "latitude": "29.933576532346027",
    "geocoded_column": {
      "latitude": "29.933576532346027",
      "longitude": "-90.00448037312127"
    }
  },
  {
    "service_request": "2021-850832",
    "request_type": "Roads/Drainage",
    "request_reason": "Debris in Roadway",
    "date_created": "2021-12-30T13:24:12.000",
    "date_modified": "2021-12-30T13:24:13.000",
    "request_status": "Pending",
    "responsible_agency": "Department of Public Works",
    "final_address": "400 BLK Gravier St",
    "address_councildis": "B",
    "status": "Pending",
    "rowid": "850832",
    "final_x": "3681864.38295",
    "final_y": "529600.811321",
    "longitude": "-90.06698670668749",
    "latitude": "29.95020749476805",
    "geocoded_column": {
      "latitude": "29.95020749476805",
      "longitude": "-90.06698670668749"
    }
  },
  {
    "service_request": "2021-850831",
    "request_type": "Traffic Signals/Signs/Striping/Streetlights",
    "request_reason": "Request for Stop Sign",
    "date_created": "2021-12-30T13:20:37.000",
    "date_modified": "2021-12-30T13:20:38.000",
    "request_status": "Pending",
    "responsible_agency": "Department of Public Works",
    "final_address": "BELFAST ST & DANTE ST",
    "address_councildis": "A",
    "status": "Pending",
    "rowid": "850831",
    "final_x": "3665057.1",
    "final_y": "532850.08",
    "longitude": "-90.119946823525",
    "latitude": "29.959641971270994",
    "geocoded_column": {
      "latitude": "29.959641971270994",
      "longitude": "-90.119946823525"
    }
  },
  {
    "service_request": "2021-850830",
    "request_type": "Trash/Recycling",
    "request_reason": "Missed Trash Pick-Up",
    "date_created": "2021-12-30T13:20:07.000",
    "date_modified": "2021-12-30T14:00:34.000",
    "request_status": "Pending",
    "responsible_agency": "Department of Sanitation",
    "final_address": "3137 Saint Thomas St, New Orleans, Louisiana, 70115",
    "status": "Assigned to Contractor",
    "rowid": "850830",
    "longitude": "0.0",
    "latitude": "0.0",
    "geocoded_column": {
      "latitude": "0.0",
      "longitude": "0.0"
    }
  },
  {
    "service_request": "2021-850829",
    "request_type": "Trash/Recycling",
    "request_reason": "Order Recycling Cart",
    "date_created": "2021-12-30T13:17:24.000",
    "date_modified": "2021-12-30T14:00:35.000",
    "request_status": "Pending",
    "responsible_agency": "Department of Sanitation",
    "final_address": "5424 Marigny St",
    "address_councildis": "D",
    "status": "Pending",
    "rowid": "850829",
    "final_x": "3684043.60245",
    "final_y": "552898.005271",
    "longitude": "-90.05928798494205",
    "latitude": "30.01420017728294",
    "geocoded_column": {
      "latitude": "30.01420017728294",
      "longitude": "-90.05928798494205"
    }
  },
  {
    "service_request": "2021-850828",
    "request_type": "Trash/Recycling",
    "request_reason": "Illegal Dumping",
    "date_created": "2021-12-30T13:15:52.000",
    "date_modified": "2021-12-30T13:15:52.000",
    "request_status": "Pending",
    "responsible_agency": "Department of Sanitation",
    "final_address": "8301 Belfast St",
    "address_councildis": "A",
    "status": "Pending",
    "rowid": "850828",
    "final_x": "3665057.96858",
    "final_y": "532907.42586",
    "longitude": "-90.11994216312792",
    "latitude": "29.959799628329698",
    "geocoded_column": {
      "latitude": "29.959799628329698",
      "longitude": "-90.11994216312792"
    }
  },
  {
    "service_request": "2021-850827",
    "request_type": "Trash/Recycling",
    "request_reason": "Replace Trash Cart",
    "date_created": "2021-12-30T13:15:25.000",
    "date_modified": "2021-12-30T14:00:36.000",
    "request_status": "Pending",
    "responsible_agency": "Department of Sanitation",
    "final_address": "5424 Marigny St",
    "address_councildis": "D",
    "status": "Assigned to Contractor",
    "contractor": "Metro Disposal",
    "rowid": "850827",
    "final_x": "3684043.60245",
    "final_y": "552898.005271",
    "longitude": "-90.05928798494205",
    "latitude": "30.01420017728294",
    "geocoded_column": {
      "latitude": "30.01420017728294",
      "longitude": "-90.05928798494205"
    }
  },
  {
    "service_request": "2021-850826",
    "request_type": "Trash/Recycling",
    "request_reason": "Missed Trash Pick-Up",
    "date_created": "2021-12-30T13:14:43.000",
    "date_modified": "2021-12-30T14:00:38.000",
    "request_status": "Pending",
    "responsible_agency": "Department of Sanitation",
    "final_address": "315 N Bernadotte St, New Orleans, Louisiana, 70119",
    "address_councildis": "A",
    "status": "Assigned to Contractor",
    "contractor": "Richards Disposal",
    "rowid": "850826",
    "final_x": "3669346.87566",
    "final_y": "540857.626891",
    "longitude": "-90.1061298391489",
    "latitude": "29.9815344382555",
    "geocoded_column": {
      "latitude": "29.9815344382555",
      "longitude": "-90.1061298391489"
    }
  },
  {
    "service_request": "2021-850825",
    "request_type": "Trash/Recycling",
    "request_reason": "Request a Large Item Pick Up",
    "date_created": "2021-12-30T13:13:59.000",
    "date_modified": "2021-12-30T13:14:00.000",
    "request_status": "Pending",
    "responsible_agency": "Department of Sanitation",
    "final_address": "5542 Chatham Dr",
    "address_councildis": "D",
    "status": "Assigned to Contractor",
    "contractor": "Metro Disposal",
    "rowid": "850825",
    "final_x": "3679641.27439",
    "final_y": "552916.108375",
    "longitude": "-90.07319650292024",
    "latitude": "30.014383811412316",
    "geocoded_column": {
      "latitude": "30.014383811412316",
      "longitude": "-90.07319650292024"
    }
  },
  {
    "service_request": "2021-850824",
    "request_type": "Trash/Recycling",
    "request_reason": "Order Trash Cart",
    "date_created": "2021-12-30T13:13:29.000",
    "date_modified": "2021-12-30T14:00:40.000",
    "request_status": "Pending",
    "responsible_agency": "Department of Sanitation",
    "final_address": "4635 Allen St",
    "address_councildis": "D",
    "status": "Assigned to Contractor",
    "contractor": "Metro Disposal",
    "rowid": "850824",
    "final_x": "3681751.38812",
    "final_y": "549701.889876",
    "longitude": "-90.06664185872124",
    "latitude": "30.00548189535352",
    "geocoded_column": {
      "latitude": "30.00548189535352",
      "longitude": "-90.06664185872124"
    }
  },
  {
    "service_request": "2021-850823",
    "request_type": "Trash/Recycling",
    "request_reason": "Order Trash Cart",
    "date_created": "2021-12-30T13:11:22.000",
    "date_modified": "2021-12-30T14:00:41.000",
    "request_status": "Pending",
    "responsible_agency": "Department of Sanitation",
    "final_address": "1213 Feliciana St",
    "address_councildis": "C",
    "status": "Assigned to Contractor",
    "contractor": "Metro Disposal",
    "rowid": "850823",
    "final_x": "3688890.13366",
    "final_y": "536536.581063",
    "longitude": "-90.04455684463944",
    "latitude": "29.969063084221155",
    "geocoded_column": {
      "latitude": "29.969063084221155",
      "longitude": "-90.04455684463944"
    }
  },
  {
    "service_request": "2021-850822",
    "request_type": "Trash/Recycling",
    "request_reason": "Order Recycling Cart",
    "date_created": "2021-12-30T13:07:00.000",
    "date_modified": "2021-12-30T14:00:42.000",
    "request_status": "Pending",
    "responsible_agency": "Department of Sanitation",
    "final_address": "1215 Feliciana St",
    "address_councildis": "C",
    "status": "Pending",
    "rowid": "850822",
    "final_x": "3688892.07593",
    "final_y": "536547.095495",
    "longitude": "-90.0445503373585",
    "latitude": "29.96909193515483",
    "geocoded_column": {
      "latitude": "29.96909193515483",
      "longitude": "-90.0445503373585"
    }
  },
  {
    "service_request": "2021-850821",
    "request_type": "Trash/Recycling",
    "request_reason": "Order Recycling Cart",
    "date_created": "2021-12-30T13:06:50.000",
    "date_modified": "2021-12-30T14:00:44.000",
    "request_status": "Pending",
    "responsible_agency": "Department of Sanitation",
    "final_address": "1213 Feliciana St",
    "address_councildis": "C",
    "status": "Pending",
    "rowid": "850821",
    "final_x": "3688890.13366",
    "final_y": "536536.581063",
    "longitude": "-90.04455684463944",
    "latitude": "29.969063084221155",
    "geocoded_column": {
      "latitude": "29.969063084221155",
      "longitude": "-90.04455684463944"
    }
  },
  {
    "service_request": "2021-850820",
    "request_type": "Traffic Signals/Signs/Striping/Streetlights",
    "request_reason": "Traffic Sign Missing/Damaged",
    "date_created": "2021-12-30T13:03:50.000",
    "date_modified": "2021-12-30T14:00:45.000",
    "request_status": "Pending",
    "responsible_agency": "Department of Public Works",
    "final_address": "3312 Elysian Fields Ave",
    "address_councildis": "D",
    "status": "Pending",
    "rowid": "850820",
    "final_x": "3684179.9997",
    "final_y": "544873.813903",
    "longitude": "-90.05913896184217",
    "latitude": "29.992132373586134",
    "geocoded_column": {
      "latitude": "29.992132373586134",
      "longitude": "-90.05913896184217"
    }
  },
  {
    "service_request": "2021-850819",
    "request_type": "Abandoned Vehicles",
    "request_reason": "Abandoned/Junk Vehicles",
    "date_created": "2021-12-30T12:51:55.000",
    "date_modified": "2021-12-30T12:51:55.000",
    "request_status": "Pending",
    "responsible_agency": "Department of Public Works",
    "final_address": "3700 N Rampart St",
    "address_councildis": "C",
    "status": "Pending",
    "rowid": "850819",
    "final_x": "3690875.87049",
    "final_y": "535021.831494",
    "longitude": "-90.03833983631587",
    "latitude": "29.964836493852683",
    "geocoded_column": {
      "latitude": "29.964836493852683",
      "longitude": "-90.03833983631587"
    }
  },
  {
    "service_request": "2021-850818",
    "request_type": "Property Maintenance",
    "request_reason": "Property Maintenance",
    "date_created": "2021-12-30T12:49:41.000",
    "date_modified": "2021-12-30T12:49:41.000",
    "request_status": "Pending",
    "responsible_agency": "Department of Code Enforcement",
    "final_address": "1501 Andry St",
    "address_councildis": "E",
    "status": "Pending",
    "rowid": "850818",
    "final_x": "3697622.70576",
    "final_y": "535480.69799",
    "longitude": "-90.01701724065445",
    "latitude": "29.96588682534922",
    "geocoded_column": {
      "latitude": "29.96588682534922",
      "longitude": "-90.01701724065445"
    }
  },
  {
    "service_request": "2021-850817",
    "request_type": "Property Maintenance",
    "request_reason": "Property Maintenance",
    "date_created": "2021-12-30T12:48:50.000",
    "date_modified": "2021-12-30T12:48:50.000",
    "request_status": "Pending",
    "responsible_agency": "Department of Code Enforcement",
    "final_address": "1509 Andry St",
    "address_councildis": "E",
    "status": "Pending",
    "rowid": "850817",
    "final_x": "3697633.13475",
    "final_y": "535519.22151",
    "longitude": "-90.0169829088264",
    "latitude": "29.965992421851112",
    "geocoded_column": {
      "latitude": "29.965992421851112",
      "longitude": "-90.0169829088264"
    }
  },