[
  {
    "service_request": "2022-899084",
    "request_type": "Traffic Signals/Signs/Striping/Streetlights",
    "request_reason": "Street Light Outage/Malfunction",
    "date_created": "2022-07-12T01:46:37.000",
    "date_modified": "2022-07-12T01:46:38.000",
    "request_status": "Pending",
    "responsible_agency": "Department of Public Works",
    "final_address": "6 Olympic Ct",
    "address_councildis": "C",
    "status": "Pending",
    "contractor": "Royal Engineering",
    "rowid": "899084",
    "final_x": "3700121.36919",
    "final_y": "516452.425525",
    "longitude": "-90.00982067146907",
    "latitude": "29.913486556899286",
    "geocoded_column": {
      "latitude": "29.913486556899286",
      "longitude": "-90.00982067146907"
    }
  },
  {
    "service_request": "2022-899083",
    "request_type": "Property Maintenance",
    "request_reason": "Property Maintenance",
    "date_created": "2022-07-12T00:33:10.000",
    "date_modified": "2022-07-12T00:33:10.000",
    "request_status": "Pending",
    "responsible_agency": "Department of Code Enforcement",
    "final_address": "1326 Behrman Ave",
    "address_councildis": "C",
    "status": "Pending",
    "rowid": "899083",
    "final_x": "3691437.52214",
    "final_y": "526391.607166",
    "longitude": "-90.03687454419342",
    "latitude": "29.941088902031613",
    "geocoded_column": {
      "latitude": "29.941088902031613",
      "longitude": "-90.03687454419342"
    }
  },
  {
    "service_request": "2022-899082",
    "request_type": "Trash/Recycling",
    "request_reason": "MIssed Recycling Pick-Up",
    "date_created": "2022-07-12T00:21:32.000",
    "date_modified": "2022-07-12T00:21:33.000",
    "request_status": "Pending",
    "responsible_agency": "Department of Sanitation",
    "final_address": "811 Behrman Ave",
    "address_councildis": "C",
    "status": "Assigned to Contractor",
    "contractor": "Richards Disposal",
    "rowid": "899082",
    "final_x": "3691411.00809",
    "final_y": "528461.308992",
    "longitude": "-90.03688432059984",
    "latitude": "29.946780696786504",
    "geocoded_column": {
      "latitude": "29.946780696786504",
      "longitude": "-90.03688432059984"
    }
  },
  {
    "service_request": "2022-899081",
    "request_type": "Roads/Drainage",
    "request_reason": "Catch Basin - Clogged",
    "date_created": "2022-07-12T00:01:22.000",
    "date_modified": "2022-07-12T00:01:22.000",
    "request_status": "Pending",
    "responsible_agency": "Department of Public Works",
    "final_address": "2400 Magazine St",
    "address_councildis": "B",
    "status": "Pending",
    "rowid": "899081",
    "final_x": "3678071.20245",
    "final_y": "521434.307385",
    "longitude": "-90.07924578920101",
    "latitude": "29.927867028146228",
    "geocoded_column": {
      "latitude": "29.927867028146228",
      "longitude": "-90.07924578920101"
    }
  },
  {
    "service_request": "2022-899080",
    "request_type": "Roads/Drainage",
    "request_reason": "Catch Basin - Clogged",
    "date_created": "2022-07-11T23:59:30.000",
    "date_modified": "2022-07-11T23:59:30.000",
    "request_status": "Pending",
    "responsible_agency": "Department of Public Works",
    "final_address": "2400 Magazine St",
    "address_councildis": "B",
    "status": "Pending",
    "rowid": "899080",
    "final_x": "3678071.20245",
    "final_y": "521434.307385",
    "longitude": "-90.07924578920101",
    "latitude": "29.927867028146228",
    "geocoded_column": {
      "latitude": "29.927867028146228",
      "longitude": "-90.07924578920101"
    }
  },
  {
    "service_request": "2022-899079",
    "request_type": "Roads/Drainage",
    "request_reason": "Catch Basin - Clogged",
    "date_created": "2022-07-11T23:56:49.000",
    "date_modified": "2022-07-11T23:56:49.000",
    "request_status": "Pending",
    "responsible_agency": "Department of Public Works",
    "final_address": "2400 Magazine St",
    "address_councildis": "B",
    "status": "Pending",
    "rowid": "899079",
    "final_x": "3678071.20245",
    "final_y": "521434.307385",
    "longitude": "-90.07924578920101",
    "latitude": "29.927867028146228",
    "geocoded_column": {
      "latitude": "29.927867028146228",
      "longitude": "-90.07924578920101"
    }
  },
  {
    "service_request": "2022-899077",
    "request_type": "Trash/Recycling",
    "request_reason": "MIssed Recycling Pick-Up",
    "date_created": "2022-07-11T23:34:48.000",
    "date_modified": "2022-07-11T23:34:49.000",
    "request_status": "Pending",
    "responsible_agency": "Department of Sanitation",
    "final_address": "5623 Durbridge Dr",
    "address_councildis": "C",
    "status": "Assigned to Contractor",
    "contractor": "Richards Disposal",
    "rowid": "899077",
    "final_x": "3704538.03479",
    "final_y": "521740.514106",
    "longitude": "-89.99568556298141",
    "latitude": "29.927885957128307",
    "geocoded_column": {
      "latitude": "29.927885957128307",
      "longitude": "-89.99568556298141"
    }
  },
  {
    "service_request": "2022-899076",
    "request_type": "Trash/Recycling",
    "request_reason": "Replace Trash Cart",
    "date_created": "2022-07-11T23:14:51.000",
    "date_modified": "2022-07-11T23:14:52.000",
    "request_status": "Pending",
    "responsible_agency": "Department of Sanitation",
    "final_address": "3912 Carondelet St",
    "address_councildis": "B",
    "status": "Assigned to Contractor",
    "contractor": "Richards Disposal",
    "rowid": "899076",
    "final_x": "3672452.93863",
    "final_y": "521359.486329",
    "longitude": "-90.0969839175625",
    "latitude": "29.927829176697127",
    "geocoded_column": {
      "latitude": "29.927829176697127",
      "longitude": "-90.0969839175625"
    }
  },
  {
    "service_request": "2022-899075",
    "request_type": "Traffic Signals/Signs/Striping/Streetlights",
    "request_reason": "Street Light Outage/Malfunction",
    "date_created": "2022-07-11T22:17:59.000",
    "date_modified": "2022-07-11T22:18:00.000",
    "request_status": "Pending",
    "responsible_agency": "Department of Public Works",
    "final_address": "2504 Prytania St",
    "address_councildis": "B",
    "status": "Pending",
    "contractor": "Royal Engineering",
    "rowid": "899075",
    "final_x": "3676967.20494",
    "final_y": "522522.130042",
    "longitude": "-90.08269337249406",
    "latitude": "29.930891364174396",
    "geocoded_column": {
      "latitude": "29.930891364174396",
      "longitude": "-90.08269337249406"
    }
  },
  {
    "service_request": "2022-899074",
    "request_type": "Traffic Signals/Signs/Striping/Streetlights",
    "request_reason": "Street Light Outage/Malfunction",
    "date_created": "2022-07-11T21:53:45.000",
    "date_modified": "2022-07-11T21:53:46.000",
    "request_status": "Pending",
    "responsible_agency": "Department of Public Works",
    "final_address": "3900 Dublin St",
    "address_councildis": "A",
    "status": "Pending",
    "contractor": "Royal Engineering",
    "rowid": "899074",
    "final_x": "3667971.22266",
    "final_y": "535895.698247",
    "longitude": "-90.11064203636731",
    "latitude": "29.967931239067607",
    "geocoded_column": {
      "latitude": "29.967931239067607",
      "longitude": "-90.11064203636731"
    }
  },
  {
    "service_request": "2022-899073",
    "request_type": "Roads/Drainage",
    "request_reason": "Catch Basin - Clogged",
    "date_created": "2022-07-11T21:38:45.000",
    "date_modified": "2022-07-11T21:38:45.000",
    "request_status": "Pending",
    "responsible_agency": "Department of Public Works",
    "final_address": "115 Central Park Pl",
    "address_councildis": "A",
    "status": "Pending",
    "rowid": "899073",
    "final_x": "3670584.59751",
    "final_y": "544315.078991",
    "longitude": "-90.1021031887763",
    "latitude": "29.991004740466163",
    "geocoded_column": {
      "latitude": "29.991004740466163",
      "longitude": "-90.1021031887763"
    }
  },
  {
    "service_request": "2022-899072",
    "request_type": "Roads/Drainage",
    "request_reason": "Catch Basin - Clogged",
    "date_created": "2022-07-11T21:35:48.000",
    "date_modified": "2022-07-11T21:35:48.000",
    "request_status": "Pending",
    "responsible_agency": "Department of Public Works",
    "final_address": "892 Homedale St",
    "address_councildis": "A",
    "status": "Pending",
    "rowid": "899072",
    "final_x": "3669525.12244",
    "final_y": "544572.980431",
    "longitude": "-90.10544110015176",
    "latitude": "29.99174514111238",
    "geocoded_column": {
      "latitude": "29.99174514111238",
      "longitude": "-90.10544110015176"
    }
  },
  {
    "service_request": "2022-899071",
    "request_type": "Trash/Recycling",
    "request_reason": "Order Trash Cart",
    "date_created": "2022-07-11T21:31:07.000",
    "date_modified": "2022-07-11T21:31:07.000",
    "request_status": "Pending",
    "responsible_agency": "Department of Sanitation",
    "final_address": "3809 Clematis St",
    "address_councildis": "D",
    "status": "Assigned to Contractor",
    "contractor": "Metro Disposal",
    "rowid": "899071",
    "final_x": "3685922.80585",
    "final_y": "546932.614353",
    "longitude": "-90.05356116311239",
    "latitude": "29.997739932499762",
    "geocoded_column": {
      "latitude": "29.997739932499762",
      "longitude": "-90.05356116311239"
    }
  },
  {
    "service_request": "2022-899070",
    "request_type": "Traffic Signals/Signs/Striping/Streetlights",
    "request_reason": "Street Light Outage/Malfunction",
    "date_created": "2022-07-11T21:25:58.000",
    "date_modified": "2022-07-11T21:25:59.000",
    "request_status": "Pending",
    "responsible_agency": "Department of Public Works",
    "final_address": "6720 Memphis St",
    "address_councildis": "A",
    "status": "Pending",
    "contractor": "Royal Engineering",
    "rowid": "899070",
    "final_x": "3669586.2617",
    "final_y": "552136.264918",
    "longitude": "-90.10499186388047",
    "latitude": "30.012539739344557",
    "geocoded_column": {
      "latitude": "30.012539739344557",
      "longitude": "-90.10499186388047"
    }
  },
  {
    "service_request": "2022-899069",
    "request_type": "Trash/Recycling",
    "request_reason": "Request a Large Item Pick Up",
    "date_created": "2022-07-11T21:23:09.000",
    "date_modified": "2022-07-11T21:23:10.000",
    "request_status": "Pending",
    "responsible_agency": "Department of Sanitation",
    "final_address": "26 Olympic Ct",
    "address_councildis": "C",
    "status": "Assigned to Contractor",
    "contractor": "Richards Disposal",
    "rowid": "899069",
    "final_x": "3699752.63383",
    "final_y": "515984.945332",
    "longitude": "-90.01100153541331",
    "latitude": "29.912212850900907",
    "geocoded_column": {
      "latitude": "29.912212850900907",
      "longitude": "-90.01100153541331"
    }
  },
  {
    "service_request": "2022-899068",
    "request_type": "Trash/Recycling",
    "request_reason": "Request a Large Item Pick Up",
    "date_created": "2022-07-11T21:21:06.000",
    "date_modified": "2022-07-11T21:21:07.000",
    "request_status": "Pending",
    "responsible_agency": "Department of Sanitation",
    "final_address": "3410 Robert St",
    "address_councildis": "B",
    "status": "Assigned to Contractor",
    "contractor": "Richards Disposal",
    "rowid": "899068",
    "final_x": "3668860.22759",
    "final_y": "527382.119487",
    "longitude": "-90.10812200598824",
    "latitude": "29.944495584056995",
    "geocoded_column": {
      "latitude": "29.944495584056995",
      "longitude": "-90.10812200598824"
    }
  },
  {
    "service_request": "2022-899067",
    "request_type": "Traffic Signals/Signs/Striping/Streetlights",
    "request_reason": "Street Light Outage/Malfunction",
    "date_created": "2022-07-11T21:20:07.000",
    "date_modified": "2022-07-11T21:20:07.000",
    "request_status": "Pending",
    "responsible_agency": "Department of Public Works",
    "final_address": "234 22Nd St",
    "address_councildis": "A",
    "status": "Pending",
    "contractor": "Royal Engineering",
    "rowid": "899067",
    "final_x": "3665489.94605",
    "final_y": "549260.939731",
    "longitude": "-90.11803035605898",
    "latitude": "30.004753701984125",
    "geocoded_column": {
      "latitude": "30.004753701984125",
      "longitude": "-90.11803035605898"
    }
  },
  {
    "service_request": "2022-899066",
    "request_type": "Traffic Signals/Signs/Striping/Streetlights",
    "request_reason": "Street Light Outage/Malfunction",
    "date_created": "2022-07-11T21:19:50.000",
    "date_modified": "2022-07-11T21:19:51.000",
    "request_status": "Pending",
    "responsible_agency": "Department of Public Works",
    "final_address": "234 22Nd St",
    "address_councildis": "A",
    "status": "Pending",
    "contractor": "Royal Engineering",
    "rowid": "899066",
    "final_x": "3665489.94605",
    "final_y": "549260.939731",
    "longitude": "-90.11803035605898",
    "latitude": "30.004753701984125",
    "geocoded_column": {
      "latitude": "30.004753701984125",
      "longitude": "-90.11803035605898"
    }
  },
  {
    "service_request": "2022-899065",
    "request_type": "Traffic Signals/Signs/Striping/Streetlights",
    "request_reason": "Street Light Outage/Malfunction",
    "date_created": "2022-07-11T21:17:11.000",
    "date_modified": "2022-07-11T21:17:11.000",
    "request_status": "Pending",
    "responsible_agency": "Department of Public Works",
    "final_address": "234 22Nd St",
    "address_councildis": "A",
    "status": "Pending",
    "contractor": "Royal Engineering",
    "rowid": "899065",
    "final_x": "3665489.94605",
    "final_y": "549260.939731",
    "longitude": "-90.11803035605898",
    "latitude": "30.004753701984125",
    "geocoded_column": {
      "latitude": "30.004753701984125",
      "longitude": "-90.11803035605898"
    }
  },
  {
    "service_request": "2022-899064",
    "request_type": "Traffic Signals/Signs/Striping/Streetlights",
    "request_reason": "Street Light Outage/Malfunction",
    "date_created": "2022-07-11T21:04:42.000",
    "date_modified": "2022-07-11T21:04:43.000",
    "request_status": "Pending",
    "responsible_agency": "Department of Public Works",
    "final_address": "4508 Mithra St  New Orleans 70126",
    "address_councildis": "D",
    "status": "Pending",
    "contractor": "Royal Engineering",
    "rowid": "899064",
    "final_x": "3690526.39984",
    "final_y": "553288.226647",
    "longitude": "-90.03879173859117",
    "latitude": "30.01507335053758",
    "geocoded_column": {
      "latitude": "30.01507335053758",
      "longitude": "-90.03879173859117"
    }
  },
  {
    "service_request": "2022-899063",
    "request_type": "Traffic Signals/Signs/Striping/Streetlights",
    "request_reason": "Traffic Signal Malfunctioning/Damaged",
    "date_created": "2022-07-11T20:56:48.000",
    "date_modified": "2022-07-11T20:56:49.000",
    "request_status": "Pending",
    "responsible_agency": "Department of Public Works",
    "final_address": "ST BERNARD AVE & N RAMPART ST & MCSHANE PL",
    "address_councildis": "C",
    "status": "Pending",
    "rowid": "899063",
    "final_x": "3683272.7",
    "final_y": "535809.68",
    "longitude": "-90.06232253101372",
    "latitude": "29.967236889713856",
    "geocoded_column": {
      "latitude": "29.967236889713856",
      "longitude": "-90.06232253101372"
    }
  },
  {
    "service_request": "2022-899062",
    "request_type": "Trash/Recycling",
    "request_reason": "Replace Trash Cart",
    "date_created": "2022-07-11T20:52:05.000",
    "date_modified": "2022-07-11T20:52:05.000",
    "request_status": "Pending",
    "responsible_agency": "Department of Sanitation",
    "final_address": "2524 St Anthony St",
    "address_councildis": "D",
    "status": "Assigned to Contractor",
    "contractor": "Metro Disposal",
    "rowid": "899062",
    "final_x": "3683044.58159",
    "final_y": "541565.107852",
    "longitude": "-90.06284140108242",
    "latitude": "29.98306926864039",
    "geocoded_column": {
      "latitude": "29.98306926864039",
      "longitude": "-90.06284140108242"
    }
  },
  {
    "service_request": "2022-899061",
    "request_type": "Property Maintenance",
    "request_reason": "Property Maintenance",
    "date_created": "2022-07-11T20:48:23.000",
    "date_modified": "2022-07-11T20:48:23.000",
    "request_status": "Pending",
    "responsible_agency": "Department of Code Enforcement",
    "final_address": "2032 Third St",
    "address_councildis": "B",
    "status": "Pending",
    "rowid": "899061",
    "final_x": "3675469.10715",
    "final_y": "524287.418876",
    "longitude": "-90.08736206756441",
    "latitude": "29.935790208640803",
    "geocoded_column": {
      "latitude": "29.935790208640803",
      "longitude": "-90.08736206756441"
    }
  },
  {
    "service_request": "2022-899060",
    "request_type": "Trash/Recycling",
    "request_reason": "MIssed Recycling Pick-Up",
    "date_created": "2022-07-11T20:43:08.000",
    "date_modified": "2022-07-11T20:43:09.000",
    "request_status": "Pending",
    "responsible_agency": "Department of Sanitation",
    "final_address": "5754 Oxford Pl, New Orleans, Louisiana, 70131",
    "address_councildis": "C",
    "status": "Assigned to Contractor",
    "contractor": "Richards Disposal",
    "rowid": "899060",
    "final_x": "3704818.74494",
    "final_y": "519986.579832",
    "longitude": "-89.99486410900923",
    "latitude": "29.923054234656767",
    "geocoded_column": {
      "latitude": "29.923054234656767",
      "longitude": "-89.99486410900923"
    }
  },
  {
    "service_request": "2022-899059",
    "request_type": "Property Maintenance",
    "request_reason": "Property Maintenance",
    "date_created": "2022-07-11T20:40:40.000",
    "date_modified": "2022-07-11T20:40:40.000",
    "request_status": "Pending",
    "responsible_agency": "Department of Code Enforcement",
    "final_address": "4013 Hollygrove St",
    "address_councildis": "A",
    "status": "Pending",
    "rowid": "899059",
    "final_x": "3666422.10279",
    "final_y": "537932.844105",
    "longitude": "-90.1154658494658",
    "latitude": "29.973578073988246",
    "geocoded_column": {
      "latitude": "29.973578073988246",
      "longitude": "-90.1154658494658"
    }
  },
  {
    "service_request": "2022-899058",
    "request_type": "Trash/Recycling",
    "request_reason": "Illegal Dumping",
    "date_created": "2022-07-11T20:40:04.000",
    "date_modified": "2022-07-11T20:40:04.000",
    "request_status": "Pending",
    "responsible_agency": "Department of Sanitation",
    "final_address": "4013 Hollygrove St",
    "address_councildis": "A",
    "status": "Pending",
    "rowid": "899058",
    "final_x": "3666422.10279",
    "final_y": "537932.844105",
    "longitude": "-90.1154658494658",
    "latitude": "29.973578073988246",
    "geocoded_column": {
      "latitude": "29.973578073988246",
      "longitude": "-90.1154658494658"
    }
  },
  {
    "service_request": "2022-899057",
    "request_type": "Trash/Recycling",
    "request_reason": "Illegal Dumping",
    "date_created": "2022-07-11T20:38:47.000",
    "date_modified": "2022-07-11T20:38:47.000",
    "request_status": "Pending",
    "responsible_agency": "Department of Sanitation",
    "final_address": "7140 Lake Barrington Dr",
    "address_councildis": "E",
    "status": "Pending",
    "rowid": "899057",
    "final_x": "3712251.10744",
    "final_y": "564196.778465",
    "longitude": "-89.96974251689643",
    "latitude": "30.044374780993973",
    "geocoded_column": {
      "latitude": "30.044374780993973",
      "longitude": "-89.96974251689643"
    }
  },
  {
    "service_request": "2022-899056",
    "request_type": "Trash/Recycling",
    "request_reason": "Request a Large Item Pick Up",
    "date_created": "2022-07-11T20:38:25.000",
    "date_modified": "2022-07-11T20:38:26.000",
    "request_status": "Pending",
    "responsible_agency": "Department of Sanitation",
    "final_address": "4033 Hollygrove St",
    "address_councildis": "A",
    "status": "Assigned to Contractor",
    "contractor": "Richards Disposal",
    "rowid": "899056",
    "final_x": "3666521.23898",
    "final_y": "538045.544137",
    "longitude": "-90.11514897113135",
    "latitude": "29.97388506381592",
    "geocoded_column": {
      "latitude": "29.97388506381592",
      "longitude": "-90.11514897113135"
    }
  },
  {
    "service_request": "2022-899055",
    "request_type": "Traffic Signals/Signs/Striping/Streetlights",
    "request_reason": "Street Light Outage/Malfunction",
    "date_created": "2022-07-11T20:36:27.000",
    "date_modified": "2022-07-11T20:37:04.000",
    "request_status": "Pending",
    "responsible_agency": "Department of Public Works",
    "final_address": "WESTERN ST & SUMPTER ST & LOMBARD ST",
    "address_councildis": "D",
    "status": "Pending",
    "contractor": "Royal Engineering",
    "rowid": "899055",
    "final_x": "3684185.5",
    "final_y": "549574.78",
    "longitude": "-90.05895643595211",
    "latitude": "30.005058176202898",
    "geocoded_column": {
      "latitude": "30.005058176202898",
      "longitude": "-90.05895643595211"
    }
  },
  {
    "service_request": "2022-899054",
    "request_type": "Traffic Signals/Signs/Striping/Streetlights",
    "request_reason": "Street Light Outage/Malfunction",
    "date_created": "2022-07-11T20:31:55.000",
    "date_modified": "2022-07-11T20:31:56.000",
    "request_status": "Pending",
    "responsible_agency": "Department of Public Works",
    "final_address": "5430 Seminary Pl",
    "address_councildis": "D",
    "status": "Pending",
    "contractor": "Royal Engineering",
    "rowid": "899054",
    "final_x": "3688595.15004",
    "final_y": "553286.917143",
    "longitude": "-90.04489360177972",
    "latitude": "30.01512960217011",
    "geocoded_column": {
      "latitude": "30.01512960217011",
      "longitude": "-90.04489360177972"
    }
  },
  {
    "service_request": "2022-899053",
    "request_type": "Abandoned Vehicles",
    "request_reason": "Abandoned/Junk Vehicles",
    "date_created": "2022-07-11T20:31:15.000",
    "date_modified": "2022-07-11T20:31:15.000",
    "request_status": "Pending",
    "responsible_agency": "Department of Public Works",
    "final_address": "1427 Chartres St",
    "address_councildis": "C",
    "status": "Pending",
    "rowid": "899053",
    "final_x": "3684454.48527",
    "final_y": "534407.804677",
    "longitude": "-90.05863969535505",
    "latitude": "29.963346119031996",
    "geocoded_column": {
      "latitude": "29.963346119031996",
      "longitude": "-90.05863969535505"
    }
  },
  {
    "service_request": "2022-899052",
    "request_type": "Trash/Recycling",
    "request_reason": "Order Trash Cart",
    "date_created": "2022-07-11T20:26:17.000",
    "date_modified": "2022-07-11T20:26:17.000",
    "request_status": "Pending",
    "responsible_agency": "Department of Sanitation",
    "final_address": "New Orleans,LA",
    "status": "Assigned to Contractor",
    "rowid": "899052",
    "longitude": "0.0",
    "latitude": "0.0",
    "geocoded_column": {
      "latitude": "0.0",
      "longitude": "0.0"
    }
  },
  {
    "service_request": "2022-899051",
    "request_type": "Trash/Recycling",
    "request_reason": "MIssed Recycling Pick-Up",
    "date_created": "2022-07-11T20:20:18.000",
    "date_modified": "2022-07-11T20:20:18.000",
    "request_status": "Pending",
    "responsible_agency": "Department of Sanitation",
    "final_address": "204 Finland Pl",
    "address_councildis": "C",
    "status": "Assigned to Contractor",
    "contractor": "Richards Disposal",
    "rowid": "899051",
    "final_x": "3706280.85201",
    "final_y": "520818.505209",
    "longitude": "-89.99021805902777",
    "latitude": "29.925294696592136",
    "geocoded_column": {
      "latitude": "29.925294696592136",
      "longitude": "-89.99021805902777"
    }
  },
  {
    "service_request": "2022-899050",
    "request_type": "Trash/Recycling",
    "request_reason": "Missed Trash Pick-Up",
    "date_created": "2022-07-11T20:15:47.000",
    "date_modified": "2022-07-11T20:15:48.000",
    "request_status": "Pending",
    "responsible_agency": "Department of Sanitation",
    "final_address": "2754 Mithra St",
    "address_councildis": "D",
    "status": "Assigned to Contractor",
    "contractor": "Metro Disposal",
    "rowid": "899050",
    "final_x": "3687811.16963",
    "final_y": "552951.621847",
    "longitude": "-90.04738249236485",
    "latitude": "30.01423187970382",
    "geocoded_column": {
      "latitude": "30.01423187970382",
      "longitude": "-90.04738249236485"
    }
  },
  {
    "service_request": "2022-899049",
    "request_type": "Roads/Drainage",
    "request_reason": "Catch Basin - Broken/Damage",
    "date_created": "2022-07-11T20:14:29.000",
    "date_modified": "2022-07-11T20:14:29.000",
    "request_status": "Pending",
    "responsible_agency": "Department of Public Works",
    "final_address": "5320 Lacour Monique St",
    "address_councildis": "C",
    "status": "Pending",
    "rowid": "899049",
    "final_x": "3703526.05188",
    "final_y": "517959.910198",
    "longitude": "-89.99901910754603",
    "latitude": "29.917523049400156",
    "geocoded_column": {
      "latitude": "29.917523049400156",
      "longitude": "-89.99901910754603"
    }
  },
  {
    "service_request": "2022-899048",
    "request_type": "Traffic Signals/Signs/Striping/Streetlights",
    "request_reason": "Street Light Outage/Malfunction",
    "date_created": "2022-07-11T20:09:43.000",
    "date_modified": "2022-07-11T20:09:43.000",
    "request_status": "Pending",
    "responsible_agency": "Department of Public Works",
    "final_address": "7140 Lake Barrington Dr",
    "address_councildis": "E",
    "status": "Pending",
    "contractor": "Royal Engineering",
    "rowid": "899048",
    "final_x": "3712251.10744",
    "final_y": "564196.778465",
    "longitude": "-89.96974251689643",
    "latitude": "30.044374780993973",
    "geocoded_column": {
      "latitude": "30.044374780993973",
      "longitude": "-89.96974251689643"
    }
  },
  {
    "service_request": "2022-899047",
    "request_type": "Trash/Recycling",
    "request_reason": "Missed Trash Pick-Up",
    "date_created": "2022-07-11T20:00:29.000",
    "date_modified": "2022-07-11T20:00:30.000",
    "request_status": "Pending",
    "responsible_agency": "Department of Sanitation",
    "final_address": "6038 St Roch Ave",
    "address_councildis": "D",
    "status": "Assigned to Contractor",
    "contractor": "Metro Disposal",
    "rowid": "899047",
    "final_x": "3684849.52105",
    "final_y": "555387.567513",
    "longitude": "-90.05665405152598",
    "latitude": "30.02102089510698",
    "geocoded_column": {
      "latitude": "30.02102089510698",
      "longitude": "-90.05665405152598"
    }
  },
  {
    "service_request": "2022-899046",
    "request_type": "Trash/Recycling",
    "request_reason": "Missed Trash Pick-Up",
    "date_created": "2022-07-11T19:57:22.000",
    "date_modified": "2022-07-11T19:57:23.000",
    "request_status": "Pending",
    "responsible_agency": "Department of Sanitation",
    "final_address": "913 Decatur St",
    "address_councildis": "C",
    "status": "Assigned to Contractor",
    "contractor": "Empire Services",
    "rowid": "899046",
    "final_x": "3683655.19893",
    "final_y": "532687.949188",
    "longitude": "-90.06122404498828",
    "latitude": "29.95864153126348",
    "geocoded_column": {
      "latitude": "29.95864153126348",
      "longitude": "-90.06122404498828"
    }
  },
  {
    "service_request": "2022-899045",
    "request_type": "Trash/Recycling",
    "request_reason": "MIssed Recycling Pick-Up",
    "date_created": "2022-07-11T19:56:13.000",
    "date_modified": "2022-07-11T19:56:13.000",
    "request_status": "Pending",
    "responsible_agency": "Department of Sanitation",
    "final_address": "2814 Seine St, New Orleans, Louisiana, 70114",
    "address_councildis": "C",
    "status": "Assigned to Contractor",
    "contractor": "Richards Disposal",
    "rowid": "899045",
    "final_x": "3693417.14537",
    "final_y": "521015.798969",
    "longitude": "-90.03081746734189",
    "latitude": "29.926245526240336",
    "geocoded_column": {
      "latitude": "29.926245526240336",
      "longitude": "-90.03081746734189"
    }
  },
  {
    "service_request": "2022-899044",
    "request_type": "Trash/Recycling",
    "request_reason": "Missed Trash Pick-Up",
    "date_created": "2022-07-11T19:55:34.000",
    "date_modified": "2022-07-11T19:55:36.000",
    "request_status": "Pending",
    "responsible_agency": "Department of Sanitation",
    "final_address": "4465 Mandeville St",
    "address_councildis": "D",
    "status": "Assigned to Contractor",
    "contractor": "Metro Disposal",
    "rowid": "899044",
    "final_x": "3684866.73717",
    "final_y": "549421.878163",
    "longitude": "-90.0568096505411",
    "latitude": "30.004616901063",
    "geocoded_column": {
      "latitude": "30.004616901063",
      "longitude": "-90.0568096505411"
    }
  },
  {
    "service_request": "2022-899043",
    "request_type": "Trash/Recycling",
    "request_reason": "Order Trash Cart",
    "date_created": "2022-07-11T19:55:28.000",
    "date_modified": "2022-07-11T19:55:29.000",
    "request_status": "Pending",
    "responsible_agency": "Department of Sanitation",
    "final_address": "7227 Beryl St",
    "address_councildis": "D",
    "status": "Assigned to Contractor",
    "contractor": "Metro Disposal",
    "rowid": "899043",
    "final_x": "3668688.18158",
    "final_y": "555562.592537",
    "longitude": "-90.10771351807925",
    "latitude": "30.02198736943842",
    "geocoded_column": {
      "latitude": "30.02198736943842",
      "longitude": "-90.10771351807925"
    }
  },
  {
    "service_request": "2022-899042",
    "request_type": "Traffic Signals/Signs/Striping/Streetlights",
    "request_reason": "Street Light Outage/Malfunction",
    "date_created": "2022-07-11T19:51:35.000",
    "date_modified": "2022-07-11T19:51:35.000",
    "request_status": "Pending",
    "responsible_agency": "Department of Public Works",
    "final_address": "7616 Primrose Dr",
    "address_councildis": "E",
    "status": "Pending",
    "contractor": "Royal Engineering",
    "rowid": "899042",
    "final_x": "3701678.53917",
    "final_y": "561215.438046",
    "longitude": "-90.00326577924208",
    "latitude": "30.036518974681236",
    "geocoded_column": {
      "latitude": "30.036518974681236",
      "longitude": "-90.00326577924208"
    }
  },
  {
    "service_request": "2022-899041",
    "request_type": "Traffic Signals/Signs/Striping/Streetlights",
    "request_reason": "Street Light Outage/Malfunction",
    "date_created": "2022-07-11T19:51:28.000",
    "date_modified": "2022-07-11T19:51:28.000",
    "request_status": "Pending",
    "responsible_agency": "Department of Public Works",
    "final_address": "2701 Prytania St",
    "address_councildis": "B",
    "status": "Pending",
    "contractor": "Royal Engineering",
    "rowid": "899041",
    "final_x": "3676388.55413",
    "final_y": "522274.887226",
    "longitude": "-90.08452860103682",
    "latitude": "29.930228880471674",
    "geocoded_column": {
      "latitude": "29.930228880471674",
      "longitude": "-90.08452860103682"
    }
  },
  {
    "service_request": "2022-899040",
    "request_type": "Trash/Recycling",
    "request_reason": "Replace Trash Cart",
    "date_created": "2022-07-11T19:49:01.000",
    "date_modified": "2022-07-11T19:49:46.000",
    "request_status": "Pending",
    "responsible_agency": "Department of Sanitation",
    "final_address": "1325 N Lopez St",
    "address_councildis": "A",
    "status": "Assigned to Contractor",
    "contractor": "Richards Disposal",
    "rowid": "899040",
    "final_x": "3676456.68641",
    "final_y": "540045.771659",
    "longitude": "-90.0837017037765",
    "latitude": "29.979090823681712",
    "geocoded_column": {
      "latitude": "29.979090823681712",
      "longitude": "-90.0837017037765"
    }
  },
  {
    "service_request": "2022-899039",
    "request_type": "Trash/Recycling",
    "request_reason": "Illegal Dumping",
    "date_created": "2022-07-11T19:42:52.000",
    "date_modified": "2022-07-11T19:42:52.000",
    "request_status": "Pending",
    "responsible_agency": "Department of Sanitation",
    "final_address": "614 Pacific Ave",
    "address_councildis": "C",
    "status": "Pending",
    "rowid": "899039",
    "final_x": "3688519.74332",
    "final_y": "529311.325377",
    "longitude": "-90.04598291779914",
    "latitude": "29.949207583785558",
    "geocoded_column": {
      "latitude": "29.949207583785558",
      "longitude": "-90.04598291779914"
    }
  },
  {
    "service_request": "2022-899038",
    "request_type": "Mosquito, Termite & Rodent Control",
    "request_reason": "Rodent Complaint (Rats)",
    "date_created": "2022-07-11T19:42:27.000",
    "date_modified": "2022-07-11T19:42:27.000",
    "request_status": "Pending",
    "responsible_agency": "Mosquito, Termite & Rodent Control Board",
    "final_address": "8134 Belfast St",
    "address_councildis": "A",
    "status": "Pending",
    "rowid": "899038",
    "final_x": "3665339.83482",
    "final_y": "532475.577988",
    "longitude": "-90.11906654014317",
    "latitude": "29.958603977710823",
    "geocoded_column": {
      "latitude": "29.958603977710823",
      "longitude": "-90.11906654014317"
    }
  },
  {
    "service_request": "2022-899037",
    "request_type": "Mosquito, Termite & Rodent Control",
    "request_reason": "Mosquito Complaint",
    "date_created": "2022-07-11T19:39:40.000",
    "date_modified": "2022-07-11T19:39:40.000",
    "request_status": "Pending",
    "responsible_agency": "Mosquito, Termite & Rodent Control Board",
    "final_address": "8134 Belfast St",
    "address_councildis": "A",
    "status": "Pending",
    "rowid": "899037",
    "final_x": "3665339.83482",
    "final_y": "532475.577988",
    "longitude": "-90.11906654014317",
    "latitude": "29.958603977710823",
    "geocoded_column": {
      "latitude": "29.958603977710823",
      "longitude": "-90.11906654014317"
    }
  },
  {
    "service_request": "2022-899036",
    "request_type": "Trash/Recycling",
    "request_reason": "Repair Trash Cart",
    "date_created": "2022-07-11T19:39:27.000",
    "date_modified": "2022-07-11T19:39:28.000",
    "request_status": "Pending",
    "responsible_agency": "Department of Sanitation",
    "final_address": "825 Belleville St",
    "address_councildis": "C",
    "status": "Assigned to Contractor",
    "contractor": "Richards Disposal",
    "rowid": "899036",
    "final_x": "3687759.37289",
    "final_y": "528522.85664",
    "longitude": "-90.0484116534583",
    "latitude": "29.94706303185815",
    "geocoded_column": {
      "latitude": "29.94706303185815",
      "longitude": "-90.0484116534583"
    }
  },
  {
    "service_request": "2022-899035",
    "request_type": "Traffic Signals/Signs/Striping/Streetlights",
    "request_reason": "Traffic Signal Malfunctioning/Damaged",
    "date_created": "2022-07-11T19:39:10.000",
    "date_modified": "2022-07-11T19:39:10.000",
    "request_status": "Pending",
    "responsible_agency": "Department of Public Works",
    "final_address": "ST BERNARD AVE & N RAMPART ST & MCSHANE PL",
    "address_councildis": "C",
    "status": "Pending",
    "rowid": "899035",
    "final_x": "3683272.7",
    "final_y": "535809.68",
    "longitude": "-90.06232253101372",
    "latitude": "29.967236889713856",
    "geocoded_column": {
      "latitude": "29.967236889713856",
      "longitude": "-90.06232253101372"
    }
  },
  {
    "service_request": "2022-899034",
    "request_type": "Trash/Recycling",
    "request_reason": "Request a Large Item Pick Up",
    "date_created": "2022-07-11T19:38:03.000",
    "date_modified": "2022-07-11T19:38:04.000",
    "request_status": "Pending",
    "responsible_agency": "Department of Sanitation",
    "final_address": "243 Pacific Ave",
    "address_councildis": "C",
    "status": "Assigned to Contractor",
    "contractor": "Richards Disposal",
    "rowid": "899034",
    "final_x": "3688506.41084",
    "final_y": "530812.67693",
    "longitude": "-90.0459717551241",
    "latitude": "29.953336196881633",
    "geocoded_column": {
      "latitude": "29.953336196881633",
      "longitude": "-90.0459717551241"
    }
  },
  {
    "service_request": "2022-899033",
    "request_type": "Trash/Recycling",
    "request_reason": "Illegal Dumping",
    "date_created": "2022-07-11T19:36:53.000",
    "date_modified": "2022-07-11T19:36:53.000",
    "request_status": "Pending",
    "responsible_agency": "Department of Sanitation",
    "final_address": "8134 Belfast St",
    "address_councildis": "A",
    "status": "Pending",
    "rowid": "899033",
    "final_x": "3665339.83482",
    "final_y": "532475.577988",
    "longitude": "-90.11906654014317",
    "latitude": "29.958603977710823",
    "geocoded_column": {
      "latitude": "29.958603977710823",
      "longitude": "-90.11906654014317"
    }
  },
  {
    "service_request": "2022-899032",
    "request_type": "Traffic Signals/Signs/Striping/Streetlights",
    "request_reason": "Street Light Outage/Malfunction",
    "date_created": "2022-07-11T19:36:45.000",
    "date_modified": "2022-07-11T19:36:46.000",
    "request_status": "Pending",
    "responsible_agency": "Department of Public Works",
    "final_address": "3201 Coliseum St",
    "address_councildis": "B",
    "status": "Pending",
    "contractor": "Royal Engineering",
    "rowid": "899032",
    "final_x": "3675235.3588",
    "final_y": "520996.168505",
    "longitude": "-90.08821292396698",
    "latitude": "29.92674732618069",
    "geocoded_column": {
      "latitude": "29.92674732618069",
      "longitude": "-90.08821292396698"
    }
  },
  {
    "service_request": "2022-899031",
    "request_type": "Trash/Recycling",
    "request_reason": "MIssed Recycling Pick-Up",
    "date_created": "2022-07-11T19:36:33.000",
    "date_modified": "2022-07-11T19:36:33.000",
    "request_status": "Pending",
    "responsible_agency": "Department of Sanitation",
    "final_address": "217 Delaronde St",
    "address_councildis": "C",
    "status": "Assigned to Contractor",
    "contractor": "Richards Disposal",
    "rowid": "899031",
    "final_x": "3686130.42722",
    "final_y": "530633.89325",
    "longitude": "-90.05348038307504",
    "latitude": "29.952917789547804",
    "geocoded_column": {
      "latitude": "29.952917789547804",
      "longitude": "-90.05348038307504"
    }
  },
  {
    "service_request": "2022-899030",
    "request_type": "Trash/Recycling",
    "request_reason": "Request a Large Item Pick Up",
    "date_created": "2022-07-11T19:35:42.000",
    "date_modified": "2022-07-11T19:35:43.000",
    "request_status": "Pending",
    "responsible_agency": "Department of Sanitation",
    "final_address": "244 Pacific Ave",
    "address_councildis": "C",
    "status": "Assigned to Contractor",
    "contractor": "Richards Disposal",
    "rowid": "899030",
    "final_x": "3688586.92291",
    "final_y": "530784.385858",
    "longitude": "-90.0457185370694",
    "latitude": "29.95325591869308",
    "geocoded_column": {
      "latitude": "29.95325591869308",
      "longitude": "-90.0457185370694"
    }
  },
  {
    "service_request": "2022-899029",
    "request_type": "Traffic Signals/Signs/Striping/Streetlights",
    "request_reason": "Street Light Outage/Malfunction",
    "date_created": "2022-07-11T19:34:33.000",
    "date_modified": "2022-07-11T19:34:33.000",
    "request_status": "Pending",
    "responsible_agency": "Department of Public Works",
    "final_address": "2601 Coliseum St",
    "address_councildis": "B",
    "status": "Pending",
    "contractor": "Royal Engineering",
    "rowid": "899029",
    "final_x": "3676932.89109",
    "final_y": "522041.570362",
    "longitude": "-90.08281825311305",
    "latitude": "29.929571011423157",
    "geocoded_column": {
      "latitude": "29.929571011423157",
      "longitude": "-90.08281825311305"
    }
  },
  {
    "service_request": "2022-899028",
    "request_type": "Trash/Recycling",
    "request_reason": "Missed Trash Pick-Up",
    "date_created": "2022-07-11T19:34:16.000",
    "date_modified": "2022-07-11T19:34:17.000",
    "request_status": "Pending",
    "responsible_agency": "Department of Sanitation",
    "final_address": "2908 St Ann St",
    "address_councildis": "A",
    "status": "Assigned to Contractor",
    "contractor": "Richards Disposal",
    "rowid": "899028",
    "final_x": "3676105.63976",
    "final_y": "537798.46516",
    "longitude": "-90.08488778036084",
    "latitude": "29.972922023057148",
    "geocoded_column": {
      "latitude": "29.972922023057148",
      "longitude": "-90.08488778036084"
    }
  },
  {
    "service_request": "2022-899027",
    "request_type": "Trash/Recycling",
    "request_reason": "Missed Trash Pick-Up",
    "date_created": "2022-07-11T19:34:07.000",
    "date_modified": "2022-07-11T19:34:08.000",
    "request_status": "Pending",
    "responsible_agency": "Department of Sanitation",
    "final_address": "5925 Marigny St",
    "address_councildis": "D",
    "status": "Assigned to Contractor",
    "contractor": "Metro Disposal",
    "rowid": "899027",
    "final_x": "3683988.12233",
    "final_y": "554860.909976",
    "longitude": "-90.05939432286777",
    "latitude": "30.019599142293153",
    "geocoded_column": {
      "latitude": "30.019599142293153",
      "longitude": "-90.05939432286777"
    }
  },
  {
    "service_request": "2022-899026",
    "request_type": "Trash/Recycling",
    "request_reason": "Request a Large Item Pick Up",
    "date_created": "2022-07-11T19:32:48.000",
    "date_modified": "2022-07-11T19:32:48.000",
    "request_status": "Pending",
    "responsible_agency": "Department of Sanitation",
    "final_address": "416 Pacific Ave",
    "address_councildis": "C",
    "status": "Assigned to Contractor",
    "contractor": "Richards Disposal",
    "rowid": "899026",
    "final_x": "3688568.20207",
    "final_y": "530148.062913",
    "longitude": "-90.04580022614276",
    "latitude": "29.951506827836663",
    "geocoded_column": {
      "latitude": "29.951506827836663",
      "longitude": "-90.04580022614276"
    }
  },
  {
    "service_request": "2022-899025",
    "request_type": "Traffic Signals/Signs/Striping/Streetlights",
    "request_reason": "Street Light Outage/Malfunction",
    "date_created": "2022-07-11T19:32:40.000",
    "date_modified": "2022-07-11T19:32:42.000",
    "request_status": "Pending",
    "responsible_agency": "Department of Public Works",
    "final_address": "2200 Coliseum St",
    "address_councildis": "B",
    "status": "Pending",
    "contractor": "Royal Engineering",
    "rowid": "899025",
    "final_x": "3678109.83797",
    "final_y": "522697.391738",
    "longitude": "-90.07908018073464",
    "latitude": "29.931338934805066",
    "geocoded_column": {
      "latitude": "29.931338934805066",
      "longitude": "-90.07908018073464"
    }
  },
  {
    "service_request": "2022-899024",
    "request_type": "Trash/Recycling",
    "request_reason": "Request a Large Item Pick Up",
    "date_created": "2022-07-11T19:32:33.000",
    "date_modified": "2022-07-11T19:32:34.000",
    "request_status": "Pending",
    "responsible_agency": "Department of Sanitation",
    "final_address": "6501 Brunswick Ct",
    "address_councildis": "C",
    "status": "Assigned to Contractor",
    "contractor": "Richards Disposal",
    "rowid": "899024",
    "final_x": "3707939.1644",
    "final_y": "516897.923317",
    "longitude": "-89.98512895385878",
    "latitude": "29.914460911233036",
    "geocoded_column": {
      "latitude": "29.914460911233036",
      "longitude": "-89.98512895385878"
    }
  },
  {
    "service_request": "2022-899023",
    "request_type": "Traffic Signals/Signs/Striping/Streetlights",
    "request_reason": "Street Light Outage/Malfunction",
    "date_created": "2022-07-11T19:30:48.000",
    "date_modified": "2022-07-11T19:30:49.000",
    "request_status": "Pending",
    "responsible_agency": "Department of Public Works",
    "final_address": "3008 Camp St",
    "address_councildis": "B",
    "status": "Pending",
    "contractor": "Royal Engineering",
    "rowid": "899023",
    "final_x": "3676124.64552",
    "final_y": "520581.683576",
    "longitude": "-90.08541993254563",
    "latitude": "29.925581025709217",
    "geocoded_column": {
      "latitude": "29.925581025709217",
      "longitude": "-90.08541993254563"
    }
  },
  {
    "service_request": "2022-899022",
    "request_type": "Traffic Signals/Signs/Striping/Streetlights",
    "request_reason": "Request for Stop Sign",
    "date_created": "2022-07-11T19:28:39.000",
    "date_modified": "2022-07-11T19:28:40.000",
    "request_status": "Pending",
    "responsible_agency": "Department of Public Works",
    "final_address": "SELMA ST & RHODES DR",
    "address_councildis": "E",
    "status": "Pending",
    "rowid": "899022",
    "final_x": "3702557.4",
    "final_y": "554021.08",
    "longitude": "-90.00075282708218",
    "latitude": "30.01670919133879",
    "geocoded_column": {
      "latitude": "30.01670919133879",
      "longitude": "-90.00075282708218"
    }
  },
  {
    "service_request": "2022-899021",
    "request_type": "Traffic Signals/Signs/Striping/Streetlights",
    "request_reason": "Street Light Outage/Malfunction",
    "date_created": "2022-07-11T19:27:57.000",
    "date_modified": "2022-07-11T19:27:58.000",
    "request_status": "Pending",
    "responsible_agency": "Department of Public Works",
    "final_address": "2900 Chestnut St",
    "address_councildis": "B",
    "status": "Pending",
    "contractor": "Royal Engineering",
    "rowid": "899021",
    "final_x": "3676159.8308",
    "final_y": "521080.025785",
    "longitude": "-90.08529172904231",
    "latitude": "29.926950251707556",
    "geocoded_column": {
      "latitude": "29.926950251707556",
      "longitude": "-90.08529172904231"
    }
  },
  {
    "service_request": "2022-899020",
    "request_type": "Traffic Signals/Signs/Striping/Streetlights",
    "request_reason": "Street Light Outage/Malfunction",
    "date_created": "2022-07-11T19:12:46.000",
    "date_modified": "2022-07-11T19:12:47.000",
    "request_status": "Pending",
    "responsible_agency": "Department of Public Works",
    "final_address": "2300 Chestnut St",
    "address_councildis": "B",
    "status": "Pending",
    "contractor": "Royal Engineering",
    "rowid": "899020",
    "final_x": "3678012.0132",
    "final_y": "522282.845178",
    "longitude": "-90.07940332270863",
    "latitude": "29.930202011301446",
    "geocoded_column": {
      "latitude": "29.930202011301446",
      "longitude": "-90.07940332270863"
    }
  },
  {
    "service_request": "2022-899019",
    "request_type": "Traffic Signals/Signs/Striping/Streetlights",
    "request_reason": "Street Light Outage/Malfunction",
    "date_created": "2022-07-11T19:11:03.000",
    "date_modified": "2022-07-11T19:11:03.000",
    "request_status": "Pending",
    "responsible_agency": "Department of Public Works",
    "final_address": "2213 Chestnut St",
    "address_councildis": "B",
    "status": "Pending",
    "contractor": "Royal Engineering",
    "rowid": "899019",
    "final_x": "3678267.56526",
    "final_y": "522597.022394",
    "longitude": "-90.07858572482914",
    "latitude": "29.931058203697027",
    "geocoded_column": {
      "latitude": "29.931058203697027",
      "longitude": "-90.07858572482914"
    }
  },
  {
    "service_request": "2022-899018",
    "request_type": "Traffic Signals/Signs/Striping/Streetlights",
    "request_reason": "Street Light Outage/Malfunction",
    "date_created": "2022-07-11T19:02:48.000",
    "date_modified": "2022-07-11T19:02:49.000",
    "request_status": "Pending",
    "responsible_agency": "Department of Public Works",
    "final_address": "1830 Mcshane Pl",
    "address_councildis": "C",
    "status": "Pending",
    "contractor": "Royal Engineering",
    "rowid": "899018",
    "final_x": "3683786.62165",
    "final_y": "536104.726343",
    "longitude": "-90.06068921410524",
    "latitude": "29.968032480401625",
    "geocoded_column": {
      "latitude": "29.968032480401625",
      "longitude": "-90.06068921410524"
    }
  },
  {
    "service_request": "2022-899017",
    "request_type": "Abandoned Vehicles",
    "request_reason": "Vehicle Blocking Your Driveway",
    "date_created": "2022-07-11T19:02:42.000",
    "date_modified": "2022-07-11T19:02:42.000",
    "request_status": "Pending",
    "responsible_agency": "Department of Public Works",
    "final_address": "1545 Chippewa St",
    "address_councildis": "B",
    "status": "Pending",
    "rowid": "899017",
    "final_x": "3681159.40783",
    "final_y": "523162.150459",
    "longitude": "-90.06943688983576",
    "latitude": "29.932524728815658",
    "geocoded_column": {
      "latitude": "29.932524728815658",
      "longitude": "-90.06943688983576"
    }
  },
  {
    "service_request": "2022-899016",
    "request_type": "Traffic Signals/Signs/Striping/Streetlights",
    "request_reason": "Street Light Outage/Malfunction",
    "date_created": "2022-07-11T19:01:31.000",
    "date_modified": "2022-07-11T19:01:31.000",
    "request_status": "Pending",
    "responsible_agency": "Department of Public Works",
    "final_address": "2900 Camp St",
    "address_councildis": "B",
    "status": "Pending",
    "contractor": "Royal Engineering",
    "rowid": "899016",
    "final_x": "3676412.39675",
    "final_y": "520802.427897",
    "longitude": "-90.08450399476811",
    "latitude": "29.92617938090954",
    "geocoded_column": {
      "latitude": "29.92617938090954",
      "longitude": "-90.08450399476811"
    }
  },
  {
    "service_request": "2022-899015",
    "request_type": "Trash/Recycling",
    "request_reason": "Repair Trash Cart",
    "date_created": "2022-07-11T19:01:16.000",
    "date_modified": "2022-07-11T19:01:17.000",
    "request_status": "Pending",
    "responsible_agency": "Department of Sanitation",
    "final_address": "6177 General Diaz St",
    "address_councildis": "A",
    "status": "Assigned to Contractor",
    "contractor": "Metro Disposal",
    "rowid": "899015",
    "final_x": "3669668.82958",
    "final_y": "548421.775186",
    "longitude": "-90.10485681540982",
    "latitude": "30.002323759944996",
    "geocoded_column": {
      "latitude": "30.002323759944996",
      "longitude": "-90.10485681540982"
    }
  },
  {
    "service_request": "2022-899014",
    "request_type": "Traffic Signals/Signs/Striping/Streetlights",
    "request_reason": "Street Light Outage/Malfunction",
    "date_created": "2022-07-11T19:00:12.000",
    "date_modified": "2022-07-11T19:00:13.000",
    "request_status": "Pending",
    "responsible_agency": "Department of Public Works",
    "final_address": "2700 Camp St",
    "address_councildis": "B",
    "status": "Pending",
    "contractor": "Royal Engineering",
    "rowid": "899014",
    "final_x": "3677045.47502",
    "final_y": "521199.561209",
    "longitude": "-90.08249186218323",
    "latitude": "29.927252381195327",
    "geocoded_column": {
      "latitude": "29.927252381195327",
      "longitude": "-90.08249186218323"
    }
  },
  {
    "service_request": "2022-899013",
    "request_type": "Traffic Signals/Signs/Striping/Streetlights",
    "request_reason": "Street Light Outage/Malfunction",
    "date_created": "2022-07-11T18:58:03.000",
    "date_modified": "2022-07-11T18:58:04.000",
    "request_status": "Pending",
    "responsible_agency": "Department of Public Works",
    "final_address": "2100 Camp St",
    "address_councildis": "B",
    "status": "Pending",
    "contractor": "Royal Engineering",
    "rowid": "899013",
    "final_x": "3678893.94773",
    "final_y": "522516.354106",
    "longitude": "-90.07661111160074",
    "latitude": "29.930817517003458",
    "geocoded_column": {
      "latitude": "29.930817517003458",
      "longitude": "-90.07661111160074"
    }
  },
  {
    "service_request": "2022-899012",
    "request_type": "Traffic Signals/Signs/Striping/Streetlights",
    "request_reason": "Traffic Signal Malfunctioning/Damaged",
    "date_created": "2022-07-11T18:56:38.000",
    "date_modified": "2022-07-11T18:56:39.000",
    "request_status": "Pending",
    "responsible_agency": "Department of Public Works",
    "final_address": "ST CLAUDE AVE & ST BERNARD AVE",
    "address_councildis": "C",
    "status": "Pending",
    "rowid": "899012",
    "final_x": "3683078.0",
    "final_y": "536131.18",
    "longitude": "-90.06292613836104",
    "latitude": "29.96812684071733",
    "geocoded_column": {
      "latitude": "29.96812684071733",
      "longitude": "-90.06292613836104"
    }
  },
  {
    "service_request": "2022-899011",
    "request_type": "Trash/Recycling",
    "request_reason": "Missed Trash Pick-Up",
    "date_created": "2022-07-11T18:56:25.000",
    "date_modified": "2022-07-11T18:56:26.000",
    "request_status": "Pending",
    "responsible_agency": "Department of Sanitation",
    "final_address": "4601 Mandeville St",
    "address_councildis": "D",
    "status": "Assigned to Contractor",
    "contractor": "Metro Disposal",
    "rowid": "899011",
    "final_x": "3684852.14978",
    "final_y": "549541.966867",
    "longitude": "-90.05685150848736",
    "latitude": "30.004947548387968",
    "geocoded_column": {
      "latitude": "30.004947548387968",
      "longitude": "-90.05685150848736"
    }
  },
  {
    "service_request": "2022-899010",
    "request_type": "Traffic Signals/Signs/Striping/Streetlights",
    "request_reason": "Street Light Outage/Malfunction",
    "date_created": "2022-07-11T18:56:06.000",
    "date_modified": "2022-07-11T18:56:07.000",
    "request_status": "Pending",
    "responsible_agency": "Department of Public Works",
    "final_address": "2900 Magazine St",
    "address_councildis": "B",
    "status": "Pending",
    "contractor": "Royal Engineering",
    "rowid": "899010",
    "final_x": "3676622.2811",
    "final_y": "520482.036472",
    "longitude": "-90.08385247831234",
    "latitude": "29.925292116777403",
    "geocoded_column": {
      "latitude": "29.925292116777403",
      "longitude": "-90.08385247831234"
    }
  },
  {
    "service_request": "2022-899008",
    "request_type": "Traffic Signals/Signs/Striping/Streetlights",
    "request_reason": "Street Light Outage/Malfunction",
    "date_created": "2022-07-11T18:53:24.000",
    "date_modified": "2022-07-11T18:53:25.000",
    "request_status": "Pending",
    "responsible_agency": "Department of Public Works",
    "final_address": "2801 Prytania St",
    "address_councildis": "B",
    "status": "Pending",
    "contractor": "Royal Engineering",
    "rowid": "899008",
    "final_x": "3676144.17345",
    "final_y": "522096.783482",
    "longitude": "-90.08530619647611",
    "latitude": "29.92974647431412",
    "geocoded_column": {
      "latitude": "29.92974647431412",
      "longitude": "-90.08530619647611"
    }
  },
  {
    "service_request": "2022-899007",
    "request_type": "Trash/Recycling",
    "request_reason": "Missed Trash Pick-Up",
    "date_created": "2022-07-11T18:51:40.000",
    "date_modified": "2022-07-11T18:51:41.000",
    "request_status": "Pending",
    "responsible_agency": "Department of Sanitation",
    "final_address": "2667 Allen Toussaint Blvd, New Orleans, Louisiana, 70122",
    "status": "Assigned to Contractor",
    "rowid": "899007",
    "longitude": "0.0",
    "latitude": "0.0",
    "geocoded_column": {
      "latitude": "0.0",
      "longitude": "0.0"
    }
  },
  {
    "service_request": "2022-899006",
    "request_type": "Trash/Recycling",
    "request_reason": "MIssed Recycling Pick-Up",
    "date_created": "2022-07-11T18:51:20.000",
    "date_modified": "2022-07-11T18:51:22.000",
    "request_status": "Pending",
    "responsible_agency": "Department of Sanitation",
    "final_address": "2 Leeward Ct",
    "address_councildis": "C",
    "status": "Assigned to Contractor",
    "contractor": "Richards Disposal",
    "rowid": "899006",
    "final_x": "3704315.24529",
    "final_y": "522424.86233",
    "longitude": "-89.99636364521747",
    "latitude": "29.92977482559184",
    "geocoded_column": {
      "latitude": "29.92977482559184",
      "longitude": "-89.99636364521747"
    }
  },
  {
    "service_request": "2022-899005",
    "request_type": "Traffic Signals/Signs/Striping/Streetlights",
    "request_reason": "Street Light Outage/Malfunction",
    "date_created": "2022-07-11T18:50:35.000",
    "date_modified": "2022-07-11T18:50:36.000",
    "request_status": "Pending",
    "responsible_agency": "Department of Public Works",
    "final_address": "2501 Magazine St",
    "address_councildis": "B",
    "status": "Pending",
    "contractor": "Royal Engineering",
    "rowid": "899005",
    "final_x": "3677754.33794",
    "final_y": "521352.425977",
    "longitude": "-90.08024888346054",
    "latitude": "29.92765141296469",
    "geocoded_column": {
      "latitude": "29.92765141296469",
      "longitude": "-90.08024888346054"
    }
  },
  {
    "service_request": "2022-899004",
    "request_type": "Trash/Recycling",
    "request_reason": "Missed Trash Pick-Up",
    "date_created": "2022-07-11T18:50:18.000",
    "date_modified": "2022-07-11T18:57:48.000",
    "request_status": "Pending",
    "responsible_agency": "Department of Sanitation",
    "final_address": "New Orleans,LA",
    "address_councildis": "D",
    "status": "Assigned to Contractor",
    "contractor": "Metro Disposal",
    "rowid": "899004",
    "final_x": "3686950.95228",
    "final_y": "556098.446234",
    "longitude": "-90.04998898722111",
    "latitude": "30.022911000914586",
    "geocoded_column": {
      "latitude": "30.022911000914586",
      "longitude": "-90.04998898722111"
    }
  },
  {
    "service_request": "2022-899003",
    "request_type": "Traffic Signals/Signs/Striping/Streetlights",
    "request_reason": "Street Light Outage/Malfunction",
    "date_created": "2022-07-11T18:48:55.000",
    "date_modified": "2022-07-11T18:48:56.000",
    "request_status": "Pending",
    "responsible_agency": "Department of Public Works",
    "final_address": "2400 Magazine St",
    "address_councildis": "B",
    "status": "Pending",
    "contractor": "Royal Engineering",
    "rowid": "899003",
    "final_x": "3678071.20245",
    "final_y": "521434.307385",
    "longitude": "-90.07924578920101",
    "latitude": "29.927867028146228",
    "geocoded_column": {
      "latitude": "29.927867028146228",
      "longitude": "-90.07924578920101"
    }
  },
  {
    "service_request": "2022-899002",
    "request_type": "Traffic Signals/Signs/Striping/Streetlights",
    "request_reason": "Street Light Outage/Malfunction",
    "date_created": "2022-07-11T18:47:01.000",
    "date_modified": "2022-07-11T18:47:02.000",
    "request_status": "Pending",
    "responsible_agency": "Department of Public Works",
    "final_address": "2200 Magazine St",
    "address_councildis": "B",
    "status": "Pending",
    "contractor": "Royal Engineering",
    "rowid": "899002",
    "final_x": "3678837.56206",
    "final_y": "522018.315386",
    "longitude": "-90.07680635438547",
    "latitude": "29.929449773921082",
    "geocoded_column": {
      "latitude": "29.929449773921082",
      "longitude": "-90.07680635438547"
    }
  },
  {
    "service_request": "2022-899001",
    "request_type": "Traffic Signals/Signs/Striping/Streetlights",
    "request_reason": "Street Light Outage/Malfunction",
    "date_created": "2022-07-11T18:45:03.000",
    "date_modified": "2022-07-11T18:45:04.000",
    "request_status": "Pending",
    "responsible_agency": "Department of Public Works",
    "final_address": "2200 Magazine St",
    "address_councildis": "B",
    "status": "Pending",
    "contractor": "Royal Engineering",
    "rowid": "899001",
    "final_x": "3678837.56206",
    "final_y": "522018.315386",
    "longitude": "-90.07680635438547",
    "latitude": "29.929449773921082",
    "geocoded_column": {
      "latitude": "29.929449773921082",
      "longitude": "-90.07680635438547"
    }
  },
  {
    "service_request": "2022-899000",
    "request_type": "Trash/Recycling",
    "request_reason": "MIssed Recycling Pick-Up",
    "date_created": "2022-07-11T18:43:10.000",
    "date_modified": "2022-07-11T18:43:11.000",
    "request_status": "Pending",
    "responsible_agency": "Department of Sanitation",
    "final_address": "831 Pacific Ave",
    "address_councildis": "C",
    "status": "Assigned to Contractor",
    "contractor": "Richards Disposal",
    "rowid": "899000",
    "final_x": "3688403.64739",
    "final_y": "528426.378816",
    "longitude": "-90.04638086550617",
    "latitude": "29.94677786941864",
    "geocoded_column": {
      "latitude": "29.94677786941864",
      "longitude": "-90.04638086550617"
    }
  },
  {
    "service_request": "2022-898999",
    "request_type": "Traffic Signals/Signs/Striping/Streetlights",
    "request_reason": "Street Light Outage/Malfunction",
    "date_created": "2022-07-11T18:43:04.000",
    "date_modified": "2022-07-11T18:43:06.000",
    "request_status": "Pending",
    "responsible_agency": "Department of Public Works",
    "final_address": "2100 Magazine St",
    "address_councildis": "B",
    "status": "Pending",
    "contractor": "Royal Engineering",
    "rowid": "898999",
    "final_x": "3679162.64015",
    "final_y": "522260.064058",
    "longitude": "-90.07577176700978",
    "latitude": "29.930104697544113",
    "geocoded_column": {
      "latitude": "29.930104697544113",
      "longitude": "-90.07577176700978"
    }
  },
  {
    "service_request": "2022-898998",
    "request_type": "Traffic Signals/Signs/Striping/Streetlights",
    "request_reason": "Street Light Outage/Malfunction",
    "date_created": "2022-07-11T18:41:14.000",
    "date_modified": "2022-07-11T18:41:15.000",
    "request_status": "Pending",
    "responsible_agency": "Department of Public Works",
    "final_address": "4712 Raymond Joseph Dr",
    "address_councildis": "E",
    "status": "Pending",
    "contractor": "Royal Engineering",
    "rowid": "898998",
    "final_x": "3703653.43351",
    "final_y": "555088.435929",
    "longitude": "-89.99725052722229",
    "latitude": "30.019608916586847",
    "geocoded_column": {
      "latitude": "30.019608916586847",
      "longitude": "-89.99725052722229"
    }
  },
  {
    "service_request": "2022-898997",
    "request_type": "Traffic Signals/Signs/Striping/Streetlights",
    "request_reason": "Street Light Outage/Malfunction",
    "date_created": "2022-07-11T18:40:46.000",
    "date_modified": "2022-07-11T18:40:47.000",
    "request_status": "Pending",
    "responsible_agency": "Department of Public Works",
    "final_address": "3203 Prytania St",
    "address_councildis": "B",
    "status": "Pending",
    "contractor": "Royal Engineering",
    "rowid": "898997",
    "final_x": "3675032.57992",
    "final_y": "521395.361465",
    "longitude": "-90.08883935665293",
    "latitude": "29.927851035089873",
    "geocoded_column": {
      "latitude": "29.927851035089873",
      "longitude": "-90.08883935665293"
    }
  },
  {
    "service_request": "2022-898996",
    "request_type": "Trash/Recycling",
    "request_reason": "MIssed Recycling Pick-Up",
    "date_created": "2022-07-11T18:40:43.000",
    "date_modified": "2022-07-11T18:40:44.000",
    "request_status": "Pending",
    "responsible_agency": "Department of Sanitation",
    "final_address": "819 Eliza St",
    "address_councildis": "C",
    "status": "Assigned to Contractor",
    "contractor": "Richards Disposal",
    "rowid": "898996",
    "final_x": "3688039.02991",
    "final_y": "529868.660609",
    "longitude": "-90.0474809901212",
    "latitude": "29.950754906436263",
    "geocoded_column": {
      "latitude": "29.950754906436263",
      "longitude": "-90.0474809901212"
    }
  },
  {
    "service_request": "2022-898995",
    "request_type": "Traffic Signals/Signs/Striping/Streetlights",
    "request_reason": "Street Light Outage/Malfunction",
    "date_created": "2022-07-11T18:38:32.000",
    "date_modified": "2022-07-11T18:38:33.000",
    "request_status": "Pending",
    "responsible_agency": "Department of Public Works",
    "final_address": "2900 Prytania St",
    "address_councildis": "B",
    "status": "Pending",
    "contractor": "Royal Engineering",
    "rowid": "898995",
    "final_x": "3675775.83061",
    "final_y": "521754.409274",
    "longitude": "-90.08648075266153",
    "latitude": "29.9288160826935",
    "geocoded_column": {
      "latitude": "29.9288160826935",
      "longitude": "-90.08648075266153"
    }
  },
  {
    "service_request": "2022-898994",
    "request_type": "Trash/Recycling",
    "request_reason": "Missed Trash Pick-Up",
    "date_created": "2022-07-11T18:37:35.000",
    "date_modified": "2022-07-11T18:37:36.000",
    "request_status": "Pending",
    "responsible_agency": "Department of Sanitation",
    "final_address": "3104 Dumaine St",
    "address_councildis": "A",
    "status": "Assigned to Contractor",
    "contractor": "Richards Disposal",
    "rowid": "898994",
    "final_x": "3675629.24091",
    "final_y": "538644.852425",
    "longitude": "-90.08636325099864",
    "latitude": "29.975263562735798",
    "geocoded_column": {
      "latitude": "29.975263562735798",
      "longitude": "-90.08636325099864"
    }
  },
  {
    "service_request": "2022-898993",
    "request_type": "Trash/Recycling",
    "request_reason": "Request a Large Item Pick Up",
    "date_created": "2022-07-11T18:35:14.000",
    "date_modified": "2022-07-11T18:35:15.000",
    "request_status": "Pending",
    "responsible_agency": "Department of Sanitation",
    "final_address": "4050 Clematis St",
    "address_councildis": "D",
    "status": "Assigned to Contractor",
    "contractor": "Metro Disposal",
    "rowid": "898993",
    "final_x": "3685386.60124",
    "final_y": "547673.122194",
    "longitude": "-90.05522892536865",
    "latitude": "29.999792518824684",
    "geocoded_column": {
      "latitude": "29.999792518824684",
      "longitude": "-90.05522892536865"
    }
  },
  {
    "service_request": "2022-898992",
    "request_type": "Traffic Signals/Signs/Striping/Streetlights",
    "request_reason": "Street Light Outage/Malfunction",
    "date_created": "2022-07-11T18:34:42.000",
    "date_modified": "2022-07-11T18:34:42.000",
    "request_status": "Pending",
    "responsible_agency": "Department of Public Works",
    "final_address": "2801 Prytania St",
    "address_councildis": "B",
    "status": "Pending",
    "contractor": "Royal Engineering",
    "rowid": "898992",
    "final_x": "3676144.17345",
    "final_y": "522096.783482",
    "longitude": "-90.08530619647611",
    "latitude": "29.92974647431412",
    "geocoded_column": {
      "latitude": "29.92974647431412",
      "longitude": "-90.08530619647611"
    }
  },
  {
    "service_request": "2022-898991",
    "request_type": "Traffic Signals/Signs/Striping/Streetlights",
    "request_reason": "Street Light Outage/Malfunction",
    "date_created": "2022-07-11T18:30:14.000",
    "date_modified": "2022-07-11T18:30:14.000",
    "request_status": "Pending",
    "responsible_agency": "Department of Public Works",
    "final_address": "2605 Prytania St",
    "address_councildis": "B",
    "status": "Pending",
    "contractor": "Royal Engineering",
    "rowid": "898991",
    "final_x": "3676647.02267",
    "final_y": "522452.79577",
    "longitude": "-90.08370653142303",
    "latitude": "29.93071032281712",
    "geocoded_column": {
      "latitude": "29.93071032281712",
      "longitude": "-90.08370653142303"
    }
  },
  {
    "service_request": "2022-898990",
    "request_type": "Traffic Signals/Signs/Striping/Streetlights",
    "request_reason": "Street Light Outage/Malfunction",
    "date_created": "2022-07-11T18:27:05.000",
    "date_modified": "2022-07-11T18:27:06.000",
    "request_status": "Pending",
    "responsible_agency": "Department of Public Works",
    "final_address": "2401 Prytania St",
    "address_councildis": "B",
    "status": "Pending",
    "contractor": "Royal Engineering",
    "rowid": "898990",
    "final_x": "3677156.67182",
    "final_y": "522791.743163",
    "longitude": "-90.08208595713144",
    "latitude": "29.931627024684822",
    "geocoded_column": {
      "latitude": "29.931627024684822",
      "longitude": "-90.08208595713144"
    }
  },
  {
    "service_request": "2022-898989",
    "request_type": "Trash/Recycling",
    "request_reason": "Missed Trash Pick-Up",
    "date_created": "2022-07-11T18:26:01.000",
    "date_modified": "2022-07-11T18:26:02.000",
    "request_status": "Pending",
    "responsible_agency": "Department of Sanitation",
    "final_address": "2625 Saint Philip St, New Orleans, Louisiana, 70119",
    "status": "Assigned to Contractor",
    "rowid": "898989",
    "longitude": "0.0",
    "latitude": "0.0",
    "geocoded_column": {
      "latitude": "0.0",
      "longitude": "0.0"
    }
  },
  {
    "service_request": "2022-898988",
    "request_type": "Abandoned Vehicles",
    "request_reason": "Vehicle Blocking Your Driveway",
    "date_created": "2022-07-11T18:25:53.000",
    "date_modified": "2022-07-11T18:25:53.000",
    "request_status": "Pending",
    "responsible_agency": "Department of Public Works",
    "final_address": "2801 Banks St",
    "address_councildis": "B",
    "status": "Pending",
    "rowid": "898988",
    "final_x": "3674160.12059",
    "final_y": "534574.613253",
    "longitude": "-90.09114248846855",
    "latitude": "29.964115662138898",
    "geocoded_column": {
      "latitude": "29.964115662138898",
      "longitude": "-90.09114248846855"
    }
  },
  {
    "service_request": "2022-898987",
    "request_type": "Trash/Recycling",
    "request_reason": "Request a Large Item Pick Up",
    "date_created": "2022-07-11T18:25:15.000",
    "date_modified": "2022-07-11T18:25:16.000",
    "request_status": "Pending",
    "responsible_agency": "Department of Sanitation",
    "final_address": "521 Pacific Ave",
    "address_councildis": "C",
    "status": "Assigned to Contractor",
    "contractor": "Richards Disposal",
    "rowid": "898987",
    "final_x": "3688450.63753",
    "final_y": "529722.522049",
    "longitude": "-90.04618653024033",
    "latitude": "29.95034036835285",
    "geocoded_column": {
      "latitude": "29.95034036835285",
      "longitude": "-90.04618653024033"
    }
  },
  {
    "service_request": "2022-898986",
    "request_type": "Traffic Signals/Signs/Striping/Streetlights",
    "request_reason": "Street Light Outage/Malfunction",
    "date_created": "2022-07-11T18:24:18.000",
    "date_modified": "2022-07-11T18:24:19.000",
    "request_status": "Pending",
    "responsible_agency": "Department of Public Works",
    "final_address": "2300 Prytania St",
    "address_councildis": "B",
    "status": "Pending",
    "contractor": "Royal Engineering",
    "rowid": "898986",
    "final_x": "3677613.75464",
    "final_y": "522970.710139",
    "longitude": "-90.08063682195251",
    "latitude": "29.932105392982212",
    "geocoded_column": {
      "latitude": "29.932105392982212",
      "longitude": "-90.08063682195251"
    }
  },
  {
    "service_request": "2022-898985",
    "request_type": "Traffic Signals/Signs/Striping/Streetlights",
    "request_reason": "Street Light Outage/Malfunction",
    "date_created": "2022-07-11T18:24:17.000",
    "date_modified": "2022-07-11T18:24:18.000",
    "request_status": "Pending",
    "responsible_agency": "Department of Public Works",
    "final_address": "2300 Prytania St",
    "address_councildis": "B",
    "status": "Pending",
    "contractor": "Royal Engineering",
    "rowid": "898985",
    "final_x": "3677613.75464",
    "final_y": "522970.710139",
    "longitude": "-90.08063682195251",
    "latitude": "29.932105392982212",
    "geocoded_column": {
      "latitude": "29.932105392982212",
      "longitude": "-90.08063682195251"
    }
  },
  {
    "service_request": "2022-898984",
    "request_type": "Traffic Signals/Signs/Striping/Streetlights",
    "request_reason": "Street Light Outage/Malfunction",
    "date_created": "2022-07-11T18:23:30.000",
    "date_modified": "2022-07-11T18:23:31.000",
    "request_status": "Pending",
    "responsible_agency": "Department of Public Works",
    "final_address": "2300 Prytania St",
    "address_councildis": "B",
    "status": "Pending",
    "contractor": "Royal Engineering",
    "rowid": "898984",
    "final_x": "3677613.75464",
    "final_y": "522970.710139",
    "longitude": "-90.08063682195251",
    "latitude": "29.932105392982212",
    "geocoded_column": {
      "latitude": "29.932105392982212",
      "longitude": "-90.08063682195251"
    }
  },
  {
    "service_request": "2022-898983",
    "request_type": "Trash/Recycling",
    "request_reason": "Missed Trash Pick-Up",
    "date_created": "2022-07-11T18:22:17.000",
    "date_modified": "2022-07-11T18:22:17.000",
    "request_status": "Pending",
    "responsible_agency": "Department of Sanitation",
    "final_address": "2402 Gallier St",
    "address_councildis": "D",
    "status": "Assigned to Contractor",
    "contractor": "Metro Disposal",
    "rowid": "898983",
    "final_x": "3691645.69859",
    "final_y": "540587.450507",
    "longitude": "-90.03570973800879",
    "latitude": "29.980116028713645",
    "geocoded_column": {
      "latitude": "29.980116028713645",
      "longitude": "-90.03570973800879"
    }
  },
  {
    "service_request": "2022-898982",
    "request_type": "Traffic Signals/Signs/Striping/Streetlights",
    "request_reason": "Street Light Outage/Malfunction",
    "date_created": "2022-07-11T18:19:47.000",
    "date_modified": "2022-07-11T18:19:48.000",
    "request_status": "Pending",
    "responsible_agency": "Department of Public Works",
    "final_address": "2100 Prytania St",
    "address_councildis": "B",
    "status": "Pending",
    "contractor": "Royal Engineering",
    "rowid": "898982",
    "final_x": "3678156.32206",
    "final_y": "523388.291323",
    "longitude": "-90.07890955848777",
    "latitude": "29.933237283131398",
    "geocoded_column": {
      "latitude": "29.933237283131398",
      "longitude": "-90.07890955848777"
    }
  },
  {
    "service_request": "2022-898981",
    "request_type": "Trash/Recycling",
    "request_reason": "Missed Trash Pick-Up",
    "date_created": "2022-07-11T18:19:26.000",
    "date_modified": "2022-07-11T18:19:26.000",
    "request_status": "Pending",
    "responsible_agency": "Department of Sanitation",
    "final_address": "5813 Eads St",
    "address_councildis": "D",
    "status": "Assigned to Contractor",
    "contractor": "Metro Disposal",
    "rowid": "898981",
    "final_x": "3686877.5949",
    "final_y": "554595.562456",
    "longitude": "-90.05027395399588",
    "latitude": "30.018780886191387",
    "geocoded_column": {
      "latitude": "30.018780886191387",
      "longitude": "-90.05027395399588"
    }
  },
  {
    "service_request": "2022-898980",
    "request_type": "Traffic Signals/Signs/Striping/Streetlights",
    "request_reason": "Street Light Outage/Malfunction",
    "date_created": "2022-07-11T18:17:47.000",
    "date_modified": "2022-07-11T18:17:51.000",
    "request_status": "Pending",
    "responsible_agency": "Department of Public Works",
    "final_address": "2701 Carondelet St",
    "address_councildis": "B",
    "status": "Pending",
    "contractor": "Royal Engineering",
    "rowid": "898980",
    "final_x": "3675925.27297",
    "final_y": "523038.998267",
    "longitude": "-90.08596484816691",
    "latitude": "29.93234381245348",
    "geocoded_column": {
      "latitude": "29.93234381245348",
      "longitude": "-90.08596484816691"
    }
  },
  {
    "service_request": "2022-898979",
    "request_type": "Trash/Recycling",
    "request_reason": "Order Recycling Cart",
    "date_created": "2022-07-11T18:16:27.000",
    "date_modified": "2022-07-11T18:16:27.000",
    "request_status": "Pending",
    "responsible_agency": "Department of Sanitation",
    "final_address": "822 Camp St",
    "address_councildis": "B",
    "status": "Pending",
    "rowid": "898979",
    "final_x": "3680783.10402",
    "final_y": "527713.594815",
    "longitude": "-90.07046648783425",
    "latitude": "29.94505109660232",
    "geocoded_column": {
      "latitude": "29.94505109660232",
      "longitude": "-90.07046648783425"
    }
  },
  {
    "service_request": "2022-898978",
    "request_type": "Traffic Signals/Signs/Striping/Streetlights",
    "request_reason": "Street Light Outage/Malfunction",
    "date_created": "2022-07-11T18:15:01.000",
    "date_modified": "2022-07-11T18:15:02.000",
    "request_status": "Pending",
    "responsible_agency": "Department of Public Works",
    "final_address": "2600 Carondelet St",
    "address_councildis": "B",
    "status": "Pending",
    "contractor": "Royal Engineering",
    "rowid": "898978",
    "final_x": "3676202.44309",
    "final_y": "523145.677819",
    "longitude": "-90.08508617817658",
    "latitude": "29.932628846967074",
    "geocoded_column": {
      "latitude": "29.932628846967074",
      "longitude": "-90.08508617817658"
    }
  },
  {
    "service_request": "2022-898977",
    "request_type": "Trash/Recycling",
    "request_reason": "Missed Trash Pick-Up",
    "date_created": "2022-07-11T18:09:10.000",
    "date_modified": "2022-07-11T18:09:11.000",
    "request_status": "Pending",
    "responsible_agency": "Department of Sanitation",
    "final_address": "800 Block of Marigny St, New Orleans, Louisiana, 70117",
    "status": "Assigned to Contractor",
    "rowid": "898977",
    "longitude": "0.0",
    "latitude": "0.0",
    "geocoded_column": {
      "latitude": "0.0",
      "longitude": "0.0"
    }
  },
  {
    "service_request": "2022-898976",
    "request_type": "Trash/Recycling",
    "request_reason": "Request a Large Item Pick Up",
    "date_created": "2022-07-11T18:09:07.000",
    "date_modified": "2022-07-11T18:09:08.000",
    "request_status": "Pending",
    "responsible_agency": "Department of Sanitation",
    "final_address": "7425 Malvern Dr",
    "address_councildis": "E",
    "status": "Assigned to Contractor",
    "contractor": "Metro Disposal",
    "rowid": "898976",
    "final_x": "3702725.15249",
    "final_y": "561126.749342",
    "longitude": "-89.99996155161045",
    "latitude": "30.036241669094775",
    "geocoded_column": {
      "latitude": "30.036241669094775",
      "longitude": "-89.99996155161045"
    }
  },
  {
    "service_request": "2022-898975",
    "request_type": "Abandoned Vehicles",
    "request_reason": "Abandoned/Junk Vehicles",
    "date_created": "2022-07-11T18:06:03.000",
    "date_modified": "2022-07-11T18:06:03.000",
    "request_status": "Pending",
    "responsible_agency": "Department of Public Works",
    "final_address": "1201 Bienville St, New Orleans, Louisiana, 70112",
    "address_councildis": "C",
    "status": "Pending",
    "rowid": "898975",
    "final_x": "3680214.96136",
    "final_y": "532455.287812",
    "longitude": "-90.07209550229297",
    "latitude": "29.958106361958762",
    "geocoded_column": {
      "latitude": "29.958106361958762",
      "longitude": "-90.07209550229297"
    }
  },
  {
    "service_request": "2022-898974",
    "request_type": "Abandoned Vehicles",
    "request_reason": "Abandoned/Junk Vehicles",
    "date_created": "2022-07-11T18:04:03.000",
    "date_modified": "2022-07-11T18:04:03.000",
    "request_status": "Pending",
    "responsible_agency": "Department of Public Works",
    "final_address": "936 Pacific Ave",
    "address_councildis": "C",
    "status": "Pending",
    "rowid": "898974",
    "final_x": "3688471.86326",
    "final_y": "528038.868479",
    "longitude": "-90.04617922780365",
    "latitude": "29.94571024142988",
    "geocoded_column": {
      "latitude": "29.94571024142988",
      "longitude": "-90.04617922780365"
    }
  },
  {
    "service_request": "2022-898973",
    "request_type": "Abandoned Vehicles",
    "request_reason": "Abandoned/Junk Vehicles",
    "date_created": "2022-07-11T18:03:15.000",
    "date_modified": "2022-07-11T18:03:15.000",
    "request_status": "Pending",
    "responsible_agency": "Department of Public Works",
    "final_address": "936 Pacific Ave",
    "address_councildis": "C",
    "status": "Pending",
    "rowid": "898973",
    "final_x": "3688471.86326",
    "final_y": "528038.868479",
    "longitude": "-90.04617922780365",
    "latitude": "29.94571024142988",
    "geocoded_column": {
      "latitude": "29.94571024142988",
      "longitude": "-90.04617922780365"
    }
  },
  {
    "service_request": "2022-898972",
    "request_type": "Roads/Drainage",
    "request_reason": "Street Subsidence (Sinking)",
    "date_created": "2022-07-11T18:03:10.000",
    "date_modified": "2022-07-11T18:03:10.000",
    "request_status": "Pending",
    "responsible_agency": "Department of Public Works",
    "final_address": "1312 Cambronne St",
    "address_councildis": "A",
    "status": "Pending",
    "rowid": "898972",
    "final_x": "3661449.3591",
    "final_y": "529474.887169",
    "longitude": "-90.13145109726668",
    "latitude": "29.95046583518375",
    "geocoded_column": {
      "latitude": "29.95046583518375",
      "longitude": "-90.13145109726668"
    }
  },
  {
    "service_request": "2022-898970",
    "request_type": "Roads/Drainage",
    "request_reason": "Damaged Sidewalk",
    "date_created": "2022-07-11T17:52:56.000",
    "date_modified": "2022-07-11T17:52:56.000",
    "request_status": "Pending",
    "responsible_agency": "Department of Public Works",
    "final_address": "8727 Apricot St",
    "address_councildis": "A",
    "status": "Pending",
    "rowid": "898970",
    "final_x": "3664110.13172",
    "final_y": "534242.916101",
    "longitude": "-90.12289068360873",
    "latitude": "29.963499354241172",
    "geocoded_column": {
      "latitude": "29.963499354241172",
      "longitude": "-90.12289068360873"
    }
  },
  {
    "service_request": "2022-898969",
    "request_type": "Property Maintenance",
    "request_reason": "Property Maintenance",
    "date_created": "2022-07-11T17:50:41.000",
    "date_modified": "2022-07-11T17:50:41.000",
    "request_status": "Pending",
    "responsible_agency": "Department of Code Enforcement",
    "final_address": "5904 Marigny St",
    "address_councildis": "D",
    "status": "Pending",
    "rowid": "898969",
    "final_x": "3683903.05103",
    "final_y": "554686.077336",
    "longitude": "-90.0596692600494",
    "latitude": "30.019121017128075",
    "geocoded_column": {
      "latitude": "30.019121017128075",
      "longitude": "-90.0596692600494"
    }
  },
  {
    "service_request": "2022-898968",
    "request_type": "Property Maintenance",
    "request_reason": "Property Maintenance",
    "date_created": "2022-07-11T17:48:41.000",
    "date_modified": "2022-07-11T17:48:41.000",
    "request_status": "Pending",
    "responsible_agency": "Department of Code Enforcement",
    "final_address": "7718 Cohn Street",
    "address_councildis": "A",
    "status": "Pending",
    "rowid": "898968",
    "final_x": "3664551.26765",
    "final_y": "529286.268801",
    "longitude": "-90.12166313581278",
    "latitude": "29.949857367330175",
    "geocoded_column": {
      "latitude": "29.949857367330175",
      "longitude": "-90.12166313581278"
    }
  },
  {
    "service_request": "2022-898967",
    "request_type": "Trash/Recycling",
    "request_reason": "Request a Large Item Pick Up",
    "date_created": "2022-07-11T17:46:54.000",
    "date_modified": "2022-07-11T17:46:55.000",
    "request_status": "Pending",
    "responsible_agency": "Department of Sanitation",
    "final_address": "420 S Pierce St",
    "address_councildis": "B",
    "status": "Assigned to Contractor",
    "contractor": "Richards Disposal",
    "rowid": "898967",
    "final_x": "3670661.83675",
    "final_y": "536918.295304",
    "longitude": "-90.10211026504057",
    "latitude": "29.970663818855563",
    "geocoded_column": {
      "latitude": "29.970663818855563",
      "longitude": "-90.10211026504057"
    }
  },
  {
    "service_request": "2022-898966",
    "request_type": "Property Maintenance",
    "request_reason": "Property Maintenance",
    "date_created": "2022-07-11T17:46:15.000",
    "date_modified": "2022-07-11T17:46:15.000",
    "request_status": "Pending",
    "responsible_agency": "Department of Code Enforcement",
    "final_address": "7718 Cohn St",
    "address_councildis": "A",
    "status": "Pending",
    "rowid": "898966",
    "final_x": "3664551.26765",
    "final_y": "529286.268801",
    "longitude": "-90.12166313581278",
    "latitude": "29.949857367330175",
    "geocoded_column": {
      "latitude": "29.949857367330175",
      "longitude": "-90.12166313581278"
    }
  },
  {
    "service_request": "2022-898965",
    "request_type": "Abandoned Vehicles",
    "request_reason": "Abandoned/Junk Vehicles",
    "date_created": "2022-07-11T17:45:18.000",
    "date_modified": "2022-07-11T17:45:18.000",
    "request_status": "Pending",
    "responsible_agency": "Department of Public Works",
    "final_address": "2624 Soniat St",
    "address_councildis": "B",
    "status": "Pending",
    "rowid": "898965",
    "final_x": "3668510.84065",
    "final_y": "525182.622973",
    "longitude": "-90.10929930964947",
    "latitude": "29.93845794713747",
    "geocoded_column": {
      "latitude": "29.93845794713747",
      "longitude": "-90.10929930964947"
    }
  },
  {
    "service_request": "2022-898964",
    "request_type": "Traffic Signals/Signs/Striping/Streetlights",
    "request_reason": "Street Light Outage/Malfunction",
    "date_created": "2022-07-11T17:39:24.000",
    "date_modified": "2022-07-11T17:39:24.000",
    "request_status": "Pending",
    "responsible_agency": "Department of Public Works",
    "final_address": "7734 Alabama St",
    "address_councildis": "D",
    "status": "Pending",
    "contractor": "Royal Engineering",
    "rowid": "898964",
    "final_x": "3694689.03466",
    "final_y": "558982.645212",
    "longitude": "-90.02543448592154",
    "latitude": "30.030600881254703",
    "geocoded_column": {
      "latitude": "30.030600881254703",
      "longitude": "-90.02543448592154"
    }
  },
  {
    "service_request": "2022-898963",
    "request_type": "Trash/Recycling",
    "request_reason": "Request a Large Item Pick Up",
    "date_created": "2022-07-11T17:38:30.000",
    "date_modified": "2022-07-11T17:38:31.000",
    "request_status": "Pending",
    "responsible_agency": "Department of Sanitation",
    "final_address": "2261 N Prieur St",
    "address_councildis": "D",
    "status": "Assigned to Contractor",
    "contractor": "Metro Disposal",
    "rowid": "898963",
    "final_x": "3685386.82025",
    "final_y": "539403.500874",
    "longitude": "-90.05551956282726",
    "latitude": "29.97705399287497",
    "geocoded_column": {
      "latitude": "29.97705399287497",
      "longitude": "-90.05551956282726"
    }
  },
  {
    "service_request": "2022-898962",
    "request_type": "Property Maintenance",
    "request_reason": "Property Maintenance",
    "date_created": "2022-07-11T17:35:38.000",
    "date_modified": "2022-07-11T17:35:39.000",
    "request_status": "Pending",
    "responsible_agency": "Department of Code Enforcement",
    "final_address": "466 Flood St",
    "address_councildis": "E",
    "status": "Pending",
    "rowid": "898962",
    "final_x": "3697066.36298",
    "final_y": "531634.081539",
    "longitude": "-90.0189134905032",
    "latitude": "29.95532755481381",
    "geocoded_column": {
      "latitude": "29.95532755481381",
      "longitude": "-90.0189134905032"
    }
  },
  {
    "service_request": "2022-898961",
    "request_type": "Trash/Recycling",
    "request_reason": "Request a Large Item Pick Up",
    "date_created": "2022-07-11T17:31:19.000",
    "date_modified": "2022-07-11T17:31:41.000",
    "request_status": "Pending",
    "responsible_agency": "Department of Sanitation",
    "final_address": "2533 Jefferson Ave",
    "address_councildis": "B",
    "status": "Assigned to Contractor",
    "contractor": "Richards Disposal",
    "rowid": "898961",
    "final_x": "3668180.9522",
    "final_y": "524897.851068",
    "longitude": "-90.11035040002281",
    "latitude": "29.93768460170928",
    "geocoded_column": {
      "latitude": "29.93768460170928",
      "longitude": "-90.11035040002281"
    }
  },
  {
    "service_request": "2022-898960",
    "request_type": "Traffic Signals/Signs/Striping/Streetlights",
    "request_reason": "Street Light Outage/Malfunction",
    "date_created": "2022-07-11T17:30:27.000",
    "date_modified": "2022-07-11T17:30:28.000",
    "request_status": "Pending",
    "responsible_agency": "Department of Public Works",
    "final_address": "2719 N Villere St",
    "address_councildis": "C",
    "status": "Pending",
    "contractor": "Royal Engineering",
    "rowid": "898960",
    "final_x": "3687874.87587",
    "final_y": "537489.010376",
    "longitude": "-90.04772934338169",
    "latitude": "29.97171329060439",
    "geocoded_column": {
      "latitude": "29.97171329060439",
      "longitude": "-90.04772934338169"
    }
  },
  {
    "service_request": "2022-898959",
    "request_type": "Trash/Recycling",
    "request_reason": "Order Recycling Cart",
    "date_created": "2022-07-11T17:27:32.000",
    "date_modified": "2022-07-11T17:27:32.000",
    "request_status": "Pending",
    "responsible_agency": "Department of Sanitation",
    "final_address": "464 Walnut St",
    "address_councildis": "A",
    "status": "Pending",
    "rowid": "898959",
    "final_x": "3662634.40896",
    "final_y": "523252.490235",
    "longitude": "-90.12791599333806",
    "latitude": "29.933321993846352",
    "geocoded_column": {
      "latitude": "29.933321993846352",
      "longitude": "-90.12791599333806"
    }
  },
  {
    "service_request": "2022-898958",
    "request_type": "Trash/Recycling",
    "request_reason": "Request a Large Item Pick Up",
    "date_created": "2022-07-11T17:21:25.000",
    "date_modified": "2022-07-11T17:21:25.000",
    "request_status": "Pending",
    "responsible_agency": "Department of Sanitation",
    "final_address": "107 Alden Pl",
    "address_councildis": "D",
    "status": "Assigned to Contractor",
    "contractor": "Metro Disposal",
    "rowid": "898958",
    "final_x": "3678657.95246",
    "final_y": "543904.45851",
    "longitude": "-90.07661558816092",
    "latitude": "29.989634675826697",
    "geocoded_column": {
      "latitude": "29.989634675826697",
      "longitude": "-90.07661558816092"
    }
  },
  {
    "service_request": "2022-898957",
    "request_type": "Trash/Recycling",
    "request_reason": "Request a Large Item Pick Up",
    "date_created": "2022-07-11T17:18:03.000",
    "date_modified": "2022-07-11T17:18:04.000",
    "request_status": "Pending",
    "responsible_agency": "Department of Sanitation",
    "final_address": "530 Seguin St",
    "address_councildis": "C",
    "status": "Assigned to Contractor",
    "contractor": "Richards Disposal",
    "rowid": "898957",
    "final_x": "3686601.31951",
    "final_y": "529775.212225",
    "longitude": "-90.05202383540906",
    "latitude": "29.950542239662745",
    "geocoded_column": {
      "latitude": "29.950542239662745",
      "longitude": "-90.05202383540906"
    }
  },
  {
    "service_request": "2022-898956",
    "request_type": "Trash/Recycling",
    "request_reason": "Request a Large Item Pick Up",
    "date_created": "2022-07-11T17:12:12.000",
    "date_modified": "2022-07-11T17:12:12.000",
    "request_status": "Pending",
    "responsible_agency": "Department of Sanitation",
    "final_address": "639 Elmira Ave",
    "address_councildis": "C",
    "status": "Assigned to Contractor",
    "contractor": "Richards Disposal",
    "rowid": "898956",
    "final_x": "3688127.62678",
    "final_y": "529169.902144",
    "longitude": "-90.04722601121362",
    "latitude": "29.94883082589812",
    "geocoded_column": {
      "latitude": "29.94883082589812",
      "longitude": "-90.04722601121362"
    }
  },
  {
    "service_request": "2022-898955",
    "request_type": "Trash/Recycling",
    "request_reason": "Repair Trash Cart",
    "date_created": "2022-07-11T17:11:20.000",
    "date_modified": "2022-07-11T17:11:20.000",
    "request_status": "Pending",
    "responsible_agency": "Department of Sanitation",
    "final_address": "2726 Cupid St",
    "address_councildis": "C",
    "status": "Assigned to Contractor",
    "contractor": "Richards Disposal",
    "rowid": "898955",
    "final_x": "3700380.30564",
    "final_y": "520680.972729",
    "longitude": "-90.00884911884891",
    "latitude": "29.925105389433913",
    "geocoded_column": {
      "latitude": "29.925105389433913",
      "longitude": "-90.00884911884891"
    }
  },
  {
    "service_request": "2022-898954",
    "request_type": "Trash/Recycling",
    "request_reason": "MIssed Recycling Pick-Up",
    "date_created": "2022-07-11T17:10:50.000",
    "date_modified": "2022-07-11T17:10:50.000",
    "request_status": "Pending",
    "responsible_agency": "Department of Sanitation",
    "final_address": "2726 Cupid St",
    "address_councildis": "C",
    "status": "Assigned to Contractor",
    "contractor": "Richards Disposal",
    "rowid": "898954",
    "final_x": "3700380.30564",
    "final_y": "520680.972729",
    "longitude": "-90.00884911884891",
    "latitude": "29.925105389433913",
    "geocoded_column": {
      "latitude": "29.925105389433913",
      "longitude": "-90.00884911884891"
    }
  },
  {
    "service_request": "2022-898953",
    "request_type": "Property Maintenance",
    "request_reason": "Property Maintenance",
    "date_created": "2022-07-11T17:10:32.000",
    "date_modified": "2022-07-11T17:10:32.000",
    "request_status": "Pending",
    "responsible_agency": "Department of Code Enforcement",
    "final_address": "6072 Wickfield Dr",
    "address_councildis": "D",
    "status": "Pending",
    "rowid": "898953",
    "final_x": "3680855.08386",
    "final_y": "555443.146841",
    "longitude": "-90.0692733892556",
    "latitude": "30.021295486806483",
    "geocoded_column": {
      "latitude": "30.021295486806483",
      "longitude": "-90.0692733892556"
    }
  },
  {
    "service_request": "2022-898952",
    "request_type": "Trash/Recycling",
    "request_reason": "MIssed Recycling Pick-Up",
    "date_created": "2022-07-11T17:07:46.000",
    "date_modified": "2022-07-11T17:07:47.000",
    "request_status": "Pending",
    "responsible_agency": "Department of Sanitation",
    "final_address": "630 Majestic Pl",
    "address_councildis": "C",
    "status": "Assigned to Contractor",
    "contractor": "Richards Disposal",
    "rowid": "898952",
    "final_x": "3687952.87113",
    "final_y": "526312.277438",
    "longitude": "-90.04787900936857",
    "latitude": "29.940978723276704",
    "geocoded_column": {
      "latitude": "29.940978723276704",
      "longitude": "-90.04787900936857"
    }
  },
  {
    "service_request": "2022-898951",
    "request_type": "Trash/Recycling",
    "request_reason": "Missed Trash Pick-Up",
    "date_created": "2022-07-11T16:56:25.000",
    "date_modified": "2022-07-11T16:56:26.000",
    "request_status": "Pending",
    "responsible_agency": "Department of Sanitation",
    "final_address": "7331 Green St",
    "address_councildis": "A",
    "status": "Assigned to Contractor",
    "contractor": "Richards Disposal",
    "rowid": "898951",
    "final_x": "3664737.87367",
    "final_y": "528326.58528",
    "longitude": "-90.12110598923134",
    "latitude": "29.94721312018874",
    "geocoded_column": {
      "latitude": "29.94721312018874",
      "longitude": "-90.12110598923134"
    }
  },
  {
    "service_request": "2022-898950",
    "request_type": "Traffic Signals/Signs/Striping/Streetlights",
    "request_reason": "Traffic Signal Malfunctioning/Damaged",
    "date_created": "2022-07-11T16:55:00.000",
    "date_modified": "2022-07-11T16:55:00.000",
    "request_status": "Pending",
    "responsible_agency": "Department of Public Works",
    "final_address": "1701 N Rampart St, New Orleans, Louisiana, 70116",
    "address_councildis": "C",
    "status": "Pending",
    "rowid": "898950",
    "final_x": "3683160.6374",
    "final_y": "535852.082887",
    "longitude": "-90.06267494060579",
    "latitude": "29.96735690048506",
    "geocoded_column": {
      "latitude": "29.96735690048506",
      "longitude": "-90.06267494060579"
    }
  },
  {
    "service_request": "2022-898949",
    "request_type": "Trash/Recycling",
    "request_reason": "Request a Large Item Pick Up",
    "date_created": "2022-07-11T16:54:43.000",
    "date_modified": "2022-07-11T16:54:44.000",
    "request_status": "Pending",
    "responsible_agency": "Department of Sanitation",
    "final_address": "7331 Green St",
    "address_councildis": "A",
    "status": "Assigned to Contractor",
    "contractor": "Richards Disposal",
    "rowid": "898949",
    "final_x": "3664737.87367",
    "final_y": "528326.58528",
    "longitude": "-90.12110598923134",
    "latitude": "29.94721312018874",
    "geocoded_column": {
      "latitude": "29.94721312018874",
      "longitude": "-90.12110598923134"
    }
  },
  {
    "service_request": "2022-898948",
    "request_type": "Traffic Signals/Signs/Striping/Streetlights",
    "request_reason": "Street Light Outage/Malfunction",
    "date_created": "2022-07-11T16:53:21.000",
    "date_modified": "2022-07-11T16:53:21.000",
    "request_status": "Pending",
    "responsible_agency": "Department of Public Works",
    "final_address": "4425 Skyview Dr",
    "address_councildis": "D",
    "status": "Pending",
    "contractor": "Royal Engineering",
    "rowid": "898948",
    "final_x": "3696892.04983",
    "final_y": "552701.410198",
    "longitude": "-90.01870068283246",
    "latitude": "30.01326054303281",
    "geocoded_column": {
      "latitude": "30.01326054303281",
      "longitude": "-90.01870068283246"
    }
  },
  {
    "service_request": "2022-898946",
    "request_type": "Traffic Signals/Signs/Striping/Streetlights",
    "request_reason": "Street Light Outage/Malfunction",
    "date_created": "2022-07-11T16:50:47.000",
    "date_modified": "2022-07-11T16:53:05.000",
    "request_status": "Pending",
    "responsible_agency": "Department of Public Works",
    "final_address": "4425 and 4401 SkyView Drive ",
    "address_councildis": "D",
    "status": "Pending",
    "contractor": "Royal Engineering",
    "rowid": "898946",
    "final_x": "3696898.76938",
    "final_y": "552558.122262",
    "longitude": "-90.01868464681878",
    "latitude": "30.012866343058153",
    "geocoded_column": {
      "latitude": "30.012866343058153",
      "longitude": "-90.01868464681878"
    }
  },
  {
    "service_request": "2022-898945",
    "request_type": "Abandoned Vehicles",
    "request_reason": "Abandoned/Junk Vehicles",
    "date_created": "2022-07-11T16:50:32.000",
    "date_modified": "2022-07-11T16:50:32.000",
    "request_status": "Pending",
    "responsible_agency": "Department of Public Works",
    "final_address": "823 Slidell St",
    "address_councildis": "C",
    "status": "Pending",
    "rowid": "898945",
    "final_x": "3687982.38019",
    "final_y": "528671.301632",
    "longitude": "-90.04770227933865",
    "latitude": "29.947464326778068",
    "geocoded_column": {
      "latitude": "29.947464326778068",
      "longitude": "-90.04770227933865"
    }
  },