[
  {
    "service_request": "2025-1160416",
    "request_type": "Trash/Recycling",
    "request_reason": "Request a Large Item Pick Up",
    "date_created": "2025-01-07T23:01:11.000",
    "date_modified": "2025-01-07T23:01:12.000",
    "request_status": "Pending",
    "responsible_agency": "Department of Sanitation",
    "final_address": "5120 Bayouview Ct",
    "address_councildis": "E",
    "status": "Assigned to Contractor",
    "contractor": "Waste Pro",
    "rowid": "1160416",
    "final_x": "3699086.40944",
    "final_y": "556222.448794",
    "longitude": "-90.01163939625833",
    "latitude": "30.02287265450608",
    "geocoded_column": {
      "latitude": "30.02287265450608",
      "longitude": "-90.01163939625833"
    }
  },
  {
    "service_request": "2025-1160415",
    "request_type": "Abandoned Vehicles",
    "request_reason": "Abandoned/Junk Vehicles",
    "date_created": "2025-01-07T22:45:21.000",
    "date_modified": "2025-01-07T22:45:26.000",
    "request_status": "Pending",
    "responsible_agency": "Department of Public Works",
    "final_address": "1401 Baronne St",
    "address_councildis": "B",
    "status": "Pending",
    "rowid": "1160415",
    "final_x": "3678523.54485",
    "final_y": "526277.985598",
    "longitude": "-90.07765028861017",
    "latitude": "29.941171930173425",
    "geocoded_column": {
      "latitude": "29.941171930173425",
      "longitude": "-90.07765028861017"
    }
  },
  {
    "service_request": "2025-1160414",
    "request_type": "Streetlights",
    "request_reason": "Streetlight Outage/Malfunction",
    "date_created": "2025-01-07T22:21:21.000",
    "date_modified": "2025-01-07T22:21:22.000",
    "request_status": "Pending",
    "responsible_agency": "Department of Public Works",
    "final_address": "2420 N Robertson St",
    "address_councildis": "C",
    "status": "Pending",
    "contractor": "Legacy Professional Services",
    "rowid": "1160414",
    "final_x": "3686594.17839",
    "final_y": "537883.523593",
    "longitude": "-90.05176003778418",
    "latitude": "29.972837511809352",
    "geocoded_column": {
      "latitude": "29.972837511809352",
      "longitude": "-90.05176003778418"
    }
  },
  {
    "service_request": "2025-1160413",
    "request_type": "Trash/Recycling",
    "request_reason": "Request a Large Item Pick Up",
    "date_created": "2025-01-07T22:01:21.000",
    "date_modified": "2025-01-07T22:01:22.000",
    "request_status": "Pending",
    "responsible_agency": "Department of Sanitation",
    "final_address": "4842 Gabriel Dr",
    "address_councildis": "E",
    "status": "Assigned to Contractor",
    "contractor": "Waste Pro",
    "rowid": "1160413",
    "final_x": "3708759.61144",
    "final_y": "556382.21609",
    "longitude": "-89.98106859726059",
    "latitude": "30.023001607871134",
    "geocoded_column": {
      "latitude": "30.023001607871134",
      "longitude": "-89.98106859726059"
    }
  },
  {
    "service_request": "2025-1160412",
    "request_type": "Abandoned Vehicles",
    "request_reason": "Abandoned/Junk Vehicles",
    "date_created": "2025-01-07T21:58:00.000",
    "date_modified": "2025-01-07T21:58:03.000",
    "request_status": "Pending",
    "responsible_agency": "Department of Public Works",
    "final_address": "427 Jackson Ave",
    "address_councildis": "B",
    "status": "Pending",
    "rowid": "1160412",
    "final_x": "3680519.07125",
    "final_y": "519993.691256",
    "longitude": "-90.07156852112504",
    "latitude": "29.923831911302226",
    "geocoded_column": {
      "latitude": "29.923831911302226",
      "longitude": "-90.07156852112504"
    }
  },
  {
    "service_request": "2025-1160411",
    "request_type": "Abandoned Vehicles",
    "request_reason": "Abandoned/Junk Vehicles",
    "date_created": "2025-01-07T21:27:45.000",
    "date_modified": "2025-01-07T21:27:47.000",
    "request_status": "Pending",
    "responsible_agency": "Department of Public Works",
    "final_address": "441 Nuns St",
    "address_councildis": "B",
    "status": "Pending",
    "rowid": "1160411",
    "final_x": "3682041.90421",
    "final_y": "521172.819129",
    "longitude": "-90.06672034847479",
    "latitude": "29.927027928699115",
    "geocoded_column": {
      "latitude": "29.927027928699115",
      "longitude": "-90.06672034847479"
    }
  },
  {
    "service_request": "2025-1160410",
    "request_type": "Trash/Recycling",
    "request_reason": "Request a Large Item Pick Up",
    "date_created": "2025-01-07T21:26:41.000",
    "date_modified": "2025-01-07T21:26:42.000",
    "request_status": "Pending",
    "responsible_agency": "Department of Sanitation",
    "final_address": "CURRAN BLVD & AFTON DR",
    "address_councildis": "E",
    "status": "Assigned to Contractor",
    "contractor": "Waste Pro",
    "rowid": "1160410",
    "final_x": "3704729.6",
    "final_y": "562854.18",
    "longitude": "-89.99356332420649",
    "latitude": "30.040927135751584",
    "geocoded_column": {
      "latitude": "30.040927135751584",
      "longitude": "-89.99356332420649"
    }
  },
  {
    "service_request": "2025-1160409",
    "request_type": "Trash/Recycling",
    "request_reason": "Request a Large Item Pick Up",
    "date_created": "2025-01-07T20:48:42.000",
    "date_modified": "2025-01-07T20:48:43.000",
    "request_status": "Pending",
    "responsible_agency": "Department of Sanitation",
    "final_address": "2227 Odin St",
    "address_councildis": "D",
    "status": "Assigned to Contractor",
    "contractor": "IV Waste",
    "rowid": "1160409",
    "final_x": "3683940.00124",
    "final_y": "553107.349527",
    "longitude": "-90.059607959909",
    "latitude": "30.014778964512548",
    "geocoded_column": {
      "latitude": "30.014778964512548",
      "longitude": "-90.059607959909"
    }
  },
  {
    "service_request": "2025-1160408",
    "request_type": "Street and Traffic Signs",
    "request_reason": "Stop Sign Missing or Damaged",
    "date_created": "2025-01-07T20:27:15.000",
    "date_modified": "2025-01-07T20:27:18.000",
    "request_status": "Pending",
    "responsible_agency": "Department of Public Works",
    "final_address": "URQUHART ST & MANDEVILLE ST",
    "address_councildis": "C",
    "status": "Pending",
    "rowid": "1160408",
    "final_x": "3685720.7",
    "final_y": "537100.58",
    "longitude": "-90.0545462376585",
    "latitude": "29.97071152394756",
    "geocoded_column": {
      "latitude": "29.97071152394756",
      "longitude": "-90.0545462376585"
    }
  },
  {
    "service_request": "2025-1160407",
    "request_type": "Trash/Recycling",
    "request_reason": "Request a Large Item Pick Up",
    "date_created": "2025-01-07T20:16:37.000",
    "date_modified": "2025-01-07T20:16:38.000",
    "request_status": "Pending",
    "responsible_agency": "Department of Sanitation",
    "final_address": "3100 Behrman Hwy",
    "address_councildis": "C",
    "status": "Assigned to Contractor",
    "contractor": "Richards Disposal",
    "rowid": "1160407",
    "final_x": "3694623.90397",
    "final_y": "519141.873079",
    "longitude": "-90.02707552884621",
    "latitude": "29.921055090156532",
    "geocoded_column": {
      "latitude": "29.921055090156532",
      "longitude": "-90.02707552884621"
    }
  },
  {
    "service_request": "2025-1160406",
    "request_type": "Roads and Streets",
    "request_reason": "Pothole",
    "date_created": "2025-01-07T20:09:37.000",
    "date_modified": "2025-01-07T20:09:39.000",
    "request_status": "Pending",
    "responsible_agency": "Department of Public Works",
    "final_address": "11300 BLK Lake Forest Blvd",
    "address_councildis": "E",
    "status": "Pending",
    "rowid": "1160406",
    "final_x": "3720154.87527",
    "final_y": "562479.576272",
    "longitude": "-89.9448291072418",
    "latitude": "30.03939218659508",
    "geocoded_column": {
      "latitude": "30.03939218659508",
      "longitude": "-89.9448291072418"
    }
  },
  {
    "service_request": "2025-1160405",
    "request_type": "Streetlights",
    "request_reason": "Streetlight Outage/Malfunction",
    "date_created": "2025-01-07T20:03:40.000",
    "date_modified": "2025-01-07T20:03:41.000",
    "request_status": "Pending",
    "responsible_agency": "Department of Public Works",
    "final_address": "600 BLK Ninth St",
    "address_councildis": "B",
    "status": "Pending",
    "contractor": "Legacy Professional Services",
    "rowid": "1160405",
    "final_x": "3676782.03616",
    "final_y": "518653.158348",
    "longitude": "-90.08341115758518",
    "latitude": "29.920258501760525",
    "geocoded_column": {
      "latitude": "29.920258501760525",
      "longitude": "-90.08341115758518"
    }
  },
  {
    "service_request": "2025-1160404",
    "request_type": "General Services",
    "request_reason": "General Service Request",
    "date_created": "2025-01-07T19:52:06.000",
    "date_modified": "2025-01-07T19:52:10.000",
    "request_status": "Pending",
    "responsible_agency": "Orleans Parish Communication District",
    "final_address": "6028 Benjamin St",
    "address_councildis": "A",
    "status": "Pending",
    "rowid": "1160404",
    "final_x": "3665338.06842",
    "final_y": "522201.69881",
    "longitude": "-90.1194158153632",
    "latitude": "29.930354166447213",
    "geocoded_column": {
      "latitude": "29.930354166447213",
      "longitude": "-90.1194158153632"
    }
  },
  {
    "service_request": "2025-1160403",
    "request_type": "Trash/Recycling",
    "request_reason": "Missed Trash Pick-Up",
    "date_created": "2025-01-07T19:43:31.000",
    "date_modified": "2025-01-07T19:43:32.000",
    "request_status": "Pending",
    "responsible_agency": "Department of Sanitation",
    "final_address": "7201 Onyx St",
    "address_councildis": "D",
    "status": "Assigned to Contractor",
    "contractor": "IV Waste",
    "rowid": "1160403",
    "final_x": "3668805.46151",
    "final_y": "555184.711897",
    "longitude": "-90.10735571736906",
    "latitude": "30.020944882279668",
    "geocoded_column": {
      "latitude": "30.020944882279668",
      "longitude": "-90.10735571736906"
    }
  },
  {
    "service_request": "2025-1160402",
    "request_type": "Abandoned Vehicles",
    "request_reason": "Abandoned/Junk Vehicles",
    "date_created": "2025-01-07T19:41:58.000",
    "date_modified": "2025-01-07T19:42:04.000",
    "request_status": "Pending",
    "responsible_agency": "Department of Public Works",
    "final_address": "515 Hillary St",
    "address_councildis": "A",
    "status": "Pending",
    "rowid": "1160402",
    "final_x": "3661771.90848",
    "final_y": "525425.243901",
    "longitude": "-90.13056686796594",
    "latitude": "29.939321301152734",
    "geocoded_column": {
      "latitude": "29.939321301152734",
      "longitude": "-90.13056686796594"
    }
  },
  {
    "service_request": "2025-1160401",
    "request_type": "Streetlights",
    "request_reason": "New Streetlight Request",
    "date_created": "2025-01-07T19:38:22.000",
    "date_modified": "2025-01-07T19:38:24.000",
    "request_status": "Pending",
    "responsible_agency": "Department of Public Works",
    "final_address": "3637 Frenchmen St",
    "address_councildis": "D",
    "status": "Pending",
    "contractor": "Legacy Professional Services",
    "rowid": "1160401",
    "final_x": "3683834.95426",
    "final_y": "546108.99336",
    "longitude": "-90.06018553793656",
    "latitude": "29.995539222714385",
    "geocoded_column": {
      "latitude": "29.995539222714385",
      "longitude": "-90.06018553793656"
    }
  },
  {
    "service_request": "2025-1160400",
    "request_type": "Roads and Streets",
    "request_reason": "Pothole",
    "date_created": "2025-01-07T19:34:37.000",
    "date_modified": "2025-01-07T19:34:41.000",
    "request_status": "Pending",
    "responsible_agency": "Department of Public Works",
    "final_address": "2401 Jasmine St",
    "address_councildis": "D",
    "status": "Pending",
    "rowid": "1160400",
    "final_x": "3685607.42934",
    "final_y": "548018.73621",
    "longitude": "-90.05451913634228",
    "latitude": "30.000736058041092",
    "geocoded_column": {
      "latitude": "30.000736058041092",
      "longitude": "-90.05451913634228"
    }
  },
  {
    "service_request": "2025-1160399",
    "request_type": "Property Maintenance",
    "request_reason": "Property Maintenance",
    "date_created": "2025-01-07T19:05:19.000",
    "date_modified": "2025-01-07T19:05:23.000",
    "request_status": "Pending",
    "responsible_agency": "Department of Code Enforcement",
    "final_address": "421 Burdette St",
    "address_councildis": "A",
    "status": "Pending",
    "rowid": "1160399",
    "final_x": "3661071.84755",
    "final_y": "525627.973949",
    "longitude": "-90.13277035579286",
    "latitude": "29.939898931777588",
    "geocoded_column": {
      "latitude": "29.939898931777588",
      "longitude": "-90.13277035579286"
    }
  },
  {
    "service_request": "2025-1160398",
    "request_type": "General Services",
    "request_reason": "General Service Request",
    "date_created": "2025-01-07T18:44:11.000",
    "date_modified": "2025-01-07T18:44:15.000",
    "request_status": "Pending",
    "responsible_agency": "Orleans Parish Communication District",
    "final_address": "2525 Carondelet St",
    "address_councildis": "B",
    "status": "Pending",
    "rowid": "1160398",
    "final_x": "3676283.51822",
    "final_y": "523287.804347",
    "longitude": "-90.08482534169606",
    "latitude": "29.933017219759464",
    "geocoded_column": {
      "latitude": "29.933017219759464",
      "longitude": "-90.08482534169606"
    }
  },
  {
    "service_request": "2025-1160397",
    "request_type": "General Services",
    "request_reason": "General Service Request",
    "date_created": "2025-01-07T18:42:59.000",
    "date_modified": "2025-01-07T18:43:02.000",
    "request_status": "Pending",
    "responsible_agency": "Orleans Parish Communication District",
    "final_address": "2525 Carondelet St",
    "address_councildis": "B",
    "status": "Pending",
    "rowid": "1160397",
    "final_x": "3676283.51822",
    "final_y": "523287.804347",
    "longitude": "-90.08482534169606",
    "latitude": "29.933017219759464",
    "geocoded_column": {
      "latitude": "29.933017219759464",
      "longitude": "-90.08482534169606"
    }
  },
  {
    "service_request": "2025-1160396",
    "request_type": "Abandoned Vehicles",
    "request_reason": "Abandoned/Junk Vehicles",
    "date_created": "2025-01-07T18:42:32.000",
    "date_modified": "2025-01-07T18:42:34.000",
    "request_status": "Pending",
    "responsible_agency": "Department of Public Works",
    "final_address": "1914 Harmony St",
    "address_councildis": "B",
    "status": "Pending",
    "rowid": "1160396",
    "final_x": "3674300.45217",
    "final_y": "522883.028667",
    "longitude": "-90.09109960276938",
    "latitude": "29.93196348256224",
    "geocoded_column": {
      "latitude": "29.93196348256224",
      "longitude": "-90.09109960276938"
    }
  },
  {
    "service_request": "2025-1160395",
    "request_type": "Trash/Recycling",
    "request_reason": "Request a Large Item Pick Up",
    "date_created": "2025-01-07T18:32:07.000",
    "date_modified": "2025-01-07T18:34:14.000",
    "case_close_date": "2025-01-07T12:34:14.000",
    "request_status": "Closed",
    "responsible_agency": "Department of Sanitation",
    "final_address": "4643 Gabriel Dr",
    "address_councildis": "E",
    "status": "Duplicate Request",
    "contractor": "Waste Pro",
    "contractor_action": "Duplicate",
    "rowid": "1160395",
    "final_x": "3709012.08836",
    "final_y": "555113.446105",
    "longitude": "-89.98031817260923",
    "latitude": "30.019504789933045",
    "geocoded_column": {
      "latitude": "30.019504789933045",
      "longitude": "-89.98031817260923"
    }
  },
  {
    "service_request": "2025-1160394",
    "request_type": "Trash/Recycling",
    "request_reason": "Request a Large Item Pick Up",
    "date_created": "2025-01-07T18:12:15.000",
    "date_modified": "2025-01-07T18:12:16.000",
    "request_status": "Pending",
    "responsible_agency": "Department of Sanitation",
    "final_address": "4643 Gabriel Dr",
    "address_councildis": "E",
    "status": "Assigned to Contractor",
    "contractor": "Waste Pro",
    "rowid": "1160394",
    "final_x": "3709012.08836",
    "final_y": "555113.446105",
    "longitude": "-89.98031817260923",
    "latitude": "30.019504789933045",
    "geocoded_column": {
      "latitude": "30.019504789933045",
      "longitude": "-89.98031817260923"
    }
  },
  {
    "service_request": "2025-1160393",
    "request_type": "Roads and Streets",
    "request_reason": "Pothole",
    "date_created": "2025-01-07T17:58:38.000",
    "date_modified": "2025-01-07T17:58:42.000",
    "request_status": "Pending",
    "responsible_agency": "Department of Public Works",
    "final_address": "OLEANDER ST & S CARROLLTON AVE",
    "address_councildis": "A",
    "status": "Pending",
    "rowid": "1160393",
    "final_x": "3666813.3",
    "final_y": "533628.48",
    "longitude": "-90.11437497684159",
    "latitude": "29.961731062080478",
    "geocoded_column": {
      "latitude": "29.961731062080478",
      "longitude": "-90.11437497684159"
    }
  },
  {
    "service_request": "2025-1160392",
    "request_type": "Drainage",
    "request_reason": "Alley Way Drainage Issue",
    "date_created": "2025-01-07T17:36:04.000",
    "date_modified": "2025-01-07T17:36:08.000",
    "request_status": "Pending",
    "responsible_agency": "Department of Public Works",
    "final_address": "1816 France St",
    "address_councildis": "D",
    "status": "Pending",
    "rowid": "1160392",
    "final_x": "3693043.33609",
    "final_y": "537953.485833",
    "longitude": "-90.03138995686702",
    "latitude": "29.972829971668496",
    "geocoded_column": {
      "latitude": "29.972829971668496",
      "longitude": "-90.03138995686702"
    }
  },
  {
    "service_request": "2025-1160391",
    "request_type": "Abandoned Vehicles",
    "request_reason": "Abandoned/Junk Vehicles",
    "date_created": "2025-01-07T17:00:27.000",
    "date_modified": "2025-01-07T17:00:58.000",
    "request_status": "Pending",
    "responsible_agency": "Department of Public Works",
    "final_address": "818 N Johnson St",
    "address_councildis": "D",
    "status": "Pending",
    "rowid": "1160391",
    "final_x": "3678971.36347",
    "final_y": "535860.823815",
    "longitude": "-90.07590442959729",
    "latitude": "29.967508008628105",
    "geocoded_column": {
      "latitude": "29.967508008628105",
      "longitude": "-90.07590442959729"
    }
  },
  {
    "service_request": "2025-1160390",
    "request_type": "Abandoned Vehicles",
    "request_reason": "Abandoned/Junk Vehicles",
    "date_created": "2025-01-07T16:57:37.000",
    "date_modified": "2025-01-07T16:57:39.000",
    "request_status": "Pending",
    "responsible_agency": "Department of Public Works",
    "final_address": "1900 Dumaine St",
    "address_councildis": "D",
    "status": "Pending",
    "rowid": "1160390",
    "final_x": "3679583.01826",
    "final_y": "535614.74279",
    "longitude": "-90.0739813528803",
    "latitude": "29.966812899505744",
    "geocoded_column": {
      "latitude": "29.966812899505744",
      "longitude": "-90.0739813528803"
    }
  },
  {
    "service_request": "2025-1160389",
    "request_type": "Abandoned Vehicles",
    "request_reason": "Abandoned/Junk Vehicles",
    "date_created": "2025-01-07T16:56:31.000",
    "date_modified": "2025-01-07T16:56:34.000",
    "request_status": "Pending",
    "responsible_agency": "Department of Public Works",
    "final_address": "1900 Dumaine St",
    "address_councildis": "D",
    "status": "Pending",
    "rowid": "1160389",
    "final_x": "3679583.01826",
    "final_y": "535614.74279",
    "longitude": "-90.0739813528803",
    "latitude": "29.966812899505744",
    "geocoded_column": {
      "latitude": "29.966812899505744",
      "longitude": "-90.0739813528803"
    }
  },
  {
    "service_request": "2025-1160388",
    "request_type": "Property Maintenance",
    "request_reason": "Property Maintenance",
    "date_created": "2025-01-07T16:54:47.000",
    "date_modified": "2025-01-07T16:54:50.000",
    "request_status": "Pending",
    "responsible_agency": "Department of Code Enforcement",
    "final_address": "1801 Dumaine St",
    "address_councildis": "D",
    "status": "Pending",
    "rowid": "1160388",
    "final_x": "3679905.80303",
    "final_y": "535471.979462",
    "longitude": "-90.07296695850815",
    "latitude": "29.966410590521065",
    "geocoded_column": {
      "latitude": "29.966410590521065",
      "longitude": "-90.07296695850815"
    }
  },
  {
    "service_request": "2025-1160387",
    "request_type": "Trash/Recycling",
    "request_reason": "Request a Large Item Pick Up",
    "date_created": "2025-01-07T16:49:28.000",
    "date_modified": "2025-01-07T16:49:28.000",
    "request_status": "Pending",
    "responsible_agency": "Department of Sanitation",
    "final_address": "5825 S Robertson St",
    "address_councildis": "A",
    "status": "Assigned to Contractor",
    "contractor": "IV Waste",
    "rowid": "1160387",
    "final_x": "3666780.60321",
    "final_y": "524780.603324",
    "longitude": "-90.11477536170202",
    "latitude": "29.937403231002165",
    "geocoded_column": {
      "latitude": "29.937403231002165",
      "longitude": "-90.11477536170202"
    }
  },
  {
    "service_request": "2025-1160386",
    "request_type": "Mosquito, Termite & Rodent Control",
    "request_reason": "Rodent Complaint (Rats)",
    "date_created": "2025-01-07T16:47:54.000",
    "date_modified": "2025-01-07T16:47:55.000",
    "request_status": "Pending",
    "responsible_agency": "Mosquito, Termite & Rodent Control Board",
    "final_address": "3503 Livingston St",
    "address_councildis": "A",
    "status": "Pending",
    "rowid": "1160386",
    "final_x": "3663903.85786",
    "final_y": "537743.436104",
    "longitude": "-90.12342535372852",
    "latitude": "29.97313062025843",
    "geocoded_column": {
      "latitude": "29.97313062025843",
      "longitude": "-90.12342535372852"
    }
  },
  {
    "service_request": "2025-1160385",
    "request_type": "Trash/Recycling",
    "request_reason": "Order Recycling Cart",
    "date_created": "2025-01-07T16:45:34.000",
    "date_modified": "2025-01-07T16:45:35.000",
    "request_status": "Pending",
    "responsible_agency": "Department of Sanitation",
    "final_address": "620 Adams St",
    "address_councildis": "A",
    "status": "Pending",
    "rowid": "1160385",
    "final_x": "3661775.2615",
    "final_y": "526030.794686",
    "longitude": "-90.13053621364337",
    "latitude": "29.94098627694872",
    "geocoded_column": {
      "latitude": "29.94098627694872",
      "longitude": "-90.13053621364337"
    }
  },
  {
    "service_request": "2025-1160384",
    "request_type": "Trash/Recycling",
    "request_reason": "Illegal Dumping",
    "date_created": "2025-01-07T16:45:17.000",
    "date_modified": "2025-01-07T16:45:18.000",
    "request_status": "Pending",
    "responsible_agency": "Department of Sanitation",
    "final_address": "1514 Andry St",
    "address_councildis": "E",
    "status": "Pending",
    "rowid": "1160384",
    "final_x": "3697575.30941",
    "final_y": "535581.12551",
    "longitude": "-90.01716327309109",
    "latitude": "29.966164462230676",
    "geocoded_column": {
      "latitude": "29.966164462230676",
      "longitude": "-90.01716327309109"
    }
  },
  {
    "service_request": "2025-1160383",
    "request_type": "Trash/Recycling",
    "request_reason": "Replace Trash Cart",
    "date_created": "2025-01-07T16:45:03.000",
    "date_modified": "2025-01-07T16:45:04.000",
    "request_status": "Pending",
    "responsible_agency": "Department of Sanitation",
    "final_address": "620 Adams St",
    "address_councildis": "A",
    "status": "Assigned to Contractor",
    "contractor": "IV Waste",
    "rowid": "1160383",
    "final_x": "3661775.2615",
    "final_y": "526030.794686",
    "longitude": "-90.13053621364337",
    "latitude": "29.94098627694872",
    "geocoded_column": {
      "latitude": "29.94098627694872",
      "longitude": "-90.13053621364337"
    }
  },
  {
    "service_request": "2025-1160382",
    "request_type": "Trash/Recycling",
    "request_reason": "Request a Large Item Pick Up",
    "date_created": "2025-01-07T16:44:58.000",
    "date_modified": "2025-01-07T16:44:59.000",
    "request_status": "Pending",
    "responsible_agency": "Department of Sanitation",
    "final_address": "8141 Aberdeen Rd",
    "address_councildis": "E",
    "status": "Assigned to Contractor",
    "contractor": "Waste Pro",
    "rowid": "1160382",
    "final_x": "3702827.54199",
    "final_y": "561432.12355",
    "longitude": "-89.99962675038415",
    "latitude": "30.037078052185002",
    "geocoded_column": {
      "latitude": "30.037078052185002",
      "longitude": "-89.99962675038415"
    }
  },
  {
    "service_request": "2025-1160381",
    "request_type": "Roads and Streets",
    "request_reason": "Pothole",
    "date_created": "2025-01-07T16:43:38.000",
    "date_modified": "2025-01-07T16:43:39.000",
    "request_status": "Pending",
    "responsible_agency": "Department of Public Works",
    "final_address": "1511 Egania St",
    "address_councildis": "E",
    "status": "Pending",
    "rowid": "1160381",
    "final_x": "3697285.79824",
    "final_y": "535622.505734",
    "longitude": "-90.01807603775082",
    "latitude": "29.966287383803177",
    "geocoded_column": {
      "latitude": "29.966287383803177",
      "longitude": "-90.01807603775082"
    }
  },
  {
    "service_request": "2025-1160380",
    "request_type": "Trash/Recycling",
    "request_reason": "Request a Large Item Pick Up",
    "date_created": "2025-01-07T16:43:21.000",
    "date_modified": "2025-01-07T16:43:22.000",
    "request_status": "Pending",
    "responsible_agency": "Department of Sanitation",
    "final_address": "8130 Aberdeen Rd",
    "address_councildis": "E",
    "status": "Assigned to Contractor",
    "contractor": "Waste Pro",
    "rowid": "1160380",
    "final_x": "3702823.57054",
    "final_y": "561265.731166",
    "longitude": "-89.99964542136702",
    "latitude": "30.036620665356857",
    "geocoded_column": {
      "latitude": "30.036620665356857",
      "longitude": "-89.99964542136702"
    }
  },
  {
    "service_request": "2025-1160379",
    "request_type": "Trash/Recycling",
    "request_reason": "Repair Recycling Cart",
    "date_created": "2025-01-07T16:38:56.000",
    "date_modified": "2025-01-07T16:38:57.000",
    "request_status": "Pending",
    "responsible_agency": "Department of Sanitation",
    "final_address": "335 Fairway Dr",
    "address_councildis": "A",
    "status": "Pending",
    "rowid": "1160379",
    "final_x": "3664320.64928",
    "final_y": "541974.49678",
    "longitude": "-90.12196777123344",
    "latitude": "29.984752515270067",
    "geocoded_column": {
      "latitude": "29.984752515270067",
      "longitude": "-90.12196777123344"
    }
  },
  {
    "service_request": "2025-1160378",
    "request_type": "Trash/Recycling",
    "request_reason": "Request a Large Item Pick Up",
    "date_created": "2025-01-07T16:34:17.000",
    "date_modified": "2025-01-07T16:34:18.000",
    "request_status": "Pending",
    "responsible_agency": "Department of Sanitation",
    "final_address": "5944 Carlisle Ct",
    "address_councildis": "C",
    "status": "Assigned to Contractor",
    "contractor": "Richards Disposal",
    "rowid": "1160378",
    "final_x": "3705854.74679",
    "final_y": "516537.718581",
    "longitude": "-89.99172134579389",
    "latitude": "29.913537744685012",
    "geocoded_column": {
      "latitude": "29.913537744685012",
      "longitude": "-89.99172134579389"
    }
  },
  {
    "service_request": "2025-1160377",
    "request_type": "Streetlights",
    "request_reason": "Streetlight Outage/Malfunction",
    "date_created": "2025-01-07T16:31:21.000",
    "date_modified": "2025-01-07T16:31:22.000",
    "request_status": "Pending",
    "responsible_agency": "Department of Public Works",
    "final_address": "7705 Wales St",
    "address_councildis": "E",
    "status": "Pending",
    "contractor": "Legacy Professional Services",
    "rowid": "1160377",
    "final_x": "3700924.6074",
    "final_y": "561811.202143",
    "longitude": "-90.00562652699891",
    "latitude": "30.03818113535046",
    "geocoded_column": {
      "latitude": "30.03818113535046",
      "longitude": "-90.00562652699891"
    }
  },
  {
    "service_request": "2025-1160376",
    "request_type": "Trash/Recycling",
    "request_reason": "Request a Large Item Pick Up",
    "date_created": "2025-01-07T16:30:19.000",
    "date_modified": "2025-01-07T16:30:20.000",
    "request_status": "Pending",
    "responsible_agency": "Department of Sanitation",
    "final_address": "5813 Baccich St",
    "address_councildis": "D",
    "status": "Assigned to Contractor",
    "contractor": "IV Waste",
    "rowid": "1160376",
    "final_x": "3687578.26095",
    "final_y": "554705.382936",
    "longitude": "-90.04805621248688",
    "latitude": "30.01906126033572",
    "geocoded_column": {
      "latitude": "30.01906126033572",
      "longitude": "-90.04805621248688"
    }
  },
  {
    "service_request": "2025-1160375",
    "request_type": "Abandoned Vehicles",
    "request_reason": "Abandoned/Junk Vehicles",
    "date_created": "2025-01-07T16:29:04.000",
    "date_modified": "2025-01-07T16:29:06.000",
    "request_status": "Pending",
    "responsible_agency": "Department of Public Works",
    "final_address": "11100 BLK Parkwood Ct S",
    "address_councildis": "E",
    "status": "Pending",
    "rowid": "1160375",
    "final_x": "3716673.98394",
    "final_y": "558975.679408",
    "longitude": "-89.95596273409089",
    "latitude": "30.02987340300051",
    "geocoded_column": {
      "latitude": "30.02987340300051",
      "longitude": "-89.95596273409089"
    }
  },
  {
    "service_request": "2025-1160374",
    "request_type": "Trash/Recycling",
    "request_reason": "Request a Large Item Pick Up",
    "date_created": "2025-01-07T16:28:40.000",
    "date_modified": "2025-01-07T16:28:41.000",
    "request_status": "Pending",
    "responsible_agency": "Department of Sanitation",
    "final_address": "8004 Freret St",
    "address_councildis": "A",
    "status": "Assigned to Contractor",
    "contractor": "IV Waste",
    "rowid": "1160374",
    "final_x": "3661734.97901",
    "final_y": "527579.715903",
    "longitude": "-90.130612063513",
    "latitude": "29.945246479944824",
    "geocoded_column": {
      "latitude": "29.945246479944824",
      "longitude": "-90.130612063513"
    }
  },
  {
    "service_request": "2025-1160373",
    "request_type": "Trash/Recycling",
    "request_reason": "Request a Large Item Pick Up",
    "date_created": "2025-01-07T16:25:56.000",
    "date_modified": "2025-01-07T16:25:57.000",
    "request_status": "Pending",
    "responsible_agency": "Department of Sanitation",
    "final_address": "2830 Jefferson Ave",
    "address_councildis": "A",
    "status": "Assigned to Contractor",
    "contractor": "IV Waste",
    "rowid": "1160373",
    "final_x": "3668230.72634",
    "final_y": "525890.727293",
    "longitude": "-90.1101597973066",
    "latitude": "29.94041323078471",
    "geocoded_column": {
      "latitude": "29.94041323078471",
      "longitude": "-90.1101597973066"
    }
  },
  {
    "service_request": "2025-1160372",
    "request_type": "Trash/Recycling",
    "request_reason": "Missed Trash Pick-Up",
    "date_created": "2025-01-07T16:23:53.000",
    "date_modified": "2025-01-07T17:15:24.000",
    "case_close_date": "2025-01-07T11:15:24.000",
    "request_status": "Closed",
    "responsible_agency": "Department of Sanitation",
    "final_address": "2744 Belle Chasse St",
    "address_councildis": "A",
    "status": "Invalid Request",
    "contractor": "IV Waste",
    "contractor_action": "Invalid Request",
    "rowid": "1160372",
    "final_x": "3677237.41698",
    "final_y": "538339.540425",
    "longitude": "-90.08129473722005",
    "latitude": "29.974375839463622",
    "geocoded_column": {
      "latitude": "29.974375839463622",
      "longitude": "-90.08129473722005"
    }
  },
  {
    "service_request": "2025-1160371",
    "request_type": "Trash/Recycling",
    "request_reason": "Request a Large Item Pick Up",
    "date_created": "2025-01-07T16:23:23.000",
    "date_modified": "2025-01-07T16:23:24.000",
    "request_status": "Pending",
    "responsible_agency": "Department of Sanitation",
    "final_address": "7130 Bundy Rd",
    "address_councildis": "E",
    "status": "Assigned to Contractor",
    "contractor": "Waste Pro",
    "rowid": "1160371",
    "final_x": "3706628.67697",
    "final_y": "561357.10883",
    "longitude": "-89.98761720212399",
    "latitude": "30.036749590598124",
    "geocoded_column": {
      "latitude": "30.036749590598124",
      "longitude": "-89.98761720212399"
    }
  },
  {
    "service_request": "2025-1160370",
    "request_type": "Abandoned Vehicles",
    "request_reason": "Abandoned/Junk Vehicles",
    "date_created": "2025-01-07T16:17:27.000",
    "date_modified": "2025-01-07T16:17:28.000",
    "request_status": "Pending",
    "responsible_agency": "Department of Public Works",
    "final_address": "WABASH ST & IDAHO ST",
    "address_councildis": "C",
    "status": "Pending",
    "rowid": "1160370",
    "final_x": "3693363.6",
    "final_y": "521294.98",
    "longitude": "-90.03097647731916",
    "latitude": "29.927014853118624",
    "geocoded_column": {
      "latitude": "29.927014853118624",
      "longitude": "-90.03097647731916"
    }
  },
  {
    "service_request": "2025-1160369",
    "request_type": "Trash/Recycling",
    "request_reason": "Request a Large Item Pick Up",
    "date_created": "2025-01-07T16:16:33.000",
    "date_modified": "2025-01-07T16:16:34.000",
    "request_status": "Pending",
    "responsible_agency": "Department of Sanitation",
    "final_address": "7801 Hampson St",
    "address_councildis": "A",
    "status": "Assigned to Contractor",
    "contractor": "IV Waste",
    "rowid": "1160369",
    "final_x": "3661617.67936",
    "final_y": "526404.367998",
    "longitude": "-90.1310213558698",
    "latitude": "29.942018032350934",
    "geocoded_column": {
      "latitude": "29.942018032350934",
      "longitude": "-90.1310213558698"
    }
  },
  {
    "service_request": "2025-1160368",
    "request_type": "Streetlights",
    "request_reason": "Streetlight Outage/Malfunction",
    "date_created": "2025-01-07T16:07:10.000",
    "date_modified": "2025-01-07T16:07:11.000",
    "request_status": "Pending",
    "responsible_agency": "Department of Public Works",
    "final_address": "9250 Lincoln Beach Blvd",
    "address_councildis": "E",
    "status": "Pending",
    "contractor": "Legacy Professional Services",
    "rowid": "1160368",
    "final_x": "3705392.32612",
    "final_y": "564577.143905",
    "longitude": "-89.99140512821155",
    "latitude": "30.045643279990717",
    "geocoded_column": {
      "latitude": "30.045643279990717",
      "longitude": "-89.99140512821155"
    }
  },
  {
    "service_request": "2025-1160367",
    "request_type": "Streetlights",
    "request_reason": "Streetlight Outage/Malfunction",
    "date_created": "2025-01-07T16:06:32.000",
    "date_modified": "2025-01-07T16:06:33.000",
    "request_status": "Pending",
    "responsible_agency": "Department of Public Works",
    "final_address": "111 Sherwood Forest Dr",
    "address_councildis": "A",
    "status": "Pending",
    "contractor": "Legacy Professional Services",
    "rowid": "1160367",
    "final_x": "3673251.92449",
    "final_y": "541213.726924",
    "longitude": "-90.09378369375018",
    "latitude": "29.98239801362571",
    "geocoded_column": {
      "latitude": "29.98239801362571",
      "longitude": "-90.09378369375018"
    }
  },
  {
    "service_request": "2025-1160366",
    "request_type": "Trash/Recycling",
    "request_reason": "Repair Trash Cart",
    "date_created": "2025-01-07T16:00:25.000",
    "date_modified": "2025-01-07T16:00:26.000",
    "request_status": "Pending",
    "responsible_agency": "Department of Sanitation",
    "final_address": "2428 Ramsey Dr",
    "address_councildis": "C",
    "status": "Assigned to Contractor",
    "contractor": "Richards Disposal",
    "rowid": "1160366",
    "final_x": "3703208.46846",
    "final_y": "521981.411386",
    "longitude": "-89.99987381239198",
    "latitude": "29.92859095230058",
    "geocoded_column": {
      "latitude": "29.92859095230058",
      "longitude": "-89.99987381239198"
    }
  },
  {
    "service_request": "2025-1160365",
    "request_type": "Trash/Recycling",
    "request_reason": "Return Recycling Cart",
    "date_created": "2025-01-07T15:53:26.000",
    "date_modified": "2025-01-07T15:53:27.000",
    "request_status": "Pending",
    "responsible_agency": "Department of Sanitation",
    "final_address": "3416 St Claude Ave",
    "address_councildis": "C",
    "status": "Pending",
    "rowid": "1160365",
    "final_x": "3690324.93532",
    "final_y": "535634.34759",
    "longitude": "-90.04005781641722",
    "latitude": "29.966537807658735",
    "geocoded_column": {
      "latitude": "29.966537807658735",
      "longitude": "-90.04005781641722"
    }
  },
  {
    "service_request": "2025-1160364",
    "request_type": "Trash/Recycling",
    "request_reason": "Request a Large Item Pick Up",
    "date_created": "2025-01-07T15:49:55.000",
    "date_modified": "2025-01-07T15:49:56.000",
    "request_status": "Pending",
    "responsible_agency": "Department of Sanitation",
    "final_address": "6200 Eastover Dr",
    "address_councildis": "E",
    "status": "Assigned to Contractor",
    "contractor": "Waste Pro",
    "rowid": "1160364",
    "final_x": "3717498.93983",
    "final_y": "564868.848546",
    "longitude": "-89.95313159758682",
    "latitude": "30.046049938574868",
    "geocoded_column": {
      "latitude": "30.046049938574868",
      "longitude": "-89.95313159758682"
    }
  },
  {
    "service_request": "2025-1160363",
    "request_type": "Abandoned Vehicles",
    "request_reason": "Abandoned/Junk Vehicles",
    "date_created": "2025-01-07T15:47:16.000",
    "date_modified": "2025-01-07T15:49:42.000",
    "request_status": "Pending",
    "responsible_agency": "Department of Public Works",
    "final_address": "1206 Second St",
    "address_councildis": "B",
    "status": "Pending",
    "rowid": "1160363",
    "final_x": "3677533.16629",
    "final_y": "521663.045881",
    "longitude": "-90.08093635205609",
    "latitude": "29.928512165403795",
    "geocoded_column": {
      "latitude": "29.928512165403795",
      "longitude": "-90.08093635205609"
    }
  },
  {
    "service_request": "2025-1160362",
    "request_type": "Trash/Recycling",
    "request_reason": "Repair Trash Cart",
    "date_created": "2025-01-07T15:46:46.000",
    "date_modified": "2025-01-07T15:46:47.000",
    "request_status": "Pending",
    "responsible_agency": "Department of Sanitation",
    "final_address": "4563 Marque Dr",
    "address_councildis": "E",
    "status": "Assigned to Contractor",
    "contractor": "Waste Pro",
    "rowid": "1160362",
    "final_x": "3710247.10488",
    "final_y": "554629.356056",
    "longitude": "-89.97643408332893",
    "latitude": "30.018133575028866",
    "geocoded_column": {
      "latitude": "30.018133575028866",
      "longitude": "-89.97643408332893"
    }
  },
  {
    "service_request": "2025-1160361",
    "request_type": "Traffic Safety",
    "request_reason": "Request for Traffic Calming due to Speeding",
    "date_created": "2025-01-07T15:42:41.000",
    "date_modified": "2025-01-07T15:42:44.000",
    "request_status": "Pending",
    "responsible_agency": "Department of Public Works",
    "final_address": "2200 BLK New York St",
    "address_councildis": "D",
    "status": "Pending",
    "rowid": "1160361",
    "final_x": "3683967.95847",
    "final_y": "556616.076188",
    "longitude": "-90.05939637675097",
    "latitude": "30.0244258189786",
    "geocoded_column": {
      "latitude": "30.0244258189786",
      "longitude": "-90.05939637675097"
    }
  },
  {
    "service_request": "2025-1160360",
    "request_type": "Trash/Recycling",
    "request_reason": "Request a Large Item Pick Up",
    "date_created": "2025-01-07T15:41:29.000",
    "date_modified": "2025-01-07T15:41:30.000",
    "request_status": "Pending",
    "responsible_agency": "Department of Sanitation",
    "final_address": "7610 Benjamin St",
    "address_councildis": "A",
    "status": "Assigned to Contractor",
    "contractor": "IV Waste",
    "rowid": "1160360",
    "final_x": "3661072.12602",
    "final_y": "524864.097916",
    "longitude": "-90.13279474458761",
    "latitude": "29.937798506175778",
    "geocoded_column": {
      "latitude": "29.937798506175778",
      "longitude": "-90.13279474458761"
    }
  },
  {
    "service_request": "2025-1160359",
    "request_type": "Trash/Recycling",
    "request_reason": "Order Recycling Cart",
    "date_created": "2025-01-07T15:39:15.000",
    "date_modified": "2025-01-07T15:39:16.000",
    "request_status": "Pending",
    "responsible_agency": "Department of Sanitation",
    "final_address": "5161 Mckendall Pl",
    "address_councildis": "E",
    "status": "Pending",
    "rowid": "1160359",
    "final_x": "3718040.40812",
    "final_y": "558988.36982",
    "longitude": "-89.9516444101616",
    "latitude": "30.02986306250867",
    "geocoded_column": {
      "latitude": "30.02986306250867",
      "longitude": "-89.9516444101616"
    }
  },
  {
    "service_request": "2025-1160358",
    "request_type": "Trash/Recycling",
    "request_reason": "Request a Large Item Pick Up",
    "date_created": "2025-01-07T15:38:20.000",
    "date_modified": "2025-01-07T22:27:34.000",
    "case_close_date": "2025-01-07T16:27:34.000",
    "request_status": "Closed",
    "responsible_agency": "Department of Sanitation",
    "final_address": "330 Bermuda St",
    "address_councildis": "C",
    "status": "Resolved",
    "contractor": "Richards Disposal",
    "contractor_action": "Completed",
    "rowid": "1160358",
    "final_x": "3686457.40943",
    "final_y": "530592.042498",
    "longitude": "-90.05244939716026",
    "latitude": "29.95279266781046",
    "geocoded_column": {
      "latitude": "29.95279266781046",
      "longitude": "-90.05244939716026"
    }
  },
  {
    "service_request": "2025-1160357",
    "request_type": "Trash/Recycling",
    "request_reason": "Request a Large Item Pick Up",
    "date_created": "2025-01-07T15:37:37.000",
    "date_modified": "2025-01-07T15:37:38.000",
    "request_status": "Pending",
    "responsible_agency": "Department of Sanitation",
    "final_address": "2911 Constance St",
    "address_councildis": "B",
    "status": "Assigned to Contractor",
    "contractor": "IV Waste",
    "rowid": "1160357",
    "final_x": "3676728.65717",
    "final_y": "520213.043448",
    "longitude": "-90.08352594407911",
    "latitude": "29.924549283070633",
    "geocoded_column": {
      "latitude": "29.924549283070633",
      "longitude": "-90.08352594407911"
    }
  },
  {
    "service_request": "2025-1160356",
    "request_type": "Trash/Recycling",
    "request_reason": "Request a Large Item Pick Up",
    "date_created": "2025-01-07T15:34:04.000",
    "date_modified": "2025-01-07T15:34:05.000",
    "request_status": "Pending",
    "responsible_agency": "Department of Sanitation",
    "final_address": "5232 Camp St",
    "address_councildis": "B",
    "status": "Assigned to Contractor",
    "contractor": "IV Waste",
    "rowid": "1160356",
    "final_x": "3667798.20052",
    "final_y": "518905.088759",
    "longitude": "-90.11176048137456",
    "latitude": "29.921217639271212",
    "geocoded_column": {
      "latitude": "29.921217639271212",
      "longitude": "-90.11176048137456"
    }
  },
  {
    "service_request": "2025-1160355",
    "request_type": "Trash/Recycling",
    "request_reason": "Repair Recycling Cart",
    "date_created": "2025-01-07T15:30:25.000",
    "date_modified": "2025-01-07T15:30:26.000",
    "request_status": "Pending",
    "responsible_agency": "Department of Sanitation",
    "final_address": "1458 Riviera Ave",
    "address_councildis": "D",
    "status": "Pending",
    "rowid": "1160355",
    "final_x": "3678022.46901",
    "final_y": "550792.327317",
    "longitude": "-90.07838461773507",
    "latitude": "30.00859302779604",
    "geocoded_column": {
      "latitude": "30.00859302779604",
      "longitude": "-90.07838461773507"
    }
  },
  {
    "service_request": "2025-1160354",
    "request_type": "Trash/Recycling",
    "request_reason": "Repair Recycling Cart",
    "date_created": "2025-01-07T15:30:24.000",
    "date_modified": "2025-01-07T15:30:25.000",
    "request_status": "Pending",
    "responsible_agency": "Department of Sanitation",
    "final_address": "81 Dove St",
    "address_councildis": "D",
    "status": "Pending",
    "rowid": "1160354",
    "final_x": "3673262.52609",
    "final_y": "555513.445273",
    "longitude": "-90.09326140980382",
    "latitude": "30.02171690361988",
    "geocoded_column": {
      "latitude": "30.02171690361988",
      "longitude": "-90.09326140980382"
    }
  },
  {
    "service_request": "2025-1160353",
    "request_type": "Safety & Permits",
    "request_reason": "Construction permit",
    "date_created": "2025-01-07T15:27:38.000",
    "date_modified": "2025-01-07T15:27:39.000",
    "request_status": "Pending",
    "responsible_agency": "Safety and Permits",
    "final_address": "1500 BLK Touro St",
    "address_councildis": "C",
    "status": "Pending",
    "rowid": "1160353",
    "final_x": "3684104.43884",
    "final_y": "537834.926742",
    "longitude": "-90.05962479945259",
    "latitude": "29.97278022119803",
    "geocoded_column": {
      "latitude": "29.97278022119803",
      "longitude": "-90.05962479945259"
    }
  },
  {
    "service_request": "2025-1160352",
    "request_type": "Trash/Recycling",
    "request_reason": "Order Trash Cart",
    "date_created": "2025-01-07T15:26:52.000",
    "date_modified": "2025-01-07T15:26:53.000",
    "request_status": "Pending",
    "responsible_agency": "Department of Sanitation",
    "final_address": "823 Joseph St",
    "address_councildis": "A",
    "status": "Assigned to Contractor",
    "contractor": "IV Waste",
    "rowid": "1160352",
    "final_x": "3666212.88333",
    "final_y": "519135.222455",
    "longitude": "-90.11675692993863",
    "latitude": "29.921896811691397",
    "geocoded_column": {
      "latitude": "29.921896811691397",
      "longitude": "-90.11675692993863"
    }
  },
  {
    "service_request": "2025-1160351",
    "request_type": "Trash/Recycling",
    "request_reason": "Order Trash Cart",
    "date_created": "2025-01-07T15:26:22.000",
    "date_modified": "2025-01-07T15:26:23.000",
    "request_status": "Pending",
    "responsible_agency": "Department of Sanitation",
    "final_address": "821 Joseph St",
    "address_councildis": "A",
    "status": "Assigned to Contractor",
    "contractor": "IV Waste",
    "rowid": "1160351",
    "final_x": "3666208.30004",
    "final_y": "519124.389111",
    "longitude": "-90.11677176057229",
    "latitude": "29.921867157203355",
    "geocoded_column": {
      "latitude": "29.921867157203355",
      "longitude": "-90.11677176057229"
    }
  },
  {
    "service_request": "2025-1160350",
    "request_type": "Trash/Recycling",
    "request_reason": "Return Trash Cart",
    "date_created": "2025-01-07T15:21:30.000",
    "date_modified": "2025-01-07T15:22:28.000",
    "request_status": "Pending",
    "responsible_agency": "Department of Sanitation",
    "final_address": "6549 Dwyer Rd",
    "address_councildis": "E",
    "status": "Assigned to Contractor",
    "contractor": "Waste Pro",
    "rowid": "1160350",
    "final_x": "3698823.38372",
    "final_y": "555547.403097",
    "longitude": "-90.0124950802913",
    "latitude": "30.021024875741997",
    "geocoded_column": {
      "latitude": "30.021024875741997",
      "longitude": "-90.0124950802913"
    }
  },
  {
    "service_request": "2025-1160349",
    "request_type": "Trash/Recycling",
    "request_reason": "Request a Large Item Pick Up",
    "date_created": "2025-01-07T15:18:56.000",
    "date_modified": "2025-01-07T15:18:57.000",
    "request_status": "Pending",
    "responsible_agency": "Department of Sanitation",
    "final_address": "930 Allen Toussaint Blvd",
    "address_councildis": "A",
    "status": "Assigned to Contractor",
    "contractor": "IV Waste",
    "rowid": "1160349",
    "final_x": "3670898.7954",
    "final_y": "554436.851544",
    "longitude": "-90.10076678711442",
    "latitude": "30.018826782304398",
    "geocoded_column": {
      "latitude": "30.018826782304398",
      "longitude": "-90.10076678711442"
    }
  },
  {
    "service_request": "2025-1160348",
    "request_type": "Trash/Recycling",
    "request_reason": "Request a Large Item Pick Up",
    "date_created": "2025-01-07T15:16:31.000",
    "date_modified": "2025-01-07T15:16:32.000",
    "request_status": "Pending",
    "responsible_agency": "Department of Sanitation",
    "final_address": "1129 Louisiana Ave",
    "address_councildis": "B",
    "status": "Assigned to Contractor",
    "contractor": "IV Waste",
    "rowid": "1160348",
    "final_x": "3675010.86574",
    "final_y": "519885.589176",
    "longitude": "-90.08895966168294",
    "latitude": "29.9237002969271",
    "geocoded_column": {
      "latitude": "29.9237002969271",
      "longitude": "-90.08895966168294"
    }
  },
  {
    "service_request": "2025-1160347",
    "request_type": "Trash/Recycling",
    "request_reason": "Illegal Dumping",
    "date_created": "2025-01-07T15:14:23.000",
    "date_modified": "2025-01-07T15:14:23.000",
    "request_status": "Pending",
    "responsible_agency": "Department of Sanitation",
    "final_address": "MICHOUD BLVD & SIX FLAGS PKWY",
    "address_councildis": "E",
    "status": "Pending",
    "rowid": "1160347",
    "final_x": "3724634.1",
    "final_y": "566081.38",
    "longitude": "-89.9305342809073",
    "latitude": "30.04914564884181",
    "geocoded_column": {
      "latitude": "30.04914564884181",
      "longitude": "-89.9305342809073"
    }
  },
  {
    "service_request": "2025-1160346",
    "request_type": "Trash/Recycling",
    "request_reason": "Repair Trash Cart",
    "date_created": "2025-01-07T15:13:57.000",
    "date_modified": "2025-01-07T15:13:58.000",
    "request_status": "Pending",
    "responsible_agency": "Department of Sanitation",
    "final_address": "1413 Moss St",
    "address_councildis": "A",
    "status": "Assigned to Contractor",
    "contractor": "IV Waste",
    "rowid": "1160346",
    "final_x": "3674339.2267",
    "final_y": "540786.984843",
    "longitude": "-90.09036407524184",
    "latitude": "29.981192232599877",
    "geocoded_column": {
      "latitude": "29.981192232599877",
      "longitude": "-90.09036407524184"
    }
  },
  {
    "service_request": "2025-1160345",
    "request_type": "Trash/Recycling",
    "request_reason": "Request a Large Item Pick Up",
    "date_created": "2025-01-07T15:13:22.000",
    "date_modified": "2025-01-07T15:13:23.000",
    "request_status": "Pending",
    "responsible_agency": "Department of Sanitation",
    "final_address": "10321 Brookfield Dr",
    "address_councildis": "E",
    "status": "Assigned to Contractor",
    "contractor": "Waste Pro",
    "rowid": "1160345",
    "final_x": "3710483.0236",
    "final_y": "563227.483936",
    "longitude": "-89.97536671587568",
    "latitude": "30.04176734543833",
    "geocoded_column": {
      "latitude": "30.04176734543833",
      "longitude": "-89.97536671587568"
    }
  },
  {
    "service_request": "2025-1160344",
    "request_type": "Trash/Recycling",
    "request_reason": "Request a Large Item Pick Up",
    "date_created": "2025-01-07T15:12:52.000",
    "date_modified": "2025-01-07T15:12:53.000",
    "request_status": "Pending",
    "responsible_agency": "Department of Sanitation",
    "final_address": "1831 Esplanade Ave",
    "address_councildis": "D",
    "status": "Assigned to Contractor",
    "contractor": "IV Waste",
    "rowid": "1160344",
    "final_x": "3680560.10159",
    "final_y": "537216.935304",
    "longitude": "-90.07083997865506",
    "latitude": "29.971188814373452",
    "geocoded_column": {
      "latitude": "29.971188814373452",
      "longitude": "-90.07083997865506"
    }
  },
  {
    "service_request": "2025-1160343",
    "request_type": "Trash/Recycling",
    "request_reason": "Illegal Dumping",
    "date_created": "2025-01-07T15:12:39.000",
    "date_modified": "2025-01-07T15:12:40.000",
    "request_status": "Pending",
    "responsible_agency": "Department of Sanitation",
    "final_address": "EXPEDITION DR & MICHOUD BLVD",
    "address_councildis": "E",
    "status": "Pending",
    "rowid": "1160343",
    "final_x": "3725733.6",
    "final_y": "571493.08",
    "longitude": "-89.92684929827833",
    "latitude": "30.063988486737323",
    "geocoded_column": {
      "latitude": "30.063988486737323",
      "longitude": "-89.92684929827833"
    }
  },
  {
    "service_request": "2025-1160342",
    "request_type": "Streetlights",
    "request_reason": "Streetlight Outage/Malfunction",
    "date_created": "2025-01-07T15:09:32.000",
    "date_modified": "2025-01-07T15:09:34.000",
    "request_status": "Pending",
    "responsible_agency": "Department of Public Works",
    "final_address": "1838 Napoleon Ave",
    "address_councildis": "B",
    "status": "Pending",
    "contractor": "Legacy Professional Services",
    "rowid": "1160342",
    "final_x": "3670664.88283",
    "final_y": "521896.164666",
    "longitude": "-90.10261020678146",
    "latitude": "29.9293577984954",
    "geocoded_column": {
      "latitude": "29.9293577984954",
      "longitude": "-90.10261020678146"
    }
  },
  {
    "service_request": "2025-1160341",
    "request_type": "Trash/Recycling",
    "request_reason": "Request a Large Item Pick Up",
    "date_created": "2025-01-07T15:07:49.000",
    "date_modified": "2025-01-07T15:07:50.000",
    "request_status": "Pending",
    "responsible_agency": "Department of Sanitation",
    "final_address": "1810 Nunez St",
    "address_councildis": "C",
    "status": "Assigned to Contractor",
    "contractor": "Richards Disposal",
    "rowid": "1160341",
    "final_x": "3687275.6509",
    "final_y": "524768.63718",
    "longitude": "-90.05007169104195",
    "latitude": "29.936755106662",
    "geocoded_column": {
      "latitude": "29.936755106662",
      "longitude": "-90.05007169104195"
    }
  },
  {
    "service_request": "2025-1160340",
    "request_type": "Trash/Recycling",
    "request_reason": "Missed Trash Pick-Up",
    "date_created": "2025-01-07T15:05:23.000",
    "date_modified": "2025-01-07T15:05:24.000",
    "request_status": "Pending",
    "responsible_agency": "Department of Sanitation",
    "final_address": "9911 E Wheaton Cir",
    "address_councildis": "E",
    "status": "Assigned to Contractor",
    "contractor": "Waste Pro",
    "rowid": "1160340",
    "final_x": "3709091.25393",
    "final_y": "562494.760799",
    "longitude": "-89.97979253865998",
    "latitude": "30.039797928403214",
    "geocoded_column": {
      "latitude": "30.039797928403214",
      "longitude": "-89.97979253865998"
    }
  },
  {
    "service_request": "2025-1160339",
    "request_type": "Trash/Recycling",
    "request_reason": "Request a Large Item Pick Up",
    "date_created": "2025-01-07T15:04:24.000",
    "date_modified": "2025-01-07T15:04:25.000",
    "request_status": "Pending",
    "responsible_agency": "Department of Sanitation",
    "final_address": "1701 Shepherd St",
    "address_councildis": "C",
    "status": "Assigned to Contractor",
    "contractor": "Richards Disposal",
    "rowid": "1160339",
    "final_x": "3690380.98102",
    "final_y": "523626.619707",
    "longitude": "-90.04030873647861",
    "latitude": "29.933518953765503",
    "geocoded_column": {
      "latitude": "29.933518953765503",
      "longitude": "-90.04030873647861"
    }
  },
  {
    "service_request": "2025-1160338",
    "request_type": "Roads and Streets",
    "request_reason": "Debris in Driving Lanes",
    "date_created": "2025-01-07T15:00:36.000",
    "date_modified": "2025-01-07T15:00:39.000",
    "request_status": "Pending",
    "responsible_agency": "Department of Public Works",
    "final_address": "2519 St Ann St",
    "address_councildis": "D",
    "status": "Pending",
    "rowid": "1160338",
    "final_x": "3677628.07387",
    "final_y": "536746.431176",
    "longitude": "-90.080115978554",
    "latitude": "29.969983591392836",
    "geocoded_column": {
      "latitude": "29.969983591392836",
      "longitude": "-90.080115978554"
    }
  },
  {
    "service_request": "2025-1160337",
    "request_type": "Trash/Recycling",
    "request_reason": "Request a Large Item Pick Up",
    "date_created": "2025-01-07T14:59:30.000",
    "date_modified": "2025-01-07T14:59:31.000",
    "request_status": "Pending",
    "responsible_agency": "Department of Sanitation",
    "final_address": "7331 Jade St",
    "address_councildis": "D",
    "status": "Assigned to Contractor",
    "contractor": "IV Waste",
    "rowid": "1160337",
    "final_x": "3671084.73595",
    "final_y": "555407.713881",
    "longitude": "-90.10014626532053",
    "latitude": "30.02149080615156",
    "geocoded_column": {
      "latitude": "30.02149080615156",
      "longitude": "-90.10014626532053"
    }
  },
  {
    "service_request": "2025-1160336",
    "request_type": "Roads and Streets",
    "request_reason": "Pothole",
    "date_created": "2025-01-07T14:59:22.000",
    "date_modified": "2025-01-07T15:02:59.000",
    "case_close_date": "2025-01-07T09:02:59.000",
    "request_status": "Closed",
    "responsible_agency": "Department of Public Works",
    "final_address": "14401 Morrison Rd",
    "address_councildis": "E",
    "status": "Resolved",
    "rowid": "1160336",
    "final_x": "3720277.31801",
    "final_y": "572279.826985",
    "longitude": "-89.94406664422108",
    "latitude": "30.066334733625833",
    "geocoded_column": {
      "latitude": "30.066334733625833",
      "longitude": "-89.94406664422108"
    }
  },
  {
    "service_request": "2025-1160335",
    "request_type": "Street and Traffic Signs",
    "request_reason": "Stop Sign Missing or Damaged",
    "date_created": "2025-01-07T14:55:01.000",
    "date_modified": "2025-01-07T14:55:03.000",
    "request_status": "Pending",
    "responsible_agency": "Department of Public Works",
    "final_address": "2627 St Thomas St",
    "address_councildis": "B",
    "status": "Pending",
    "rowid": "1160335",
    "final_x": "3678347.10933",
    "final_y": "519524.043575",
    "longitude": "-90.07844085720814",
    "latitude": "29.92260611785074",
    "geocoded_column": {
      "latitude": "29.92260611785074",
      "longitude": "-90.07844085720814"
    }
  },
  {
    "service_request": "2025-1160334",
    "request_type": "Trash/Recycling",
    "request_reason": "Return Trash Cart",
    "date_created": "2025-01-07T14:53:34.000",
    "date_modified": "2025-01-07T14:53:35.000",
    "request_status": "Pending",
    "responsible_agency": "Department of Sanitation",
    "final_address": "8 Rosa Park",
    "address_councildis": "A",
    "status": "Assigned to Contractor",
    "contractor": "IV Waste",
    "rowid": "1160334",
    "final_x": "3666047.54458",
    "final_y": "522668.591738",
    "longitude": "-90.11716045682009",
    "latitude": "29.93161728747805",
    "geocoded_column": {
      "latitude": "29.93161728747805",
      "longitude": "-90.11716045682009"
    }
  },
  {
    "service_request": "2025-1160333",
    "request_type": "Utility Poles",
    "request_reason": "Wires Sagging/Hanging Low",
    "date_created": "2025-01-07T14:52:33.000",
    "date_modified": "2025-01-07T14:52:36.000",
    "request_status": "Pending",
    "responsible_agency": "Utility Company Collective",
    "final_address": "2023 Josephine St",
    "address_councildis": "B",
    "status": "Pending",
    "rowid": "1160333",
    "final_x": "3676845.96501",
    "final_y": "525386.754365",
    "longitude": "-90.08297742960899",
    "latitude": "29.938771781019142",
    "geocoded_column": {
      "latitude": "29.938771781019142",
      "longitude": "-90.08297742960899"
    }
  },
  {
    "service_request": "2025-1160332",
    "request_type": "Trash/Recycling",
    "request_reason": "Order Recycling Cart",
    "date_created": "2025-01-07T14:51:22.000",
    "date_modified": "2025-01-07T14:51:23.000",
    "request_status": "Pending",
    "responsible_agency": "Department of Sanitation",
    "final_address": "3945 Virgil Blvd",
    "address_councildis": "D",
    "status": "Pending",
    "rowid": "1160332",
    "final_x": "3679995.65359",
    "final_y": "547150.379217",
    "longitude": "-90.07227732625931",
    "latitude": "29.998519402083534",
    "geocoded_column": {
      "latitude": "29.998519402083534",
      "longitude": "-90.07227732625931"
    }
  },
  {
    "service_request": "2025-1160331",
    "request_type": "Utility Poles",
    "request_reason": "Utility Pole Leaning",
    "date_created": "2025-01-07T14:49:40.000",
    "date_modified": "2025-01-07T14:49:47.000",
    "request_status": "Pending",
    "responsible_agency": "Utility Company Collective",
    "final_address": "2023 Josephine St",
    "address_councildis": "B",
    "status": "Pending",
    "rowid": "1160331",
    "final_x": "3676845.96501",
    "final_y": "525386.754365",
    "longitude": "-90.08297742960899",
    "latitude": "29.938771781019142",
    "geocoded_column": {
      "latitude": "29.938771781019142",
      "longitude": "-90.08297742960899"
    }
  },
  {
    "service_request": "2025-1160330",
    "request_type": "Roads and Streets",
    "request_reason": "Pothole",
    "date_created": "2025-01-07T14:48:28.000",
    "date_modified": "2025-01-07T14:49:05.000",
    "case_close_date": "2025-01-07T08:49:05.000",
    "request_status": "Closed",
    "responsible_agency": "Department of Public Works",
    "final_address": "7500 Morrison Rd",
    "address_councildis": "E",
    "status": "Resolved",
    "rowid": "1160330",
    "final_x": "3700932.26692",
    "final_y": "559447.322717",
    "longitude": "-90.00568887857709",
    "latitude": "30.031681142115612",
    "geocoded_column": {
      "latitude": "30.031681142115612",
      "longitude": "-90.00568887857709"
    }
  },
  {
    "service_request": "2025-1160329",
    "request_type": "Abandoned Vehicles",
    "request_reason": "Abandoned/Junk Vehicles",
    "date_created": "2025-01-07T14:48:02.000",
    "date_modified": "2025-01-07T14:48:06.000",
    "request_status": "Pending",
    "responsible_agency": "Department of Public Works",
    "final_address": "2025 Josephine St",
    "address_councildis": "B",
    "status": "Pending",
    "rowid": "1160329",
    "final_x": "3676835.49134",
    "final_y": "525398.473085",
    "longitude": "-90.08301009246075",
    "latitude": "29.93880431790037",
    "geocoded_column": {
      "latitude": "29.93880431790037",
      "longitude": "-90.08301009246075"
    }
  },
  {
    "service_request": "2025-1160328",
    "request_type": "Trash/Recycling",
    "request_reason": "Illegal Dumping",
    "date_created": "2025-01-07T14:47:09.000",
    "date_modified": "2025-01-07T14:47:10.000",
    "request_status": "Pending",
    "responsible_agency": "Department of Sanitation",
    "final_address": "6550 Harbourview Dr",
    "address_councildis": "E",
    "status": "Pending",
    "rowid": "1160328",
    "final_x": "3698786.79223",
    "final_y": "555898.374361",
    "longitude": "-90.01259791592057",
    "latitude": "30.02199107273486",
    "geocoded_column": {
      "latitude": "30.02199107273486",
      "longitude": "-90.01259791592057"
    }
  },
  {
    "service_request": "2025-1160327",
    "request_type": "Trash/Recycling",
    "request_reason": "Replace Trash Cart",
    "date_created": "2025-01-07T14:42:31.000",
    "date_modified": "2025-01-07T14:42:32.000",
    "request_status": "Pending",
    "responsible_agency": "Department of Sanitation",
    "final_address": "7550 Rochon Ave",
    "address_councildis": "E",
    "status": "Assigned to Contractor",
    "contractor": "Waste Pro",
    "rowid": "1160327",
    "final_x": "3718856.76479",
    "final_y": "571375.217576",
    "longitude": "-89.94859172868748",
    "latitude": "30.063894717732342",
    "geocoded_column": {
      "latitude": "30.063894717732342",
      "longitude": "-89.94859172868748"
    }
  },
  {
    "service_request": "2025-1160326",
    "request_type": "Trash/Recycling",
    "request_reason": "Request a Large Item Pick Up",
    "date_created": "2025-01-07T14:41:22.000",
    "date_modified": "2025-01-07T14:41:26.000",
    "request_status": "Pending",
    "responsible_agency": "Department of Sanitation",
    "final_address": "1441 Nunez St",
    "address_councildis": "C",
    "status": "Assigned to Contractor",
    "contractor": "Richards Disposal",
    "rowid": "1160326",
    "final_x": "3687015.73839",
    "final_y": "526070.995518",
    "longitude": "-90.05084622579732",
    "latitude": "29.940344154015772",
    "geocoded_column": {
      "latitude": "29.940344154015772",
      "longitude": "-90.05084622579732"
    }
  },
  {
    "service_request": "2025-1160325",
    "request_type": "Trash/Recycling",
    "request_reason": "Repair Recycling Cart",
    "date_created": "2025-01-07T14:36:44.000",
    "date_modified": "2025-01-07T14:36:45.000",
    "request_status": "Pending",
    "responsible_agency": "Department of Sanitation",
    "final_address": "2329 General Meyer Ave",
    "address_councildis": "C",
    "status": "Pending",
    "rowid": "1160325",
    "final_x": "3692652.05296",
    "final_y": "527621.965631",
    "longitude": "-90.03299598049206",
    "latitude": "29.944434123735533",
    "geocoded_column": {
      "latitude": "29.944434123735533",
      "longitude": "-90.03299598049206"
    }
  },
  {
    "service_request": "2025-1160324",
    "request_type": "Trash/Recycling",
    "request_reason": "Repair Trash Cart",
    "date_created": "2025-01-07T14:35:36.000",
    "date_modified": "2025-01-07T14:35:37.000",
    "request_status": "Pending",
    "responsible_agency": "Department of Sanitation",
    "final_address": "2600 Jefferson Ave",
    "address_councildis": "A",
    "status": "Assigned to Contractor",
    "contractor": "IV Waste",
    "rowid": "1160324",
    "final_x": "3668040.69351",
    "final_y": "525022.496957",
    "longitude": "-90.11078901030767",
    "latitude": "29.93803145339935",
    "geocoded_column": {
      "latitude": "29.93803145339935",
      "longitude": "-90.11078901030767"
    }
  },
  {
    "service_request": "2025-1160323",
    "request_type": "Trash/Recycling",
    "request_reason": "Request a Large Item Pick Up",
    "date_created": "2025-01-07T14:35:35.000",
    "date_modified": "2025-01-07T14:35:36.000",
    "request_status": "Pending",
    "responsible_agency": "Department of Sanitation",
    "final_address": "216 S St Patrick St",
    "address_councildis": "A",
    "status": "Assigned to Contractor",
    "contractor": "IV Waste",
    "rowid": "1160323",
    "final_x": "3668779.40346",
    "final_y": "539340.470346",
    "longitude": "-90.10797342964902",
    "latitude": "29.977379469891112",
    "geocoded_column": {
      "latitude": "29.977379469891112",
      "longitude": "-90.10797342964902"
    }
  },
  {
    "service_request": "2025-1160322",
    "request_type": "Roads and Streets",
    "request_reason": "Pothole",
    "date_created": "2025-01-07T14:35:17.000",
    "date_modified": "2025-01-07T14:35:46.000",
    "case_close_date": "2025-01-07T08:35:46.000",
    "request_status": "Closed",
    "responsible_agency": "Department of Public Works",
    "final_address": "14441 Morrison Rd",
    "address_councildis": "E",
    "status": "Resolved",
    "rowid": "1160322",
    "final_x": "3720382.18578",
    "final_y": "572360.402665",
    "longitude": "-89.9437320567611",
    "latitude": "30.066552786391515",
    "geocoded_column": {
      "latitude": "30.066552786391515",
      "longitude": "-89.9437320567611"
    }
  },
  {
    "service_request": "2025-1160321",
    "request_type": "Abandoned Vehicles",
    "request_reason": "Abandoned/Junk Vehicles",
    "date_created": "2025-01-07T14:33:56.000",
    "date_modified": "2025-01-07T14:33:57.000",
    "request_status": "Pending",
    "responsible_agency": "Department of Public Works",
    "final_address": "1008 Clouet St",
    "address_councildis": "C",
    "status": "Pending",
    "rowid": "1160321",
    "final_x": "3688888.60131",
    "final_y": "535656.367174",
    "longitude": "-90.04459294833742",
    "latitude": "29.96664285159957",
    "geocoded_column": {
      "latitude": "29.96664285159957",
      "longitude": "-90.04459294833742"
    }
  },
  {
    "service_request": "2025-1160320",
    "request_type": "Trash/Recycling",
    "request_reason": "Request a Large Item Pick Up",
    "date_created": "2025-01-07T14:33:48.000",
    "date_modified": "2025-01-07T14:33:49.000",
    "request_status": "Pending",
    "responsible_agency": "Department of Sanitation",
    "final_address": "2137 Hope St",
    "address_councildis": "D",
    "status": "Assigned to Contractor",
    "contractor": "IV Waste",
    "rowid": "1160320",
    "final_x": "3683802.08668",
    "final_y": "542194.569741",
    "longitude": "-90.06042672869755",
    "latitude": "29.98477695074294",
    "geocoded_column": {
      "latitude": "29.98477695074294",
      "longitude": "-90.06042672869755"
    }
  },
  {
    "service_request": "2025-1160319",
    "request_type": "Trash/Recycling",
    "request_reason": "Order Trash Cart",
    "date_created": "2025-01-07T14:33:43.000",
    "date_modified": "2025-01-07T14:33:44.000",
    "request_status": "Pending",
    "responsible_agency": "Department of Sanitation",
    "final_address": "815 Opelousas Ave",
    "address_councildis": "C",
    "status": "Assigned to Contractor",
    "contractor": "Richards Disposal",
    "rowid": "1160319",
    "final_x": "3687964.66652",
    "final_y": "529037.089088",
    "longitude": "-90.04774525020497",
    "latitude": "29.948470663778213",
    "geocoded_column": {
      "latitude": "29.948470663778213",
      "longitude": "-90.04774525020497"
    }
  },
  {
    "service_request": "2025-1160318",
    "request_type": "Abandoned Vehicles",
    "request_reason": "Abandoned/Junk Vehicles",
    "date_created": "2025-01-07T14:31:28.000",
    "date_modified": "2025-01-07T14:31:31.000",
    "request_status": "Pending",
    "responsible_agency": "Department of Public Works",
    "final_address": "200 BLK N Hennessey St",
    "address_councildis": "A",
    "status": "Pending",
    "rowid": "1160318",
    "final_x": "3670654.7328",
    "final_y": "539432.806749",
    "longitude": "-90.102047367152",
    "latitude": "29.977578086792334",
    "geocoded_column": {
      "latitude": "29.977578086792334",
      "longitude": "-90.102047367152"
    }
  },
  {
    "service_request": "2025-1160317",
    "request_type": "Parks & Parkways",
    "request_reason": "Request Tree Service (Right of Way/Public Property)",
    "date_created": "2025-01-07T14:30:51.000",
    "date_modified": "2025-01-07T14:30:54.000",
    "request_status": "Pending",
    "responsible_agency": "Department of Parks & Parkway",
    "final_address": "1740 Abundance St",
    "address_councildis": "D",
    "status": "Pending",
    "rowid": "1160317",
    "final_x": "3680963.21647",
    "final_y": "543362.276942",
    "longitude": "-90.0693527991574",
    "latitude": "29.988074145599416",
    "geocoded_column": {
      "latitude": "29.988074145599416",
      "longitude": "-90.0693527991574"
    }
  },
  {
    "service_request": "2025-1160316",
    "request_type": "Abandoned Vehicles",
    "request_reason": "Abandoned/Junk Vehicles",
    "date_created": "2025-01-07T14:28:28.000",
    "date_modified": "2025-01-07T14:28:31.000",
    "request_status": "Pending",
    "responsible_agency": "Department of Public Works",
    "final_address": "200 BLK N Hennessey St",
    "address_councildis": "A",
    "status": "Pending",
    "rowid": "1160316",
    "final_x": "3670654.7328",
    "final_y": "539432.806749",
    "longitude": "-90.102047367152",
    "latitude": "29.977578086792334",
    "geocoded_column": {
      "latitude": "29.977578086792334",
      "longitude": "-90.102047367152"
    }
  },
  {
    "service_request": "2025-1160315",
    "request_type": "Trash/Recycling",
    "request_reason": "Order Trash Cart",
    "date_created": "2025-01-07T14:26:08.000",
    "date_modified": "2025-01-07T14:26:09.000",
    "request_status": "Pending",
    "responsible_agency": "Department of Sanitation",
    "final_address": "2113 Elysian Fields Ave",
    "address_councildis": "D",
    "status": "Assigned to Contractor",
    "contractor": "IV Waste",
    "rowid": "1160315",
    "final_x": "3684800.30946",
    "final_y": "540126.119243",
    "longitude": "-90.05734653486932",
    "latitude": "29.979058911372025",
    "geocoded_column": {
      "latitude": "29.979058911372025",
      "longitude": "-90.05734653486932"
    }
  },
  {
    "service_request": "2025-1160314",
    "request_type": "Trash/Recycling",
    "request_reason": "Request a Large Item Pick Up",
    "date_created": "2025-01-07T14:25:42.000",
    "date_modified": "2025-01-07T14:25:43.000",
    "request_status": "Pending",
    "responsible_agency": "Department of Sanitation",
    "final_address": "6050 Chamberlain Dr",
    "address_councildis": "D",
    "status": "Assigned to Contractor",
    "contractor": "IV Waste",
    "rowid": "1160314",
    "final_x": "3679230.09941",
    "final_y": "554856.953816",
    "longitude": "-90.074428240124",
    "latitude": "30.019732860219484",
    "geocoded_column": {
      "latitude": "30.019732860219484",
      "longitude": "-90.074428240124"
    }
  },
  {
    "service_request": "2025-1160313",
    "request_type": "Traffic Signals",
    "request_reason": "Traffic Signal Malfunctioning or Damaged",
    "date_created": "2025-01-07T14:24:35.000",
    "date_modified": "2025-01-07T14:24:36.000",
    "request_status": "Pending",
    "responsible_agency": "Department of Public Works",
    "final_address": "CHEF MENTEUR HWY & READ BLVD",
    "address_councildis": "E",
    "status": "Pending",
    "rowid": "1160313",
    "final_x": "3712879.3",
    "final_y": "554816.48",
    "longitude": "-89.96811038290976",
    "latitude": "30.018562123005566",
    "geocoded_column": {
      "latitude": "30.018562123005566",
      "longitude": "-89.96811038290976"
    }
  },
  {
    "service_request": "2025-1160312",
    "request_type": "Trash/Recycling",
    "request_reason": "Replace Trash Cart",
    "date_created": "2025-01-07T14:22:51.000",
    "date_modified": "2025-01-07T14:22:52.000",
    "request_status": "Pending",
    "responsible_agency": "Department of Sanitation",
    "final_address": "3520 Constance St",
    "address_councildis": "B",
    "status": "Assigned to Contractor",
    "contractor": "IV Waste",
    "rowid": "1160312",
    "final_x": "3674411.3202",
    "final_y": "518956.708791",
    "longitude": "-90.09088400389278",
    "latitude": "29.92116406360857",
    "geocoded_column": {
      "latitude": "29.92116406360857",
      "longitude": "-90.09088400389278"
    }
  },
  {
    "service_request": "2025-1160311",
    "request_type": "Trash/Recycling",
    "request_reason": "Request a Large Item Pick Up",
    "date_created": "2025-01-07T14:22:27.000",
    "date_modified": "2025-01-07T14:38:10.000",
    "request_status": "Pending",
    "responsible_agency": "Department of Sanitation",
    "final_address": "523 Turquoise St, New Orleans, Louisiana, 70124",
    "address_councildis": "D",
    "status": "Assigned to Contractor",
    "contractor": "IV Waste",
    "rowid": "1160311",
    "final_x": "3668317.253",
    "final_y": "555414.758233",
    "longitude": "-90.10889055331492",
    "latitude": "30.021591781753813",
    "geocoded_column": {
      "latitude": "30.021591781753813",
      "longitude": "-90.10889055331492"
    }
  },
  {
    "service_request": "2025-1160310",
    "request_type": "Abandoned Vehicles",
    "request_reason": "Abandoned/Junk Vehicles",
    "date_created": "2025-01-07T14:21:48.000",
    "date_modified": "2025-01-07T14:21:48.000",
    "request_status": "Pending",
    "responsible_agency": "Department of Public Works",
    "final_address": "7700 BLK S Claiborne Ave",
    "address_councildis": "A",
    "status": "Pending",
    "rowid": "1160310",
    "final_x": "3665769.68352",
    "final_y": "530621.99563",
    "longitude": "-90.11777127787359",
    "latitude": "29.953494698990408",
    "geocoded_column": {
      "latitude": "29.953494698990408",
      "longitude": "-90.11777127787359"
    }
  },
  {
    "service_request": "2025-1160309",
    "request_type": "Abandoned Vehicles",
    "request_reason": "Abandoned/Junk Vehicles",
    "date_created": "2025-01-07T14:20:35.000",
    "date_modified": "2025-01-07T14:20:35.000",
    "request_status": "Pending",
    "responsible_agency": "Department of Public Works",
    "final_address": "905 Esplanade Ave",
    "address_councildis": "C",
    "status": "Pending",
    "rowid": "1160309",
    "final_x": "3683467.54012",
    "final_y": "534964.76839",
    "longitude": "-90.06173683526774",
    "latitude": "29.964907730024606",
    "geocoded_column": {
      "latitude": "29.964907730024606",
      "longitude": "-90.06173683526774"
    }
  },
  {
    "service_request": "2025-1160308",
    "request_type": "Trash/Recycling",
    "request_reason": "Change Size of Trash Cart",
    "date_created": "2025-01-07T14:19:31.000",
    "date_modified": "2025-01-07T14:19:32.000",
    "request_status": "Pending",
    "responsible_agency": "Department of Sanitation",
    "final_address": "1636 Bordeaux St",
    "address_councildis": "B",
    "status": "Assigned to Contractor",
    "contractor": "IV Waste",
    "rowid": "1160308",
    "final_x": "3669316.40378",
    "final_y": "521039.363705",
    "longitude": "-90.10689606580247",
    "latitude": "29.927041625766055",
    "geocoded_column": {
      "latitude": "29.927041625766055",
      "longitude": "-90.10689606580247"
    }
  },
  {
    "service_request": "2025-1160307",
    "request_type": "Trash/Recycling",
    "request_reason": "Repair Recycling Cart",
    "date_created": "2025-01-07T14:17:03.000",
    "date_modified": "2025-01-07T14:17:04.000",
    "request_status": "Pending",
    "responsible_agency": "Department of Sanitation",
    "final_address": "3113 State Street Dr",
    "address_councildis": "A",
    "status": "Pending",
    "rowid": "1160307",
    "final_x": "3667428.32199",
    "final_y": "527448.099391",
    "longitude": "-90.11264074652235",
    "latitude": "29.944719029753852",
    "geocoded_column": {
      "latitude": "29.944719029753852",
      "longitude": "-90.11264074652235"
    }
  },
  {
    "service_request": "2025-1160306",
    "request_type": "Roads and Streets",
    "request_reason": "Pothole",
    "date_created": "2025-01-07T14:14:14.000",
    "date_modified": "2025-01-07T14:14:16.000",
    "request_status": "Pending",
    "responsible_agency": "Department of Public Works",
    "final_address": "CLEMATIS AVE & BAY ST",
    "address_councildis": "D",
    "status": "Pending",
    "rowid": "1160306",
    "final_x": "3686894.8",
    "final_y": "545164.28",
    "longitude": "-90.05055320025066",
    "latitude": "29.992847762717435",
    "geocoded_column": {
      "latitude": "29.992847762717435",
      "longitude": "-90.05055320025066"
    }
  },
  {
    "service_request": "2025-1160305",
    "request_type": "Trash/Recycling",
    "request_reason": "Request a Large Item Pick Up",
    "date_created": "2025-01-07T14:12:56.000",
    "date_modified": "2025-01-07T14:12:57.000",
    "request_status": "Pending",
    "responsible_agency": "Department of Sanitation",
    "final_address": "7823 Shubert St",
    "address_councildis": "E",
    "status": "Assigned to Contractor",
    "contractor": "Waste Pro",
    "rowid": "1160305",
    "final_x": "3695597.34998",
    "final_y": "559440.310365",
    "longitude": "-90.02254766346883",
    "latitude": "30.03183074648608",
    "geocoded_column": {
      "latitude": "30.03183074648608",
      "longitude": "-90.02254766346883"
    }
  },
  {
    "service_request": "2025-1160304",
    "request_type": "Trash/Recycling",
    "request_reason": "Repair Trash Cart",
    "date_created": "2025-01-07T14:12:28.000",
    "date_modified": "2025-01-07T14:12:29.000",
    "request_status": "Pending",
    "responsible_agency": "Department of Sanitation",
    "final_address": "187 Pinewood Ct",
    "address_councildis": "C",
    "status": "Assigned to Contractor",
    "contractor": "Richards Disposal",
    "rowid": "1160304",
    "final_x": "3696005.73763",
    "final_y": "523633.494651",
    "longitude": "-90.02255153475735",
    "latitude": "29.933362130562312",
    "geocoded_column": {
      "latitude": "29.933362130562312",
      "longitude": "-90.02255153475735"
    }
  },
  {
    "service_request": "2025-1160303",
    "request_type": "Trash/Recycling",
    "request_reason": "Order Recycling Cart",
    "date_created": "2025-01-07T14:10:57.000",
    "date_modified": "2025-01-07T14:10:58.000",
    "request_status": "Pending",
    "responsible_agency": "Department of Sanitation",
    "final_address": "3919 Toulouse St",
    "address_councildis": "A",
    "status": "Pending",
    "rowid": "1160303",
    "final_x": "3672746.55316",
    "final_y": "539393.732682",
    "longitude": "-90.09544201022712",
    "latitude": "29.97740867360639",
    "geocoded_column": {
      "latitude": "29.97740867360639",
      "longitude": "-90.09544201022712"
    }
  },
  {
    "service_request": "2025-1160302",
    "request_type": "Trash/Recycling",
    "request_reason": "Request a Large Item Pick Up",
    "date_created": "2025-01-07T14:10:53.000",
    "date_modified": "2025-01-07T14:10:54.000",
    "request_status": "Pending",
    "responsible_agency": "Department of Sanitation",
    "final_address": "7910 Sheephead St",
    "address_councildis": "E",
    "status": "Assigned to Contractor",
    "contractor": "Waste Pro",
    "rowid": "1160302",
    "final_x": "3699266.87204",
    "final_y": "561128.836382",
    "longitude": "-90.01089025446718",
    "latitude": "30.03635760648067",
    "geocoded_column": {
      "latitude": "30.03635760648067",
      "longitude": "-90.01089025446718"
    }
  },
  {
    "service_request": "2025-1160301",
    "request_type": "Streetlights",
    "request_reason": "Streetlight Outage/Malfunction",
    "date_created": "2025-01-07T14:10:08.000",
    "date_modified": "2025-01-07T14:10:09.000",
    "request_status": "Pending",
    "responsible_agency": "Department of Public Works",
    "final_address": "749 S Genois St",
    "address_councildis": "B",
    "status": "Pending",
    "contractor": "Legacy Professional Services",
    "rowid": "1160301",
    "final_x": "3670881.31438",
    "final_y": "535010.131846",
    "longitude": "-90.10148191227124",
    "latitude": "29.96541052252787",
    "geocoded_column": {
      "latitude": "29.96541052252787",
      "longitude": "-90.10148191227124"
    }
  },
  {
    "service_request": "2025-1160300",
    "request_type": "Trash/Recycling",
    "request_reason": "Request a Large Item Pick Up",
    "date_created": "2025-01-07T14:09:49.000",
    "date_modified": "2025-01-07T14:10:21.000",
    "request_status": "Pending",
    "responsible_agency": "Department of Sanitation",
    "final_address": "2314 Audubon St",
    "address_councildis": "A",
    "status": "Assigned to Contractor",
    "contractor": "IV Waste",
    "rowid": "1160300",
    "final_x": "3666673.07815",
    "final_y": "529742.208257",
    "longitude": "-90.11494826826572",
    "latitude": "29.95104918749485",
    "geocoded_column": {
      "latitude": "29.95104918749485",
      "longitude": "-90.11494826826572"
    }
  },
  {
    "service_request": "2025-1160299",
    "request_type": "Trash/Recycling",
    "request_reason": "Repair Trash Cart",
    "date_created": "2025-01-07T14:08:36.000",
    "date_modified": "2025-01-07T14:08:36.000",
    "request_status": "Pending",
    "responsible_agency": "Department of Sanitation",
    "final_address": "7632 Brevard Ave",
    "address_councildis": "E",
    "status": "Assigned to Contractor",
    "contractor": "Waste Pro",
    "rowid": "1160299",
    "final_x": "3706279.06129",
    "final_y": "563511.164704",
    "longitude": "-89.98864216678022",
    "latitude": "30.042683677107586",
    "geocoded_column": {
      "latitude": "30.042683677107586",
      "longitude": "-89.98864216678022"
    }
  },
  {
    "service_request": "2025-1160298",
    "request_type": "Trash/Recycling",
    "request_reason": "Order Trash Cart",
    "date_created": "2025-01-07T14:08:34.000",
    "date_modified": "2025-01-07T14:08:35.000",
    "request_status": "Pending",
    "responsible_agency": "Department of Sanitation",
    "final_address": "4754 Downman Rd",
    "address_councildis": "D",
    "status": "Assigned to Contractor",
    "contractor": "Waste Pro",
    "rowid": "1160298",
    "final_x": "3695858.9425",
    "final_y": "554196.134488",
    "longitude": "-90.0219106866319",
    "latitude": "30.017403023918522",
    "geocoded_column": {
      "latitude": "30.017403023918522",
      "longitude": "-90.0219106866319"
    }
  },
  {
    "service_request": "2025-1160297",
    "request_type": "Trash/Recycling",
    "request_reason": "Order Second Trash Cart",
    "date_created": "2025-01-07T14:07:18.000",
    "date_modified": "2025-01-07T14:07:20.000",
    "request_status": "Pending",
    "responsible_agency": "Department of Sanitation",
    "final_address": "3225 General Taylor St",
    "address_councildis": "B",
    "status": "Assigned to Contractor",
    "contractor": "IV Waste",
    "rowid": "1160297",
    "final_x": "3671306.35431",
    "final_y": "526895.419774",
    "longitude": "-90.10041538597083",
    "latitude": "29.94308517250529",
    "geocoded_column": {
      "latitude": "29.94308517250529",
      "longitude": "-90.10041538597083"
    }
  },
  {
    "service_request": "2025-1160296",
    "request_type": "Trash/Recycling",
    "request_reason": "Order Recycling Cart",
    "date_created": "2025-01-07T14:06:25.000",
    "date_modified": "2025-01-07T14:06:27.000",
    "request_status": "Pending",
    "responsible_agency": "Department of Sanitation",
    "final_address": "3225 General Taylor St",
    "address_councildis": "B",
    "status": "Pending",
    "rowid": "1160296",
    "final_x": "3671306.35431",
    "final_y": "526895.419774",
    "longitude": "-90.10041538597083",
    "latitude": "29.94308517250529",
    "geocoded_column": {
      "latitude": "29.94308517250529",
      "longitude": "-90.10041538597083"
    }
  },
  {
    "service_request": "2025-1160295",
    "request_type": "Trash/Recycling",
    "request_reason": "Repair Trash Cart",
    "date_created": "2025-01-07T14:02:27.000",
    "date_modified": "2025-01-07T14:02:56.000",
    "request_status": "Pending",
    "responsible_agency": "Department of Sanitation",
    "final_address": "2670 Acacia St",
    "address_councildis": "D",
    "contractor": "IV Waste",
    "rowid": "1160295",
    "final_x": "3687735.81199",
    "final_y": "546350.670416",
    "longitude": "-90.04785455689358",
    "latitude": "29.996083994050203",
    "geocoded_column": {
      "latitude": "29.996083994050203",
      "longitude": "-90.04785455689358"
    }
  },
  {
    "service_request": "2025-1160294",
    "request_type": "Roads and Streets",
    "request_reason": "Sidewalk Damaged or Missing",
    "date_created": "2025-01-07T14:02:07.000",
    "date_modified": "2025-01-07T14:02:10.000",
    "request_status": "Pending",
    "responsible_agency": "Department of Public Works",
    "final_address": "3400 BLK Chestnut St",
    "address_councildis": "B",
    "status": "Pending",
    "rowid": "1160294",
    "final_x": "3674543.17745",
    "final_y": "520229.181114",
    "longitude": "-90.0904242198453",
    "latitude": "29.924659021691024",
    "geocoded_column": {
      "latitude": "29.924659021691024",
      "longitude": "-90.0904242198453"
    }
  },
  {
    "service_request": "2025-1160293",
    "request_type": "Trash/Recycling",
    "request_reason": "Order Recycling Cart",
    "date_created": "2025-01-07T14:01:42.000",
    "date_modified": "2025-01-07T14:01:45.000",
    "request_status": "Pending",
    "responsible_agency": "Department of Sanitation",
    "final_address": "925 Louisa St",
    "address_councildis": "C",
    "status": "Pending",
    "rowid": "1160293",
    "final_x": "3689441.88508",
    "final_y": "535263.892742",
    "longitude": "-90.04285964650481",
    "latitude": "29.96554656194871",
    "geocoded_column": {
      "latitude": "29.96554656194871",
      "longitude": "-90.04285964650481"
    }
  },
  {
    "service_request": "2025-1160292",
    "request_type": "Trash/Recycling",
    "request_reason": "Request a Large Item Pick Up",
    "date_created": "2025-01-07T14:01:29.000",
    "date_modified": "2025-01-07T14:01:30.000",
    "request_status": "Pending",
    "responsible_agency": "Department of Sanitation",
    "final_address": "2906 St Philip St",
    "address_councildis": "A",
    "status": "Assigned to Contractor",
    "contractor": "IV Waste",
    "rowid": "1160292",
    "final_x": "3676586.78536",
    "final_y": "538419.041289",
    "longitude": "-90.08334684892458",
    "latitude": "29.97461397178986",
    "geocoded_column": {
      "latitude": "29.97461397178986",
      "longitude": "-90.08334684892458"
    }
  },
  {
    "service_request": "2025-1160291",
    "request_type": "Trash/Recycling",
    "request_reason": "Missed Trash Pick-Up",
    "date_created": "2025-01-07T14:00:06.000",
    "date_modified": "2025-01-07T14:00:07.000",
    "request_status": "Pending",
    "responsible_agency": "Department of Sanitation",
    "final_address": "14900 Paris Rd",
    "address_councildis": "E",
    "status": "Assigned to Contractor",
    "contractor": "Waste Pro",
    "rowid": "1160291",
    "final_x": "3721458.89849",
    "final_y": "568514.420389",
    "longitude": "-89.94047623005744",
    "latitude": "30.05594200108865",
    "geocoded_column": {
      "latitude": "30.05594200108865",
      "longitude": "-89.94047623005744"
    }
  },
  {
    "service_request": "2025-1160290",
    "request_type": "Traffic Signals",
    "request_reason": "Traffic Signal Malfunctioning or Damaged",
    "date_created": "2025-01-07T13:59:55.000",
    "date_modified": "2025-01-07T14:01:27.000",
    "request_status": "Pending",
    "responsible_agency": "Department of Public Works",
    "final_address": "805 elysian fields",
    "address_councildis": "C",
    "rowid": "1160290",
    "final_x": "3685137.2",
    "final_y": "535233.78",
    "longitude": "-90.05645469613737",
    "latitude": "29.965596364720028",
    "geocoded_column": {
      "latitude": "29.965596364720028",
      "longitude": "-90.05645469613737"
    }
  },
  {
    "service_request": "2025-1160289",
    "request_type": "Trash/Recycling",
    "request_reason": "Request a Large Item Pick Up",
    "date_created": "2025-01-07T13:58:48.000",
    "date_modified": "2025-01-07T13:58:49.000",
    "request_status": "Pending",
    "responsible_agency": "Department of Sanitation",
    "final_address": "8130 Aberdeen Rd",
    "address_councildis": "E",
    "status": "Assigned to Contractor",
    "contractor": "Waste Pro",
    "rowid": "1160289",
    "final_x": "3702823.57054",
    "final_y": "561265.731166",
    "longitude": "-89.99964542136702",
    "latitude": "30.036620665356857",
    "geocoded_column": {
      "latitude": "30.036620665356857",
      "longitude": "-89.99964542136702"
    }
  },
  {
    "service_request": "2025-1160288",
    "request_type": "Property Maintenance",
    "request_reason": "Property Maintenance",
    "date_created": "2025-01-07T13:56:24.000",
    "date_modified": "2025-01-07T14:52:57.000",
    "case_close_date": "2025-01-07T08:52:57.000",
    "request_status": "Closed",
    "responsible_agency": "Department of Code Enforcement",
    "final_address": "10821 Roger Dr",
    "address_councildis": "E",
    "status": "Invalid Request",
    "rowid": "1160288",
    "final_x": "3711728.0076",
    "final_y": "563182.724832",
    "longitude": "-89.9714338249306",
    "latitude": "30.041603647474425",
    "geocoded_column": {
      "latitude": "30.041603647474425",
      "longitude": "-89.9714338249306"
    }
  },
  {
    "service_request": "2025-1160287",
    "request_type": "Trash/Recycling",
    "request_reason": "Request a Large Item Pick Up",
    "date_created": "2025-01-07T13:51:15.000",
    "date_modified": "2025-01-07T13:51:16.000",
    "request_status": "Pending",
    "responsible_agency": "Department of Sanitation",
    "final_address": "1036 Robert St",
    "address_councildis": "B",
    "status": "Assigned to Contractor",
    "contractor": "IV Waste",
    "rowid": "1160287",
    "final_x": "3668617.49364",
    "final_y": "519259.952759",
    "longitude": "-90.10916236162244",
    "latitude": "29.92216936083899",
    "geocoded_column": {
      "latitude": "29.92216936083899",
      "longitude": "-90.10916236162244"
    }
  },
  {
    "service_request": "2025-1160286",
    "request_type": "Trash/Recycling",
    "request_reason": "Request a Large Item Pick Up",
    "date_created": "2025-01-07T13:48:37.000",
    "date_modified": "2025-01-07T13:48:38.000",
    "request_status": "Pending",
    "responsible_agency": "Department of Sanitation",
    "final_address": "5911 Paris Ave",
    "address_councildis": "D",
    "status": "Assigned to Contractor",
    "contractor": "IV Waste",
    "rowid": "1160286",
    "final_x": "3679105.54549",
    "final_y": "554215.343384",
    "longitude": "-90.07484405572716",
    "latitude": "30.017972426598398",
    "geocoded_column": {
      "latitude": "30.017972426598398",
      "longitude": "-90.07484405572716"
    }
  },
  {
    "service_request": "2025-1160285",
    "request_type": "Trash/Recycling",
    "request_reason": "Replace Trash Cart",
    "date_created": "2025-01-07T13:45:16.000",
    "date_modified": "2025-01-07T13:45:17.000",
    "request_status": "Pending",
    "responsible_agency": "Department of Sanitation",
    "final_address": "3213 Burgundy St",
    "address_councildis": "C",
    "status": "Assigned to Contractor",
    "contractor": "IV Waste",
    "rowid": "1160285",
    "final_x": "3689490.53647",
    "final_y": "535065.484166",
    "longitude": "-90.04271306527879",
    "latitude": "29.964999501040847",
    "geocoded_column": {
      "latitude": "29.964999501040847",
      "longitude": "-90.04271306527879"
    }
  },
  {
    "service_request": "2025-1160284",
    "request_type": "Roads and Streets",
    "request_reason": "Pothole",
    "date_created": "2025-01-07T13:42:53.000",
    "date_modified": "2025-01-07T13:42:55.000",
    "request_status": "Pending",
    "responsible_agency": "Department of Public Works",
    "final_address": "704 Esplanade Ave",
    "address_councildis": "C",
    "status": "Pending",
    "rowid": "1160284",
    "final_x": "3683862.58927",
    "final_y": "534340.565253",
    "longitude": "-90.06051119282262",
    "latitude": "29.96317932578047",
    "geocoded_column": {
      "latitude": "29.96317932578047",
      "longitude": "-90.06051119282262"
    }
  },
  {
    "service_request": "2025-1160283",
    "request_type": "Trash/Recycling",
    "request_reason": "Request a Large Item Pick Up",
    "date_created": "2025-01-07T13:41:37.000",
    "date_modified": "2025-01-07T15:09:17.000",
    "case_close_date": "2025-01-07T09:09:17.000",
    "request_status": "Closed",
    "responsible_agency": "Department of Sanitation",
    "final_address": "72 Marywood Ct",
    "address_councildis": "E",
    "status": "Invalid Request",
    "contractor": "Waste Pro",
    "contractor_action": "Invalid Request",
    "rowid": "1160283",
    "final_x": "3712369.76171",
    "final_y": "566606.117155",
    "longitude": "-89.96927687224266",
    "latitude": "30.05099560386508",
    "geocoded_column": {
      "latitude": "30.05099560386508",
      "longitude": "-89.96927687224266"
    }
  },
  {
    "service_request": "2025-1160282",
    "request_type": "Roads and Streets",
    "request_reason": "Pothole",
    "date_created": "2025-01-07T13:40:44.000",
    "date_modified": "2025-01-07T13:40:46.000",
    "request_status": "Pending",
    "responsible_agency": "Department of Public Works",
    "final_address": "906 Esplanade Ave",
    "address_councildis": "C",
    "status": "Pending",
    "rowid": "1160282",
    "final_x": "3683378.62645",
    "final_y": "534860.863494",
    "longitude": "-90.06202125929862",
    "latitude": "29.964624740171125",
    "geocoded_column": {
      "latitude": "29.964624740171125",
      "longitude": "-90.06202125929862"
    }
  },
  {
    "service_request": "2025-1160281",
    "request_type": "Trash/Recycling",
    "request_reason": "Missed Trash Pick-Up",
    "date_created": "2025-01-07T13:38:30.000",
    "date_modified": "2025-01-07T13:49:10.000",
    "case_close_date": "2025-01-07T07:49:10.000",
    "request_status": "Closed",
    "responsible_agency": "Department of Sanitation",
    "final_address": "7214 Ring St",
    "address_councildis": "D",
    "status": "Invalid Request",
    "contractor": "IV Waste",
    "contractor_action": "Invalid",
    "rowid": "1160281",
    "final_x": "3668695.49902",
    "final_y": "554925.154968",
    "longitude": "-90.10771194056382",
    "latitude": "30.020234427507706",
    "geocoded_column": {
      "latitude": "30.020234427507706",
      "longitude": "-90.10771194056382"
    }
  },
  {
    "service_request": "2025-1160280",
    "request_type": "Roads and Streets",
    "request_reason": "Pothole",
    "date_created": "2025-01-07T13:37:48.000",
    "date_modified": "2025-01-07T13:37:52.000",
    "request_status": "Pending",
    "responsible_agency": "Department of Public Works",
    "final_address": "1024 City Park Ave",
    "address_councildis": "A",
    "status": "Pending",
    "rowid": "1160280",
    "final_x": "3672484.85703",
    "final_y": "541495.956492",
    "longitude": "-90.09619685012377",
    "latitude": "29.983196842627592",
    "geocoded_column": {
      "latitude": "29.983196842627592",
      "longitude": "-90.09619685012377"
    }
  },
  {
    "service_request": "2025-1160279",
    "request_type": "Trash/Recycling",
    "request_reason": "Request a Large Item Pick Up",
    "date_created": "2025-01-07T13:37:08.000",
    "date_modified": "2025-01-07T13:37:09.000",
    "request_status": "Pending",
    "responsible_agency": "Department of Sanitation",
    "final_address": "4908 Flake Ave",
    "address_councildis": "E",
    "status": "Assigned to Contractor",
    "contractor": "Waste Pro",
    "rowid": "1160279",
    "final_x": "3705966.94129",
    "final_y": "556249.58441",
    "longitude": "-89.98989765267052",
    "latitude": "30.022727247983074",
    "geocoded_column": {
      "latitude": "30.022727247983074",
      "longitude": "-89.98989765267052"
    }
  },