[
  {
    "service_request": "2022-948235",
    "request_type": "Mayor's Request",
    "request_reason": "Requests to the Mayor",
    "date_created": "2022-12-01T01:40:42.000",
    "date_modified": "2022-12-01T01:40:42.000",
    "request_status": "Pending",
    "responsible_agency": "Executive Office of the Mayor",
    "status": "Pending",
    "rowid": "948235",
    "longitude": "0.0",
    "latitude": "0.0",
    "geocoded_column": {
      "latitude": "0.0",
      "longitude": "0.0"
    }
  },
  {
    "service_request": "2022-948234",
    "request_type": "Trash/Recycling",
    "request_reason": "Order Recycling Cart",
    "date_created": "2022-12-01T00:58:37.000",
    "date_modified": "2022-12-01T00:58:37.000",
    "request_status": "Pending",
    "responsible_agency": "Department of Sanitation",
    "final_address": "5256 Basinview Dr",
    "address_councildis": "E",
    "status": "Pending",
    "rowid": "948234",
    "final_x": "3698995.86052",
    "final_y": "556981.85545",
    "longitude": "-90.0118978358706",
    "latitude": "30.024963604078575",
    "geocoded_column": {
      "latitude": "30.024963604078575",
      "longitude": "-90.0118978358706"
    }
  },
  {
    "service_request": "2022-948233",
    "request_type": "Traffic Signals/Signs/Striping/Streetlights",
    "request_reason": "Street Light Outage/Malfunction",
    "date_created": "2022-11-30T23:14:14.000",
    "date_modified": "2022-11-30T23:14:15.000",
    "request_status": "Pending",
    "responsible_agency": "Department of Public Works",
    "final_address": "3310 Mansfield Ave",
    "address_councildis": "C",
    "status": "Pending",
    "contractor": "Legacy Professional Services",
    "rowid": "948233",
    "final_x": "3709155.10072",
    "final_y": "518466.976566",
    "longitude": "-89.98123263966595",
    "latitude": "29.9187358655457",
    "geocoded_column": {
      "latitude": "29.9187358655457",
      "longitude": "-89.98123263966595"
    }
  },
  {
    "service_request": "2022-948232",
    "request_type": "Traffic Signals/Signs/Striping/Streetlights",
    "request_reason": "Street Light Outage/Malfunction",
    "date_created": "2022-11-30T23:11:46.000",
    "date_modified": "2022-11-30T23:11:47.000",
    "request_status": "Pending",
    "responsible_agency": "Department of Public Works",
    "final_address": "3110 Mansfield Ave",
    "address_councildis": "C",
    "status": "Pending",
    "contractor": "Legacy Professional Services",
    "rowid": "948232",
    "final_x": "3709188.20555",
    "final_y": "518783.759031",
    "longitude": "-89.98111634593582",
    "latitude": "29.919605832385486",
    "geocoded_column": {
      "latitude": "29.919605832385486",
      "longitude": "-89.98111634593582"
    }
  },
  {
    "service_request": "2022-948231",
    "request_type": "Trash/Recycling",
    "request_reason": "Order Recycling Cart",
    "date_created": "2022-11-30T23:03:06.000",
    "date_modified": "2022-11-30T23:03:07.000",
    "request_status": "Pending",
    "responsible_agency": "Department of Sanitation",
    "final_address": "1841 Bartholomew St",
    "address_councildis": "D",
    "status": "Pending",
    "rowid": "948231",
    "final_x": "3692584.13769",
    "final_y": "538267.869961",
    "longitude": "-90.03282891697853",
    "latitude": "29.973708754790852",
    "geocoded_column": {
      "latitude": "29.973708754790852",
      "longitude": "-90.03282891697853"
    }
  },
  {
    "service_request": "2022-948230",
    "request_type": "Traffic Signals/Signs/Striping/Streetlights",
    "request_reason": "Street Light Outage/Malfunction",
    "date_created": "2022-11-30T22:24:44.000",
    "date_modified": "2022-11-30T22:24:45.000",
    "request_status": "Pending",
    "responsible_agency": "Department of Public Works",
    "final_address": "6479 Memphis St",
    "address_councildis": "A",
    "status": "Pending",
    "contractor": "Legacy Professional Services",
    "rowid": "948230",
    "final_x": "3669584.40474",
    "final_y": "550584.160916",
    "longitude": "-90.10505029704869",
    "latitude": "30.008272053735055",
    "geocoded_column": {
      "latitude": "30.008272053735055",
      "longitude": "-90.10505029704869"
    }
  },
  {
    "service_request": "2022-948229",
    "request_type": "Traffic Signals/Signs/Striping/Streetlights",
    "request_reason": "Street Light Outage/Malfunction",
    "date_created": "2022-11-30T22:16:41.000",
    "date_modified": "2022-11-30T22:16:41.000",
    "request_status": "Pending",
    "responsible_agency": "Department of Public Works",
    "final_address": "2879 Annette St",
    "address_councildis": "D",
    "status": "Pending",
    "contractor": "Legacy Professional Services",
    "rowid": "948229",
    "final_x": "3682634.66613",
    "final_y": "542939.243597",
    "longitude": "-90.06408804629908",
    "latitude": "29.986860149693435",
    "geocoded_column": {
      "latitude": "29.986860149693435",
      "longitude": "-90.06408804629908"
    }
  },
  {
    "service_request": "2022-948228",
    "request_type": "Trash/Recycling",
    "request_reason": "Order Recycling Cart",
    "date_created": "2022-11-30T22:11:14.000",
    "date_modified": "2022-11-30T22:11:14.000",
    "request_status": "Pending",
    "responsible_agency": "Department of Sanitation",
    "final_address": "1437 Calhoun St",
    "address_councildis": "A",
    "status": "Pending",
    "rowid": "948228",
    "final_x": "3664406.91764",
    "final_y": "521847.104314",
    "longitude": "-90.12236715683007",
    "latitude": "29.92940623543677",
    "geocoded_column": {
      "latitude": "29.92940623543677",
      "longitude": "-90.12236715683007"
    }
  },
  {
    "service_request": "2022-948227",
    "request_type": "Trash/Recycling",
    "request_reason": "MIssed Recycling Pick-Up",
    "date_created": "2022-11-30T22:10:19.000",
    "date_modified": "2022-11-30T22:10:19.000",
    "request_status": "Pending",
    "responsible_agency": "Department of Sanitation",
    "final_address": "2836 Chippewa St",
    "address_councildis": "B",
    "status": "Assigned to Contractor",
    "contractor": "Richards Disposal",
    "rowid": "948227",
    "final_x": "3677643.69474",
    "final_y": "519367.486583",
    "longitude": "-90.08066665906492",
    "latitude": "29.922196800451434",
    "geocoded_column": {
      "latitude": "29.922196800451434",
      "longitude": "-90.08066665906492"
    }
  },
  {
    "service_request": "2022-948226",
    "request_type": "Roads/Drainage",
    "request_reason": "Street Flooding / Drainage",
    "date_created": "2022-11-30T21:53:55.000",
    "date_modified": "2022-11-30T21:53:55.000",
    "request_status": "Pending",
    "responsible_agency": "Department of Public Works",
    "final_address": "2829 Joseph St",
    "address_councildis": "A",
    "status": "Pending",
    "rowid": "948226",
    "final_x": "3667855.82426",
    "final_y": "526363.739774",
    "longitude": "-90.11132750173452",
    "latitude": "29.94172486157745",
    "geocoded_column": {
      "latitude": "29.94172486157745",
      "longitude": "-90.11132750173452"
    }
  },
  {
    "service_request": "2022-948225",
    "request_type": "Traffic Signals/Signs/Striping/Streetlights",
    "request_reason": "Street Light Outage/Malfunction",
    "date_created": "2022-11-30T21:51:17.000",
    "date_modified": "2022-11-30T21:51:17.000",
    "request_status": "Pending",
    "responsible_agency": "Department of Public Works",
    "final_address": "538 Topaz St",
    "address_councildis": "D",
    "status": "Pending",
    "contractor": "Legacy Professional Services",
    "rowid": "948225",
    "final_x": "3668658.29031",
    "final_y": "556467.854042",
    "longitude": "-90.10777737322118",
    "latitude": "30.024477395049047",
    "geocoded_column": {
      "latitude": "30.024477395049047",
      "longitude": "-90.10777737322118"
    }
  },
  {
    "service_request": "2022-948224",
    "request_type": "Trash/Recycling",
    "request_reason": "Request a Large Item Pick Up",
    "date_created": "2022-11-30T21:38:55.000",
    "date_modified": "2022-11-30T21:38:56.000",
    "request_status": "Pending",
    "responsible_agency": "Department of Sanitation",
    "final_address": "109 Morrison Ct",
    "address_councildis": "E",
    "status": "Assigned to Contractor",
    "contractor": "Waste Pro",
    "rowid": "948224",
    "final_x": "3704049.93662",
    "final_y": "561663.392799",
    "longitude": "-89.99575520870278",
    "latitude": "30.037674773184804",
    "geocoded_column": {
      "latitude": "30.037674773184804",
      "longitude": "-89.99575520870278"
    }
  },
  {
    "service_request": "2022-948223",
    "request_type": "Roads/Drainage",
    "request_reason": "Man hole cover issue",
    "date_created": "2022-11-30T21:34:54.000",
    "date_modified": "2022-11-30T21:34:54.000",
    "request_status": "Pending",
    "responsible_agency": "Department of Public Works",
    "final_address": "1801 Ap Tureaud Ave",
    "address_councildis": "D",
    "status": "Pending",
    "rowid": "948223",
    "final_x": "3681868.45948",
    "final_y": "538672.750601",
    "longitude": "-90.06665718404123",
    "latitude": "29.97515209961227",
    "geocoded_column": {
      "latitude": "29.97515209961227",
      "longitude": "-90.06665718404123"
    }
  },
  {
    "service_request": "2022-948222",
    "request_type": "Abandoned Vehicles",
    "request_reason": "Abandoned/Junk Vehicles",
    "date_created": "2022-11-30T21:25:32.000",
    "date_modified": "2022-11-30T21:25:32.000",
    "request_status": "Pending",
    "responsible_agency": "Department of Public Works",
    "final_address": "1816 Annette St",
    "address_councildis": "D",
    "status": "Pending",
    "rowid": "948222",
    "final_x": "3682849.69071",
    "final_y": "538881.104841",
    "longitude": "-90.06355091004589",
    "latitude": "29.975695139060434",
    "geocoded_column": {
      "latitude": "29.975695139060434",
      "longitude": "-90.06355091004589"
    }
  },
  {
    "service_request": "2022-948221",
    "request_type": "Trash/Recycling",
    "request_reason": "MIssed Recycling Pick-Up",
    "date_created": "2022-11-30T20:52:16.000",
    "date_modified": "2022-11-30T20:52:17.000",
    "request_status": "Pending",
    "responsible_agency": "Department of Sanitation",
    "final_address": "9009 Heaton St",
    "address_councildis": "A",
    "status": "Assigned to Contractor",
    "contractor": "Richards Disposal",
    "rowid": "948221",
    "final_x": "3666957.57972",
    "final_y": "538813.395849",
    "longitude": "-90.11374509395326",
    "latitude": "29.975983636399985",
    "geocoded_column": {
      "latitude": "29.975983636399985",
      "longitude": "-90.11374509395326"
    }
  },
  {
    "service_request": "2022-948219",
    "request_type": "Trash/Recycling",
    "request_reason": "Replace Recycling Cart",
    "date_created": "2022-11-30T20:25:44.000",
    "date_modified": "2022-11-30T20:25:44.000",
    "request_status": "Pending",
    "responsible_agency": "Department of Sanitation",
    "final_address": "23 Swallow St",
    "address_councildis": "D",
    "status": "Pending",
    "rowid": "948219",
    "final_x": "3673367.89371",
    "final_y": "556963.042906",
    "longitude": "-90.0928788897258",
    "latitude": "30.025699638712737",
    "geocoded_column": {
      "latitude": "30.025699638712737",
      "longitude": "-90.0928788897258"
    }
  },
  {
    "service_request": "2022-948218",
    "request_type": "Trash/Recycling",
    "request_reason": "Missed Trash Pick-Up",
    "date_created": "2022-11-30T20:23:35.000",
    "date_modified": "2022-11-30T20:23:36.000",
    "request_status": "Pending",
    "responsible_agency": "Department of Sanitation",
    "final_address": "5450 Dauphine St",
    "address_councildis": "E",
    "status": "Assigned to Contractor",
    "contractor": "Waste Pro",
    "rowid": "948218",
    "final_x": "3697219.47453",
    "final_y": "532710.04762",
    "longitude": "-90.01839103386715",
    "latitude": "29.95828125140014",
    "geocoded_column": {
      "latitude": "29.95828125140014",
      "longitude": "-90.01839103386715"
    }
  },
  {
    "service_request": "2022-948217",
    "request_type": "Trash/Recycling",
    "request_reason": "Order Recycling Cart",
    "date_created": "2022-11-30T20:23:20.000",
    "date_modified": "2022-11-30T20:23:20.000",
    "request_status": "Pending",
    "responsible_agency": "Department of Sanitation",
    "final_address": "20 Swan St",
    "address_councildis": "D",
    "status": "Pending",
    "rowid": "948217",
    "final_x": "3673287.53422",
    "final_y": "557812.711899",
    "longitude": "-90.09310375510086",
    "latitude": "30.028038312858676",
    "geocoded_column": {
      "latitude": "30.028038312858676",
      "longitude": "-90.09310375510086"
    }
  },
  {
    "service_request": "2022-948216",
    "request_type": "Trash/Recycling",
    "request_reason": "MIssed Recycling Pick-Up",
    "date_created": "2022-11-30T20:23:06.000",
    "date_modified": "2022-11-30T20:23:07.000",
    "request_status": "Pending",
    "responsible_agency": "Department of Sanitation",
    "final_address": "2827 Saint Peter St, New Orleans, Louisiana, 70119",
    "status": "Assigned to Contractor",
    "rowid": "948216",
    "longitude": "0.0",
    "latitude": "0.0",
    "geocoded_column": {
      "latitude": "0.0",
      "longitude": "0.0"
    }
  },
  {
    "service_request": "2022-948215",
    "request_type": "Trash/Recycling",
    "request_reason": "Request a Large Item Pick Up",
    "date_created": "2022-11-30T19:54:14.000",
    "date_modified": "2022-11-30T19:54:15.000",
    "request_status": "Pending",
    "responsible_agency": "Department of Sanitation",
    "final_address": "2651 Verbena St",
    "address_councildis": "D",
    "status": "Assigned to Contractor",
    "contractor": "IV Waste",
    "rowid": "948215",
    "final_x": "3687434.60482",
    "final_y": "547863.778834",
    "longitude": "-90.04875245988464",
    "latitude": "30.000253783639614",
    "geocoded_column": {
      "latitude": "30.000253783639614",
      "longitude": "-90.04875245988464"
    }
  },
  {
    "service_request": "2022-948214",
    "request_type": "Roads/Drainage",
    "request_reason": "Pothole",
    "date_created": "2022-11-30T19:47:28.000",
    "date_modified": "2022-11-30T19:47:29.000",
    "request_status": "Pending",
    "responsible_agency": "Department of Public Works",
    "final_address": "JULIA ST & LOYOLA AVE",
    "address_councildis": "B",
    "status": "Pending",
    "rowid": "948214",
    "final_x": "3678731.4",
    "final_y": "528435.68",
    "longitude": "-90.07691935474188",
    "latitude": "29.947098607555517",
    "geocoded_column": {
      "latitude": "29.947098607555517",
      "longitude": "-90.07691935474188"
    }
  },
  {
    "service_request": "2022-948213",
    "request_type": "Trash/Recycling",
    "request_reason": "MIssed Recycling Pick-Up",
    "date_created": "2022-11-30T19:38:36.000",
    "date_modified": "2022-11-30T19:38:37.000",
    "request_status": "Pending",
    "responsible_agency": "Department of Sanitation",
    "final_address": "7032 Magazine St",
    "address_councildis": "A",
    "status": "Assigned to Contractor",
    "contractor": "Richards Disposal",
    "rowid": "948213",
    "final_x": "3661040.37139",
    "final_y": "521023.563513",
    "longitude": "-90.13302200991785",
    "latitude": "29.927239156620505",
    "geocoded_column": {
      "latitude": "29.927239156620505",
      "longitude": "-90.13302200991785"
    }
  },
  {
    "service_request": "2022-948212",
    "request_type": "Roads/Drainage",
    "request_reason": "Pothole",
    "date_created": "2022-11-30T19:37:09.000",
    "date_modified": "2022-11-30T19:37:09.000",
    "request_status": "Pending",
    "responsible_agency": "Department of Public Works",
    "final_address": "3215 Dryades St",
    "address_councildis": "B",
    "status": "Pending",
    "rowid": "948212",
    "final_x": "3674239.3323",
    "final_y": "522782.539194",
    "longitude": "-90.09129599077728",
    "latitude": "29.931688990927398",
    "geocoded_column": {
      "latitude": "29.931688990927398",
      "longitude": "-90.09129599077728"
    }
  },
  {
    "service_request": "2022-948211",
    "request_type": "Trash/Recycling",
    "request_reason": "Replace Trash Cart",
    "date_created": "2022-11-30T19:24:37.000",
    "date_modified": "2022-11-30T19:24:38.000",
    "request_status": "Pending",
    "responsible_agency": "Department of Sanitation",
    "final_address": "5521 Franklin Ave",
    "address_councildis": "D",
    "status": "Assigned to Contractor",
    "contractor": "IV Waste",
    "rowid": "948211",
    "final_x": "3686650.37609",
    "final_y": "553423.453143",
    "longitude": "-90.05103332775052",
    "latitude": "30.015565011611006",
    "geocoded_column": {
      "latitude": "30.015565011611006",
      "longitude": "-90.05103332775052"
    }
  },
  {
    "service_request": "2022-948210",
    "request_type": "Trash/Recycling",
    "request_reason": "Missed Trash Pick-Up",
    "date_created": "2022-11-30T19:22:18.000",
    "date_modified": "2022-11-30T19:22:19.000",
    "request_status": "Pending",
    "responsible_agency": "Department of Sanitation",
    "final_address": "5521 Franklin Ave",
    "address_councildis": "D",
    "status": "Assigned to Contractor",
    "contractor": "IV Waste",
    "rowid": "948210",
    "final_x": "3686650.37609",
    "final_y": "553423.453143",
    "longitude": "-90.05103332775052",
    "latitude": "30.015565011611006",
    "geocoded_column": {
      "latitude": "30.015565011611006",
      "longitude": "-90.05103332775052"
    }
  },
  {
    "service_request": "2022-948209",
    "request_type": "Trash/Recycling",
    "request_reason": "Missed Trash Pick-Up",
    "date_created": "2022-11-30T19:21:03.000",
    "date_modified": "2022-11-30T19:21:04.000",
    "request_status": "Pending",
    "responsible_agency": "Department of Sanitation",
    "final_address": "7420 Kenyon Rd",
    "address_councildis": "E",
    "status": "Assigned to Contractor",
    "contractor": "Waste Pro",
    "rowid": "948209",
    "final_x": "3704418.40164",
    "final_y": "561738.092831",
    "longitude": "-89.99458802101672",
    "latitude": "30.037868337035192",
    "geocoded_column": {
      "latitude": "30.037868337035192",
      "longitude": "-89.99458802101672"
    }
  },
  {
    "service_request": "2022-948208",
    "request_type": "Trash/Recycling",
    "request_reason": "MIssed Recycling Pick-Up",
    "date_created": "2022-11-30T19:07:33.000",
    "date_modified": "2022-11-30T19:07:35.000",
    "request_status": "Pending",
    "responsible_agency": "Department of Sanitation",
    "final_address": "1620 Fourth St",
    "address_councildis": "B",
    "status": "Assigned to Contractor",
    "contractor": "Richards Disposal",
    "rowid": "948208",
    "final_x": "3676043.77665",
    "final_y": "522866.967739",
    "longitude": "-90.08559665644712",
    "latitude": "29.931867236838222",
    "geocoded_column": {
      "latitude": "29.931867236838222",
      "longitude": "-90.08559665644712"
    }
  },
  {
    "service_request": "2022-948207",
    "request_type": "Traffic Signals/Signs/Striping/Streetlights",
    "request_reason": "Street Light Outage/Malfunction",
    "date_created": "2022-11-30T18:57:35.000",
    "date_modified": "2022-11-30T18:57:35.000",
    "request_status": "Pending",
    "responsible_agency": "Department of Public Works",
    "final_address": "4624 S Derbigny St",
    "address_councildis": "B",
    "status": "Pending",
    "contractor": "Legacy Professional Services",
    "rowid": "948207",
    "final_x": "3669327.13242",
    "final_y": "526071.327742",
    "longitude": "-90.10669215072963",
    "latitude": "29.940877595836593",
    "geocoded_column": {
      "latitude": "29.940877595836593",
      "longitude": "-90.10669215072963"
    }
  },
  {
    "service_request": "2022-948206",
    "request_type": "Trash/Recycling",
    "request_reason": "Order Trash Cart",
    "date_created": "2022-11-30T18:45:22.000",
    "date_modified": "2022-11-30T18:45:23.000",
    "request_status": "Pending",
    "responsible_agency": "Department of Sanitation",
    "final_address": "5112 Westlake Dr",
    "address_councildis": "E",
    "status": "Assigned to Contractor",
    "contractor": "Waste Pro",
    "rowid": "948206",
    "final_x": "3699419.97168",
    "final_y": "556169.77801",
    "longitude": "-90.01058734305934",
    "latitude": "30.022717246437516",
    "geocoded_column": {
      "latitude": "30.022717246437516",
      "longitude": "-90.01058734305934"
    }
  },
  {
    "service_request": "2022-948205",
    "request_type": "Trash/Recycling",
    "request_reason": "Request a Large Item Pick Up",
    "date_created": "2022-11-30T18:43:24.000",
    "date_modified": "2022-11-30T18:43:24.000",
    "request_status": "Pending",
    "responsible_agency": "Department of Sanitation",
    "final_address": "5946 Laurel St",
    "address_councildis": "A",
    "status": "Assigned to Contractor",
    "contractor": "Richards Disposal",
    "rowid": "948205",
    "final_x": "3664600.57082",
    "final_y": "518061.238454",
    "longitude": "-90.12188218321586",
    "latitude": "29.918990662923353",
    "geocoded_column": {
      "latitude": "29.918990662923353",
      "longitude": "-90.12188218321586"
    }
  },
  {
    "service_request": "2022-948204",
    "request_type": "Traffic Signals/Signs/Striping/Streetlights",
    "request_reason": "Traffic Signal Malfunctioning/Damaged",
    "date_created": "2022-11-30T18:17:31.000",
    "date_modified": "2022-11-30T18:17:31.000",
    "request_status": "Pending",
    "responsible_agency": "Department of Public Works",
    "final_address": "1111 Julia St",
    "address_councildis": "B",
    "status": "Pending",
    "rowid": "948204",
    "final_x": "3678927.67483",
    "final_y": "528452.965696",
    "longitude": "-90.07629904286273",
    "latitude": "29.947140218287814",
    "geocoded_column": {
      "latitude": "29.947140218287814",
      "longitude": "-90.07629904286273"
    }
  },
  {
    "service_request": "2022-948203",
    "request_type": "Traffic Signals/Signs/Striping/Streetlights",
    "request_reason": "Street Light Outage/Malfunction",
    "date_created": "2022-11-30T18:06:08.000",
    "date_modified": "2022-11-30T18:06:08.000",
    "request_status": "Pending",
    "responsible_agency": "Department of Public Works",
    "final_address": "2608 Clara St",
    "address_councildis": "B",
    "status": "Pending",
    "contractor": "Legacy Professional Services",
    "rowid": "948203",
    "final_x": "3674049.28424",
    "final_y": "526309.574462",
    "longitude": "-90.09177530620175",
    "latitude": "29.941392851858346",
    "geocoded_column": {
      "latitude": "29.941392851858346",
      "longitude": "-90.09177530620175"
    }
  },
  {
    "service_request": "2022-948202",
    "request_type": "Traffic Signals/Signs/Striping/Streetlights",
    "request_reason": "Street Light Outage/Malfunction",
    "date_created": "2022-11-30T18:05:43.000",
    "date_modified": "2022-11-30T18:05:44.000",
    "request_status": "Pending",
    "responsible_agency": "Department of Public Works",
    "final_address": "2608 Clara St",
    "address_councildis": "B",
    "status": "Pending",
    "contractor": "Legacy Professional Services",
    "rowid": "948202",
    "final_x": "3674049.28424",
    "final_y": "526309.574462",
    "longitude": "-90.09177530620175",
    "latitude": "29.941392851858346",
    "geocoded_column": {
      "latitude": "29.941392851858346",
      "longitude": "-90.09177530620175"
    }
  },
  {
    "service_request": "2022-948201",
    "request_type": "Roads/Drainage",
    "request_reason": "Pothole",
    "date_created": "2022-11-30T17:56:25.000",
    "date_modified": "2022-11-30T17:56:25.000",
    "request_status": "Pending",
    "responsible_agency": "Department of Public Works",
    "final_address": "6200 BLK Barrett St",
    "address_councildis": "A",
    "status": "Pending",
    "rowid": "948201",
    "final_x": "3666713.85551",
    "final_y": "526875.198006",
    "longitude": "-90.11491577311948",
    "latitude": "29.94316464522302",
    "geocoded_column": {
      "latitude": "29.94316464522302",
      "longitude": "-90.11491577311948"
    }
  },
  {
    "service_request": "2022-948200",
    "request_type": "Trash/Recycling",
    "request_reason": "Missed Trash Pick-Up",
    "date_created": "2022-11-30T17:55:19.000",
    "date_modified": "2022-11-30T17:55:20.000",
    "request_status": "Pending",
    "responsible_agency": "Department of Sanitation",
    "final_address": "1657 Valmont St",
    "address_councildis": "B",
    "status": "Assigned to Contractor",
    "contractor": "Richards Disposal",
    "rowid": "948200",
    "final_x": "3667973.22317",
    "final_y": "521710.997305",
    "longitude": "-90.11111353672626",
    "latitude": "29.92892786736696",
    "geocoded_column": {
      "latitude": "29.92892786736696",
      "longitude": "-90.11111353672626"
    }
  },
  {
    "service_request": "2022-948199",
    "request_type": "Trash/Recycling",
    "request_reason": "Order Recycling Cart",
    "date_created": "2022-11-30T17:50:40.000",
    "date_modified": "2022-11-30T17:50:40.000",
    "request_status": "Pending",
    "responsible_agency": "Department of Sanitation",
    "final_address": "4831 Chestnut Street ",
    "address_councildis": "B",
    "status": "Pending",
    "rowid": "948199",
    "final_x": "3669268.57076",
    "final_y": "519394.112375",
    "longitude": "-90.10710264277215",
    "latitude": "29.922519114877904",
    "geocoded_column": {
      "latitude": "29.922519114877904",
      "longitude": "-90.10710264277215"
    }
  },
  {
    "service_request": "2022-948198",
    "request_type": "Abandoned Vehicles",
    "request_reason": "Abandoned/Junk Vehicles",
    "date_created": "2022-11-30T17:46:52.000",
    "date_modified": "2022-11-30T17:46:52.000",
    "request_status": "Pending",
    "responsible_agency": "Department of Public Works",
    "final_address": "6045 Pines Blvd",
    "address_councildis": "D",
    "status": "Pending",
    "rowid": "948198",
    "final_x": "3696148.54659",
    "final_y": "556164.707098",
    "longitude": "-90.0209244177289",
    "latitude": "30.02280673734054",
    "geocoded_column": {
      "latitude": "30.02280673734054",
      "longitude": "-90.0209244177289"
    }
  },
  {
    "service_request": "2022-948197",
    "request_type": "Trash/Recycling",
    "request_reason": "Order Recycling Cart",
    "date_created": "2022-11-30T17:46:05.000",
    "date_modified": "2022-11-30T17:46:05.000",
    "request_status": "Pending",
    "responsible_agency": "Department of Sanitation",
    "final_address": "3218 Dumaine St",
    "address_councildis": "A",
    "status": "Pending",
    "rowid": "948197",
    "final_x": "3675256.05307",
    "final_y": "538933.79361",
    "longitude": "-90.0875319570536",
    "latitude": "29.97606921398905",
    "geocoded_column": {
      "latitude": "29.97606921398905",
      "longitude": "-90.0875319570536"
    }
  },
  {
    "service_request": "2022-948196",
    "request_type": "Abandoned Vehicles",
    "request_reason": "Abandoned/Junk Vehicles",
    "date_created": "2022-11-30T17:45:43.000",
    "date_modified": "2022-11-30T17:45:44.000",
    "request_status": "Pending",
    "responsible_agency": "Department of Public Works",
    "final_address": "3212 Castiglione St",
    "address_councildis": "A",
    "status": "Pending",
    "rowid": "948196",
    "final_x": "3678029.23285",
    "final_y": "542681.620557",
    "longitude": "-90.07864383369272",
    "latitude": "29.98629124376067",
    "geocoded_column": {
      "latitude": "29.98629124376067",
      "longitude": "-90.07864383369272"
    }
  },
  {
    "service_request": "2022-948195",
    "request_type": "Abandoned Vehicles",
    "request_reason": "Abandoned/Junk Vehicles",
    "date_created": "2022-11-30T17:41:02.000",
    "date_modified": "2022-11-30T17:47:23.000",
    "request_status": "Pending",
    "responsible_agency": "Department of Public Works",
    "final_address": "1615 Columbus St",
    "address_councildis": "D",
    "status": "Pending",
    "rowid": "948195",
    "final_x": "3681587.1318",
    "final_y": "537336.94068",
    "longitude": "-90.06759229286875",
    "latitude": "29.971487632980033",
    "geocoded_column": {
      "latitude": "29.971487632980033",
      "longitude": "-90.06759229286875"
    }
  },
  {
    "service_request": "2022-948194",
    "request_type": "Trash/Recycling",
    "request_reason": "Missed Trash Pick-Up",
    "date_created": "2022-11-30T17:39:02.000",
    "date_modified": "2022-11-30T17:39:02.000",
    "request_status": "Pending",
    "responsible_agency": "Department of Sanitation",
    "final_address": "604 S Cortez St",
    "address_councildis": "B",
    "status": "Assigned to Contractor",
    "contractor": "Richards Disposal",
    "rowid": "948194",
    "final_x": "3670874.32475",
    "final_y": "535957.501191",
    "longitude": "-90.10147182176344",
    "latitude": "29.968015677797634",
    "geocoded_column": {
      "latitude": "29.968015677797634",
      "longitude": "-90.10147182176344"
    }
  },
  {
    "service_request": "2022-948193",
    "request_type": "Trash/Recycling",
    "request_reason": "Illegal Dumping",
    "date_created": "2022-11-30T17:36:19.000",
    "date_modified": "2022-11-30T17:36:20.000",
    "request_status": "Pending",
    "responsible_agency": "Department of Sanitation",
    "final_address": "6600 Plaza Dr",
    "address_councildis": "E",
    "status": "Pending",
    "rowid": "948193",
    "final_x": "3708850.27352",
    "final_y": "559325.824029",
    "longitude": "-89.98067232855801",
    "latitude": "30.03109243247626",
    "geocoded_column": {
      "latitude": "30.03109243247626",
      "longitude": "-89.98067232855801"
    }
  },
  {
    "service_request": "2022-948192",
    "request_type": "Roads/Drainage",
    "request_reason": "Pothole",
    "date_created": "2022-11-30T17:34:58.000",
    "date_modified": "2022-11-30T17:34:58.000",
    "request_status": "Pending",
    "responsible_agency": "Department of Public Works",
    "final_address": "7252 Lakeshore Dr",
    "address_councildis": "D",
    "status": "Pending",
    "rowid": "948192",
    "final_x": "3666800.08052",
    "final_y": "555252.519961",
    "longitude": "-90.11368988696351",
    "latitude": "30.021190175136482",
    "geocoded_column": {
      "latitude": "30.021190175136482",
      "longitude": "-90.11368988696351"
    }
  },
  {
    "service_request": "2022-948191",
    "request_type": "Trash/Recycling",
    "request_reason": "MIssed Recycling Pick-Up",
    "date_created": "2022-11-30T17:33:20.000",
    "date_modified": "2022-11-30T17:33:21.000",
    "request_status": "Pending",
    "responsible_agency": "Department of Sanitation",
    "final_address": "2233 Washington Ave",
    "address_councildis": "B",
    "status": "Assigned to Contractor",
    "contractor": "Richards Disposal",
    "rowid": "948191",
    "final_x": "3674625.65736",
    "final_y": "524567.716476",
    "longitude": "-90.09001525431059",
    "latitude": "29.936586127445302",
    "geocoded_column": {
      "latitude": "29.936586127445302",
      "longitude": "-90.09001525431059"
    }
  },
  {
    "service_request": "2022-948190",
    "request_type": "Trash/Recycling",
    "request_reason": "Illegal Dumping",
    "date_created": "2022-11-30T17:27:22.000",
    "date_modified": "2022-11-30T17:27:22.000",
    "request_status": "Pending",
    "responsible_agency": "Department of Sanitation",
    "final_address": "5631 Cartier Ave",
    "address_councildis": "D",
    "status": "Pending",
    "rowid": "948190",
    "final_x": "3677654.46613",
    "final_y": "552910.297623",
    "longitude": "-90.07947403599613",
    "latitude": "30.01442776364006",
    "geocoded_column": {
      "latitude": "30.01442776364006",
      "longitude": "-90.07947403599613"
    }
  },
  {
    "service_request": "2022-948189",
    "request_type": "Trash/Recycling",
    "request_reason": "Order Recycling Cart",
    "date_created": "2022-11-30T17:24:25.000",
    "date_modified": "2022-11-30T17:24:25.000",
    "request_status": "Pending",
    "responsible_agency": "Department of Sanitation",
    "final_address": "1020 Josephine St Unit A",
    "address_councildis": "B",
    "status": "Pending",
    "rowid": "948189",
    "final_x": "3679243.05941",
    "final_y": "522142.905786",
    "longitude": "-90.07552195645079",
    "latitude": "29.929780123573916",
    "geocoded_column": {
      "latitude": "29.929780123573916",
      "longitude": "-90.07552195645079"
    }
  },
  {
    "service_request": "2022-948188",
    "request_type": "Trash/Recycling",
    "request_reason": "Missed Trash Pick-Up",
    "date_created": "2022-11-30T17:21:51.000",
    "date_modified": "2022-11-30T17:21:51.000",
    "request_status": "Pending",
    "responsible_agency": "Department of Sanitation",
    "final_address": "66 Yosemite Dr",
    "address_councildis": "C",
    "status": "Assigned to Contractor",
    "contractor": "Richards Disposal",
    "rowid": "948188",
    "final_x": "3699591.65975",
    "final_y": "516291.505204",
    "longitude": "-90.01149844802671",
    "latitude": "29.913060893703026",
    "geocoded_column": {
      "latitude": "29.913060893703026",
      "longitude": "-90.01149844802671"
    }
  },
  {
    "service_request": "2022-948187",
    "request_type": "Trash/Recycling",
    "request_reason": "Missed Trash Pick-Up",
    "date_created": "2022-11-30T17:18:21.000",
    "date_modified": "2022-11-30T17:18:22.000",
    "request_status": "Pending",
    "responsible_agency": "Department of Sanitation",
    "final_address": "7331 Green St",
    "address_councildis": "A",
    "status": "Assigned to Contractor",
    "contractor": "Richards Disposal",
    "rowid": "948187",
    "final_x": "3664737.87367",
    "final_y": "528326.58528",
    "longitude": "-90.12110598923134",
    "latitude": "29.94721312018874",
    "geocoded_column": {
      "latitude": "29.94721312018874",
      "longitude": "-90.12110598923134"
    }
  },
  {
    "service_request": "2022-948186",
    "request_type": "Trash/Recycling",
    "request_reason": "Order Recycling Cart",
    "date_created": "2022-11-30T17:14:04.000",
    "date_modified": "2022-11-30T17:14:04.000",
    "request_status": "Pending",
    "responsible_agency": "Department of Sanitation",
    "final_address": "1527 Mandeville St",
    "address_councildis": "C",
    "status": "Pending",
    "rowid": "948186",
    "final_x": "3685671.97007",
    "final_y": "538065.227209",
    "longitude": "-90.05466613618654",
    "latitude": "29.973365462342976",
    "geocoded_column": {
      "latitude": "29.973365462342976",
      "longitude": "-90.05466613618654"
    }
  },
  {
    "service_request": "2022-948185",
    "request_type": "Trash/Recycling",
    "request_reason": "Request a Large Item Pick Up",
    "date_created": "2022-11-30T17:13:23.000",
    "date_modified": "2022-11-30T17:13:23.000",
    "request_status": "Pending",
    "responsible_agency": "Department of Sanitation",
    "final_address": "1527 Mandeville St",
    "address_councildis": "C",
    "status": "Assigned to Contractor",
    "contractor": "IV Waste",
    "rowid": "948185",
    "final_x": "3685671.97007",
    "final_y": "538065.227209",
    "longitude": "-90.05466613618654",
    "latitude": "29.973365462342976",
    "geocoded_column": {
      "latitude": "29.973365462342976",
      "longitude": "-90.05466613618654"
    }
  },
  {
    "service_request": "2022-948183",
    "request_type": "Trash/Recycling",
    "request_reason": "Missed Trash Pick-Up",
    "date_created": "2022-11-30T17:09:38.000",
    "date_modified": "2022-11-30T17:09:39.000",
    "request_status": "Pending",
    "responsible_agency": "Department of Sanitation",
    "final_address": "417 Audubon Blvd",
    "address_councildis": "B",
    "status": "Assigned to Contractor",
    "contractor": "Richards Disposal",
    "rowid": "948183",
    "final_x": "3667485.91444",
    "final_y": "530330.48877",
    "longitude": "-90.11236193645047",
    "latitude": "29.952642976675925",
    "geocoded_column": {
      "latitude": "29.952642976675925",
      "longitude": "-90.11236193645047"
    }
  },
  {
    "service_request": "2022-948182",
    "request_type": "Traffic Signals/Signs/Striping/Streetlights",
    "request_reason": "Street Light Outage/Malfunction",
    "date_created": "2022-11-30T17:09:12.000",
    "date_modified": "2022-11-30T17:09:13.000",
    "request_status": "Pending",
    "responsible_agency": "Department of Public Works",
    "final_address": "1121 Napoleon Ave",
    "address_councildis": "B",
    "status": "Pending",
    "contractor": "Legacy Professional Services",
    "rowid": "948182",
    "final_x": "3671075.1227",
    "final_y": "519700.972216",
    "longitude": "-90.10138965855998",
    "latitude": "29.923309598700477",
    "geocoded_column": {
      "latitude": "29.923309598700477",
      "longitude": "-90.10138965855998"
    }
  },
  {
    "service_request": "2022-948181",
    "request_type": "Trash/Recycling",
    "request_reason": "Missed Trash Pick-Up",
    "date_created": "2022-11-30T17:05:22.000",
    "date_modified": "2022-11-30T17:05:22.000",
    "request_status": "Pending",
    "responsible_agency": "Department of Sanitation",
    "final_address": "1831 Bordeaux St",
    "address_councildis": "B",
    "status": "Assigned to Contractor",
    "contractor": "Richards Disposal",
    "rowid": "948181",
    "final_x": "3669331.87892",
    "final_y": "521703.529722",
    "longitude": "-90.10682477262996",
    "latitude": "29.928867415105458",
    "geocoded_column": {
      "latitude": "29.928867415105458",
      "longitude": "-90.10682477262996"
    }
  },
  {
    "service_request": "2022-948180",
    "request_type": "Trash/Recycling",
    "request_reason": "Missed Trash Pick-Up",
    "date_created": "2022-11-30T16:55:55.000",
    "date_modified": "2022-11-30T16:55:56.000",
    "request_status": "Pending",
    "responsible_agency": "Department of Sanitation",
    "final_address": "4526 Longfellow Dr",
    "address_councildis": "E",
    "status": "Assigned to Contractor",
    "contractor": "Waste Pro",
    "rowid": "948180",
    "final_x": "3709674.04939",
    "final_y": "554628.660696",
    "longitude": "-89.97824473131585",
    "latitude": "30.018150309858115",
    "geocoded_column": {
      "latitude": "30.018150309858115",
      "longitude": "-89.97824473131585"
    }
  },
  {
    "service_request": "2022-948179",
    "request_type": "Traffic Signals/Signs/Striping/Streetlights",
    "request_reason": "Street Light Outage/Malfunction",
    "date_created": "2022-11-30T16:53:33.000",
    "date_modified": "2022-11-30T16:53:34.000",
    "request_status": "Pending",
    "responsible_agency": "Department of Public Works",
    "final_address": "1023 Valence St",
    "address_councildis": "B",
    "status": "Pending",
    "contractor": "Legacy Professional Services",
    "rowid": "948179",
    "final_x": "3669938.84999",
    "final_y": "519253.164791",
    "longitude": "-90.10499160510983",
    "latitude": "29.922111813156572",
    "geocoded_column": {
      "latitude": "29.922111813156572",
      "longitude": "-90.10499160510983"
    }
  },
  {
    "service_request": "2022-948177",
    "request_type": "Trash/Recycling",
    "request_reason": "Repair Trash Cart",
    "date_created": "2022-11-30T16:42:33.000",
    "date_modified": "2022-11-30T16:42:34.000",
    "request_status": "Pending",
    "responsible_agency": "Department of Sanitation",
    "final_address": "1635 Arts St",
    "address_councildis": "D",
    "status": "Assigned to Contractor",
    "contractor": "IV Waste",
    "rowid": "948177",
    "final_x": "3687076.78799",
    "final_y": "538594.835913",
    "longitude": "-90.05021071323611",
    "latitude": "29.974778520207266",
    "geocoded_column": {
      "latitude": "29.974778520207266",
      "longitude": "-90.05021071323611"
    }
  },
  {
    "service_request": "2022-948176",
    "request_type": "Trash/Recycling",
    "request_reason": "Repair Trash Cart",
    "date_created": "2022-11-30T16:41:56.000",
    "date_modified": "2022-11-30T16:41:57.000",
    "request_status": "Pending",
    "responsible_agency": "Department of Sanitation",
    "final_address": "8922 Dinkins St",
    "address_councildis": "E",
    "status": "Assigned to Contractor",
    "contractor": "Waste Pro",
    "rowid": "948176",
    "final_x": "3704873.78065",
    "final_y": "563444.16368",
    "longitude": "-89.99308585829084",
    "latitude": "30.0425447214048",
    "geocoded_column": {
      "latitude": "30.0425447214048",
      "longitude": "-89.99308585829084"
    }
  },
  {
    "service_request": "2022-948175",
    "request_type": "Trash/Recycling",
    "request_reason": "Request a Large Item Pick Up",
    "date_created": "2022-11-30T16:41:42.000",
    "date_modified": "2022-11-30T16:41:43.000",
    "request_status": "Pending",
    "responsible_agency": "Department of Sanitation",
    "final_address": "1415 Adams St",
    "address_councildis": "A",
    "status": "Assigned to Contractor",
    "contractor": "Richards Disposal",
    "rowid": "948175",
    "final_x": "3663657.68743",
    "final_y": "527976.302143",
    "longitude": "-90.12452822859676",
    "latitude": "29.94628133224462",
    "geocoded_column": {
      "latitude": "29.94628133224462",
      "longitude": "-90.12452822859676"
    }
  },
  {
    "service_request": "2022-948174",
    "request_type": "Trash/Recycling",
    "request_reason": "Illegal Dumping",
    "date_created": "2022-11-30T16:41:22.000",
    "date_modified": "2022-11-30T16:41:22.000",
    "request_status": "Pending",
    "responsible_agency": "Department of Sanitation",
    "final_address": "3667 Annunciation St",
    "address_councildis": "B",
    "status": "Pending",
    "rowid": "948174",
    "final_x": "3673936.237",
    "final_y": "518162.914998",
    "longitude": "-90.09241076777849",
    "latitude": "29.918995540614098",
    "geocoded_column": {
      "latitude": "29.918995540614098",
      "longitude": "-90.09241076777849"
    }
  },
  {
    "service_request": "2022-948173",
    "request_type": "Trash/Recycling",
    "request_reason": "Replace Trash Cart",
    "date_created": "2022-11-30T16:41:08.000",
    "date_modified": "2022-11-30T16:41:09.000",
    "request_status": "Pending",
    "responsible_agency": "Department of Sanitation",
    "final_address": "8953 Dinkins St",
    "address_councildis": "E",
    "status": "Assigned to Contractor",
    "contractor": "Waste Pro",
    "rowid": "948173",
    "final_x": "3704992.66692",
    "final_y": "563654.651937",
    "longitude": "-89.99270235043876",
    "latitude": "30.043119656680545",
    "geocoded_column": {
      "latitude": "30.043119656680545",
      "longitude": "-89.99270235043876"
    }
  },
  {
    "service_request": "2022-948172",
    "request_type": "Trash/Recycling",
    "request_reason": "MIssed Recycling Pick-Up",
    "date_created": "2022-11-30T16:38:05.000",
    "date_modified": "2022-11-30T16:38:05.000",
    "request_status": "Pending",
    "responsible_agency": "Department of Sanitation",
    "final_address": "1134 Terpsichore St, New Orleans, Louisiana, 70130",
    "status": "Assigned to Contractor",
    "rowid": "948172",
    "longitude": "0.0",
    "latitude": "0.0",
    "geocoded_column": {
      "latitude": "0.0",
      "longitude": "0.0"
    }
  },
  {
    "service_request": "2022-948171",
    "request_type": "Trash/Recycling",
    "request_reason": "MIssed Recycling Pick-Up",
    "date_created": "2022-11-30T16:37:16.000",
    "date_modified": "2022-11-30T16:37:17.000",
    "request_status": "Pending",
    "responsible_agency": "Department of Sanitation",
    "final_address": "917 Thalia St",
    "address_councildis": "B",
    "status": "Assigned to Contractor",
    "contractor": "Richards Disposal",
    "rowid": "948171",
    "final_x": "3681183.92591",
    "final_y": "525116.528957",
    "longitude": "-90.06929142583014",
    "latitude": "29.937897878712683",
    "geocoded_column": {
      "latitude": "29.937897878712683",
      "longitude": "-90.06929142583014"
    }
  },
  {
    "service_request": "2022-948170",
    "request_type": "Trash/Recycling",
    "request_reason": "Replace Trash Cart",
    "date_created": "2022-11-30T16:36:50.000",
    "date_modified": "2022-11-30T16:36:50.000",
    "request_status": "Pending",
    "responsible_agency": "Department of Sanitation",
    "final_address": "4724 Marigny St",
    "address_councildis": "D",
    "status": "Assigned to Contractor",
    "contractor": "IV Waste",
    "rowid": "948170",
    "final_x": "3684330.85487",
    "final_y": "550294.935764",
    "longitude": "-90.05847191728496",
    "latitude": "30.007033898044526",
    "geocoded_column": {
      "latitude": "30.007033898044526",
      "longitude": "-90.05847191728496"
    }
  },
  {
    "service_request": "2022-948169",
    "request_type": "Trash/Recycling",
    "request_reason": "Order Recycling Cart",
    "date_created": "2022-11-30T16:35:33.000",
    "date_modified": "2022-11-30T16:35:34.000",
    "request_status": "Pending",
    "responsible_agency": "Department of Sanitation",
    "final_address": "7109 Warfield St",
    "address_councildis": "E",
    "status": "Pending",
    "rowid": "948169",
    "final_x": "3701464.9073",
    "final_y": "553139.451479",
    "longitude": "-90.00423692970146",
    "latitude": "30.01431993846624",
    "geocoded_column": {
      "latitude": "30.01431993846624",
      "longitude": "-90.00423692970146"
    }
  },
  {
    "service_request": "2022-948168",
    "request_type": "Trash/Recycling",
    "request_reason": "Return Trash Cart",
    "date_created": "2022-11-30T16:28:12.000",
    "date_modified": "2022-11-30T16:28:12.000",
    "request_status": "Pending",
    "responsible_agency": "Department of Sanitation",
    "final_address": "6220 Perlita Dr",
    "address_councildis": "D",
    "status": "Assigned to Contractor",
    "contractor": "IV Waste",
    "rowid": "948168",
    "final_x": "3678314.74446",
    "final_y": "555782.854169",
    "longitude": "-90.07728839474832",
    "latitude": "30.022306370456608",
    "geocoded_column": {
      "latitude": "30.022306370456608",
      "longitude": "-90.07728839474832"
    }
  },
  {
    "service_request": "2022-948166",
    "request_type": "Trash/Recycling",
    "request_reason": "Missed Trash Pick-Up",
    "date_created": "2022-11-30T16:23:26.000",
    "date_modified": "2022-11-30T16:23:27.000",
    "request_status": "Pending",
    "responsible_agency": "Department of Sanitation",
    "final_address": "7460 Pitt St",
    "address_councildis": "A",
    "status": "Assigned to Contractor",
    "contractor": "Richards Disposal",
    "rowid": "948166",
    "final_x": "3660922.05862",
    "final_y": "523701.307835",
    "longitude": "-90.13330696822223",
    "latitude": "29.934605522307432",
    "geocoded_column": {
      "latitude": "29.934605522307432",
      "longitude": "-90.13330696822223"
    }
  },
  {
    "service_request": "2022-948165",
    "request_type": "Trash/Recycling",
    "request_reason": "Replace Trash Cart",
    "date_created": "2022-11-30T16:22:05.000",
    "date_modified": "2022-11-30T16:22:06.000",
    "request_status": "Pending",
    "responsible_agency": "Department of Sanitation",
    "final_address": "850 Allen Toussaint Blvd",
    "address_councildis": "A",
    "status": "Assigned to Contractor",
    "contractor": "IV Waste",
    "rowid": "948165",
    "final_x": "3670382.73524",
    "final_y": "554448.036056",
    "longitude": "-90.10239697871843",
    "latitude": "30.018872789422584",
    "geocoded_column": {
      "latitude": "30.018872789422584",
      "longitude": "-90.10239697871843"
    }
  },
  {
    "service_request": "2022-948164",
    "request_type": "Trash/Recycling",
    "request_reason": "Request a Large Item Pick Up",
    "date_created": "2022-11-30T16:21:31.000",
    "date_modified": "2022-11-30T16:21:32.000",
    "request_status": "Pending",
    "responsible_agency": "Department of Sanitation",
    "final_address": "7010 Yorktown Dr",
    "address_councildis": "E",
    "status": "Assigned to Contractor",
    "contractor": "Waste Pro",
    "rowid": "948164",
    "final_x": "3706156.89367",
    "final_y": "560432.625054",
    "longitude": "-89.9891423981772",
    "latitude": "30.034222850856192",
    "geocoded_column": {
      "latitude": "30.034222850856192",
      "longitude": "-89.9891423981772"
    }
  },
  {
    "service_request": "2022-948163",
    "request_type": "Trash/Recycling",
    "request_reason": "Request a Large Item Pick Up",
    "date_created": "2022-11-30T16:19:47.000",
    "date_modified": "2022-11-30T16:19:48.000",
    "request_status": "Pending",
    "responsible_agency": "Department of Sanitation",
    "final_address": "4014 N Villere St",
    "address_councildis": "D",
    "status": "Assigned to Contractor",
    "contractor": "IV Waste",
    "rowid": "948163",
    "final_x": "3692183.49053",
    "final_y": "536331.871943",
    "longitude": "-90.03416356701547",
    "latitude": "29.968397943291365",
    "geocoded_column": {
      "latitude": "29.968397943291365",
      "longitude": "-90.03416356701547"
    }
  },
  {
    "service_request": "2022-948162",
    "request_type": "Trash/Recycling",
    "request_reason": "Repair Trash Cart",
    "date_created": "2022-11-30T16:18:20.000",
    "date_modified": "2022-11-30T16:18:21.000",
    "request_status": "Pending",
    "responsible_agency": "Department of Sanitation",
    "final_address": "3108 Rabbits St",
    "address_councildis": "D",
    "status": "Assigned to Contractor",
    "contractor": "IV Waste",
    "rowid": "948162",
    "final_x": "3688313.68655",
    "final_y": "544453.024847",
    "longitude": "-90.0460964421162",
    "latitude": "29.990848313340866",
    "geocoded_column": {
      "latitude": "29.990848313340866",
      "longitude": "-90.0460964421162"
    }
  },
  {
    "service_request": "2022-948161",
    "request_type": "Trash/Recycling",
    "request_reason": "Request a Large Item Pick Up",
    "date_created": "2022-11-30T16:17:36.000",
    "date_modified": "2022-11-30T16:44:01.000",
    "request_status": "Pending",
    "responsible_agency": "Department of Sanitation",
    "final_address": "4014 N Villere St, New Orleans LA 70117",
    "address_councildis": "D",
    "status": "Assigned to Contractor",
    "contractor": "IV Waste",
    "rowid": "948161",
    "final_x": "3692183.49053",
    "final_y": "536331.871943",
    "longitude": "-90.03416356701547",
    "latitude": "29.968397943291365",
    "geocoded_column": {
      "latitude": "29.968397943291365",
      "longitude": "-90.03416356701547"
    }
  },
  {
    "service_request": "2022-948160",
    "request_type": "Trash/Recycling",
    "request_reason": "Missed Trash Pick-Up",
    "date_created": "2022-11-30T16:17:21.000",
    "date_modified": "2022-11-30T16:17:21.000",
    "request_status": "Pending",
    "responsible_agency": "Department of Sanitation",
    "final_address": "5771 Eastover Dr",
    "address_councildis": "E",
    "status": "Assigned to Contractor",
    "contractor": "Waste Pro",
    "rowid": "948160",
    "final_x": "3719241.40601",
    "final_y": "563600.057633",
    "longitude": "-89.94767308271507",
    "latitude": "30.042503457605093",
    "geocoded_column": {
      "latitude": "30.042503457605093",
      "longitude": "-89.94767308271507"
    }
  },
  {
    "service_request": "2022-948159",
    "request_type": "Trash/Recycling",
    "request_reason": "Missed Trash Pick-Up",
    "date_created": "2022-11-30T16:17:10.000",
    "date_modified": "2022-11-30T16:17:11.000",
    "request_status": "Pending",
    "responsible_agency": "Department of Sanitation",
    "final_address": "4917 Loyola Ave",
    "address_councildis": "B",
    "status": "Assigned to Contractor",
    "contractor": "Richards Disposal",
    "rowid": "948159",
    "final_x": "3668963.99751",
    "final_y": "522892.146939",
    "longitude": "-90.10794597616088",
    "latitude": "29.93214655531058",
    "geocoded_column": {
      "latitude": "29.93214655531058",
      "longitude": "-90.10794597616088"
    }
  },
  {
    "service_request": "2022-948158",
    "request_type": "Trash/Recycling",
    "request_reason": "Missed Trash Pick-Up",
    "date_created": "2022-11-30T16:14:10.000",
    "date_modified": "2022-11-30T16:39:08.000",
    "request_status": "Pending",
    "responsible_agency": "Department of Sanitation",
    "final_address": "4724 Marigny St",
    "address_councildis": "D",
    "status": "Assigned to Contractor",
    "contractor": "IV Waste",
    "rowid": "948158",
    "final_x": "3684330.85487",
    "final_y": "550294.935764",
    "longitude": "-90.05847191728496",
    "latitude": "30.007033898044526",
    "geocoded_column": {
      "latitude": "30.007033898044526",
      "longitude": "-90.05847191728496"
    }
  },
  {
    "service_request": "2022-948157",
    "request_type": "Trash/Recycling",
    "request_reason": "Order Recycling Cart",
    "date_created": "2022-11-30T16:13:57.000",
    "date_modified": "2022-11-30T16:14:20.000",
    "request_status": "Pending",
    "responsible_agency": "Department of Sanitation",
    "final_address": "6426 Bellaire Dr",
    "address_councildis": "A",
    "status": "Pending",
    "rowid": "948157",
    "final_x": "3664390.03239",
    "final_y": "550731.124693",
    "longitude": "-90.12145609484742",
    "latitude": "30.00882823350069",
    "geocoded_column": {
      "latitude": "30.00882823350069",
      "longitude": "-90.12145609484742"
    }
  },
  {
    "service_request": "2022-948156",
    "request_type": "Trash/Recycling",
    "request_reason": "Repair Trash Cart",
    "date_created": "2022-11-30T16:13:13.000",
    "date_modified": "2022-11-30T16:13:13.000",
    "request_status": "Pending",
    "responsible_agency": "Department of Sanitation",
    "final_address": "2912 Philip St",
    "address_councildis": "B",
    "status": "Assigned to Contractor",
    "contractor": "Richards Disposal",
    "rowid": "948156",
    "final_x": "3674506.95681",
    "final_y": "527258.775743",
    "longitude": "-90.09029783303268",
    "latitude": "29.94398919996374",
    "geocoded_column": {
      "latitude": "29.94398919996374",
      "longitude": "-90.09029783303268"
    }
  },
  {
    "service_request": "2022-948155",
    "request_type": "Trash/Recycling",
    "request_reason": "Order Trash Cart",
    "date_created": "2022-11-30T16:12:23.000",
    "date_modified": "2022-11-30T16:12:23.000",
    "request_status": "Pending",
    "responsible_agency": "Department of Sanitation",
    "final_address": "3531 Toledano St",
    "address_councildis": "B",
    "status": "Assigned to Contractor",
    "contractor": "Richards Disposal",
    "rowid": "948155",
    "final_x": "3671803.01499",
    "final_y": "528510.50592",
    "longitude": "-90.09879236226688",
    "latitude": "29.947511427257623",
    "geocoded_column": {
      "latitude": "29.947511427257623",
      "longitude": "-90.09879236226688"
    }
  },
  {
    "service_request": "2022-948154",
    "request_type": "Mosquito, Termite & Rodent Control",
    "request_reason": "Non-Rodent Complaint (Mice, Possums, Snakes)",
    "date_created": "2022-11-30T16:11:10.000",
    "date_modified": "2022-11-30T16:11:11.000",
    "request_status": "Pending",
    "responsible_agency": "Mosquito, Termite & Rodent Control Board",
    "final_address": "6100 BLK Painters St",
    "address_councildis": "D",
    "status": "Pending",
    "rowid": "948154",
    "final_x": "3686017.73521",
    "final_y": "555722.515967",
    "longitude": "-90.05295100983109",
    "latitude": "30.021906038235528",
    "geocoded_column": {
      "latitude": "30.021906038235528",
      "longitude": "-90.05295100983109"
    }
  },
  {
    "service_request": "2022-948153",
    "request_type": "Abandoned Vehicles",
    "request_reason": "Abandoned/Junk Vehicles",
    "date_created": "2022-11-30T16:09:53.000",
    "date_modified": "2022-11-30T16:09:53.000",
    "request_status": "Pending",
    "responsible_agency": "Department of Public Works",
    "final_address": "1817 Coliseum St",
    "address_councildis": "B",
    "status": "Pending",
    "rowid": "948153",
    "final_x": "3679136.50344",
    "final_y": "523690.825595",
    "longitude": "-90.07580470700188",
    "latitude": "29.934039610678546",
    "geocoded_column": {
      "latitude": "29.934039610678546",
      "longitude": "-90.07580470700188"
    }
  },
  {
    "service_request": "2022-948152",
    "request_type": "Trash/Recycling",
    "request_reason": "MIssed Recycling Pick-Up",
    "date_created": "2022-11-30T16:01:20.000",
    "date_modified": "2022-11-30T16:01:20.000",
    "request_status": "Pending",
    "responsible_agency": "Department of Sanitation",
    "final_address": "1127 Terpsichore St",
    "address_councildis": "B",
    "status": "Assigned to Contractor",
    "contractor": "Richards Disposal",
    "rowid": "948152",
    "final_x": "3680179.80411",
    "final_y": "524617.095164",
    "longitude": "-90.07247887116023",
    "latitude": "29.93655502115556",
    "geocoded_column": {
      "latitude": "29.93655502115556",
      "longitude": "-90.07247887116023"
    }
  },
  {
    "service_request": "2022-948151",
    "request_type": "Abandoned Vehicles",
    "request_reason": "Abandoned/Junk Vehicles",
    "date_created": "2022-11-30T16:00:25.000",
    "date_modified": "2022-11-30T16:00:25.000",
    "request_status": "Pending",
    "responsible_agency": "Department of Public Works",
    "final_address": "3420 Banks St",
    "address_councildis": "B",
    "status": "Pending",
    "rowid": "948151",
    "final_x": "3672229.77934",
    "final_y": "535879.539079",
    "longitude": "-90.09719389437831",
    "latitude": "29.967761170211716",
    "geocoded_column": {
      "latitude": "29.967761170211716",
      "longitude": "-90.09719389437831"
    }
  },
  {
    "service_request": "2022-948150",
    "request_type": "Trash/Recycling",
    "request_reason": "Change Size of Trash Cart",
    "date_created": "2022-11-30T15:57:25.000",
    "date_modified": "2022-11-30T15:57:25.000",
    "request_status": "Pending",
    "responsible_agency": "Department of Sanitation",
    "final_address": "3925 N Robertson St",
    "address_councildis": "D",
    "status": "Assigned to Contractor",
    "contractor": "IV Waste",
    "rowid": "948150",
    "final_x": "3692072.93385",
    "final_y": "536859.147656",
    "longitude": "-90.03449383394297",
    "latitude": "29.969851211436826",
    "geocoded_column": {
      "latitude": "29.969851211436826",
      "longitude": "-90.03449383394297"
    }
  },
  {
    "service_request": "2022-948149",
    "request_type": "Trash/Recycling",
    "request_reason": "Repair Trash Cart",
    "date_created": "2022-11-30T15:55:43.000",
    "date_modified": "2022-11-30T15:55:43.000",
    "request_status": "Pending",
    "responsible_agency": "Department of Sanitation",
    "final_address": "3923 N Robertson St",
    "address_councildis": "D",
    "status": "Assigned to Contractor",
    "contractor": "IV Waste",
    "rowid": "948149",
    "final_x": "3692053.66301",
    "final_y": "536864.35604",
    "longitude": "-90.0345545063906",
    "latitude": "29.969866133271026",
    "geocoded_column": {
      "latitude": "29.969866133271026",
      "longitude": "-90.0345545063906"
    }
  },
  {
    "service_request": "2022-948148",
    "request_type": "Trash/Recycling",
    "request_reason": "Repair Trash Cart",
    "date_created": "2022-11-30T15:47:02.000",
    "date_modified": "2022-11-30T15:47:02.000",
    "request_status": "Pending",
    "responsible_agency": "Department of Sanitation",
    "final_address": "2217 Piety St",
    "address_councildis": "D",
    "status": "Assigned to Contractor",
    "contractor": "IV Waste",
    "rowid": "948148",
    "final_x": "3690950.24156",
    "final_y": "540076.542539",
    "longitude": "-90.03792451779246",
    "latitude": "29.978732851314355",
    "geocoded_column": {
      "latitude": "29.978732851314355",
      "longitude": "-90.03792451779246"
    }
  },
  {
    "service_request": "2022-948147",
    "request_type": "Traffic Signals/Signs/Striping/Streetlights",
    "request_reason": "Street Light Outage/Malfunction",
    "date_created": "2022-11-30T15:46:07.000",
    "date_modified": "2022-11-30T15:46:07.000",
    "request_status": "Pending",
    "responsible_agency": "Department of Public Works",
    "final_address": "300 N Peters St",
    "address_councildis": "C",
    "status": "Pending",
    "contractor": "Legacy Professional Services",
    "rowid": "948147",
    "final_x": "3682536.27413",
    "final_y": "530753.75597",
    "longitude": "-90.06482492974334",
    "latitude": "29.953357267436406",
    "geocoded_column": {
      "latitude": "29.953357267436406",
      "longitude": "-90.06482492974334"
    }
  },
  {
    "service_request": "2022-948146",
    "request_type": "Trash/Recycling",
    "request_reason": "Missed Trash Pick-Up",
    "date_created": "2022-11-30T15:45:26.000",
    "date_modified": "2022-11-30T15:45:27.000",
    "request_status": "Pending",
    "responsible_agency": "Department of Sanitation",
    "final_address": "525 Delacroix Rd",
    "address_councildis": "C",
    "status": "Assigned to Contractor",
    "contractor": "Richards Disposal",
    "rowid": "948146",
    "final_x": "3724485.89062",
    "final_y": "514909.696947",
    "longitude": "-89.93297927341324",
    "latitude": "29.908448304543178",
    "geocoded_column": {
      "latitude": "29.908448304543178",
      "longitude": "-89.93297927341324"
    }
  },
  {
    "service_request": "2022-948145",
    "request_type": "Traffic Signals/Signs/Striping/Streetlights",
    "request_reason": "Street Light Outage/Malfunction",
    "date_created": "2022-11-30T15:42:01.000",
    "date_modified": "2022-11-30T15:42:01.000",
    "request_status": "Pending",
    "responsible_agency": "Department of Public Works",
    "final_address": "766 Harrison Ave",
    "address_councildis": "A",
    "status": "Pending",
    "contractor": "Legacy Professional Services",
    "rowid": "948145",
    "final_x": "3669236.15246",
    "final_y": "549082.044115",
    "longitude": "-90.10620136087446",
    "latitude": "30.004152017571418",
    "geocoded_column": {
      "latitude": "30.004152017571418",
      "longitude": "-90.10620136087446"
    }
  },
  {
    "service_request": "2022-948144",
    "request_type": "Trash/Recycling",
    "request_reason": "Request a Large Item Pick Up",
    "date_created": "2022-11-30T15:41:01.000",
    "date_modified": "2022-11-30T15:41:02.000",
    "request_status": "Pending",
    "responsible_agency": "Department of Sanitation",
    "final_address": "11061 Lake Forest Blvd",
    "address_councildis": "E",
    "status": "Assigned to Contractor",
    "contractor": "Waste Pro",
    "rowid": "948144",
    "final_x": "3714715.18879",
    "final_y": "560798.357598",
    "longitude": "-89.96208352082046",
    "latitude": "30.03494963575178",
    "geocoded_column": {
      "latitude": "30.03494963575178",
      "longitude": "-89.96208352082046"
    }
  },
  {
    "service_request": "2022-948143",
    "request_type": "Abandoned Vehicles",
    "request_reason": "Abandoned/Junk Vehicles",
    "date_created": "2022-11-30T15:39:00.000",
    "date_modified": "2022-11-30T15:39:00.000",
    "request_status": "Pending",
    "responsible_agency": "Department of Public Works",
    "final_address": "1601 Magazine St",
    "address_councildis": "B",
    "status": "Pending",
    "rowid": "948143",
    "final_x": "3679986.73013",
    "final_y": "523100.633595",
    "longitude": "-90.07314106656567",
    "latitude": "29.932391092561822",
    "geocoded_column": {
      "latitude": "29.932391092561822",
      "longitude": "-90.07314106656567"
    }
  },
  {
    "service_request": "2022-948142",
    "request_type": "Trash/Recycling",
    "request_reason": "Order Recycling Cart",
    "date_created": "2022-11-30T15:37:31.000",
    "date_modified": "2022-11-30T15:37:32.000",
    "request_status": "Pending",
    "responsible_agency": "Department of Sanitation",
    "final_address": "6930 Dorchester St",
    "address_councildis": "E",
    "status": "Pending",
    "rowid": "948142",
    "final_x": "3699134.03312",
    "final_y": "559404.395933",
    "longitude": "-90.01137292135392",
    "latitude": "30.031620277219826",
    "geocoded_column": {
      "latitude": "30.031620277219826",
      "longitude": "-90.01137292135392"
    }
  },
  {
    "service_request": "2022-948141",
    "request_type": "Abandoned Vehicles",
    "request_reason": "Abandoned/Junk Vehicles",
    "date_created": "2022-11-30T15:36:44.000",
    "date_modified": "2022-11-30T15:36:44.000",
    "request_status": "Pending",
    "responsible_agency": "Department of Public Works",
    "final_address": "1601 Magazine St",
    "address_councildis": "B",
    "status": "Pending",
    "rowid": "948141",
    "final_x": "3679986.73013",
    "final_y": "523100.633595",
    "longitude": "-90.07314106656567",
    "latitude": "29.932391092561822",
    "geocoded_column": {
      "latitude": "29.932391092561822",
      "longitude": "-90.07314106656567"
    }
  },
  {
    "service_request": "2022-948140",
    "request_type": "Trash/Recycling",
    "request_reason": "Order Trash Cart",
    "date_created": "2022-11-30T15:36:34.000",
    "date_modified": "2022-11-30T15:36:35.000",
    "request_status": "Pending",
    "responsible_agency": "Department of Sanitation",
    "final_address": "4716 Sherwood Dr",
    "address_councildis": "E",
    "status": "Assigned to Contractor",
    "contractor": "Waste Pro",
    "rowid": "948140",
    "final_x": "3717962.4309",
    "final_y": "556652.85449",
    "longitude": "-89.95197978564048",
    "latitude": "30.023443915723643",
    "geocoded_column": {
      "latitude": "30.023443915723643",
      "longitude": "-89.95197978564048"
    }
  },
  {
    "service_request": "2022-948139",
    "request_type": "Trash/Recycling",
    "request_reason": "Order Recycling Cart",
    "date_created": "2022-11-30T15:33:43.000",
    "date_modified": "2022-11-30T15:33:44.000",
    "request_status": "Pending",
    "responsible_agency": "Department of Sanitation",
    "final_address": "1717 Benton St",
    "address_councildis": "E",
    "status": "Pending",
    "rowid": "948139",
    "final_x": "3699792.21597",
    "final_y": "535899.939527",
    "longitude": "-90.01015075049342",
    "latitude": "29.96697088153921",
    "geocoded_column": {
      "latitude": "29.96697088153921",
      "longitude": "-90.01015075049342"
    }
  },
  {
    "service_request": "2022-948138",
    "request_type": "Trash/Recycling",
    "request_reason": "Dead Animal Pick Up",
    "date_created": "2022-11-30T15:33:43.000",
    "date_modified": "2022-11-30T16:14:39.000",
    "request_status": "Pending",
    "responsible_agency": "Department of Sanitation",
    "final_address": "New Orleans,LA",
    "address_councildis": "D",
    "status": "Assigned to Contractor",
    "contractor": "Richards Disposal",
    "rowid": "948138",
    "final_x": "3678630.72",
    "final_y": "538582.89",
    "longitude": "-90.07688592730652",
    "latitude": "29.975003031713594",
    "geocoded_column": {
      "latitude": "29.975003031713594",
      "longitude": "-90.07688592730652"
    }
  },
  {
    "service_request": "2022-948137",
    "request_type": "Trash/Recycling",
    "request_reason": "Order Recycling Cart",
    "date_created": "2022-11-30T15:32:41.000",
    "date_modified": "2022-11-30T15:32:41.000",
    "request_status": "Pending",
    "responsible_agency": "Department of Sanitation",
    "final_address": "5115 St Roch Ave",
    "address_councildis": "D",
    "status": "Pending",
    "rowid": "948137",
    "final_x": "3685289.37538",
    "final_y": "551615.129557",
    "longitude": "-90.05539717966255",
    "latitude": "30.010634592202315",
    "geocoded_column": {
      "latitude": "30.010634592202315",
      "longitude": "-90.05539717966255"
    }
  },
  {
    "service_request": "2022-948136",
    "request_type": "Trash/Recycling",
    "request_reason": "Order Trash Cart",
    "date_created": "2022-11-30T15:29:52.000",
    "date_modified": "2022-11-30T16:00:09.000",
    "request_status": "Pending",
    "responsible_agency": "Department of Sanitation",
    "final_address": "5115 St Roch Ave",
    "address_councildis": "D",
    "status": "Assigned to Contractor",
    "contractor": "IV Waste",
    "rowid": "948136",
    "final_x": "3685289.37538",
    "final_y": "551615.129557",
    "longitude": "-90.05539717966255",
    "latitude": "30.010634592202315",
    "geocoded_column": {
      "latitude": "30.010634592202315",
      "longitude": "-90.05539717966255"
    }
  },
  {
    "service_request": "2022-948135",
    "request_type": "Trash/Recycling",
    "request_reason": "Missed Trash Pick-Up",
    "date_created": "2022-11-30T15:29:50.000",
    "date_modified": "2022-11-30T15:29:50.000",
    "request_status": "Pending",
    "responsible_agency": "Department of Sanitation",
    "final_address": "7442 Kenyon Rd",
    "address_councildis": "E",
    "status": "Assigned to Contractor",
    "contractor": "Waste Pro",
    "rowid": "948135",
    "final_x": "3704336.37796",
    "final_y": "561896.911839",
    "longitude": "-89.9948413712629",
    "latitude": "30.038307661622255",
    "geocoded_column": {
      "latitude": "30.038307661622255",
      "longitude": "-89.9948413712629"
    }
  },
  {
    "service_request": "2022-948134",
    "request_type": "Traffic Signals/Signs/Striping/Streetlights",
    "request_reason": "Street Light Outage/Malfunction",
    "date_created": "2022-11-30T15:28:48.000",
    "date_modified": "2022-11-30T15:28:50.000",
    "request_status": "Pending",
    "responsible_agency": "Department of Public Works",
    "final_address": "500 Decatur St",
    "address_councildis": "C",
    "status": "Pending",
    "contractor": "Legacy Professional Services",
    "rowid": "948134",
    "final_x": "3682863.55797",
    "final_y": "531478.166467",
    "longitude": "-90.0637661648634",
    "latitude": "29.955339183491464",
    "geocoded_column": {
      "latitude": "29.955339183491464",
      "longitude": "-90.0637661648634"
    }
  },
  {
    "service_request": "2022-948133",
    "request_type": "Health Related Request",
    "request_reason": "Noise Ordinance Complaint",
    "date_created": "2022-11-30T15:26:53.000",
    "date_modified": "2022-11-30T15:26:53.000",
    "request_status": "Pending",
    "responsible_agency": "Health Department",
    "final_address": "5181 St Anthony Ave",
    "address_councildis": "D",
    "status": "Pending",
    "rowid": "948133",
    "final_x": "3682317.57109",
    "final_y": "552004.065878",
    "longitude": "-90.06477264219683",
    "latitude": "30.011794825435565",
    "geocoded_column": {
      "latitude": "30.011794825435565",
      "longitude": "-90.06477264219683"
    }
  },
  {
    "service_request": "2022-948132",
    "request_type": "Trash/Recycling",
    "request_reason": "Repair Trash Cart",
    "date_created": "2022-11-30T15:24:15.000",
    "date_modified": "2022-11-30T15:24:16.000",
    "request_status": "Pending",
    "responsible_agency": "Department of Sanitation",
    "final_address": "1916 Brutus St",
    "address_councildis": "D",
    "status": "Assigned to Contractor",
    "contractor": "IV Waste",
    "rowid": "948132",
    "final_x": "3681789.68258",
    "final_y": "550096.555732",
    "longitude": "-90.06650709323792",
    "latitude": "30.00656592040026",
    "geocoded_column": {
      "latitude": "30.00656592040026",
      "longitude": "-90.06650709323792"
    }
  },
  {
    "service_request": "2022-948131",
    "request_type": "Traffic Signals/Signs/Striping/Streetlights",
    "request_reason": "Street Light Outage/Malfunction",
    "date_created": "2022-11-30T15:21:12.000",
    "date_modified": "2022-11-30T15:21:13.000",
    "request_status": "Pending",
    "responsible_agency": "Department of Public Works",
    "final_address": "500 Decatur St",
    "address_councildis": "C",
    "status": "Pending",
    "contractor": "Legacy Professional Services",
    "rowid": "948131",
    "final_x": "3682863.55797",
    "final_y": "531478.166467",
    "longitude": "-90.0637661648634",
    "latitude": "29.955339183491464",
    "geocoded_column": {
      "latitude": "29.955339183491464",
      "longitude": "-90.0637661648634"
    }
  },
  {
    "service_request": "2022-948130",
    "request_type": "Trash/Recycling",
    "request_reason": "MIssed Recycling Pick-Up",
    "date_created": "2022-11-30T15:20:51.000",
    "date_modified": "2022-11-30T15:20:52.000",
    "request_status": "Pending",
    "responsible_agency": "Department of Sanitation",
    "final_address": "4127 Orleans Ave",
    "address_councildis": "A",
    "status": "Assigned to Contractor",
    "contractor": "Richards Disposal",
    "rowid": "948130",
    "final_x": "3672476.12916",
    "final_y": "540436.942859",
    "longitude": "-90.09626052968329",
    "latitude": "29.980285176381592",
    "geocoded_column": {
      "latitude": "29.980285176381592",
      "longitude": "-90.09626052968329"
    }
  },
  {
    "service_request": "2022-948129",
    "request_type": "Property Maintenance",
    "request_reason": "Property Maintenance",
    "date_created": "2022-11-30T15:20:22.000",
    "date_modified": "2022-11-30T15:20:22.000",
    "request_status": "Pending",
    "responsible_agency": "Department of Code Enforcement",
    "final_address": "7738 Sycamore St",
    "address_councildis": "A",
    "status": "Pending",
    "rowid": "948129",
    "final_x": "3665142.11047",
    "final_y": "530110.484673",
    "longitude": "-90.11977000210122",
    "latitude": "29.952106501164785",
    "geocoded_column": {
      "latitude": "29.952106501164785",
      "longitude": "-90.11977000210122"
    }
  },
  {
    "service_request": "2022-948128",
    "request_type": "Trash/Recycling",
    "request_reason": "Missed Trash Pick-Up",
    "date_created": "2022-11-30T15:19:07.000",
    "date_modified": "2022-11-30T15:19:08.000",
    "request_status": "Pending",
    "responsible_agency": "Department of Sanitation",
    "final_address": "1718 Bordeaux St",
    "address_councildis": "B",
    "status": "Assigned to Contractor",
    "contractor": "Richards Disposal",
    "rowid": "948128",
    "final_x": "3669289.00282",
    "final_y": "521240.118969",
    "longitude": "-90.10697578111542",
    "latitude": "29.927594445194373",
    "geocoded_column": {
      "latitude": "29.927594445194373",
      "longitude": "-90.10697578111542"
    }
  },
  {
    "service_request": "2022-948127",
    "request_type": "Roads/Drainage",
    "request_reason": "Catch Basin - Clogged",
    "date_created": "2022-11-30T15:18:21.000",
    "date_modified": "2022-11-30T15:18:22.000",
    "request_status": "Pending",
    "responsible_agency": "Department of Public Works",
    "final_address": "OLD GENTILLY RD & DOWNMAN EXIT",
    "address_councildis": "E",
    "status": "Pending",
    "rowid": "948127",
    "final_x": "3696735.8",
    "final_y": "550557.78",
    "longitude": "-90.01927201684386",
    "latitude": "30.007371290740217",
    "geocoded_column": {
      "latitude": "30.007371290740217",
      "longitude": "-90.01927201684386"
    }
  },
  {
    "service_request": "2022-948126",
    "request_type": "Trash/Recycling",
    "request_reason": "MIssed Recycling Pick-Up",
    "date_created": "2022-11-30T15:18:04.000",
    "date_modified": "2022-11-30T15:18:07.000",
    "request_status": "Pending",
    "responsible_agency": "Department of Sanitation",
    "final_address": "3317 Chippewa St",
    "address_councildis": "B",
    "status": "Assigned to Contractor",
    "contractor": "Richards Disposal",
    "rowid": "948126",
    "final_x": "3675875.9451",
    "final_y": "518311.669942",
    "longitude": "-90.08628299113407",
    "latitude": "29.91934666493375",
    "geocoded_column": {
      "latitude": "29.91934666493375",
      "longitude": "-90.08628299113407"
    }
  },
  {
    "service_request": "2022-948125",
    "request_type": "Trash/Recycling",
    "request_reason": "Missed Trash Pick-Up",
    "date_created": "2022-11-30T15:17:38.000",
    "date_modified": "2022-11-30T15:17:39.000",
    "request_status": "Pending",
    "responsible_agency": "Department of Sanitation",
    "final_address": "11312 Midpoint Dr",
    "address_councildis": "E",
    "status": "Assigned to Contractor",
    "contractor": "Waste Pro",
    "rowid": "948125",
    "final_x": "3718726.69369",
    "final_y": "559635.258333",
    "longitude": "-89.94945109046446",
    "latitude": "30.031618973087294",
    "geocoded_column": {
      "latitude": "30.031618973087294",
      "longitude": "-89.94945109046446"
    }
  },
  {
    "service_request": "2022-948124",
    "request_type": "Trash/Recycling",
    "request_reason": "Replace Trash Cart",
    "date_created": "2022-11-30T15:07:08.000",
    "date_modified": "2022-11-30T15:07:09.000",
    "request_status": "Pending",
    "responsible_agency": "Department of Sanitation",
    "final_address": "5808 Burgundy St",
    "address_councildis": "E",
    "status": "Assigned to Contractor",
    "contractor": "Waste Pro",
    "rowid": "948124",
    "final_x": "3698489.42525",
    "final_y": "532774.52666",
    "longitude": "-90.01437855515381",
    "latitude": "29.95841841215589",
    "geocoded_column": {
      "latitude": "29.95841841215589",
      "longitude": "-90.01437855515381"
    }
  },
  {
    "service_request": "2022-948123",
    "request_type": "Trash/Recycling",
    "request_reason": "Request a Large Item Pick Up",
    "date_created": "2022-11-30T15:06:35.000",
    "date_modified": "2022-11-30T15:06:35.000",
    "request_status": "Pending",
    "responsible_agency": "Department of Sanitation",
    "final_address": "1905 Fats Domino Ave",
    "address_councildis": "E",
    "status": "Assigned to Contractor",
    "contractor": "Waste Pro",
    "rowid": "948123",
    "final_x": "3698944.73604",
    "final_y": "536794.177032",
    "longitude": "-90.01279453274286",
    "latitude": "29.96945659580886",
    "geocoded_column": {
      "latitude": "29.96945659580886",
      "longitude": "-90.01279453274286"
    }
  },
  {
    "service_request": "2022-948122",
    "request_type": "Property Maintenance",
    "request_reason": "Property Maintenance",
    "date_created": "2022-11-30T15:06:06.000",
    "date_modified": "2022-11-30T15:06:06.000",
    "request_status": "Pending",
    "responsible_agency": "Department of Code Enforcement",
    "final_address": "4319 Loyola Ave",
    "address_councildis": "B",
    "status": "Pending",
    "rowid": "948122",
    "final_x": "3670878.33339",
    "final_y": "523072.026427",
    "longitude": "-90.10189648887972",
    "latitude": "29.932584734981962",
    "geocoded_column": {
      "latitude": "29.932584734981962",
      "longitude": "-90.10189648887972"
    }
  },
  {
    "service_request": "2022-948121",
    "request_type": "Trash/Recycling",
    "request_reason": "Missed Trash Pick-Up",
    "date_created": "2022-11-30T15:05:20.000",
    "date_modified": "2022-11-30T15:05:21.000",
    "request_status": "Pending",
    "responsible_agency": "Department of Sanitation",
    "final_address": "5808 Burgundy St",
    "address_councildis": "E",
    "status": "Assigned to Contractor",
    "contractor": "Waste Pro",
    "rowid": "948121",
    "final_x": "3698489.42525",
    "final_y": "532774.52666",
    "longitude": "-90.01437855515381",
    "latitude": "29.95841841215589",
    "geocoded_column": {
      "latitude": "29.95841841215589",
      "longitude": "-90.01437855515381"
    }
  },
  {
    "service_request": "2022-948120",
    "request_type": "Traffic Signals/Signs/Striping/Streetlights",
    "request_reason": "Street Light Outage/Malfunction",
    "date_created": "2022-11-30T15:03:36.000",
    "date_modified": "2022-11-30T15:03:36.000",
    "request_status": "Pending",
    "responsible_agency": "Department of Public Works",
    "final_address": "2263 Sere St",
    "address_councildis": "D",
    "status": "Pending",
    "contractor": "Legacy Professional Services",
    "rowid": "948120",
    "final_x": "3684856.14991",
    "final_y": "545962.485584",
    "longitude": "-90.05696483620592",
    "latitude": "29.995105140254775",
    "geocoded_column": {
      "latitude": "29.995105140254775",
      "longitude": "-90.05696483620592"
    }
  },
  {
    "service_request": "2022-948119",
    "request_type": "Trash/Recycling",
    "request_reason": "Missed Trash Pick-Up",
    "date_created": "2022-11-30T15:02:36.000",
    "date_modified": "2022-11-30T15:02:37.000",
    "request_status": "Pending",
    "responsible_agency": "Department of Sanitation",
    "final_address": "5328 Dryades St",
    "address_councildis": "B",
    "status": "Assigned to Contractor",
    "contractor": "Richards Disposal",
    "rowid": "948119",
    "final_x": "3667638.71924",
    "final_y": "521786.810362",
    "longitude": "-90.11216695160309",
    "latitude": "29.929146135816534",
    "geocoded_column": {
      "latitude": "29.929146135816534",
      "longitude": "-90.11216695160309"
    }
  },
  {
    "service_request": "2022-948118",
    "request_type": "Trash/Recycling",
    "request_reason": "Order Recycling Cart",
    "date_created": "2022-11-30T15:01:41.000",
    "date_modified": "2022-11-30T15:01:42.000",
    "request_status": "Pending",
    "responsible_agency": "Department of Sanitation",
    "final_address": "2222 New Orleans St",
    "address_councildis": "D",
    "status": "Pending",
    "rowid": "948118",
    "final_x": "3682036.631",
    "final_y": "540330.629131",
    "longitude": "-90.06606814604773",
    "latitude": "29.979705575548262",
    "geocoded_column": {
      "latitude": "29.979705575548262",
      "longitude": "-90.06606814604773"
    }
  },
  {
    "service_request": "2022-948117",
    "request_type": "Trash/Recycling",
    "request_reason": "Repair Recycling Cart",
    "date_created": "2022-11-30T15:00:03.000",
    "date_modified": "2022-11-30T15:01:59.000",
    "request_status": "Pending",
    "responsible_agency": "Department of Sanitation",
    "final_address": "2551 Verbena St",
    "address_councildis": "D",
    "status": "Pending",
    "rowid": "948117",
    "final_x": "3686703.13116",
    "final_y": "547815.873234",
    "longitude": "-90.05106491493318",
    "latitude": "30.000144588494",
    "geocoded_column": {
      "latitude": "30.000144588494",
      "longitude": "-90.05106491493318"
    }
  },
  {
    "service_request": "2022-948116",
    "request_type": "Trash/Recycling",
    "request_reason": "Order Recycling Cart",
    "date_created": "2022-11-30T14:59:35.000",
    "date_modified": "2022-11-30T14:59:36.000",
    "request_status": "Pending",
    "responsible_agency": "Department of Sanitation",
    "final_address": "2009 St Claude Ave",
    "address_councildis": "C",
    "status": "Pending",
    "rowid": "948116",
    "final_x": "3684329.86325",
    "final_y": "536305.758919",
    "longitude": "-90.05896657911683",
    "latitude": "29.96856864885705",
    "geocoded_column": {
      "latitude": "29.96856864885705",
      "longitude": "-90.05896657911683"
    }
  },
  {
    "service_request": "2022-948115",
    "request_type": "Trash/Recycling",
    "request_reason": "Order Recycling Cart",
    "date_created": "2022-11-30T14:58:35.000",
    "date_modified": "2022-11-30T14:58:35.000",
    "request_status": "Pending",
    "responsible_agency": "Department of Sanitation",
    "final_address": "2529 Verbena St",
    "address_councildis": "D",
    "status": "Pending",
    "rowid": "948115",
    "final_x": "3686563.35004",
    "final_y": "547798.846034",
    "longitude": "-90.05150709168008",
    "latitude": "30.000102070205795",
    "geocoded_column": {
      "latitude": "30.000102070205795",
      "longitude": "-90.05150709168008"
    }
  },
  {
    "service_request": "2022-948114",
    "request_type": "Trash/Recycling",
    "request_reason": "Order Recycling Cart",
    "date_created": "2022-11-30T14:57:41.000",
    "date_modified": "2022-11-30T14:57:41.000",
    "request_status": "Pending",
    "responsible_agency": "Department of Sanitation",
    "final_address": "1643 Foy St",
    "address_councildis": "D",
    "status": "Pending",
    "rowid": "948114",
    "final_x": "3680067.54293",
    "final_y": "546686.042001",
    "longitude": "-90.07206637380986",
    "latitude": "29.997240463867392",
    "geocoded_column": {
      "latitude": "29.997240463867392",
      "longitude": "-90.07206637380986"
    }
  },
  {
    "service_request": "2022-948113",
    "request_type": "Trash/Recycling",
    "request_reason": "Repair Trash Cart",
    "date_created": "2022-11-30T14:56:45.000",
    "date_modified": "2022-11-30T14:56:46.000",
    "request_status": "Pending",
    "responsible_agency": "Department of Sanitation",
    "final_address": "2666 Ramsey Dr",
    "address_councildis": "C",
    "status": "Assigned to Contractor",
    "contractor": "Richards Disposal",
    "rowid": "948113",
    "final_x": "3703170.13028",
    "final_y": "520983.703801",
    "longitude": "-90.00003148517621",
    "latitude": "29.92584882956618",
    "geocoded_column": {
      "latitude": "29.92584882956618",
      "longitude": "-90.00003148517621"
    }
  },
  {
    "service_request": "2022-948112",
    "request_type": "Trash/Recycling",
    "request_reason": "Start Trash Service",
    "date_created": "2022-11-30T14:56:16.000",
    "date_modified": "2022-11-30T14:56:17.000",
    "request_status": "Pending",
    "responsible_agency": "Department of Sanitation",
    "final_address": "908 Montegut St",
    "address_councildis": "C",
    "status": "Assigned to Contractor",
    "contractor": "IV Waste",
    "rowid": "948112",
    "final_x": "3688237.63804",
    "final_y": "535450.784838",
    "longitude": "-90.04665597012085",
    "latitude": "29.966097687364243",
    "geocoded_column": {
      "latitude": "29.966097687364243",
      "longitude": "-90.04665597012085"
    }
  },
  {
    "service_request": "2022-948111",
    "request_type": "Abandoned Vehicles",
    "request_reason": "Abandoned/Junk Vehicles",
    "date_created": "2022-11-30T14:49:40.000",
    "date_modified": "2022-11-30T14:53:47.000",
    "request_status": "Pending",
    "responsible_agency": "Department of Public Works",
    "final_address": "3700 BLK Perrier St",
    "address_councildis": "B",
    "status": "Pending",
    "rowid": "948111",
    "final_x": "3673210.58464",
    "final_y": "520348.946951",
    "longitude": "-90.0946266888141",
    "latitude": "29.92502801811942",
    "geocoded_column": {
      "latitude": "29.92502801811942",
      "longitude": "-90.0946266888141"
    }
  },
  {
    "service_request": "2022-948110",
    "request_type": "Traffic Signals/Signs/Striping/Streetlights",
    "request_reason": "Street Light Outage/Malfunction",
    "date_created": "2022-11-30T14:48:44.000",
    "date_modified": "2022-11-30T14:48:56.000",
    "request_status": "Pending",
    "responsible_agency": "Department of Public Works",
    "final_address": "65 Yosemite Dr",
    "address_councildis": "C",
    "status": "Pending",
    "contractor": "Legacy Professional Services",
    "rowid": "948110",
    "final_x": "3699578.57252",
    "final_y": "516511.424757",
    "longitude": "-90.01153174771811",
    "latitude": "29.913666013012058",
    "geocoded_column": {
      "latitude": "29.913666013012058",
      "longitude": "-90.01153174771811"
    }
  },
  {
    "service_request": "2022-948109",
    "request_type": "Safety & Permits",
    "request_reason": "Licenses & Permits",
    "date_created": "2022-11-30T14:47:21.000",
    "date_modified": "2022-11-30T14:47:21.000",
    "request_status": "Pending",
    "responsible_agency": "Safety and Permits",
    "status": "Pending",
    "rowid": "948109",
    "longitude": "0.0",
    "latitude": "0.0",
    "geocoded_column": {
      "latitude": "0.0",
      "longitude": "0.0"
    }
  },
  {
    "service_request": "2022-948107",
    "request_type": "Trash/Recycling",
    "request_reason": "Missed Trash Pick-Up",
    "date_created": "2022-11-30T14:43:26.000",
    "date_modified": "2022-11-30T15:05:20.000",
    "request_status": "Pending",
    "responsible_agency": "Department of Sanitation",
    "final_address": "323 New Orleans-Hammond Hwy",
    "address_councildis": "A",
    "status": "Assigned to Contractor",
    "contractor": "IV Waste",
    "rowid": "948107",
    "final_x": "3665664.79066",
    "final_y": "554746.241688",
    "longitude": "-90.1172940764679",
    "latitude": "30.01983126663532",
    "geocoded_column": {
      "latitude": "30.01983126663532",
      "longitude": "-90.1172940764679"
    }
  },
  {
    "service_request": "2022-948106",
    "request_type": "Trash/Recycling",
    "request_reason": "Request a Large Item Pick Up",
    "date_created": "2022-11-30T14:42:16.000",
    "date_modified": "2022-11-30T14:42:18.000",
    "request_status": "Pending",
    "responsible_agency": "Department of Sanitation",
    "final_address": "2111 Ap Tureaud Ave",
    "address_councildis": "D",
    "status": "Assigned to Contractor",
    "contractor": "IV Waste",
    "rowid": "948106",
    "final_x": "3681772.81973",
    "final_y": "539835.179978",
    "longitude": "-90.06691866345516",
    "latitude": "29.978351283024036",
    "geocoded_column": {
      "latitude": "29.978351283024036",
      "longitude": "-90.06691866345516"
    }
  },
  {
    "service_request": "2022-948105",
    "request_type": "Trash/Recycling",
    "request_reason": "Return Trash Cart",
    "date_created": "2022-11-30T14:41:42.000",
    "date_modified": "2022-11-30T14:41:43.000",
    "request_status": "Pending",
    "responsible_agency": "Department of Sanitation",
    "final_address": "2701 Aubry St",
    "address_councildis": "D",
    "status": "Assigned to Contractor",
    "contractor": "IV Waste",
    "rowid": "948105",
    "final_x": "3679456.58939",
    "final_y": "541316.890444",
    "longitude": "-90.0741827340894",
    "latitude": "29.982495659128496",
    "geocoded_column": {
      "latitude": "29.982495659128496",
      "longitude": "-90.0741827340894"
    }
  },
  {
    "service_request": "2022-948104",
    "request_type": "Trash/Recycling",
    "request_reason": "MIssed Recycling Pick-Up",
    "date_created": "2022-11-30T14:36:40.000",
    "date_modified": "2022-11-30T14:36:41.000",
    "request_status": "Pending",
    "responsible_agency": "Department of Sanitation",
    "final_address": "100 BLK S Murat St",
    "address_councildis": "A",
    "status": "Assigned to Contractor",
    "contractor": "Richards Disposal",
    "rowid": "948104",
    "final_x": "3669568.99711",
    "final_y": "539219.532241",
    "longitude": "-90.10548371619599",
    "latitude": "29.977023689490633",
    "geocoded_column": {
      "latitude": "29.977023689490633",
      "longitude": "-90.10548371619599"
    }
  },
  {
    "service_request": "2022-948103",
    "request_type": "Traffic Signals/Signs/Striping/Streetlights",
    "request_reason": "Street Light Outage/Malfunction",
    "date_created": "2022-11-30T14:34:56.000",
    "date_modified": "2022-11-30T14:34:57.000",
    "request_status": "Pending",
    "responsible_agency": "Department of Public Works",
    "final_address": "4539 General Meyer Ave",
    "address_councildis": "C",
    "status": "Pending",
    "contractor": "Legacy Professional Services",
    "rowid": "948103",
    "final_x": "3700390.64272",
    "final_y": "523974.529532",
    "longitude": "-90.00869629851182",
    "latitude": "29.934161203751014",
    "geocoded_column": {
      "latitude": "29.934161203751014",
      "longitude": "-90.00869629851182"
    }
  },
  {
    "service_request": "2022-948102",
    "request_type": "Traffic Signals/Signs/Striping/Streetlights",
    "request_reason": "Street Light Outage/Malfunction",
    "date_created": "2022-11-30T14:34:44.000",
    "date_modified": "2022-11-30T14:34:45.000",
    "request_status": "Pending",
    "responsible_agency": "Department of Public Works",
    "final_address": "2263 Sere St",
    "address_councildis": "D",
    "status": "Pending",
    "contractor": "Legacy Professional Services",
    "rowid": "948102",
    "final_x": "3684856.14991",
    "final_y": "545962.485584",
    "longitude": "-90.05696483620592",
    "latitude": "29.995105140254775",
    "geocoded_column": {
      "latitude": "29.995105140254775",
      "longitude": "-90.05696483620592"
    }
  },
  {
    "service_request": "2022-948101",
    "request_type": "Trash/Recycling",
    "request_reason": "Request a Large Item Pick Up",
    "date_created": "2022-11-30T14:34:41.000",
    "date_modified": "2022-11-30T14:34:42.000",
    "request_status": "Pending",
    "responsible_agency": "Department of Sanitation",
    "final_address": "1111 Sixth St",
    "address_councildis": "B",
    "status": "Assigned to Contractor",
    "contractor": "Richards Disposal",
    "rowid": "948101",
    "final_x": "3676584.39893",
    "final_y": "520673.485433",
    "longitude": "-90.08396547099647",
    "latitude": "29.925819675207336",
    "geocoded_column": {
      "latitude": "29.925819675207336",
      "longitude": "-90.08396547099647"
    }
  },
  {
    "service_request": "2022-948100",
    "request_type": "Trash/Recycling",
    "request_reason": "MIssed Recycling Pick-Up",
    "date_created": "2022-11-30T14:33:28.000",
    "date_modified": "2022-11-30T14:33:29.000",
    "request_status": "Pending",
    "responsible_agency": "Department of Sanitation",
    "final_address": "915 Thalia St",
    "address_councildis": "B",
    "status": "Assigned to Contractor",
    "contractor": "Richards Disposal",
    "rowid": "948100",
    "final_x": "3681195.47324",
    "final_y": "525113.379773",
    "longitude": "-90.06925507965235",
    "latitude": "29.93788886923079",
    "geocoded_column": {
      "latitude": "29.93788886923079",
      "longitude": "-90.06925507965235"
    }
  },
  {
    "service_request": "2022-948099",
    "request_type": "Roads/Drainage",
    "request_reason": "Damaged Sidewalk",
    "date_created": "2022-11-30T14:30:50.000",
    "date_modified": "2022-11-30T14:34:43.000",
    "case_close_date": "2022-11-30T08:34:43.000",
    "request_status": "Closed",
    "responsible_agency": "Department of Public Works",
    "final_address": "2233 St Bernard Ave",
    "address_councildis": "D",
    "status": "Referred to External Agency",
    "rowid": "948099",
    "final_x": "3680981.06837",
    "final_y": "540321.763275",
    "longitude": "-90.06940234859742",
    "latitude": "29.979713255319474",
    "geocoded_column": {
      "latitude": "29.979713255319474",
      "longitude": "-90.06940234859742"
    }
  },
  {
    "service_request": "2022-948098",
    "request_type": "Roads/Drainage",
    "request_reason": "Catch Basin - Clogged",
    "date_created": "2022-11-30T14:29:31.000",
    "date_modified": "2022-11-30T14:29:31.000",
    "request_status": "Pending",
    "responsible_agency": "Department of Public Works",
    "final_address": "3702 Pauger St",
    "address_councildis": "D",
    "status": "Pending",
    "rowid": "948098",
    "final_x": "3683201.9997",
    "final_y": "543618.689294",
    "longitude": "-90.06227224363757",
    "latitude": "29.98871109336009",
    "geocoded_column": {
      "latitude": "29.98871109336009",
      "longitude": "-90.06227224363757"
    }
  },
  {
    "service_request": "2022-948097",
    "request_type": "Traffic Signals/Signs/Striping/Streetlights",
    "request_reason": "Street Light Outage/Malfunction",
    "date_created": "2022-11-30T14:25:52.000",
    "date_modified": "2022-11-30T14:25:53.000",
    "request_status": "Pending",
    "responsible_agency": "Department of Public Works",
    "final_address": "5504 Wickfield Dr",
    "address_councildis": "D",
    "status": "Pending",
    "contractor": "Legacy Professional Services",
    "rowid": "948097",
    "final_x": "3681054.39573",
    "final_y": "552933.594775",
    "longitude": "-90.06873113273613",
    "latitude": "30.014389085421204",
    "geocoded_column": {
      "latitude": "30.014389085421204",
      "longitude": "-90.06873113273613"
    }
  },
  {
    "service_request": "2022-948096",
    "request_type": "Traffic Signals/Signs/Striping/Streetlights",
    "request_reason": "Street Light Outage/Malfunction",
    "date_created": "2022-11-30T14:25:06.000",
    "date_modified": "2022-11-30T14:25:07.000",
    "request_status": "Pending",
    "responsible_agency": "Department of Public Works",
    "final_address": "5504 Wickfield Dr",
    "address_councildis": "D",
    "status": "Pending",
    "contractor": "Legacy Professional Services",
    "rowid": "948096",
    "final_x": "3681054.39573",
    "final_y": "552933.594775",
    "longitude": "-90.06873113273613",
    "latitude": "30.014389085421204",
    "geocoded_column": {
      "latitude": "30.014389085421204",
      "longitude": "-90.06873113273613"
    }
  },
  {
    "service_request": "2022-948095",
    "request_type": "Trash/Recycling",
    "request_reason": "Missed Trash Pick-Up",
    "date_created": "2022-11-30T14:23:50.000",
    "date_modified": "2022-11-30T14:23:52.000",
    "request_status": "Pending",
    "responsible_agency": "Department of Sanitation",
    "final_address": "5773 W Louis Prima Dr",
    "address_councildis": "E",
    "status": "Assigned to Contractor",
    "contractor": "Waste Pro",
    "rowid": "948095",
    "final_x": "3715839.41477",
    "final_y": "562307.661087",
    "longitude": "-89.958473603501",
    "latitude": "30.039062571069454",
    "geocoded_column": {
      "latitude": "30.039062571069454",
      "longitude": "-89.958473603501"
    }
  },
  {
    "service_request": "2022-948094",
    "request_type": "Mosquito, Termite & Rodent Control",
    "request_reason": "Non-Rodent Complaint (Mice, Possums, Snakes)",
    "date_created": "2022-11-30T14:22:58.000",
    "date_modified": "2022-11-30T14:22:58.000",
    "request_status": "Pending",
    "responsible_agency": "Mosquito, Termite & Rodent Control Board",
    "final_address": "2426 Esplanade Ave",
    "address_councildis": "D",
    "status": "Pending",
    "rowid": "948094",
    "final_x": "3678785.64533",
    "final_y": "538352.185737",
    "longitude": "-90.0764046258249",
    "latitude": "29.974364002399764",
    "geocoded_column": {
      "latitude": "29.974364002399764",
      "longitude": "-90.0764046258249"
    }
  },
  {
    "service_request": "2022-948093",
    "request_type": "Roads/Drainage",
    "request_reason": "Pothole",
    "date_created": "2022-11-30T14:22:02.000",
    "date_modified": "2022-11-30T14:22:02.000",
    "request_status": "Pending",
    "responsible_agency": "Department of Public Works",
    "final_address": "235 W Harrison Ave",
    "address_councildis": "A",
    "status": "Pending",
    "rowid": "948093",
    "final_x": "3665638.94586",
    "final_y": "549745.640596",
    "longitude": "-90.1175433865974",
    "latitude": "30.006082115366308",
    "geocoded_column": {
      "latitude": "30.006082115366308",
      "longitude": "-90.1175433865974"
    }
  },
  {
    "service_request": "2022-948092",
    "request_type": "Roads/Drainage",
    "request_reason": "Pothole",
    "date_created": "2022-11-30T14:19:49.000",
    "date_modified": "2022-11-30T14:19:49.000",
    "request_status": "Pending",
    "responsible_agency": "Department of Public Works",
    "final_address": "6534 Ponchartrain Blvd",
    "status": "Pending",
    "rowid": "948092",
    "longitude": "0.0",
    "latitude": "0.0",
    "geocoded_column": {
      "latitude": "0.0",
      "longitude": "0.0"
    }
  },