[
  {
    "service_request": "2024-1104535",
    "request_type": "Roads/Drainage",
    "request_reason": "Pothole",
    "date_created": "2024-06-17T23:48:57.000",
    "date_modified": "2024-06-17T23:48:57.000",
    "request_status": "Pending",
    "responsible_agency": "Department of Public Works",
    "final_address": "4216 Chestnut St",
    "address_councildis": "B",
    "status": "Pending",
    "rowid": "1104535",
    "final_x": "3671574.31393",
    "final_y": "519539.203703",
    "longitude": "-90.09981939416457",
    "latitude": "29.922850019854593",
    "geocoded_column": {
      "latitude": "29.922850019854593",
      "longitude": "-90.09981939416457"
    }
  },
  {
    "service_request": "2024-1104534",
    "request_type": "Roads/Drainage",
    "request_reason": "Pothole",
    "date_created": "2024-06-17T23:28:32.000",
    "date_modified": "2024-06-17T23:28:32.000",
    "request_status": "Pending",
    "responsible_agency": "Department of Public Works",
    "final_address": "1312 Milan St",
    "address_councildis": "B",
    "status": "Pending",
    "rowid": "1104534",
    "final_x": "3671625.82823",
    "final_y": "520286.919608",
    "longitude": "-90.09963137110304",
    "latitude": "29.92490447494246",
    "geocoded_column": {
      "latitude": "29.92490447494246",
      "longitude": "-90.09963137110304"
    }
  },
  {
    "service_request": "2024-1104533",
    "request_type": "Property Maintenance",
    "request_reason": "Property Maintenance",
    "date_created": "2024-06-17T23:06:15.000",
    "date_modified": "2024-06-17T23:06:15.000",
    "request_status": "Pending",
    "responsible_agency": "Department of Code Enforcement",
    "final_address": "1824 Lamanche St",
    "address_councildis": "E",
    "status": "Pending",
    "rowid": "1104533",
    "final_x": "3699037.44132",
    "final_y": "536503.324551",
    "longitude": "-90.0125123517224",
    "latitude": "29.968653917967963",
    "geocoded_column": {
      "latitude": "29.968653917967963",
      "longitude": "-90.0125123517224"
    }
  },
  {
    "service_request": "2024-1104532",
    "request_type": "Trash/Recycling",
    "request_reason": "MIssed Recycling Pick-Up",
    "date_created": "2024-06-17T22:53:26.000",
    "date_modified": "2024-06-17T22:53:26.000",
    "request_status": "Pending",
    "responsible_agency": "Department of Sanitation",
    "final_address": "2233 St Ann St",
    "address_councildis": "D",
    "status": "Assigned to Contractor",
    "contractor": "IV Waste",
    "rowid": "1104532",
    "final_x": "3678373.58741",
    "final_y": "536164.386951",
    "longitude": "-90.07778171436611",
    "latitude": "29.968360727610758",
    "geocoded_column": {
      "latitude": "29.968360727610758",
      "longitude": "-90.07778171436611"
    }
  },
  {
    "service_request": "2024-1104531",
    "request_type": "Property Maintenance",
    "request_reason": "Property Maintenance",
    "date_created": "2024-06-17T22:45:25.000",
    "date_modified": "2024-06-17T22:45:25.000",
    "request_status": "Pending",
    "responsible_agency": "Department of Code Enforcement",
    "final_address": "3215 Cherry St",
    "address_councildis": "A",
    "status": "Pending",
    "rowid": "1104531",
    "final_x": "3663758.11635",
    "final_y": "536570.515207",
    "longitude": "-90.12392473466345",
    "latitude": "29.9699097064629",
    "geocoded_column": {
      "latitude": "29.9699097064629",
      "longitude": "-90.12392473466345"
    }
  },
  {
    "service_request": "2024-1104530",
    "request_type": "Trash/Recycling",
    "request_reason": "Order Recycling Cart",
    "date_created": "2024-06-17T21:39:02.000",
    "date_modified": "2024-06-17T21:39:02.000",
    "request_status": "Pending",
    "responsible_agency": "Department of Sanitation",
    "final_address": "2709 Prentiss Ave",
    "address_councildis": "D",
    "status": "Pending",
    "rowid": "1104530",
    "final_x": "3687362.63286",
    "final_y": "554200.709592",
    "longitude": "-90.04875539724581",
    "latitude": "30.01768024397973",
    "geocoded_column": {
      "latitude": "30.01768024397973",
      "longitude": "-90.04875539724581"
    }
  },
  {
    "service_request": "2024-1104529",
    "request_type": "Roads/Drainage",
    "request_reason": "Catch Basin - Clogged",
    "date_created": "2024-06-17T21:20:30.000",
    "date_modified": "2024-06-17T21:20:30.000",
    "request_status": "Pending",
    "responsible_agency": "Department of Public Works",
    "final_address": "1101 Royal St",
    "address_councildis": "C",
    "status": "Pending",
    "rowid": "1104529",
    "final_x": "3683441.34671",
    "final_y": "533660.228549",
    "longitude": "-90.06186526556193",
    "latitude": "29.96132149302174",
    "geocoded_column": {
      "latitude": "29.96132149302174",
      "longitude": "-90.06186526556193"
    }
  },
  {
    "service_request": "2024-1104528",
    "request_type": "Roads/Drainage",
    "request_reason": "Street Subsidence (Sinking)",
    "date_created": "2024-06-17T21:19:56.000",
    "date_modified": "2024-06-17T21:19:56.000",
    "request_status": "Pending",
    "responsible_agency": "Department of Public Works",
    "final_address": "1 English Turn Prkwy",
    "address_councildis": "C",
    "status": "Pending",
    "rowid": "1104528",
    "final_x": "3713690.71429",
    "final_y": "516301.512564",
    "longitude": "-89.96699773956271",
    "latitude": "29.912633659868995",
    "geocoded_column": {
      "latitude": "29.912633659868995",
      "longitude": "-89.96699773956271"
    }
  },
  {
    "service_request": "2024-1104527",
    "request_type": "Roads/Drainage",
    "request_reason": "Catch Basin - Clogged",
    "date_created": "2024-06-17T21:18:14.000",
    "date_modified": "2024-06-17T21:18:14.000",
    "request_status": "Pending",
    "responsible_agency": "Department of Public Works",
    "final_address": "1101 Royal St",
    "address_councildis": "C",
    "status": "Pending",
    "rowid": "1104527",
    "final_x": "3683441.34671",
    "final_y": "533660.228549",
    "longitude": "-90.06186526556193",
    "latitude": "29.96132149302174",
    "geocoded_column": {
      "latitude": "29.96132149302174",
      "longitude": "-90.06186526556193"
    }
  },
  {
    "service_request": "2024-1104526",
    "request_type": "Roads/Drainage",
    "request_reason": "Catch Basin - Clogged",
    "date_created": "2024-06-17T21:14:05.000",
    "date_modified": "2024-06-17T21:14:05.000",
    "request_status": "Pending",
    "responsible_agency": "Department of Public Works",
    "final_address": "932 Upperline St",
    "address_councildis": "B",
    "status": "Pending",
    "rowid": "1104526",
    "final_x": "3668974.57902",
    "final_y": "518858.372151",
    "longitude": "-90.10804874267484",
    "latitude": "29.921054646432946",
    "geocoded_column": {
      "latitude": "29.921054646432946",
      "longitude": "-90.10804874267484"
    }
  },
  {
    "service_request": "2024-1104525",
    "request_type": "Trash/Recycling",
    "request_reason": "Request a Large Item Pick Up",
    "date_created": "2024-06-17T20:58:38.000",
    "date_modified": "2024-06-17T20:58:39.000",
    "request_status": "Pending",
    "responsible_agency": "Department of Sanitation",
    "final_address": "2733 Jasmine St",
    "address_councildis": "D",
    "status": "Assigned to Contractor",
    "contractor": "IV Waste",
    "rowid": "1104525",
    "final_x": "3687983.2902",
    "final_y": "548249.442002",
    "longitude": "-90.04700545923946",
    "latitude": "30.0012972924007",
    "geocoded_column": {
      "latitude": "30.0012972924007",
      "longitude": "-90.04700545923946"
    }
  },
  {
    "service_request": "2024-1104524",
    "request_type": "Trash/Recycling",
    "request_reason": "Illegal Dumping",
    "date_created": "2024-06-17T20:55:19.000",
    "date_modified": "2024-06-17T20:55:19.000",
    "request_status": "Pending",
    "responsible_agency": "Department of Sanitation",
    "final_address": "3914 Royal St",
    "address_councildis": "C",
    "status": "Pending",
    "rowid": "1104524",
    "final_x": "3691250.93571",
    "final_y": "533813.704581",
    "longitude": "-90.03719856493707",
    "latitude": "29.96150290728754",
    "geocoded_column": {
      "latitude": "29.96150290728754",
      "longitude": "-90.03719856493707"
    }
  },
  {
    "service_request": "2024-1104523",
    "request_type": "Traffic Signals/Signs/Striping/Streetlights",
    "request_reason": "Road Surface Marking Maintenance-Bike Lane",
    "date_created": "2024-06-17T20:51:43.000",
    "date_modified": "2024-06-17T20:51:43.000",
    "request_status": "Pending",
    "responsible_agency": "Department of Public Works",
    "final_address": "4305 St Bernard Ave",
    "address_councildis": "D",
    "status": "Pending",
    "rowid": "1104523",
    "final_x": "3676975.18229",
    "final_y": "548188.026002",
    "longitude": "-90.0817832036228",
    "latitude": "30.00146362168992",
    "geocoded_column": {
      "latitude": "30.00146362168992",
      "longitude": "-90.0817832036228"
    }
  },
  {
    "service_request": "2024-1104522",
    "request_type": "Traffic Signals/Signs/Striping/Streetlights",
    "request_reason": "Street Light Outage/Malfunction",
    "date_created": "2024-06-17T20:31:21.000",
    "date_modified": "2024-06-17T20:31:21.000",
    "request_status": "Pending",
    "responsible_agency": "Department of Public Works",
    "final_address": "729 Tricou St",
    "address_councildis": "E",
    "status": "Assigned to Contractor",
    "contractor": "Legacy Professional Services",
    "rowid": "1104522",
    "final_x": "3699675.35754",
    "final_y": "531817.918083",
    "longitude": "-90.01066859071906",
    "latitude": "29.95575048945024",
    "geocoded_column": {
      "latitude": "29.95575048945024",
      "longitude": "-90.01066859071906"
    }
  },
  {
    "service_request": "2024-1104521",
    "request_type": "Trash/Recycling",
    "request_reason": "Missed Trash Pick-Up",
    "date_created": "2024-06-17T20:15:16.000",
    "date_modified": "2024-06-17T20:15:17.000",
    "request_status": "Pending",
    "responsible_agency": "Department of Sanitation",
    "final_address": "3537 Republic St",
    "address_councildis": "D",
    "status": "Assigned to Contractor",
    "contractor": "IV Waste",
    "rowid": "1104521",
    "final_x": "3680505.59976",
    "final_y": "545487.173648",
    "longitude": "-90.07072430093648",
    "latitude": "29.993930734999136",
    "geocoded_column": {
      "latitude": "29.993930734999136",
      "longitude": "-90.07072430093648"
    }
  },
  {
    "service_request": "2024-1104520",
    "request_type": "Trash/Recycling",
    "request_reason": "Replace Trash Cart",
    "date_created": "2024-06-17T19:53:56.000",
    "date_modified": "2024-06-17T19:53:57.000",
    "request_status": "Pending",
    "responsible_agency": "Department of Sanitation",
    "final_address": "2512 Jefferson Ave",
    "address_councildis": "A",
    "status": "Assigned to Contractor",
    "contractor": "IV Waste",
    "rowid": "1104520",
    "final_x": "3668029.29818",
    "final_y": "524802.00774",
    "longitude": "-90.11083241324195",
    "latitude": "29.9374255132059",
    "geocoded_column": {
      "latitude": "29.9374255132059",
      "longitude": "-90.11083241324195"
    }
  },
  {
    "service_request": "2024-1104519",
    "request_type": "Trash/Recycling",
    "request_reason": "MIssed Recycling Pick-Up",
    "date_created": "2024-06-17T19:41:43.000",
    "date_modified": "2024-06-17T19:41:43.000",
    "request_status": "Pending",
    "responsible_agency": "Department of Sanitation",
    "final_address": "1916 Fern St",
    "address_councildis": "A",
    "status": "Assigned to Contractor",
    "contractor": "IV Waste",
    "rowid": "1104519",
    "final_x": "3664264.84436",
    "final_y": "529816.204161",
    "longitude": "-90.12254982945325",
    "latitude": "29.951322843397715",
    "geocoded_column": {
      "latitude": "29.951322843397715",
      "longitude": "-90.12254982945325"
    }
  },
  {
    "service_request": "2024-1104518",
    "request_type": "Mosquito, Termite & Rodent Control",
    "request_reason": "Non-Rodent Complaint (Mice, Possums, Snakes)",
    "date_created": "2024-06-17T19:41:22.000",
    "date_modified": "2024-06-17T19:41:22.000",
    "request_status": "Pending",
    "responsible_agency": "Mosquito, Termite & Rodent Control Board",
    "final_address": "3443 Esplanade Ave",
    "address_councildis": "A",
    "status": "Pending",
    "rowid": "1104518",
    "final_x": "3674984.858",
    "final_y": "541532.608716",
    "longitude": "-90.08829928752895",
    "latitude": "29.98322316835311",
    "geocoded_column": {
      "latitude": "29.98322316835311",
      "longitude": "-90.08829928752895"
    }
  },
  {
    "service_request": "2024-1104517",
    "request_type": "Trash/Recycling",
    "request_reason": "Replace Trash Cart",
    "date_created": "2024-06-17T19:40:55.000",
    "date_modified": "2024-06-17T19:40:56.000",
    "request_status": "Pending",
    "responsible_agency": "Department of Sanitation",
    "final_address": "5829 Marcia Ave",
    "address_councildis": "A",
    "status": "Assigned to Contractor",
    "contractor": "IV Waste",
    "rowid": "1104517",
    "final_x": "3664866.59757",
    "final_y": "546580.193809",
    "longitude": "-90.12008931862073",
    "latitude": "29.997400736505224",
    "geocoded_column": {
      "latitude": "29.997400736505224",
      "longitude": "-90.12008931862073"
    }
  },
  {
    "service_request": "2024-1104516",
    "request_type": "Abandoned Vehicles",
    "request_reason": "Abandoned/Junk Vehicles",
    "date_created": "2024-06-17T19:08:55.000",
    "date_modified": "2024-06-17T19:08:55.000",
    "request_status": "Pending",
    "responsible_agency": "Department of Public Works",
    "final_address": "609 Lyons St",
    "address_councildis": "B",
    "status": "Pending",
    "rowid": "1104516",
    "final_x": "3669377.98247",
    "final_y": "517660.49439",
    "longitude": "-90.10681584947822",
    "latitude": "29.917748993376584",
    "geocoded_column": {
      "latitude": "29.917748993376584",
      "longitude": "-90.10681584947822"
    }
  },
  {
    "service_request": "2024-1104515",
    "request_type": "Trash/Recycling",
    "request_reason": "Request a Large Item Pick Up",
    "date_created": "2024-06-17T19:04:08.000",
    "date_modified": "2024-06-17T19:04:08.000",
    "request_status": "Pending",
    "responsible_agency": "Department of Sanitation",
    "final_address": "715 Egania St",
    "address_councildis": "E",
    "status": "Assigned to Contractor",
    "contractor": "Waste Pro",
    "rowid": "1104515",
    "final_x": "3696463.95971",
    "final_y": "532712.769476",
    "longitude": "-90.02077663301776",
    "latitude": "29.95831255379426",
    "geocoded_column": {
      "latitude": "29.95831255379426",
      "longitude": "-90.02077663301776"
    }
  },
  {
    "service_request": "2024-1104514",
    "request_type": "Abandoned Vehicles",
    "request_reason": "Abandoned/Junk Vehicles",
    "date_created": "2024-06-17T18:55:56.000",
    "date_modified": "2024-06-17T18:55:56.000",
    "request_status": "Pending",
    "responsible_agency": "Department of Public Works",
    "final_address": "1128 St Andrew St",
    "address_councildis": "B",
    "status": "Pending",
    "rowid": "1104514",
    "final_x": "3679314.17608",
    "final_y": "522755.396026",
    "longitude": "-90.07527622464403",
    "latitude": "29.931462124091198",
    "geocoded_column": {
      "latitude": "29.931462124091198",
      "longitude": "-90.07527622464403"
    }
  },
  {
    "service_request": "2024-1104513",
    "request_type": "Trash/Recycling",
    "request_reason": "Request a Large Item Pick Up",
    "date_created": "2024-06-17T18:47:58.000",
    "date_modified": "2024-06-17T18:47:59.000",
    "request_status": "Pending",
    "responsible_agency": "Department of Sanitation",
    "final_address": "4720 Raymond Joseph Dr, New Orleans, Louisiana, 70126",
    "address_councildis": "E",
    "status": "Assigned to Contractor",
    "contractor": "Waste Pro",
    "rowid": "1104513",
    "final_x": "3703646.70513",
    "final_y": "555177.587225",
    "longitude": "-89.99726850200123",
    "latitude": "30.019854264091848",
    "geocoded_column": {
      "latitude": "30.019854264091848",
      "longitude": "-89.99726850200123"
    }
  },
  {
    "service_request": "2024-1104512",
    "request_type": "Property Maintenance",
    "request_reason": "Property Maintenance",
    "date_created": "2024-06-17T18:46:02.000",
    "date_modified": "2024-06-17T18:46:02.000",
    "request_status": "Pending",
    "responsible_agency": "Department of Code Enforcement",
    "final_address": "7029 Derbes St",
    "address_councildis": "A",
    "status": "Pending",
    "rowid": "1104512",
    "final_x": "3665949.91028",
    "final_y": "554475.811224",
    "longitude": "-90.11640226191595",
    "latitude": "30.019079355055066",
    "geocoded_column": {
      "latitude": "30.019079355055066",
      "longitude": "-90.11640226191595"
    }
  },
  {
    "service_request": "2024-1104511",
    "request_type": "Property Maintenance",
    "request_reason": "Property Maintenance",
    "date_created": "2024-06-17T18:41:34.000",
    "date_modified": "2024-06-17T18:41:34.000",
    "request_status": "Pending",
    "responsible_agency": "Department of Code Enforcement",
    "final_address": "6548 Avenue B",
    "address_councildis": "A",
    "status": "Pending",
    "rowid": "1104511",
    "final_x": "3665640.28084",
    "final_y": "551798.098774",
    "longitude": "-90.11747036434234",
    "latitude": "30.01172562270877",
    "geocoded_column": {
      "latitude": "30.01172562270877",
      "longitude": "-90.11747036434234"
    }
  },
  {
    "service_request": "2024-1104510",
    "request_type": "Roads/Drainage",
    "request_reason": "Road Shoulder Repair",
    "date_created": "2024-06-17T18:37:42.000",
    "date_modified": "2024-06-17T18:37:42.000",
    "request_status": "Pending",
    "responsible_agency": "Department of Public Works",
    "final_address": "1742 Bartholomew St",
    "address_councildis": "D",
    "status": "Pending",
    "rowid": "1104510",
    "final_x": "3692409.04873",
    "final_y": "537906.025225",
    "longitude": "-90.03339484822973",
    "latitude": "29.972719273324078",
    "geocoded_column": {
      "latitude": "29.972719273324078",
      "longitude": "-90.03339484822973"
    }
  },
  {
    "service_request": "2024-1104509",
    "request_type": "Trash/Recycling",
    "request_reason": "Order Recycling Cart",
    "date_created": "2024-06-17T18:29:04.000",
    "date_modified": "2024-06-17T18:29:04.000",
    "request_status": "Pending",
    "responsible_agency": "Department of Sanitation",
    "final_address": "237 S Solomon St",
    "address_councildis": "A",
    "status": "Pending",
    "rowid": "1104509",
    "final_x": "3670112.28391",
    "final_y": "538174.774601",
    "longitude": "-90.10380324413991",
    "latitude": "29.974134939759843",
    "geocoded_column": {
      "latitude": "29.974134939759843",
      "longitude": "-90.10380324413991"
    }
  },
  {
    "service_request": "2024-1104508",
    "request_type": "Trash/Recycling",
    "request_reason": "Repair Trash Cart",
    "date_created": "2024-06-17T18:28:34.000",
    "date_modified": "2024-06-17T18:28:34.000",
    "request_status": "Pending",
    "responsible_agency": "Department of Sanitation",
    "final_address": "3225 Banks St",
    "address_councildis": "B",
    "status": "Assigned to Contractor",
    "contractor": "IV Waste",
    "rowid": "1104508",
    "final_x": "3673005.17128",
    "final_y": "535458.515782",
    "longitude": "-90.09475955242071",
    "latitude": "29.96658047423558",
    "geocoded_column": {
      "latitude": "29.96658047423558",
      "longitude": "-90.09475955242071"
    }
  },
  {
    "service_request": "2024-1104507",
    "request_type": "Trash/Recycling",
    "request_reason": "Replace Trash Cart",
    "date_created": "2024-06-17T18:26:53.000",
    "date_modified": "2024-06-17T18:26:53.000",
    "request_status": "Pending",
    "responsible_agency": "Department of Sanitation",
    "final_address": "3227 Banks St",
    "address_councildis": "B",
    "status": "Assigned to Contractor",
    "contractor": "IV Waste",
    "rowid": "1104507",
    "final_x": "3672996.24372",
    "final_y": "535465.946438",
    "longitude": "-90.09478749197957",
    "latitude": "29.96660117138148",
    "geocoded_column": {
      "latitude": "29.96660117138148",
      "longitude": "-90.09478749197957"
    }
  },
  {
    "service_request": "2024-1104506",
    "request_type": "Trash/Recycling",
    "request_reason": "MIssed Recycling Pick-Up",
    "date_created": "2024-06-17T18:24:40.000",
    "date_modified": "2024-06-17T18:24:41.000",
    "request_status": "Pending",
    "responsible_agency": "Department of Sanitation",
    "final_address": "3225 Banks St",
    "address_councildis": "B",
    "status": "Assigned to Contractor",
    "contractor": "IV Waste",
    "rowid": "1104506",
    "final_x": "3673005.17128",
    "final_y": "535458.515782",
    "longitude": "-90.09475955242071",
    "latitude": "29.96658047423558",
    "geocoded_column": {
      "latitude": "29.96658047423558",
      "longitude": "-90.09475955242071"
    }
  },
  {
    "service_request": "2024-1104505",
    "request_type": "Trash/Recycling",
    "request_reason": "Replace Trash Cart",
    "date_created": "2024-06-17T18:22:42.000",
    "date_modified": "2024-06-17T18:22:42.000",
    "request_status": "Pending",
    "responsible_agency": "Department of Sanitation",
    "final_address": "3225 Banks St",
    "address_councildis": "B",
    "status": "Assigned to Contractor",
    "contractor": "IV Waste",
    "rowid": "1104505",
    "final_x": "3673005.17128",
    "final_y": "535458.515782",
    "longitude": "-90.09475955242071",
    "latitude": "29.96658047423558",
    "geocoded_column": {
      "latitude": "29.96658047423558",
      "longitude": "-90.09475955242071"
    }
  },
  {
    "service_request": "2024-1104504",
    "request_type": "Roads/Drainage",
    "request_reason": "Catch Basin - Clogged",
    "date_created": "2024-06-17T18:21:52.000",
    "date_modified": "2024-06-17T18:21:52.000",
    "request_status": "Pending",
    "responsible_agency": "Department of Public Works",
    "final_address": "1338 St Anthony St",
    "address_councildis": "C",
    "status": "Pending",
    "rowid": "1104504",
    "final_x": "3683396.58473",
    "final_y": "536876.820808",
    "longitude": "-90.06189390770143",
    "latitude": "29.970167378812615",
    "geocoded_column": {
      "latitude": "29.970167378812615",
      "longitude": "-90.06189390770143"
    }
  },
  {
    "service_request": "2024-1104503",
    "request_type": "Roads/Drainage",
    "request_reason": "Pothole",
    "date_created": "2024-06-17T18:15:03.000",
    "date_modified": "2024-06-17T18:15:03.000",
    "request_status": "Pending",
    "responsible_agency": "Department of Public Works",
    "final_address": "223 Clinton St",
    "address_councildis": "C",
    "status": "Pending",
    "rowid": "1104503",
    "final_x": "3682213.63644",
    "final_y": "530569.308738",
    "longitude": "-90.06585012296284",
    "latitude": "29.95285991727074",
    "geocoded_column": {
      "latitude": "29.95285991727074",
      "longitude": "-90.06585012296284"
    }
  },
  {
    "service_request": "2024-1104502",
    "request_type": "Roads/Drainage",
    "request_reason": "Catch Basin - Clogged",
    "date_created": "2024-06-17T17:54:16.000",
    "date_modified": "2024-06-17T17:54:16.000",
    "request_status": "Pending",
    "responsible_agency": "Department of Public Works",
    "final_address": "3510 Rue Delphine",
    "address_councildis": "C",
    "status": "Pending",
    "rowid": "1104502",
    "final_x": "3703104.47633",
    "final_y": "517781.247094",
    "longitude": "-90.00035633548376",
    "latitude": "29.917045279159883",
    "geocoded_column": {
      "latitude": "29.917045279159883",
      "longitude": "-90.00035633548376"
    }
  },
  {
    "service_request": "2024-1104501",
    "request_type": "Abandoned Vehicles",
    "request_reason": "Abandoned/Junk Vehicles",
    "date_created": "2024-06-17T17:42:12.000",
    "date_modified": "2024-06-17T17:42:12.000",
    "request_status": "Pending",
    "responsible_agency": "Department of Public Works",
    "final_address": "4458 De Montluzin St",
    "address_councildis": "D",
    "status": "Pending",
    "rowid": "1104501",
    "final_x": "3687192.50895",
    "final_y": "549354.614931",
    "longitude": "-90.04946448303916",
    "latitude": "30.004360502672984",
    "geocoded_column": {
      "latitude": "30.004360502672984",
      "longitude": "-90.04946448303916"
    }
  },
  {
    "service_request": "2024-1104500",
    "request_type": "Parks & Parkways",
    "request_reason": "Request Tree Service (Right of Way/Public Property)",
    "date_created": "2024-06-17T17:36:58.000",
    "date_modified": "2024-06-17T17:36:58.000",
    "request_status": "Pending",
    "responsible_agency": "Department of Parks & Parkway",
    "final_address": "1516 Camp St",
    "address_councildis": "B",
    "status": "Pending",
    "rowid": "1104500",
    "final_x": "3679806.64111",
    "final_y": "523760.020859",
    "longitude": "-90.07368670736403",
    "latitude": "29.93420963516469",
    "geocoded_column": {
      "latitude": "29.93420963516469",
      "longitude": "-90.07368670736403"
    }
  },
  {
    "service_request": "2024-1104499",
    "request_type": "Parks & Parkways",
    "request_reason": "Request Tree Service (Right of Way/Public Property)",
    "date_created": "2024-06-17T17:35:19.000",
    "date_modified": "2024-06-17T17:35:19.000",
    "request_status": "Pending",
    "responsible_agency": "Department of Parks & Parkway",
    "final_address": "1532 Camp St",
    "address_councildis": "B",
    "status": "Pending",
    "rowid": "1104499",
    "final_x": "3679781.52904",
    "final_y": "523657.160187",
    "longitude": "-90.07376955487986",
    "latitude": "29.933927561278963",
    "geocoded_column": {
      "latitude": "29.933927561278963",
      "longitude": "-90.07376955487986"
    }
  },
  {
    "service_request": "2024-1104498",
    "request_type": "Trash/Recycling",
    "request_reason": "Order Recycling Cart",
    "date_created": "2024-06-17T17:21:49.000",
    "date_modified": "2024-06-17T17:21:49.000",
    "request_status": "Pending",
    "responsible_agency": "Department of Sanitation",
    "final_address": "3516 Baudin St",
    "address_councildis": "B",
    "status": "Pending",
    "rowid": "1104498",
    "final_x": "3671745.39643",
    "final_y": "535783.151303",
    "longitude": "-90.09872687237791",
    "latitude": "29.967510495787824",
    "geocoded_column": {
      "latitude": "29.967510495787824",
      "longitude": "-90.09872687237791"
    }
  },
  {
    "service_request": "2024-1104497",
    "request_type": "Trash/Recycling",
    "request_reason": "Request a Large Item Pick Up",
    "date_created": "2024-06-17T17:18:57.000",
    "date_modified": "2024-06-17T17:18:57.000",
    "request_status": "Pending",
    "responsible_agency": "Department of Sanitation",
    "final_address": "237 S Solomon St",
    "address_councildis": "A",
    "status": "Assigned to Contractor",
    "contractor": "IV Waste",
    "rowid": "1104497",
    "final_x": "3670112.28391",
    "final_y": "538174.774601",
    "longitude": "-90.10380324413991",
    "latitude": "29.974134939759843",
    "geocoded_column": {
      "latitude": "29.974134939759843",
      "longitude": "-90.10380324413991"
    }
  },
  {
    "service_request": "2024-1104496",
    "request_type": "Trash/Recycling",
    "request_reason": "Request a Large Item Pick Up",
    "date_created": "2024-06-17T17:02:44.000",
    "date_modified": "2024-06-17T17:21:35.000",
    "case_close_date": "2024-06-17T12:21:35.000",
    "request_status": "Closed",
    "responsible_agency": "Department of Sanitation",
    "final_address": "7625 Primrose Dr",
    "address_councildis": "E",
    "status": "Assigned to Contractor",
    "contractor": "Waste Pro",
    "contractor_action": "Completed",
    "rowid": "1104496",
    "final_x": "3701795.87697",
    "final_y": "561330.805278",
    "longitude": "-90.00289073707225",
    "latitude": "30.036832443931306",
    "geocoded_column": {
      "latitude": "30.036832443931306",
      "longitude": "-90.00289073707225"
    }
  },
  {
    "service_request": "2024-1104495",
    "request_type": "Mosquito, Termite & Rodent Control",
    "request_reason": "Non-Rodent Complaint (Mice, Possums, Snakes)",
    "date_created": "2024-06-17T17:02:32.000",
    "date_modified": "2024-06-17T17:02:32.000",
    "request_status": "Pending",
    "responsible_agency": "Mosquito, Termite & Rodent Control Board",
    "final_address": "3443 Esplanade Ave Apt 751",
    "address_councildis": "A",
    "status": "Pending",
    "rowid": "1104495",
    "final_x": "3675014.08085",
    "final_y": "542104.302861",
    "longitude": "-90.08818736452756",
    "latitude": "29.98479425691838",
    "geocoded_column": {
      "latitude": "29.98479425691838",
      "longitude": "-90.08818736452756"
    }
  },
  {
    "service_request": "2024-1104494",
    "request_type": "Trash/Recycling",
    "request_reason": "Missed Trash Pick-Up",
    "date_created": "2024-06-17T16:57:20.000",
    "date_modified": "2024-06-17T16:57:21.000",
    "request_status": "Pending",
    "responsible_agency": "Department of Sanitation",
    "final_address": "2412 Valentine Ct",
    "address_councildis": "C",
    "status": "Assigned to Contractor",
    "contractor": "Richards Disposal",
    "rowid": "1104494",
    "final_x": "3699332.43991",
    "final_y": "522363.176122",
    "longitude": "-90.01209564345763",
    "latitude": "29.929764133581187",
    "geocoded_column": {
      "latitude": "29.929764133581187",
      "longitude": "-90.01209564345763"
    }
  },
  {
    "service_request": "2024-1104493",
    "request_type": "Trash/Recycling",
    "request_reason": "Replace Trash Cart",
    "date_created": "2024-06-17T16:55:53.000",
    "date_modified": "2024-06-17T16:55:53.000",
    "request_status": "Pending",
    "responsible_agency": "Department of Sanitation",
    "final_address": "1200 BLK Orange St",
    "address_councildis": "B",
    "status": "Assigned to Contractor",
    "contractor": "IV Waste",
    "rowid": "1104493",
    "final_x": "3679523.27412",
    "final_y": "523623.562449",
    "longitude": "-90.07458601981698",
    "latitude": "29.933842981980135",
    "geocoded_column": {
      "latitude": "29.933842981980135",
      "longitude": "-90.07458601981698"
    }
  },
  {
    "service_request": "2024-1104492",
    "request_type": "Trash/Recycling",
    "request_reason": "Request a Large Item Pick Up",
    "date_created": "2024-06-17T16:53:08.000",
    "date_modified": "2024-06-17T16:53:09.000",
    "request_status": "Pending",
    "responsible_agency": "Department of Sanitation",
    "final_address": "BULLARD AVE & S OAKRIDGE CT",
    "address_councildis": "E",
    "status": "Assigned to Contractor",
    "contractor": "Waste Pro",
    "rowid": "1104492",
    "final_x": "3713188.4",
    "final_y": "567377.08",
    "longitude": "-89.96666039533747",
    "latitude": "30.053088615904297",
    "geocoded_column": {
      "latitude": "30.053088615904297",
      "longitude": "-89.96666039533747"
    }
  },
  {
    "service_request": "2024-1104491",
    "request_type": "Roads/Drainage",
    "request_reason": "Pothole",
    "date_created": "2024-06-17T16:53:00.000",
    "date_modified": "2024-06-17T16:54:10.000",
    "request_status": "Pending",
    "responsible_agency": "Department of Public Works",
    "final_address": "8200 Old Gentilly Rd",
    "address_councildis": "E",
    "status": "Pending",
    "rowid": "1104491",
    "final_x": "3706184.71537",
    "final_y": "552342.66095",
    "longitude": "-89.98935433901896",
    "latitude": "30.011977693065493",
    "geocoded_column": {
      "latitude": "30.011977693065493",
      "longitude": "-89.98935433901896"
    }
  },
  {
    "service_request": "2024-1104490",
    "request_type": "Trash/Recycling",
    "request_reason": "Request a Large Item Pick Up",
    "date_created": "2024-06-17T16:51:38.000",
    "date_modified": "2024-06-17T16:51:39.000",
    "request_status": "Pending",
    "responsible_agency": "Department of Sanitation",
    "final_address": "8020 Vincent Rd Apt 3",
    "address_councildis": "E",
    "status": "Assigned to Contractor",
    "contractor": "Waste Pro",
    "rowid": "1104490",
    "final_x": "3717391.70501",
    "final_y": "572687.042153",
    "longitude": "-89.95317288661498",
    "latitude": "30.067550287912532",
    "geocoded_column": {
      "latitude": "30.067550287912532",
      "longitude": "-89.95317288661498"
    }
  },
  {
    "service_request": "2024-1104489",
    "request_type": "Trash/Recycling",
    "request_reason": "Request a Large Item Pick Up",
    "date_created": "2024-06-17T16:50:21.000",
    "date_modified": "2024-06-17T16:50:21.000",
    "request_status": "Pending",
    "responsible_agency": "Department of Sanitation",
    "final_address": "5019 W St Andrews Cir",
    "address_councildis": "E",
    "status": "Assigned to Contractor",
    "contractor": "Waste Pro",
    "rowid": "1104489",
    "final_x": "3719207.15077",
    "final_y": "559374.061725",
    "longitude": "-89.94794282069061",
    "latitude": "30.030884823886584",
    "geocoded_column": {
      "latitude": "30.030884823886584",
      "longitude": "-89.94794282069061"
    }
  },
  {
    "service_request": "2024-1104488",
    "request_type": "Trash/Recycling",
    "request_reason": "Order Recycling Cart",
    "date_created": "2024-06-17T16:42:18.000",
    "date_modified": "2024-06-17T16:42:18.000",
    "request_status": "Pending",
    "responsible_agency": "Department of Sanitation",
    "final_address": "1466 Mandolin St",
    "address_councildis": "D",
    "status": "Pending",
    "rowid": "1104488",
    "final_x": "3678449.30818",
    "final_y": "547956.031314",
    "longitude": "-90.07713433354566",
    "latitude": "30.00078136363834",
    "geocoded_column": {
      "latitude": "30.00078136363834",
      "longitude": "-90.07713433354566"
    }
  },
  {
    "service_request": "2024-1104486",
    "request_type": "Property Maintenance",
    "request_reason": "Property Maintenance",
    "date_created": "2024-06-17T16:38:42.000",
    "date_modified": "2024-06-17T16:38:43.000",
    "request_status": "Pending",
    "responsible_agency": "Department of Code Enforcement",
    "final_address": "1830 N Miro St",
    "address_councildis": "D",
    "status": "Pending",
    "rowid": "1104486",
    "final_x": "3681991.5494",
    "final_y": "540102.737163",
    "longitude": "-90.06621849148183",
    "latitude": "29.979080323015395",
    "geocoded_column": {
      "latitude": "29.979080323015395",
      "longitude": "-90.06621849148183"
    }
  },
  {
    "service_request": "2024-1104485",
    "request_type": "Trash/Recycling",
    "request_reason": "Repair Trash Cart",
    "date_created": "2024-06-17T16:30:32.000",
    "date_modified": "2024-06-17T16:30:33.000",
    "request_status": "Pending",
    "responsible_agency": "Department of Sanitation",
    "final_address": "1525 Kabel Dr",
    "address_councildis": "C",
    "status": "Assigned to Contractor",
    "contractor": "Richards Disposal",
    "rowid": "1104485",
    "final_x": "3700653.87793",
    "final_y": "522175.702714",
    "longitude": "-90.00793096704653",
    "latitude": "29.929206683329692",
    "geocoded_column": {
      "latitude": "29.929206683329692",
      "longitude": "-90.00793096704653"
    }
  },
  {
    "service_request": "2024-1104484",
    "request_type": "Roads/Drainage",
    "request_reason": "Street Subsidence (Sinking)",
    "date_created": "2024-06-17T16:30:04.000",
    "date_modified": "2024-06-17T16:30:04.000",
    "request_status": "Pending",
    "responsible_agency": "Department of Public Works",
    "final_address": "2542 Valentine Ct",
    "address_councildis": "C",
    "status": "Pending",
    "rowid": "1104484",
    "final_x": "3699167.34423",
    "final_y": "521912.07833",
    "longitude": "-90.01263323203119",
    "latitude": "29.928529003437042",
    "geocoded_column": {
      "latitude": "29.928529003437042",
      "longitude": "-90.01263323203119"
    }
  },
  {
    "service_request": "2024-1104483",
    "request_type": "Trash/Recycling",
    "request_reason": "Request a Large Item Pick Up",
    "date_created": "2024-06-17T16:27:37.000",
    "date_modified": "2024-06-17T16:27:38.000",
    "request_status": "Pending",
    "responsible_agency": "Department of Sanitation",
    "final_address": "7646 Lafourche St",
    "address_councildis": "E",
    "status": "Assigned to Contractor",
    "contractor": "Waste Pro",
    "rowid": "1104483",
    "final_x": "3710100.12408",
    "final_y": "565628.094306",
    "longitude": "-89.9764869699961",
    "latitude": "30.048380531597676",
    "geocoded_column": {
      "latitude": "30.048380531597676",
      "longitude": "-89.9764869699961"
    }
  },
  {
    "service_request": "2024-1104482",
    "request_type": "Abandoned Vehicles",
    "request_reason": "Abandoned/Junk Vehicles",
    "date_created": "2024-06-17T16:24:14.000",
    "date_modified": "2024-06-17T16:24:14.000",
    "request_status": "Pending",
    "responsible_agency": "Department of Public Works",
    "final_address": "1701 Kabel Dr",
    "address_councildis": "C",
    "status": "Pending",
    "rowid": "1104482",
    "final_x": "3700634.0289",
    "final_y": "521572.573625",
    "longitude": "-90.00801564803969",
    "latitude": "29.92754891794067",
    "geocoded_column": {
      "latitude": "29.92754891794067",
      "longitude": "-90.00801564803969"
    }
  },
  {
    "service_request": "2024-1104481",
    "request_type": "Roads/Drainage",
    "request_reason": "Street Flooding / Drainage",
    "date_created": "2024-06-17T16:24:02.000",
    "date_modified": "2024-06-17T16:24:02.000",
    "request_status": "Pending",
    "responsible_agency": "Department of Public Works",
    "final_address": "1927 DAbadie St",
    "address_councildis": "D",
    "status": "Pending",
    "rowid": "1104481",
    "final_x": "3681608.6708",
    "final_y": "539205.426314",
    "longitude": "-90.06745907851774",
    "latitude": "29.97662466693306",
    "geocoded_column": {
      "latitude": "29.97662466693306",
      "longitude": "-90.06745907851774"
    }
  },
  {
    "service_request": "2024-1104480",
    "request_type": "Trash/Recycling",
    "request_reason": "Illegal Dumping",
    "date_created": "2024-06-17T16:23:59.000",
    "date_modified": "2024-06-17T16:23:59.000",
    "request_status": "Pending",
    "responsible_agency": "Department of Sanitation",
    "final_address": "N ROMAN ST & MANDEVILLE ST",
    "address_councildis": "D",
    "status": "Pending",
    "rowid": "1104480",
    "final_x": "3685570.2",
    "final_y": "538944.08",
    "longitude": "-90.05495657993242",
    "latitude": "29.975785122260923",
    "geocoded_column": {
      "latitude": "29.975785122260923",
      "longitude": "-90.05495657993242"
    }
  },
  {
    "service_request": "2024-1104479",
    "request_type": "Roads/Drainage",
    "request_reason": "Catch Basin - Clogged",
    "date_created": "2024-06-17T16:23:52.000",
    "date_modified": "2024-06-17T16:23:52.000",
    "request_status": "Pending",
    "responsible_agency": "Department of Public Works",
    "final_address": "1712 Ursulines Ave",
    "address_councildis": "D",
    "status": "Pending",
    "rowid": "1104479",
    "final_x": "3680479.58741",
    "final_y": "535854.584711",
    "longitude": "-90.07114164706132",
    "latitude": "29.96744525735647",
    "geocoded_column": {
      "latitude": "29.96744525735647",
      "longitude": "-90.07114164706132"
    }
  },
  {
    "service_request": "2024-1104478",
    "request_type": "Abandoned Vehicles",
    "request_reason": "Abandoned/Junk Vehicles",
    "date_created": "2024-06-17T16:20:50.000",
    "date_modified": "2024-06-17T16:20:50.000",
    "request_status": "Pending",
    "responsible_agency": "Department of Public Works",
    "final_address": "4411 Fiesta St",
    "address_councildis": "C",
    "status": "Pending",
    "rowid": "1104478",
    "final_x": "3700040.44004",
    "final_y": "521693.605177",
    "longitude": "-90.00988503817652",
    "latitude": "29.927900577900537",
    "geocoded_column": {
      "latitude": "29.927900577900537",
      "longitude": "-90.00988503817652"
    }
  },
  {
    "service_request": "2024-1104477",
    "request_type": "Trash/Recycling",
    "request_reason": "Request a Large Item Pick Up",
    "date_created": "2024-06-17T16:20:44.000",
    "date_modified": "2024-06-17T16:20:44.000",
    "request_status": "Pending",
    "responsible_agency": "Department of Sanitation",
    "final_address": "4819 Viola St",
    "address_councildis": "E",
    "status": "Assigned to Contractor",
    "contractor": "Waste Pro",
    "rowid": "1104477",
    "final_x": "3703980.07127",
    "final_y": "555714.803161",
    "longitude": "-89.99619537253862",
    "latitude": "30.0213207087184",
    "geocoded_column": {
      "latitude": "30.0213207087184",
      "longitude": "-89.99619537253862"
    }
  },
  {
    "service_request": "2024-1104476",
    "request_type": "Property Maintenance",
    "request_reason": "Property Maintenance",
    "date_created": "2024-06-17T16:19:07.000",
    "date_modified": "2024-06-17T16:19:08.000",
    "request_status": "Pending",
    "responsible_agency": "Department of Code Enforcement",
    "final_address": "526 Wagner St",
    "address_councildis": "C",
    "status": "Pending",
    "rowid": "1104476",
    "final_x": "3690623.22364",
    "final_y": "529561.023105",
    "longitude": "-90.0393324226902",
    "latitude": "29.94982901728436",
    "geocoded_column": {
      "latitude": "29.94982901728436",
      "longitude": "-90.0393324226902"
    }
  },
  {
    "service_request": "2024-1104475",
    "request_type": "Trash/Recycling",
    "request_reason": "Illegal Dumping",
    "date_created": "2024-06-17T16:17:11.000",
    "date_modified": "2024-06-17T16:17:11.000",
    "request_status": "Pending",
    "responsible_agency": "Department of Sanitation",
    "final_address": "7710 Newcastle St",
    "address_councildis": "E",
    "status": "Pending",
    "rowid": "1104475",
    "final_x": "3697034.49463",
    "final_y": "559619.282717",
    "longitude": "-90.01799973721647",
    "latitude": "30.032277568888805",
    "geocoded_column": {
      "latitude": "30.032277568888805",
      "longitude": "-90.01799973721647"
    }
  },
  {
    "service_request": "2024-1104474",
    "request_type": "Roads/Drainage",
    "request_reason": "Catch Basin - Clogged",
    "date_created": "2024-06-17T16:16:55.000",
    "date_modified": "2024-06-17T16:16:55.000",
    "request_status": "Pending",
    "responsible_agency": "Department of Public Works",
    "final_address": "1927 DAbadie St",
    "address_councildis": "D",
    "status": "Pending",
    "rowid": "1104474",
    "final_x": "3681608.6708",
    "final_y": "539205.426314",
    "longitude": "-90.06745907851774",
    "latitude": "29.97662466693306",
    "geocoded_column": {
      "latitude": "29.97662466693306",
      "longitude": "-90.06745907851774"
    }
  },
  {
    "service_request": "2024-1104473",
    "request_type": "Abandoned Vehicles",
    "request_reason": "Abandoned/Junk Vehicles",
    "date_created": "2024-06-17T16:16:48.000",
    "date_modified": "2024-06-17T16:16:48.000",
    "request_status": "Pending",
    "responsible_agency": "Department of Public Works",
    "final_address": "1701 Kabel Dr",
    "address_councildis": "C",
    "status": "Pending",
    "rowid": "1104473",
    "final_x": "3700634.0289",
    "final_y": "521572.573625",
    "longitude": "-90.00801564803969",
    "latitude": "29.92754891794067",
    "geocoded_column": {
      "latitude": "29.92754891794067",
      "longitude": "-90.00801564803969"
    }
  },
  {
    "service_request": "2024-1104472",
    "request_type": "Traffic Signals/Signs/Striping/Streetlights",
    "request_reason": "Street Light Knocked Down/Leaning",
    "date_created": "2024-06-17T16:13:49.000",
    "date_modified": "2024-06-17T16:13:49.000",
    "request_status": "Pending",
    "responsible_agency": "Department of Public Works",
    "final_address": "PAINTERS ST & N DORGENOIS ST",
    "address_councildis": "D",
    "status": "Pending",
    "contractor": "Legacy Professional Services",
    "rowid": "1104472",
    "final_x": "3687153.8",
    "final_y": "541663.18",
    "longitude": "-90.04985894477136",
    "latitude": "29.983213011558263",
    "geocoded_column": {
      "latitude": "29.983213011558263",
      "longitude": "-90.04985894477136"
    }
  },
  {
    "service_request": "2024-1104471",
    "request_type": "Traffic Signals/Signs/Striping/Streetlights",
    "request_reason": "Street Light Outage/Malfunction",
    "date_created": "2024-06-17T16:13:32.000",
    "date_modified": "2024-06-17T16:13:33.000",
    "request_status": "Pending",
    "responsible_agency": "Department of Public Works",
    "final_address": "PAINTERS ST & N DORGENOIS ST",
    "address_councildis": "D",
    "status": "Assigned to Contractor",
    "contractor": "Legacy Professional Services",
    "rowid": "1104471",
    "final_x": "3687153.8",
    "final_y": "541663.18",
    "longitude": "-90.04985894477136",
    "latitude": "29.983213011558263",
    "geocoded_column": {
      "latitude": "29.983213011558263",
      "longitude": "-90.04985894477136"
    }
  },
  {
    "service_request": "2024-1104470",
    "request_type": "Roads/Drainage",
    "request_reason": "Catch Basin - Broken/Damage",
    "date_created": "2024-06-17T16:12:53.000",
    "date_modified": "2024-06-17T16:12:53.000",
    "request_status": "Pending",
    "responsible_agency": "Department of Public Works",
    "final_address": "5200 BLK Canal Blvd",
    "address_councildis": "A",
    "status": "Pending",
    "rowid": "1104470",
    "final_x": "3667945.90817",
    "final_y": "542314.957809",
    "longitude": "-90.11050563743648",
    "latitude": "29.9855827869417",
    "geocoded_column": {
      "latitude": "29.9855827869417",
      "longitude": "-90.11050563743648"
    }
  },
  {
    "service_request": "2024-1104469",
    "request_type": "Trash/Recycling",
    "request_reason": "Repair Trash Cart",
    "date_created": "2024-06-17T16:12:15.000",
    "date_modified": "2024-06-17T16:12:15.000",
    "request_status": "Pending",
    "responsible_agency": "Department of Sanitation",
    "final_address": "0 BLK Architect St",
    "address_councildis": "C",
    "status": "Assigned to Contractor",
    "contractor": "IV Waste",
    "rowid": "1104469",
    "final_x": "3687142.46885",
    "final_y": "534686.498656",
    "longitude": "-90.05014150821198",
    "latitude": "29.964029935213947",
    "geocoded_column": {
      "latitude": "29.964029935213947",
      "longitude": "-90.05014150821198"
    }
  },
  {
    "service_request": "2024-1104468",
    "request_type": "Trash/Recycling",
    "request_reason": "Order Recycling Cart",
    "date_created": "2024-06-17T16:09:05.000",
    "date_modified": "2024-06-17T16:09:05.000",
    "request_status": "Pending",
    "responsible_agency": "Department of Sanitation",
    "final_address": "7440 Seven Oaks Rd",
    "address_councildis": "E",
    "status": "Pending",
    "rowid": "1104468",
    "final_x": "3712393.98898",
    "final_y": "565422.893538",
    "longitude": "-89.96924481948815",
    "latitude": "30.047741425867912",
    "geocoded_column": {
      "latitude": "30.047741425867912",
      "longitude": "-89.96924481948815"
    }
  },
  {
    "service_request": "2024-1104467",
    "request_type": "Healthy Homes",
    "request_reason": "Healthy Homes",
    "date_created": "2024-06-17T16:07:32.000",
    "date_modified": "2024-06-17T16:07:32.000",
    "request_status": "Pending",
    "responsible_agency": "Department of Code Enforcement",
    "final_address": "1926 Pauline St",
    "address_councildis": "D",
    "status": "Pending",
    "rowid": "1104467",
    "final_x": "3691966.91817",
    "final_y": "538685.278473",
    "longitude": "-90.03476328229999",
    "latitude": "29.974875727615707",
    "geocoded_column": {
      "latitude": "29.974875727615707",
      "longitude": "-90.03476328229999"
    }
  },
  {
    "service_request": "2024-1104466",
    "request_type": "Roads/Drainage",
    "request_reason": "Pothole",
    "date_created": "2024-06-17T16:05:36.000",
    "date_modified": "2024-06-17T16:05:36.000",
    "request_status": "Pending",
    "responsible_agency": "Department of Public Works",
    "final_address": "200 BLK Whitney Ave",
    "address_councildis": "C",
    "status": "Pending",
    "rowid": "1104466",
    "final_x": "3690250.15522",
    "final_y": "530860.592594",
    "longitude": "-90.04046406898377",
    "latitude": "29.953413964270037",
    "geocoded_column": {
      "latitude": "29.953413964270037",
      "longitude": "-90.04046406898377"
    }
  },
  {
    "service_request": "2024-1104465",
    "request_type": "Abandoned Vehicles",
    "request_reason": "Abandoned/Junk Vehicles",
    "date_created": "2024-06-17T15:51:32.000",
    "date_modified": "2024-06-17T15:51:33.000",
    "request_status": "Pending",
    "responsible_agency": "Department of Public Works",
    "final_address": "2600 Josephine St",
    "address_councildis": "B",
    "status": "Pending",
    "rowid": "1104465",
    "final_x": "3675677.27029",
    "final_y": "526797.417982",
    "longitude": "-90.08661867528656",
    "latitude": "29.94268565695838",
    "geocoded_column": {
      "latitude": "29.94268565695838",
      "longitude": "-90.08661867528656"
    }
  },
  {
    "service_request": "2024-1104464",
    "request_type": "Abandoned Vehicles",
    "request_reason": "Abandoned/Junk Vehicles",
    "date_created": "2024-06-17T15:51:09.000",
    "date_modified": "2024-06-17T15:51:10.000",
    "request_status": "Pending",
    "responsible_agency": "Department of Public Works",
    "final_address": "2100 BLK dAbadie St",
    "address_councildis": "D",
    "status": "Pending",
    "rowid": "1104464",
    "final_x": "3681078.19194",
    "final_y": "539553.404933",
    "longitude": "-90.06912236792546",
    "latitude": "29.97759759098966",
    "geocoded_column": {
      "latitude": "29.97759759098966",
      "longitude": "-90.06912236792546"
    }
  },
  {
    "service_request": "2024-1104463",
    "request_type": "Trash/Recycling",
    "request_reason": "Missed Trash Pick-Up",
    "date_created": "2024-06-17T15:50:34.000",
    "date_modified": "2024-06-17T15:50:35.000",
    "request_status": "Pending",
    "responsible_agency": "Department of Sanitation",
    "final_address": "13880 Hayne Blvd Ste 2",
    "address_councildis": "E",
    "status": "Assigned to Contractor",
    "contractor": "Waste Pro",
    "rowid": "1104463",
    "final_x": "3717352.01266",
    "final_y": "572733.741609",
    "longitude": "-89.95329658215093",
    "latitude": "30.067680006367024",
    "geocoded_column": {
      "latitude": "30.067680006367024",
      "longitude": "-89.95329658215093"
    }
  },
  {
    "service_request": "2024-1104462",
    "request_type": "Trash/Recycling",
    "request_reason": "Request a Large Item Pick Up",
    "date_created": "2024-06-17T15:49:31.000",
    "date_modified": "2024-06-17T15:49:32.000",
    "request_status": "Pending",
    "responsible_agency": "Department of Sanitation",
    "final_address": "7262 Canal Blvd",
    "address_councildis": "D",
    "status": "Assigned to Contractor",
    "contractor": "IV Waste",
    "rowid": "1104462",
    "final_x": "3669025.99828",
    "final_y": "555231.406361",
    "longitude": "-90.10665730303651",
    "latitude": "30.021066785539393",
    "geocoded_column": {
      "latitude": "30.021066785539393",
      "longitude": "-90.10665730303651"
    }
  },
  {
    "service_request": "2024-1104461",
    "request_type": "Traffic Signals/Signs/Striping/Streetlights",
    "request_reason": "Street Light Outage/Malfunction",
    "date_created": "2024-06-17T15:49:03.000",
    "date_modified": "2024-06-17T15:49:03.000",
    "request_status": "Pending",
    "responsible_agency": "Department of Public Works",
    "final_address": "5750 Pembrook Dr",
    "address_councildis": "C",
    "status": "Assigned to Contractor",
    "contractor": "Legacy Professional Services",
    "rowid": "1104461",
    "final_x": "3704970.83249",
    "final_y": "520812.315513",
    "longitude": "-89.99435357253317",
    "latitude": "29.925319834870983",
    "geocoded_column": {
      "latitude": "29.925319834870983",
      "longitude": "-89.99435357253317"
    }
  },
  {
    "service_request": "2024-1104460",
    "request_type": "Trash/Recycling",
    "request_reason": "Request a Large Item Pick Up",
    "date_created": "2024-06-17T15:47:56.000",
    "date_modified": "2024-06-17T15:47:57.000",
    "request_status": "Pending",
    "responsible_agency": "Department of Sanitation",
    "final_address": "2911 General Pershing St",
    "address_councildis": "B",
    "status": "Assigned to Contractor",
    "contractor": "IV Waste",
    "rowid": "1104460",
    "final_x": "3670838.77844",
    "final_y": "525611.867133",
    "longitude": "-90.10193519319607",
    "latitude": "29.939569645373318",
    "geocoded_column": {
      "latitude": "29.939569645373318",
      "longitude": "-90.10193519319607"
    }
  },
  {
    "service_request": "2024-1104459",
    "request_type": "Property Maintenance",
    "request_reason": "Property Maintenance",
    "date_created": "2024-06-17T15:46:33.000",
    "date_modified": "2024-06-17T15:46:33.000",
    "request_status": "Pending",
    "responsible_agency": "Department of Code Enforcement",
    "final_address": "2126 St Andrew St",
    "address_councildis": "B",
    "status": "Pending",
    "rowid": "1104459",
    "final_x": "3676861.71425",
    "final_y": "525800.089725",
    "longitude": "-90.0829134670121",
    "latitude": "29.939907844651696",
    "geocoded_column": {
      "latitude": "29.939907844651696",
      "longitude": "-90.0829134670121"
    }
  },
  {
    "service_request": "2024-1104458",
    "request_type": "Roads/Drainage",
    "request_reason": "Catch Basin - Broken/Damage",
    "date_created": "2024-06-17T15:46:28.000",
    "date_modified": "2024-06-17T15:46:29.000",
    "request_status": "Pending",
    "responsible_agency": "Department of Public Works",
    "final_address": "2933 General Pershing St",
    "address_councildis": "B",
    "status": "Pending",
    "rowid": "1104458",
    "final_x": "3670836.28007",
    "final_y": "525639.991229",
    "longitude": "-90.10194212669953",
    "latitude": "29.939647051342956",
    "geocoded_column": {
      "latitude": "29.939647051342956",
      "longitude": "-90.10194212669953"
    }
  },
  {
    "service_request": "2024-1104457",
    "request_type": "Roads/Drainage",
    "request_reason": "Catch Basin - Clogged",
    "date_created": "2024-06-17T15:46:01.000",
    "date_modified": "2024-06-17T15:46:01.000",
    "request_status": "Pending",
    "responsible_agency": "Department of Public Works",
    "final_address": "2933 General Pershing St",
    "address_councildis": "B",
    "status": "Pending",
    "rowid": "1104457",
    "final_x": "3670836.28007",
    "final_y": "525639.991229",
    "longitude": "-90.10194212669953",
    "latitude": "29.939647051342956",
    "geocoded_column": {
      "latitude": "29.939647051342956",
      "longitude": "-90.10194212669953"
    }
  },
  {
    "service_request": "2024-1104456",
    "request_type": "Roads/Drainage",
    "request_reason": "Catch Basin - Clogged",
    "date_created": "2024-06-17T15:45:48.000",
    "date_modified": "2024-06-17T15:45:48.000",
    "request_status": "Pending",
    "responsible_agency": "Department of Public Works",
    "final_address": "1401 Eliza St",
    "address_councildis": "C",
    "status": "Pending",
    "rowid": "1104456",
    "final_x": "3689895.12732",
    "final_y": "529777.255745",
    "longitude": "-90.04162365399591",
    "latitude": "29.950446171400273",
    "geocoded_column": {
      "latitude": "29.950446171400273",
      "longitude": "-90.04162365399591"
    }
  },
  {
    "service_request": "2024-1104455",
    "request_type": "Property Maintenance",
    "request_reason": "Property Maintenance",
    "date_created": "2024-06-17T15:45:26.000",
    "date_modified": "2024-06-17T15:45:26.000",
    "request_status": "Pending",
    "responsible_agency": "Department of Code Enforcement",
    "final_address": "2126 St Andrew St",
    "address_councildis": "B",
    "status": "Pending",
    "rowid": "1104455",
    "final_x": "3676861.71425",
    "final_y": "525800.089725",
    "longitude": "-90.0829134670121",
    "latitude": "29.939907844651696",
    "geocoded_column": {
      "latitude": "29.939907844651696",
      "longitude": "-90.0829134670121"
    }
  },
  {
    "service_request": "2024-1104454",
    "request_type": "Traffic Signals/Signs/Striping/Streetlights",
    "request_reason": "Traffic Signal Malfunctioning/Damaged",
    "date_created": "2024-06-17T15:42:38.000",
    "date_modified": "2024-06-17T15:42:38.000",
    "request_status": "Pending",
    "responsible_agency": "Department of Public Works",
    "final_address": "JACKSON AVE & ORETHA CASTLE HALEY BLVD",
    "address_councildis": "B",
    "status": "Pending",
    "rowid": "1104454",
    "final_x": "3676822.0",
    "final_y": "524744.08",
    "longitude": "-90.08307522877575",
    "latitude": "29.937005356723873",
    "geocoded_column": {
      "latitude": "29.937005356723873",
      "longitude": "-90.08307522877575"
    }
  },
  {
    "service_request": "2024-1104453",
    "request_type": "Trash/Recycling",
    "request_reason": "Request a Large Item Pick Up",
    "date_created": "2024-06-17T15:38:50.000",
    "date_modified": "2024-06-17T15:38:51.000",
    "request_status": "Pending",
    "responsible_agency": "Department of Sanitation",
    "final_address": "421 38Th St",
    "address_councildis": "A",
    "status": "Assigned to Contractor",
    "contractor": "IV Waste",
    "rowid": "1104453",
    "final_x": "3664850.0642",
    "final_y": "552758.575446",
    "longitude": "-90.1199348666331",
    "latitude": "30.01438963074565",
    "geocoded_column": {
      "latitude": "30.01438963074565",
      "longitude": "-90.1199348666331"
    }
  },
  {
    "service_request": "2024-1104452",
    "request_type": "Trash/Recycling",
    "request_reason": "Request a Large Item Pick Up",
    "date_created": "2024-06-17T15:37:58.000",
    "date_modified": "2024-06-17T15:37:59.000",
    "request_status": "Pending",
    "responsible_agency": "Department of Sanitation",
    "final_address": "2519 Bristol Pl",
    "address_councildis": "C",
    "status": "Assigned to Contractor",
    "contractor": "Richards Disposal",
    "rowid": "1104452",
    "final_x": "3702572.8218",
    "final_y": "521759.55609",
    "longitude": "-90.00188853799541",
    "latitude": "29.928001251950622",
    "geocoded_column": {
      "latitude": "29.928001251950622",
      "longitude": "-90.00188853799541"
    }
  },
  {
    "service_request": "2024-1104451",
    "request_type": "Roads/Drainage",
    "request_reason": "Pothole",
    "date_created": "2024-06-17T15:37:32.000",
    "date_modified": "2024-06-17T15:37:32.000",
    "request_status": "Pending",
    "responsible_agency": "Department of Public Works",
    "final_address": "EARHART BLVD & S MIRO ST",
    "address_councildis": "B",
    "status": "Pending",
    "rowid": "1104451",
    "final_x": "3673847.9",
    "final_y": "530435.18",
    "longitude": "-90.0922700383947",
    "latitude": "29.952742905941317",
    "geocoded_column": {
      "latitude": "29.952742905941317",
      "longitude": "-90.0922700383947"
    }
  },
  {
    "service_request": "2024-1104450",
    "request_type": "Trash/Recycling",
    "request_reason": "Missed Trash Pick-Up",
    "date_created": "2024-06-17T15:36:08.000",
    "date_modified": "2024-06-17T15:36:09.000",
    "request_status": "Pending",
    "responsible_agency": "Department of Sanitation",
    "final_address": "7549 Kingsport Blvd",
    "address_councildis": "E",
    "status": "Assigned to Contractor",
    "contractor": "Waste Pro",
    "rowid": "1104450",
    "final_x": "3720428.59519",
    "final_y": "572806.422057",
    "longitude": "-89.9435682504658",
    "latitude": "30.067777604162508",
    "geocoded_column": {
      "latitude": "30.067777604162508",
      "longitude": "-89.9435682504658"
    }
  },
  {
    "service_request": "2024-1104449",
    "request_type": "Abandoned Vehicles",
    "request_reason": "Vehicle Blocking Your Driveway",
    "date_created": "2024-06-17T15:32:41.000",
    "date_modified": "2024-06-17T15:34:59.000",
    "request_status": "Pending",
    "responsible_agency": "Department of Public Works",
    "final_address": "1430 Lauradale Dr",
    "address_councildis": "C",
    "status": "Pending",
    "rowid": "1104449",
    "final_x": "3692841.11101",
    "final_y": "525931.883709",
    "longitude": "-90.03245965237556",
    "latitude": "29.93978107850556",
    "geocoded_column": {
      "latitude": "29.93978107850556",
      "longitude": "-90.03245965237556"
    }
  },
  {
    "service_request": "2024-1104448",
    "request_type": "Property Maintenance",
    "request_reason": "Property Maintenance",
    "date_created": "2024-06-17T15:31:12.000",
    "date_modified": "2024-06-17T15:31:12.000",
    "request_status": "Pending",
    "responsible_agency": "Department of Code Enforcement",
    "final_address": "4519 Arthur Dr",
    "address_councildis": "E",
    "status": "Pending",
    "rowid": "1104448",
    "final_x": "3707901.45534",
    "final_y": "554096.2758",
    "longitude": "-89.98386522153844",
    "latitude": "30.01674397885752",
    "geocoded_column": {
      "latitude": "30.01674397885752",
      "longitude": "-89.98386522153844"
    }
  },
  {
    "service_request": "2024-1104447",
    "request_type": "Trash/Recycling",
    "request_reason": "MIssed Recycling Pick-Up",
    "date_created": "2024-06-17T15:30:17.000",
    "date_modified": "2024-06-17T15:30:17.000",
    "request_status": "Pending",
    "responsible_agency": "Department of Sanitation",
    "final_address": "411 Eliza St",
    "address_councildis": "C",
    "status": "Assigned to Contractor",
    "contractor": "Richards Disposal",
    "rowid": "1104447",
    "final_x": "3686749.0095",
    "final_y": "529697.821441",
    "longitude": "-90.05156024131114",
    "latitude": "29.95032489952229",
    "geocoded_column": {
      "latitude": "29.95032489952229",
      "longitude": "-90.05156024131114"
    }
  },
  {
    "service_request": "2024-1104446",
    "request_type": "Trash/Recycling",
    "request_reason": "Request a Large Item Pick Up",
    "date_created": "2024-06-17T15:29:43.000",
    "date_modified": "2024-06-17T15:29:43.000",
    "request_status": "Pending",
    "responsible_agency": "Department of Sanitation",
    "final_address": "4535 St Bernard Ave",
    "address_councildis": "D",
    "status": "Assigned to Contractor",
    "contractor": "IV Waste",
    "rowid": "1104446",
    "final_x": "3676885.45147",
    "final_y": "549174.430739",
    "longitude": "-90.08203264251642",
    "latitude": "30.004178579807775",
    "geocoded_column": {
      "latitude": "30.004178579807775",
      "longitude": "-90.08203264251642"
    }
  },
  {
    "service_request": "2024-1104444",
    "request_type": "Property Maintenance",
    "request_reason": "Property Maintenance",
    "date_created": "2024-06-17T15:28:43.000",
    "date_modified": "2024-06-17T15:28:43.000",
    "request_status": "Pending",
    "responsible_agency": "Department of Code Enforcement",
    "final_address": "4627 Arthur Dr",
    "address_councildis": "E",
    "status": "Pending",
    "rowid": "1104444",
    "final_x": "3707843.4588",
    "final_y": "554681.147864",
    "longitude": "-89.98402670372136",
    "latitude": "30.01835402847956",
    "geocoded_column": {
      "latitude": "30.01835402847956",
      "longitude": "-89.98402670372136"
    }
  },
  {
    "service_request": "2024-1104443",
    "request_type": "Trash/Recycling",
    "request_reason": "Repair Recycling Cart",
    "date_created": "2024-06-17T15:27:55.000",
    "date_modified": "2024-06-17T15:27:55.000",
    "request_status": "Pending",
    "responsible_agency": "Department of Sanitation",
    "final_address": "4055 Clermont Dr",
    "address_councildis": "D",
    "status": "Pending",
    "rowid": "1104443",
    "final_x": "3684964.18204",
    "final_y": "547476.929169",
    "longitude": "-90.05657026904777",
    "latitude": "29.999266007550638",
    "geocoded_column": {
      "latitude": "29.999266007550638",
      "longitude": "-90.05657026904777"
    }
  },
  {
    "service_request": "2024-1104442",
    "request_type": "Property Maintenance",
    "request_reason": "Property Maintenance",
    "date_created": "2024-06-17T15:27:33.000",
    "date_modified": "2024-06-17T15:27:33.000",
    "request_status": "Pending",
    "responsible_agency": "Department of Code Enforcement",
    "final_address": "4627 Arthur Dr",
    "address_councildis": "E",
    "status": "Pending",
    "rowid": "1104442",
    "final_x": "3707843.4588",
    "final_y": "554681.147864",
    "longitude": "-89.98402670372136",
    "latitude": "30.01835402847956",
    "geocoded_column": {
      "latitude": "30.01835402847956",
      "longitude": "-89.98402670372136"
    }
  },
  {
    "service_request": "2024-1104441",
    "request_type": "Traffic Signals/Signs/Striping/Streetlights",
    "request_reason": "Street Light Outage/Malfunction",
    "date_created": "2024-06-17T15:25:56.000",
    "date_modified": "2024-06-17T15:25:57.000",
    "request_status": "Pending",
    "responsible_agency": "Department of Public Works",
    "final_address": "1605 Nie Prkwy",
    "address_councildis": "C",
    "status": "Assigned to Contractor",
    "contractor": "Legacy Professional Services",
    "rowid": "1104441",
    "final_x": "3701248.53143",
    "final_y": "525129.564093",
    "longitude": "-90.00594575114143",
    "latitude": "29.93730984838662",
    "geocoded_column": {
      "latitude": "29.93730984838662",
      "longitude": "-90.00594575114143"
    }
  },
  {
    "service_request": "2024-1104440",
    "request_type": "Mosquito, Termite & Rodent Control",
    "request_reason": "Rodent Complaint (Rats)",
    "date_created": "2024-06-17T15:23:36.000",
    "date_modified": "2024-06-17T15:23:50.000",
    "request_status": "Pending",
    "responsible_agency": "Mosquito, Termite & Rodent Control Board",
    "final_address": "608 Second St",
    "address_councildis": "B",
    "rowid": "1104440",
    "final_x": "3678737.4987",
    "final_y": "519861.50668",
    "longitude": "-90.07719687638145",
    "latitude": "29.923522269954404",
    "geocoded_column": {
      "latitude": "29.923522269954404",
      "longitude": "-90.07719687638145"
    }
  },
  {
    "service_request": "2024-1104439",
    "request_type": "Property Maintenance",
    "request_reason": "Property Maintenance",
    "date_created": "2024-06-17T15:23:13.000",
    "date_modified": "2024-06-17T15:23:15.000",
    "request_status": "Pending",
    "responsible_agency": "Department of Code Enforcement",
    "final_address": "6634 Maumus Ave",
    "address_councildis": "C",
    "status": "Pending",
    "rowid": "1104439",
    "final_x": "3708344.60977",
    "final_y": "516712.034997",
    "longitude": "-89.98385615124366",
    "latitude": "29.91393665936298",
    "geocoded_column": {
      "latitude": "29.91393665936298",
      "longitude": "-89.98385615124366"
    }
  },
  {
    "service_request": "2024-1104438",
    "request_type": "Traffic Signals/Signs/Striping/Streetlights",
    "request_reason": "Traffic Sign Missing/Damaged",
    "date_created": "2024-06-17T15:22:01.000",
    "date_modified": "2024-06-17T15:22:06.000",
    "request_status": "Pending",
    "responsible_agency": "Department of Public Works",
    "final_address": "PATTERSON DR & NIE PKWY",
    "address_councildis": "C",
    "status": "Pending",
    "rowid": "1104438",
    "final_x": "3701328.2",
    "final_y": "525121.68",
    "longitude": "-90.00569452244666",
    "latitude": "29.937285631944725",
    "geocoded_column": {
      "latitude": "29.937285631944725",
      "longitude": "-90.00569452244666"
    }
  },
  {
    "service_request": "2024-1104437",
    "request_type": "Property Maintenance",
    "request_reason": "Property Maintenance",
    "date_created": "2024-06-17T15:20:56.000",
    "date_modified": "2024-06-17T15:20:56.000",
    "request_status": "Pending",
    "responsible_agency": "Department of Code Enforcement",
    "final_address": "4423 Arthur Dr",
    "address_councildis": "E",
    "status": "Pending",
    "rowid": "1104437",
    "final_x": "3707939.03275",
    "final_y": "553739.645527",
    "longitude": "-89.98375976526667",
    "latitude": "30.015762166641117",
    "geocoded_column": {
      "latitude": "30.015762166641117",
      "longitude": "-89.98375976526667"
    }
  },
  {
    "service_request": "2024-1104436",
    "request_type": "Graffiti Removal",
    "request_reason": "Graffiti Removal",
    "date_created": "2024-06-17T15:19:48.000",
    "date_modified": "2024-06-17T15:19:51.000",
    "request_status": "Pending",
    "responsible_agency": "Department of Code Enforcement",
    "final_address": "819 Orleans Ave",
    "address_councildis": "C",
    "status": "Pending",
    "rowid": "1104436",
    "final_x": "3682262.54754",
    "final_y": "532937.362884",
    "longitude": "-90.06561295756255",
    "latitude": "29.95936977337671",
    "geocoded_column": {
      "latitude": "29.95936977337671",
      "longitude": "-90.06561295756255"
    }
  },
  {
    "service_request": "2024-1104435",
    "request_type": "Trash/Recycling",
    "request_reason": "Repair Recycling Cart",
    "date_created": "2024-06-17T15:18:53.000",
    "date_modified": "2024-06-17T15:18:57.000",
    "request_status": "Pending",
    "responsible_agency": "Department of Sanitation",
    "final_address": "1605 Nie Prkwy",
    "address_councildis": "C",
    "status": "Pending",
    "rowid": "1104435",
    "final_x": "3701248.53143",
    "final_y": "525129.564093",
    "longitude": "-90.00594575114143",
    "latitude": "29.93730984838662",
    "geocoded_column": {
      "latitude": "29.93730984838662",
      "longitude": "-90.00594575114143"
    }
  },
  {
    "service_request": "2024-1104434",
    "request_type": "Trash/Recycling",
    "request_reason": "Request a Large Item Pick Up",
    "date_created": "2024-06-17T15:16:12.000",
    "date_modified": "2024-06-17T15:16:19.000",
    "request_status": "Pending",
    "responsible_agency": "Department of Sanitation",
    "final_address": "5547 Pauline Dr",
    "address_councildis": "D",
    "status": "Assigned to Contractor",
    "contractor": "IV Waste",
    "rowid": "1104434",
    "final_x": "3692077.92438",
    "final_y": "554567.377624",
    "longitude": "-90.03384384126831",
    "latitude": "30.01854224956042",
    "geocoded_column": {
      "latitude": "30.01854224956042",
      "longitude": "-90.03384384126831"
    }
  },
  {
    "service_request": "2024-1104433",
    "request_type": "Parks & Parkways",
    "request_reason": "Request Tree Service (Right of Way/Public Property)",
    "date_created": "2024-06-17T15:15:23.000",
    "date_modified": "2024-06-17T15:15:23.000",
    "request_status": "Pending",
    "responsible_agency": "Department of Parks & Parkway",
    "final_address": "5900 Providence Pl, New Orleans, Louisiana, 70126",
    "address_councildis": "D",
    "status": "Pending",
    "rowid": "1104433",
    "final_x": "3688140.41423",
    "final_y": "554993.352409",
    "longitude": "-90.04626978810329",
    "latitude": "30.01983571945994",
    "geocoded_column": {
      "latitude": "30.01983571945994",
      "longitude": "-90.04626978810329"
    }
  },
  {
    "service_request": "2024-1104432",
    "request_type": "Roads/Drainage",
    "request_reason": "Pothole",
    "date_created": "2024-06-17T15:13:57.000",
    "date_modified": "2024-06-17T15:13:57.000",
    "request_status": "Pending",
    "responsible_agency": "Department of Public Works",
    "final_address": "4216 Chestnut St",
    "address_councildis": "B",
    "status": "Pending",
    "rowid": "1104432",
    "final_x": "3671574.31393",
    "final_y": "519539.203703",
    "longitude": "-90.09981939416457",
    "latitude": "29.922850019854593",
    "geocoded_column": {
      "latitude": "29.922850019854593",
      "longitude": "-90.09981939416457"
    }
  },
  {
    "service_request": "2024-1104431",
    "request_type": "Abandoned Vehicles",
    "request_reason": "Abandoned/Junk Vehicles",
    "date_created": "2024-06-17T15:11:30.000",
    "date_modified": "2024-06-17T15:14:02.000",
    "request_status": "Pending",
    "responsible_agency": "Department of Public Works",
    "final_address": "2552 Valentine Ct",
    "address_councildis": "C",
    "status": "Pending",
    "rowid": "1104431",
    "final_x": "3699161.22589",
    "final_y": "521841.387834",
    "longitude": "-90.01265511825024",
    "latitude": "29.928334822804317",
    "geocoded_column": {
      "latitude": "29.928334822804317",
      "longitude": "-90.01265511825024"
    }
  },
  {
    "service_request": "2024-1104430",
    "request_type": "Trash/Recycling",
    "request_reason": "Request a Large Item Pick Up",
    "date_created": "2024-06-17T15:10:54.000",
    "date_modified": "2024-06-17T15:10:58.000",
    "request_status": "Pending",
    "responsible_agency": "Department of Sanitation",
    "final_address": "3114 Nashville Ave",
    "address_councildis": "A",
    "status": "Assigned to Contractor",
    "contractor": "IV Waste",
    "rowid": "1104430",
    "final_x": "3667726.03713",
    "final_y": "527299.566847",
    "longitude": "-90.11170576740327",
    "latitude": "29.944301889017364",
    "geocoded_column": {
      "latitude": "29.944301889017364",
      "longitude": "-90.11170576740327"
    }
  },
  {
    "service_request": "2024-1104429",
    "request_type": "Trash/Recycling",
    "request_reason": "Request a Large Item Pick Up",
    "date_created": "2024-06-17T15:10:11.000",
    "date_modified": "2024-06-17T15:10:15.000",
    "request_status": "Pending",
    "responsible_agency": "Department of Sanitation",
    "final_address": "908 First St",
    "address_councildis": "B",
    "status": "Assigned to Contractor",
    "contractor": "IV Waste",
    "rowid": "1104429",
    "final_x": "3678393.44386",
    "final_y": "520936.860473",
    "longitude": "-90.07824574866011",
    "latitude": "29.926489509719314",
    "geocoded_column": {
      "latitude": "29.926489509719314",
      "longitude": "-90.07824574866011"
    }
  },
  {
    "service_request": "2024-1104428",
    "request_type": "Roads/Drainage",
    "request_reason": "Street Flooding / Drainage",
    "date_created": "2024-06-17T15:10:05.000",
    "date_modified": "2024-06-17T15:10:07.000",
    "request_status": "Pending",
    "responsible_agency": "Department of Public Works",
    "final_address": "5057 Dreux Ave",
    "address_councildis": "D",
    "status": "Pending",
    "rowid": "1104428",
    "final_x": "3692300.34806",
    "final_y": "553549.488407",
    "longitude": "-90.03317755911401",
    "latitude": "30.015736496567637",
    "geocoded_column": {
      "latitude": "30.015736496567637",
      "longitude": "-90.03317755911401"
    }
  },
  {
    "service_request": "2024-1104427",
    "request_type": "Trash/Recycling",
    "request_reason": "Repair Trash Cart",
    "date_created": "2024-06-17T15:09:49.000",
    "date_modified": "2024-06-17T15:09:55.000",
    "request_status": "Pending",
    "responsible_agency": "Department of Sanitation",
    "final_address": "1923 Flood St",
    "address_councildis": "E",
    "status": "Assigned to Contractor",
    "contractor": "Waste Pro",
    "rowid": "1104427",
    "final_x": "3698600.7793",
    "final_y": "537009.599688",
    "longitude": "-90.01387293565199",
    "latitude": "29.970059825787967",
    "geocoded_column": {
      "latitude": "29.970059825787967",
      "longitude": "-90.01387293565199"
    }
  },
  {
    "service_request": "2024-1104426",
    "request_type": "Trash/Recycling",
    "request_reason": "Request a Large Item Pick Up",
    "date_created": "2024-06-17T15:09:11.000",
    "date_modified": "2024-06-17T15:09:14.000",
    "request_status": "Pending",
    "responsible_agency": "Department of Sanitation",
    "final_address": "404 Nashville Ave",
    "address_councildis": "A",
    "status": "Assigned to Contractor",
    "contractor": "IV Waste",
    "rowid": "1104426",
    "final_x": "3665174.60839",
    "final_y": "517741.201142",
    "longitude": "-90.12008093079088",
    "latitude": "29.91809395972707",
    "geocoded_column": {
      "latitude": "29.91809395972707",
      "longitude": "-90.12008093079088"
    }
  },
  {
    "service_request": "2024-1104425",
    "request_type": "Roads/Drainage",
    "request_reason": "Catch Basin - Clogged",
    "date_created": "2024-06-17T15:07:35.000",
    "date_modified": "2024-06-17T15:07:42.000",
    "request_status": "Pending",
    "responsible_agency": "Department of Public Works",
    "final_address": "1006 N Carrollton Ave",
    "address_councildis": "A",
    "status": "Pending",
    "rowid": "1104425",
    "final_x": "3673758.4322",
    "final_y": "541072.358668",
    "longitude": "-90.09218872739498",
    "latitude": "29.98199422351146",
    "geocoded_column": {
      "latitude": "29.98199422351146",
      "longitude": "-90.09218872739498"
    }
  },
  {
    "service_request": "2024-1104424",
    "request_type": "Trash/Recycling",
    "request_reason": "Request a Large Item Pick Up",
    "date_created": "2024-06-17T15:01:52.000",
    "date_modified": "2024-06-17T15:01:57.000",
    "request_status": "Pending",
    "responsible_agency": "Department of Sanitation",
    "final_address": "8 Curtis Dr",
    "address_councildis": "E",
    "status": "Assigned to Contractor",
    "contractor": "Waste Pro",
    "rowid": "1104424",
    "final_x": "3697689.92637",
    "final_y": "560638.780766",
    "longitude": "-90.01589149649521",
    "latitude": "30.035060091539236",
    "geocoded_column": {
      "latitude": "30.035060091539236",
      "longitude": "-90.01589149649521"
    }
  },
  {
    "service_request": "2024-1104423",
    "request_type": "Trash/Recycling",
    "request_reason": "Request a Large Item Pick Up",
    "date_created": "2024-06-17T14:56:56.000",
    "date_modified": "2024-06-17T14:56:59.000",
    "request_status": "Pending",
    "responsible_agency": "Department of Sanitation",
    "final_address": "7400 Fieldston Rd",
    "address_councildis": "E",
    "status": "Assigned to Contractor",
    "contractor": "Waste Pro",
    "rowid": "1104423",
    "final_x": "3700641.00356",
    "final_y": "559915.356189",
    "longitude": "-90.00659215483287",
    "latitude": "30.03297732895083",
    "geocoded_column": {
      "latitude": "30.03297732895083",
      "longitude": "-90.00659215483287"
    }
  },
  {
    "service_request": "2024-1104422",
    "request_type": "Trash/Recycling",
    "request_reason": "Request a Large Item Pick Up",
    "date_created": "2024-06-17T14:52:38.000",
    "date_modified": "2024-06-17T14:53:10.000",
    "request_status": "Pending",
    "responsible_agency": "Department of Sanitation",
    "final_address": "4644 Bancroft Dr",
    "address_councildis": "D",
    "status": "Assigned to Contractor",
    "contractor": "IV Waste",
    "rowid": "1104422",
    "final_x": "3676214.14222",
    "final_y": "549466.673747",
    "longitude": "-90.08414336666632",
    "latitude": "30.005002284890768",
    "geocoded_column": {
      "latitude": "30.005002284890768",
      "longitude": "-90.08414336666632"
    }
  },
  {
    "service_request": "2024-1104421",
    "request_type": "Trash/Recycling",
    "request_reason": "Request a Large Item Pick Up",
    "date_created": "2024-06-17T14:52:09.000",
    "date_modified": "2024-06-17T14:52:10.000",
    "request_status": "Pending",
    "responsible_agency": "Department of Sanitation",
    "final_address": "539 First St",
    "address_councildis": "B",
    "status": "Assigned to Contractor",
    "contractor": "IV Waste",
    "rowid": "1104421",
    "final_x": "3679211.95797",
    "final_y": "519867.259192",
    "longitude": "-90.07569898540375",
    "latitude": "29.923523777092033",
    "geocoded_column": {
      "latitude": "29.923523777092033",
      "longitude": "-90.07569898540375"
    }
  },
  {
    "service_request": "2024-1104419",
    "request_type": "Parks & Parkways",
    "request_reason": "Request Tree Service (Right of Way/Public Property)",
    "date_created": "2024-06-17T14:48:51.000",
    "date_modified": "2024-06-17T14:48:51.000",
    "request_status": "Pending",
    "responsible_agency": "Department of Parks & Parkway",
    "final_address": "3400 Gentilly Blvd",
    "address_councildis": "D",
    "status": "Pending",
    "rowid": "1104419",
    "final_x": "3685111.66697",
    "final_y": "548353.533394",
    "longitude": "-90.056073493024",
    "latitude": "30.001671833921165",
    "geocoded_column": {
      "latitude": "30.001671833921165",
      "longitude": "-90.056073493024"
    }
  },
  {
    "service_request": "2024-1104418",
    "request_type": "Trash/Recycling",
    "request_reason": "Request a Large Item Pick Up",
    "date_created": "2024-06-17T14:44:03.000",
    "date_modified": "2024-06-17T14:44:04.000",
    "request_status": "Pending",
    "responsible_agency": "Department of Sanitation",
    "final_address": "4745 Sierra Madre Dr",
    "address_councildis": "E",
    "status": "Assigned to Contractor",
    "contractor": "Waste Pro",
    "rowid": "1104418",
    "final_x": "3713965.30802",
    "final_y": "556490.594714",
    "longitude": "-89.96461584540114",
    "latitude": "30.02312965539914",
    "geocoded_column": {
      "latitude": "30.02312965539914",
      "longitude": "-89.96461584540114"
    }
  },
  {
    "service_request": "2024-1104417",
    "request_type": "Trash/Recycling",
    "request_reason": "Order Trash Cart",
    "date_created": "2024-06-17T14:43:23.000",
    "date_modified": "2024-06-17T14:43:24.000",
    "request_status": "Pending",
    "responsible_agency": "Department of Sanitation",
    "final_address": "3501 Encampment St",
    "address_councildis": "D",
    "status": "Assigned to Contractor",
    "contractor": "IV Waste",
    "rowid": "1104417",
    "final_x": "3676737.99861",
    "final_y": "545314.730127",
    "longitude": "-90.08263156696134",
    "latitude": "29.993570190579966",
    "geocoded_column": {
      "latitude": "29.993570190579966",
      "longitude": "-90.08263156696134"
    }
  },
  {
    "service_request": "2024-1104416",
    "request_type": "Trash/Recycling",
    "request_reason": "Request a Large Item Pick Up",
    "date_created": "2024-06-17T14:42:43.000",
    "date_modified": "2024-06-17T14:42:43.000",
    "request_status": "Pending",
    "responsible_agency": "Department of Sanitation",
    "final_address": "5519 Spain St",
    "address_councildis": "D",
    "status": "Assigned to Contractor",
    "contractor": "IV Waste",
    "rowid": "1104416",
    "final_x": "3684826.04847",
    "final_y": "553297.613463",
    "longitude": "-90.05680178652828",
    "latitude": "30.015275008704933",
    "geocoded_column": {
      "latitude": "30.015275008704933",
      "longitude": "-90.05680178652828"
    }
  },
  {
    "service_request": "2024-1104415",
    "request_type": "Roads/Drainage",
    "request_reason": "Accessibility Ramps, Curbs and Sidewalk Repair",
    "date_created": "2024-06-17T14:36:35.000",
    "date_modified": "2024-06-17T14:36:36.000",
    "request_status": "Pending",
    "responsible_agency": "Department of Public Works",
    "final_address": "2510 Gallier St",
    "address_councildis": "D",
    "status": "Pending",
    "rowid": "1104415",
    "final_x": "3691750.20873",
    "final_y": "541031.998539",
    "longitude": "-90.03536374765751",
    "latitude": "29.981335122048066",
    "geocoded_column": {
      "latitude": "29.981335122048066",
      "longitude": "-90.03536374765751"
    }
  },
  {
    "service_request": "2024-1104414",
    "request_type": "Abandoned Vehicles",
    "request_reason": "Abandoned/Junk Vehicles",
    "date_created": "2024-06-17T14:36:06.000",
    "date_modified": "2024-06-17T14:36:07.000",
    "request_status": "Pending",
    "responsible_agency": "Department of Public Works",
    "final_address": "4200 Encampment St",
    "address_councildis": "D",
    "status": "Pending",
    "rowid": "1104414",
    "final_x": "3676469.30293",
    "final_y": "547570.071954",
    "longitude": "-90.08340262108379",
    "latitude": "29.99977964967119",
    "geocoded_column": {
      "latitude": "29.99977964967119",
      "longitude": "-90.08340262108379"
    }
  },
  {
    "service_request": "2024-1104413",
    "request_type": "Roads/Drainage",
    "request_reason": "Catch Basin - Clogged",
    "date_created": "2024-06-17T14:31:38.000",
    "date_modified": "2024-06-17T14:31:39.000",
    "request_status": "Pending",
    "responsible_agency": "Department of Public Works",
    "final_address": "7129 E Laverne St",
    "address_councildis": "D",
    "status": "Pending",
    "rowid": "1104413",
    "final_x": "3697133.14557",
    "final_y": "557213.159707",
    "longitude": "-90.01777529203912",
    "latitude": "30.025658537698934",
    "geocoded_column": {
      "latitude": "30.025658537698934",
      "longitude": "-90.01777529203912"
    }
  },
  {
    "service_request": "2024-1104412",
    "request_type": "Trash/Recycling",
    "request_reason": "Request a Large Item Pick Up",
    "date_created": "2024-06-17T14:30:46.000",
    "date_modified": "2024-06-17T14:30:46.000",
    "request_status": "Pending",
    "responsible_agency": "Department of Sanitation",
    "final_address": "7032 Lake Willow Dr",
    "address_councildis": "E",
    "status": "Assigned to Contractor",
    "contractor": "Waste Pro",
    "rowid": "1104412",
    "final_x": "3702306.51325",
    "final_y": "558953.291996",
    "longitude": "-90.00136436702229",
    "latitude": "30.030278895846287",
    "geocoded_column": {
      "latitude": "30.030278895846287",
      "longitude": "-90.00136436702229"
    }
  },
  {
    "service_request": "2024-1104411",
    "request_type": "Roads/Drainage",
    "request_reason": "Catch Basin - Clogged",
    "date_created": "2024-06-17T14:29:44.000",
    "date_modified": "2024-06-17T14:29:44.000",
    "request_status": "Pending",
    "responsible_agency": "Department of Public Works",
    "final_address": "1702 Prytania St",
    "address_councildis": "B",
    "status": "Pending",
    "rowid": "1104411",
    "final_x": "3679334.8388",
    "final_y": "524685.44838",
    "longitude": "-90.07514409141615",
    "latitude": "29.93676850873255",
    "geocoded_column": {
      "latitude": "29.93676850873255",
      "longitude": "-90.07514409141615"
    }
  },
  {
    "service_request": "2024-1104410",
    "request_type": "Roads/Drainage",
    "request_reason": "Catch Basin - Clogged",
    "date_created": "2024-06-17T14:28:36.000",
    "date_modified": "2024-06-17T14:28:36.000",
    "request_status": "Pending",
    "responsible_agency": "Department of Public Works",
    "final_address": "1447 Euterpe St",
    "address_councildis": "B",
    "status": "Pending",
    "rowid": "1104410",
    "final_x": "3679417.93039",
    "final_y": "524712.076924",
    "longitude": "-90.07488084404304",
    "latitude": "29.93683921940913",
    "geocoded_column": {
      "latitude": "29.93683921940913",
      "longitude": "-90.07488084404304"
    }
  },
  {
    "service_request": "2024-1104409",
    "request_type": "Roads/Drainage",
    "request_reason": "Pothole",
    "date_created": "2024-06-17T14:28:16.000",
    "date_modified": "2024-06-17T14:28:17.000",
    "request_status": "Pending",
    "responsible_agency": "Department of Public Works",
    "final_address": "1521 Forstall St",
    "address_councildis": "E",
    "status": "Pending",
    "rowid": "1104409",
    "final_x": "3696790.81853",
    "final_y": "535820.882567",
    "longitude": "-90.01963198352074",
    "latitude": "29.96684846265562",
    "geocoded_column": {
      "latitude": "29.96684846265562",
      "longitude": "-90.01963198352074"
    }
  },
  {
    "service_request": "2024-1104408",
    "request_type": "Roads/Drainage",
    "request_reason": "Street Subsidence (Sinking)",
    "date_created": "2024-06-17T14:28:15.000",
    "date_modified": "2024-06-17T14:28:15.000",
    "request_status": "Pending",
    "responsible_agency": "Department of Public Works",
    "final_address": "2764 Sage St",
    "address_councildis": "D",
    "status": "Pending",
    "rowid": "1104408",
    "final_x": "3688424.88585",
    "final_y": "545548.99784",
    "longitude": "-90.04570628844112",
    "latitude": "29.993858409568684",
    "geocoded_column": {
      "latitude": "29.993858409568684",
      "longitude": "-90.04570628844112"
    }
  },
  {
    "service_request": "2024-1104407",
    "request_type": "Roads/Drainage",
    "request_reason": "Catch Basin - Clogged",
    "date_created": "2024-06-17T14:26:33.000",
    "date_modified": "2024-06-17T14:26:33.000",
    "request_status": "Pending",
    "responsible_agency": "Department of Public Works",
    "final_address": "2ND ST & ANNUNCIATION ST",
    "address_councildis": "B",
    "status": "Pending",
    "rowid": "1104407",
    "final_x": "3678433.9",
    "final_y": "520417.58",
    "longitude": "-90.07813599651632",
    "latitude": "29.925060438914844",
    "geocoded_column": {
      "latitude": "29.925060438914844",
      "longitude": "-90.07813599651632"
    }
  },
  {
    "service_request": "2024-1104406",
    "request_type": "Parks & Parkways",
    "request_reason": "Request Tree Service (Right of Way/Public Property)",
    "date_created": "2024-06-17T14:26:28.000",
    "date_modified": "2024-06-17T14:26:29.000",
    "request_status": "Pending",
    "responsible_agency": "Department of Parks & Parkway",
    "final_address": "ST CHARLES AVE & JACKSON AVE",
    "address_councildis": "B",
    "status": "Pending",
    "rowid": "1104406",
    "final_x": "3677605.5",
    "final_y": "523732.18",
    "longitude": "-90.080636600431",
    "latitude": "29.93419943386805",
    "geocoded_column": {
      "latitude": "29.93419943386805",
      "longitude": "-90.080636600431"
    }
  },
  {
    "service_request": "2024-1104405",
    "request_type": "Trash/Recycling",
    "request_reason": "Request a Large Item Pick Up",
    "date_created": "2024-06-17T14:26:28.000",
    "date_modified": "2024-06-17T14:26:29.000",
    "request_status": "Pending",
    "responsible_agency": "Department of Sanitation",
    "final_address": "13120 Linden St",
    "address_councildis": "E",
    "status": "Assigned to Contractor",
    "contractor": "Waste Pro",
    "rowid": "1104405",
    "final_x": "3716219.934",
    "final_y": "570502.390055",
    "longitude": "-89.95695998841956",
    "latitude": "30.061582159722185",
    "geocoded_column": {
      "latitude": "30.061582159722185",
      "longitude": "-89.95695998841956"
    }
  },
  {
    "service_request": "2024-1104404",
    "request_type": "Roads/Drainage",
    "request_reason": "Catch Basin - Clogged",
    "date_created": "2024-06-17T14:25:42.000",
    "date_modified": "2024-06-17T14:25:42.000",
    "request_status": "Pending",
    "responsible_agency": "Department of Public Works",
    "final_address": "2400 Allen Toussaint Blvd",
    "address_councildis": "D",
    "status": "Pending",
    "rowid": "1104404",
    "final_x": "3685051.68892",
    "final_y": "555781.762073",
    "longitude": "-90.05600137515984",
    "latitude": "30.022098589428502",
    "geocoded_column": {
      "latitude": "30.022098589428502",
      "longitude": "-90.05600137515984"
    }
  },
  {
    "service_request": "2024-1104403",
    "request_type": "Trash/Recycling",
    "request_reason": "Request a Large Item Pick Up",
    "date_created": "2024-06-17T14:23:58.000",
    "date_modified": "2024-06-17T14:23:58.000",
    "request_status": "Pending",
    "responsible_agency": "Department of Sanitation",
    "final_address": "7221 Westhaven Rd",
    "address_councildis": "E",
    "status": "Assigned to Contractor",
    "contractor": "Waste Pro",
    "rowid": "1104403",
    "final_x": "3703557.32196",
    "final_y": "560428.75075",
    "longitude": "-89.99735747053288",
    "latitude": "30.03429579348168",
    "geocoded_column": {
      "latitude": "30.03429579348168",
      "longitude": "-89.99735747053288"
    }
  },
  {
    "service_request": "2024-1104402",
    "request_type": "Roads/Drainage",
    "request_reason": "Catch Basin - Clogged",
    "date_created": "2024-06-17T14:20:42.000",
    "date_modified": "2024-06-17T14:20:42.000",
    "request_status": "Pending",
    "responsible_agency": "Department of Public Works",
    "final_address": "MILAN ST & S GALVEZ ST",
    "address_councildis": "B",
    "status": "Pending",
    "rowid": "1104402",
    "final_x": "3670928.1",
    "final_y": "527621.68",
    "longitude": "-90.10158498232897",
    "latitude": "29.945093337060065",
    "geocoded_column": {
      "latitude": "29.945093337060065",
      "longitude": "-90.10158498232897"
    }
  },
  {
    "service_request": "2024-1104401",
    "request_type": "Trash/Recycling",
    "request_reason": "Replace Trash Cart",
    "date_created": "2024-06-17T14:13:28.000",
    "date_modified": "2024-06-17T14:13:29.000",
    "request_status": "Pending",
    "responsible_agency": "Department of Sanitation",
    "final_address": "2700 Magazine St",
    "address_councildis": "B",
    "status": "Assigned to Contractor",
    "contractor": "IV Waste",
    "rowid": "1104401",
    "final_x": "3677319.94658",
    "final_y": "520926.820281",
    "longitude": "-90.08163482970033",
    "latitude": "29.92649419076345",
    "geocoded_column": {
      "latitude": "29.92649419076345",
      "longitude": "-90.08163482970033"
    }
  },
  {
    "service_request": "2024-1104400",
    "request_type": "Trash/Recycling",
    "request_reason": "Request a Large Item Pick Up",
    "date_created": "2024-06-17T14:13:18.000",
    "date_modified": "2024-06-17T14:13:18.000",
    "request_status": "Pending",
    "responsible_agency": "Department of Sanitation",
    "final_address": "11214 Prentiss Ave",
    "address_councildis": "E",
    "status": "Assigned to Contractor",
    "contractor": "Waste Pro",
    "rowid": "1104400",
    "final_x": "3716895.87506",
    "final_y": "556684.081754",
    "longitude": "-89.95534865261683",
    "latitude": "30.02356508906327",
    "geocoded_column": {
      "latitude": "30.02356508906327",
      "longitude": "-89.95534865261683"
    }
  },
  {
    "service_request": "2024-1104399",
    "request_type": "Roads/Drainage",
    "request_reason": "Catch Basin - Clogged",
    "date_created": "2024-06-17T14:13:08.000",
    "date_modified": "2024-06-17T14:13:08.000",
    "request_status": "Pending",
    "responsible_agency": "Department of Public Works",
    "final_address": "1100 BLK Saint Mary St",
    "address_councildis": "B",
    "status": "Pending",
    "rowid": "1104399",
    "final_x": "3679526.04085",
    "final_y": "523066.674455",
    "longitude": "-90.07459659825247",
    "latitude": "29.932311639670484",
    "geocoded_column": {
      "latitude": "29.932311639670484",
      "longitude": "-90.07459659825247"
    }
  },
  {
    "service_request": "2024-1104398",
    "request_type": "Trash/Recycling",
    "request_reason": "Request a Large Item Pick Up",
    "date_created": "2024-06-17T14:13:07.000",
    "date_modified": "2024-06-17T14:13:08.000",
    "request_status": "Pending",
    "responsible_agency": "Department of Sanitation",
    "final_address": "13201 St Helena Pl",
    "address_councildis": "E",
    "status": "Assigned to Contractor",
    "contractor": "Waste Pro",
    "rowid": "1104398",
    "final_x": "3726484.96102",
    "final_y": "564278.639777",
    "longitude": "-89.92475456939349",
    "latitude": "30.044126431606085",
    "geocoded_column": {
      "latitude": "30.044126431606085",
      "longitude": "-89.92475456939349"
    }
  },
  {
    "service_request": "2024-1104397",
    "request_type": "Property Maintenance",
    "request_reason": "Property Maintenance",
    "date_created": "2024-06-17T14:07:07.000",
    "date_modified": "2024-06-17T14:07:08.000",
    "request_status": "Pending",
    "responsible_agency": "Department of Code Enforcement",
    "final_address": "8705 Apricot St",
    "address_councildis": "A",
    "status": "Pending",
    "rowid": "1104397",
    "final_x": "3664241.11124",
    "final_y": "534121.595013",
    "longitude": "-90.12248111100676",
    "latitude": "29.963161955841667",
    "geocoded_column": {
      "latitude": "29.963161955841667",
      "longitude": "-90.12248111100676"
    }
  },
  {
    "service_request": "2024-1104396",
    "request_type": "Trash/Recycling",
    "request_reason": "MIssed Recycling Pick-Up",
    "date_created": "2024-06-17T14:06:22.000",
    "date_modified": "2024-06-17T14:06:23.000",
    "request_status": "Pending",
    "responsible_agency": "Department of Sanitation",
    "final_address": "7160 E Tamaron Blvd",
    "address_councildis": "E",
    "status": "Assigned to Contractor",
    "contractor": "Waste Pro",
    "rowid": "1104396",
    "final_x": "3718289.69036",
    "final_y": "569196.475238",
    "longitude": "-89.9504673882969",
    "latitude": "30.05792291461093",
    "geocoded_column": {
      "latitude": "30.05792291461093",
      "longitude": "-89.9504673882969"
    }
  },
  {
    "service_request": "2024-1104395",
    "request_type": "Trash/Recycling",
    "request_reason": "Request a Large Item Pick Up",
    "date_created": "2024-06-17T14:01:29.000",
    "date_modified": "2024-06-17T14:01:30.000",
    "request_status": "Pending",
    "responsible_agency": "Department of Sanitation",
    "final_address": "4837 Nottingham Dr",
    "address_councildis": "E",
    "status": "Assigned to Contractor",
    "contractor": "Waste Pro",
    "rowid": "1104395",
    "final_x": "3716424.3324",
    "final_y": "557384.970011",
    "longitude": "-89.95681200815142",
    "latitude": "30.025507836780207",
    "geocoded_column": {
      "latitude": "30.025507836780207",
      "longitude": "-89.95681200815142"
    }
  },
  {
    "service_request": "2024-1104394",
    "request_type": "Trash/Recycling",
    "request_reason": "Missed Trash Pick-Up",
    "date_created": "2024-06-17T14:00:25.000",
    "date_modified": "2024-06-17T16:36:39.000",
    "case_close_date": "2024-06-17T11:36:39.000",
    "request_status": "Closed",
    "responsible_agency": "Department of Sanitation",
    "final_address": "7317 Spruce St",
    "address_councildis": "A",
    "status": "Invalid Request",
    "contractor": "IV Waste",
    "contractor_action": "Invalid Pick-Up",
    "rowid": "1104394",
    "final_x": "3665409.77152",
    "final_y": "529171.666432",
    "longitude": "-90.11895626673622",
    "latitude": "29.949517257783338",
    "geocoded_column": {
      "latitude": "29.949517257783338",
      "longitude": "-90.11895626673622"
    }
  },