[
  {
    "service_request": "2025-1207641",
    "request_type": "Trash/Recycling",
    "request_reason": "Order Trash Cart",
    "date_created": "2025-07-08T23:42:39.000",
    "date_modified": "2025-07-08T23:42:46.000",
    "request_status": "Pending",
    "responsible_agency": "Department of Sanitation",
    "final_address": "605 River Oaks Dr",
    "address_councildis": "C",
    "status": "Assigned to Contractor",
    "contractor": "Richards Disposal",
    "rowid": "1207641",
    "final_x": "3701451.84183",
    "final_y": "520706.946233",
    "longitude": "-90.00546569671816",
    "latitude": "29.92514270686297",
    "geocoded_column": {
      "latitude": "29.92514270686297",
      "longitude": "-90.00546569671816"
    }
  },
  {
    "service_request": "2025-1207640",
    "request_type": "Trash/Recycling",
    "request_reason": "Request a Large Item Pick Up",
    "date_created": "2025-07-08T23:37:07.000",
    "date_modified": "2025-07-08T23:37:09.000",
    "request_status": "Pending",
    "responsible_agency": "Department of Sanitation",
    "final_address": "1932 Ap Tureaud Ave",
    "address_councildis": "D",
    "status": "Assigned to Contractor",
    "contractor": "IV Waste",
    "rowid": "1207640",
    "final_x": "3681657.0278",
    "final_y": "539365.763914",
    "longitude": "-90.0673007571682",
    "latitude": "29.97706407057423",
    "geocoded_column": {
      "latitude": "29.97706407057423",
      "longitude": "-90.0673007571682"
    }
  },
  {
    "service_request": "2025-1207639",
    "request_type": "Trash/Recycling",
    "request_reason": "Order Recycling Cart",
    "date_created": "2025-07-08T23:23:51.000",
    "date_modified": "2025-07-08T23:23:53.000",
    "request_status": "Pending",
    "responsible_agency": "Department of Sanitation",
    "final_address": "1310 Constance St",
    "address_councildis": "B",
    "status": "Pending",
    "rowid": "1207639",
    "final_x": "3680926.49",
    "final_y": "525106.731581",
    "longitude": "-90.07010451298841",
    "latitude": "29.93787874551656",
    "geocoded_column": {
      "latitude": "29.93787874551656",
      "longitude": "-90.07010451298841"
    }
  },
  {
    "service_request": "2025-1207638",
    "request_type": "Trash/Recycling",
    "request_reason": "Order Trash Cart",
    "date_created": "2025-07-08T23:22:22.000",
    "date_modified": "2025-07-08T23:22:24.000",
    "request_status": "Pending",
    "responsible_agency": "Department of Sanitation",
    "final_address": "1310 Constance St",
    "address_councildis": "B",
    "status": "Assigned to Contractor",
    "contractor": "IV Waste",
    "rowid": "1207638",
    "final_x": "3680926.49",
    "final_y": "525106.731581",
    "longitude": "-90.07010451298841",
    "latitude": "29.93787874551656",
    "geocoded_column": {
      "latitude": "29.93787874551656",
      "longitude": "-90.07010451298841"
    }
  },
  {
    "service_request": "2025-1207637",
    "request_type": "Trash/Recycling",
    "request_reason": "Request a Large Item Pick Up",
    "date_created": "2025-07-08T23:20:20.000",
    "date_modified": "2025-07-08T23:20:22.000",
    "request_status": "Pending",
    "responsible_agency": "Department of Sanitation",
    "final_address": "7916 Nelson St",
    "address_councildis": "A",
    "status": "Assigned to Contractor",
    "contractor": "IV Waste",
    "rowid": "1207637",
    "final_x": "3665567.52672",
    "final_y": "531384.066435",
    "longitude": "-90.11838409173271",
    "latitude": "29.955596040854758",
    "geocoded_column": {
      "latitude": "29.955596040854758",
      "longitude": "-90.11838409173271"
    }
  },
  {
    "service_request": "2025-1207636",
    "request_type": "Trash/Recycling",
    "request_reason": "Replace Trash Cart",
    "date_created": "2025-07-08T22:55:18.000",
    "date_modified": "2025-07-08T22:55:20.000",
    "request_status": "Pending",
    "responsible_agency": "Department of Sanitation",
    "final_address": "3434 Cleveland Ave",
    "address_councildis": "B",
    "status": "Assigned to Contractor",
    "contractor": "IV Waste",
    "rowid": "1207636",
    "final_x": "3672637.83988",
    "final_y": "536589.680327",
    "longitude": "-90.09588100570359",
    "latitude": "29.969701708593863",
    "geocoded_column": {
      "latitude": "29.969701708593863",
      "longitude": "-90.09588100570359"
    }
  },
  {
    "service_request": "2025-1207635",
    "request_type": "Streetlights",
    "request_reason": "Streetlight Outage/Malfunction",
    "date_created": "2025-07-08T22:41:15.000",
    "date_modified": "2025-07-08T22:41:17.000",
    "request_status": "Pending",
    "responsible_agency": "Department of Public Works",
    "final_address": "5322 Prytania St",
    "address_councildis": "B",
    "status": "Pending",
    "contractor": "Legacy Professional Services",
    "rowid": "1207635",
    "final_x": "3667508.73018",
    "final_y": "520132.431736",
    "longitude": "-90.11263294091742",
    "latitude": "29.924600927575128",
    "geocoded_column": {
      "latitude": "29.924600927575128",
      "longitude": "-90.11263294091742"
    }
  },
  {
    "service_request": "2025-1207634",
    "request_type": "Streetlights",
    "request_reason": "Streetlight Outage/Malfunction",
    "date_created": "2025-07-08T22:36:06.000",
    "date_modified": "2025-07-08T22:36:09.000",
    "request_status": "Pending",
    "responsible_agency": "Department of Public Works",
    "final_address": "5322 Prytania St",
    "address_councildis": "B",
    "status": "Pending",
    "contractor": "Legacy Professional Services",
    "rowid": "1207634",
    "final_x": "3667508.73018",
    "final_y": "520132.431736",
    "longitude": "-90.11263294091742",
    "latitude": "29.924600927575128",
    "geocoded_column": {
      "latitude": "29.924600927575128",
      "longitude": "-90.11263294091742"
    }
  },
  {
    "service_request": "2025-1207633",
    "request_type": "Trash/Recycling",
    "request_reason": "Order Recycling Cart",
    "date_created": "2025-07-08T22:28:36.000",
    "date_modified": "2025-07-08T22:28:38.000",
    "request_status": "Pending",
    "responsible_agency": "Department of Sanitation",
    "final_address": "2213 General Pershing St",
    "address_councildis": "B",
    "status": "Pending",
    "rowid": "1207633",
    "final_x": "3671081.10203",
    "final_y": "523167.794747",
    "longitude": "-90.10125311306084",
    "latitude": "29.93284207349646",
    "geocoded_column": {
      "latitude": "29.93284207349646",
      "longitude": "-90.10125311306084"
    }
  },
  {
    "service_request": "2025-1207632",
    "request_type": "Trash/Recycling",
    "request_reason": "Request a Large Item Pick Up",
    "date_created": "2025-07-08T21:51:28.000",
    "date_modified": "2025-07-08T21:51:30.000",
    "request_status": "Pending",
    "responsible_agency": "Department of Sanitation",
    "final_address": "802 Washington Ave",
    "address_councildis": "B",
    "status": "Assigned to Contractor",
    "contractor": "IV Waste",
    "rowid": "1207632",
    "final_x": "3677607.60718",
    "final_y": "519914.412152",
    "longitude": "-90.0807617003476",
    "latitude": "29.923701753415784",
    "geocoded_column": {
      "latitude": "29.923701753415784",
      "longitude": "-90.0807617003476"
    }
  },
  {
    "service_request": "2025-1207631",
    "request_type": "General Services",
    "request_reason": "General Service Request",
    "date_created": "2025-07-08T21:50:16.000",
    "date_modified": "2025-07-08T21:50:19.000",
    "request_status": "Pending",
    "responsible_agency": "Orleans Parish Communication District",
    "final_address": "522 Montegut St",
    "address_councildis": "C",
    "status": "Pending",
    "rowid": "1207631",
    "final_x": "3687837.23107",
    "final_y": "534109.455429",
    "longitude": "-90.04796795884512",
    "latitude": "29.962421855004674",
    "geocoded_column": {
      "latitude": "29.962421855004674",
      "longitude": "-90.04796795884512"
    }
  },
  {
    "service_request": "2025-1207630",
    "request_type": "Trash/Recycling",
    "request_reason": "Order Recycling Cart",
    "date_created": "2025-07-08T21:36:17.000",
    "date_modified": "2025-07-08T21:36:18.000",
    "request_status": "Pending",
    "responsible_agency": "Department of Sanitation",
    "final_address": "205 Fairfax Pl",
    "address_councildis": "C",
    "status": "Pending",
    "rowid": "1207630",
    "final_x": "3706209.00587",
    "final_y": "517360.837877",
    "longitude": "-89.99057275774014",
    "latitude": "29.915789628427977",
    "geocoded_column": {
      "latitude": "29.915789628427977",
      "longitude": "-89.99057275774014"
    }
  },
  {
    "service_request": "2025-1207629",
    "request_type": "Trash/Recycling",
    "request_reason": "Order Second Trash Cart",
    "date_created": "2025-07-08T21:34:43.000",
    "date_modified": "2025-07-08T21:34:45.000",
    "request_status": "Pending",
    "responsible_agency": "Department of Sanitation",
    "final_address": "205 Fairfax Pl",
    "address_councildis": "C",
    "status": "Assigned to Contractor",
    "contractor": "Richards Disposal",
    "rowid": "1207629",
    "final_x": "3706209.00587",
    "final_y": "517360.837877",
    "longitude": "-89.99057275774014",
    "latitude": "29.915789628427977",
    "geocoded_column": {
      "latitude": "29.915789628427977",
      "longitude": "-89.99057275774014"
    }
  },
  {
    "service_request": "2025-1207628",
    "request_type": "Streetlights",
    "request_reason": "Streetlight Outage/Malfunction",
    "date_created": "2025-07-08T21:23:27.000",
    "date_modified": "2025-07-08T21:23:29.000",
    "request_status": "Pending",
    "responsible_agency": "Department of Public Works",
    "final_address": "7736 Reindeer St",
    "address_councildis": "E",
    "status": "Pending",
    "contractor": "Legacy Professional Services",
    "rowid": "1207628",
    "final_x": "3716550.80524",
    "final_y": "571111.51204",
    "longitude": "-89.95589097074306",
    "latitude": "30.06324605988605",
    "geocoded_column": {
      "latitude": "30.06324605988605",
      "longitude": "-89.95589097074306"
    }
  },
  {
    "service_request": "2025-1207627",
    "request_type": "Property Maintenance",
    "request_reason": "Property Maintenance",
    "date_created": "2025-07-08T21:08:56.000",
    "date_modified": "2025-07-08T21:08:57.000",
    "request_status": "Pending",
    "responsible_agency": "Department of Code Enforcement",
    "final_address": "2935 Kabel Dr",
    "address_councildis": "C",
    "status": "Pending",
    "rowid": "1207627",
    "final_x": "3700572.30455",
    "final_y": "520333.481592",
    "longitude": "-90.0082557290108",
    "latitude": "29.924143804527",
    "geocoded_column": {
      "latitude": "29.924143804527",
      "longitude": "-90.0082557290108"
    }
  },
  {
    "service_request": "2025-1207626",
    "request_type": "Trash/Recycling",
    "request_reason": "Request a Large Item Pick Up",
    "date_created": "2025-07-08T21:01:02.000",
    "date_modified": "2025-07-08T21:01:04.000",
    "request_status": "Pending",
    "responsible_agency": "Department of Sanitation",
    "final_address": "4854 Tchoupitoulas St",
    "address_councildis": "B",
    "status": "Assigned to Contractor",
    "contractor": "IV Waste",
    "rowid": "1207626",
    "final_x": "3669239.38919",
    "final_y": "517213.015605",
    "longitude": "-90.1072684263289",
    "latitude": "29.916522646092645",
    "geocoded_column": {
      "latitude": "29.916522646092645",
      "longitude": "-90.1072684263289"
    }
  },
  {
    "service_request": "2025-1207625",
    "request_type": "Trash/Recycling",
    "request_reason": "Return Trash Cart",
    "date_created": "2025-07-08T20:57:01.000",
    "date_modified": "2025-07-08T20:57:02.000",
    "request_status": "Pending",
    "responsible_agency": "Department of Sanitation",
    "final_address": "9877 E Wheaton Cir",
    "address_councildis": "E",
    "status": "Assigned to Contractor",
    "contractor": "Waste Pro",
    "rowid": "1207625",
    "final_x": "3709058.40356",
    "final_y": "562688.720736",
    "longitude": "-89.9798891147251",
    "latitude": "30.040332307905356",
    "geocoded_column": {
      "latitude": "30.040332307905356",
      "longitude": "-89.9798891147251"
    }
  },
  {
    "service_request": "2025-1207624",
    "request_type": "Streetlights",
    "request_reason": "Streetlight Outage/Malfunction",
    "date_created": "2025-07-08T20:49:19.000",
    "date_modified": "2025-07-08T20:49:22.000",
    "request_status": "Pending",
    "responsible_agency": "Department of Public Works",
    "final_address": "2814 Bell St",
    "address_councildis": "A",
    "status": "Pending",
    "contractor": "Legacy Professional Services",
    "rowid": "1207624",
    "final_x": "3677207.83362",
    "final_y": "539148.436618",
    "longitude": "-90.08136025542333",
    "latitude": "29.976600915067802",
    "geocoded_column": {
      "latitude": "29.976600915067802",
      "longitude": "-90.08136025542333"
    }
  },
  {
    "service_request": "2025-1207623",
    "request_type": "Trash/Recycling",
    "request_reason": "Request a Large Item Pick Up",
    "date_created": "2025-07-08T20:28:21.000",
    "date_modified": "2025-07-08T20:28:23.000",
    "request_status": "Pending",
    "responsible_agency": "Department of Sanitation",
    "final_address": "4616 Shalimar Dr",
    "address_councildis": "D",
    "status": "Assigned to Contractor",
    "contractor": "Waste Pro",
    "rowid": "1207623",
    "final_x": "3697175.03613",
    "final_y": "553563.849047",
    "longitude": "-90.01777531707988",
    "latitude": "30.015622994795326",
    "geocoded_column": {
      "latitude": "30.015622994795326",
      "longitude": "-90.01777531707988"
    }
  },
  {
    "service_request": "2025-1207622",
    "request_type": "Property Maintenance",
    "request_reason": "Property Maintenance",
    "date_created": "2025-07-08T20:06:24.000",
    "date_modified": "2025-07-08T20:06:26.000",
    "request_status": "Pending",
    "responsible_agency": "Department of Code Enforcement",
    "final_address": "749 Aurora Oaks Dr",
    "address_councildis": "C",
    "status": "Pending",
    "rowid": "1207622",
    "final_x": "3701197.81796",
    "final_y": "519638.803704",
    "longitude": "-90.00630661264826",
    "latitude": "29.92221377452399",
    "geocoded_column": {
      "latitude": "29.92221377452399",
      "longitude": "-90.00630661264826"
    }
  },
  {
    "service_request": "2025-1207621",
    "request_type": "Mosquito, Termite & Rodent Control",
    "request_reason": "Mosquito Complaint",
    "date_created": "2025-07-08T19:17:42.000",
    "date_modified": "2025-07-08T19:17:44.000",
    "request_status": "Pending",
    "responsible_agency": "Mosquito, Termite & Rodent Control Board",
    "final_address": "4920 S Derbigny St",
    "address_councildis": "B",
    "status": "Pending",
    "rowid": "1207621",
    "final_x": "3669068.63239",
    "final_y": "526299.806142",
    "longitude": "-90.10750056660598",
    "latitude": "29.94151344412894",
    "geocoded_column": {
      "latitude": "29.94151344412894",
      "longitude": "-90.10750056660598"
    }
  },
  {
    "service_request": "2025-1207620",
    "request_type": "Trash/Recycling",
    "request_reason": "Request a Large Item Pick Up",
    "date_created": "2025-07-08T19:15:12.000",
    "date_modified": "2025-07-08T19:15:15.000",
    "request_status": "Pending",
    "responsible_agency": "Department of Sanitation",
    "final_address": "4920 S Derbigny St",
    "address_councildis": "B",
    "status": "Assigned to Contractor",
    "contractor": "IV Waste",
    "rowid": "1207620",
    "final_x": "3669068.63239",
    "final_y": "526299.806142",
    "longitude": "-90.10750056660598",
    "latitude": "29.94151344412894",
    "geocoded_column": {
      "latitude": "29.94151344412894",
      "longitude": "-90.10750056660598"
    }
  },
  {
    "service_request": "2025-1207619",
    "request_type": "Trash/Recycling",
    "request_reason": "Request a Large Item Pick Up",
    "date_created": "2025-07-08T19:09:40.000",
    "date_modified": "2025-07-08T19:09:42.000",
    "request_status": "Pending",
    "responsible_agency": "Department of Sanitation",
    "final_address": "5033 St Bernard Ave",
    "address_councildis": "D",
    "status": "Assigned to Contractor",
    "contractor": "IV Waste",
    "rowid": "1207619",
    "final_x": "3676792.1483",
    "final_y": "550783.571221",
    "longitude": "-90.08227190048952",
    "latitude": "30.008605944965897",
    "geocoded_column": {
      "latitude": "30.008605944965897",
      "longitude": "-90.08227190048952"
    }
  },
  {
    "service_request": "2025-1207618",
    "request_type": "Trash/Recycling",
    "request_reason": "Request a Large Item Pick Up",
    "date_created": "2025-07-08T19:01:32.000",
    "date_modified": "2025-07-08T19:01:33.000",
    "request_status": "Pending",
    "responsible_agency": "Department of Sanitation",
    "final_address": "307 Burdette St",
    "address_councildis": "A",
    "status": "Assigned to Contractor",
    "contractor": "IV Waste",
    "rowid": "1207618",
    "final_x": "3660796.49498",
    "final_y": "525361.094141",
    "longitude": "-90.13364851065928",
    "latitude": "29.939173026704886",
    "geocoded_column": {
      "latitude": "29.939173026704886",
      "longitude": "-90.13364851065928"
    }
  },
  {
    "service_request": "2025-1207617",
    "request_type": "Trash/Recycling",
    "request_reason": "Request a Large Item Pick Up",
    "date_created": "2025-07-08T18:50:55.000",
    "date_modified": "2025-07-08T18:50:57.000",
    "request_status": "Pending",
    "responsible_agency": "Department of Sanitation",
    "final_address": "4965 Friar Tuck Dr",
    "address_councildis": "E",
    "status": "Assigned to Contractor",
    "contractor": "Waste Pro",
    "rowid": "1207617",
    "final_x": "3717683.411",
    "final_y": "558142.942427",
    "longitude": "-89.95280469252188",
    "latitude": "30.02755030794648",
    "geocoded_column": {
      "latitude": "30.02755030794648",
      "longitude": "-89.95280469252188"
    }
  },
  {
    "service_request": "2025-1207616",
    "request_type": "Trash/Recycling",
    "request_reason": "Request a Large Item Pick Up",
    "date_created": "2025-07-08T18:35:38.000",
    "date_modified": "2025-07-08T18:35:40.000",
    "request_status": "Pending",
    "responsible_agency": "Department of Sanitation",
    "final_address": "1715 Desire St",
    "address_councildis": "D",
    "status": "Assigned to Contractor",
    "contractor": "IV Waste",
    "rowid": "1207616",
    "final_x": "3690806.33974",
    "final_y": "538070.747529",
    "longitude": "-90.03845060274303",
    "latitude": "29.97322209957379",
    "geocoded_column": {
      "latitude": "29.97322209957379",
      "longitude": "-90.03845060274303"
    }
  },
  {
    "service_request": "2025-1207615",
    "request_type": "Roads and Streets",
    "request_reason": "Pothole",
    "date_created": "2025-07-08T18:28:40.000",
    "date_modified": "2025-07-08T18:28:42.000",
    "request_status": "Pending",
    "responsible_agency": "Department of Public Works",
    "final_address": "2236 Joliet St",
    "address_councildis": "A",
    "status": "Pending",
    "rowid": "1207615",
    "final_x": "3663449.85543",
    "final_y": "532185.555139",
    "longitude": "-90.12504428556004",
    "latitude": "29.957861445407953",
    "geocoded_column": {
      "latitude": "29.957861445407953",
      "longitude": "-90.12504428556004"
    }
  },
  {
    "service_request": "2025-1207614",
    "request_type": "Drainage",
    "request_reason": "Catch Basin Clogged",
    "date_created": "2025-07-08T18:25:52.000",
    "date_modified": "2025-07-08T18:25:54.000",
    "request_status": "Pending",
    "responsible_agency": "Sewerage & Water Board",
    "final_address": "2222 Lakeshore Dr",
    "address_councildis": "D",
    "status": "Pending",
    "rowid": "1207614",
    "final_x": "3684233.25916",
    "final_y": "558810.595804",
    "longitude": "-90.0584809246529",
    "latitude": "30.030451820504528",
    "geocoded_column": {
      "latitude": "30.030451820504528",
      "longitude": "-90.0584809246529"
    }
  },
  {
    "service_request": "2025-1207613",
    "request_type": "General Services",
    "request_reason": "General Service Request",
    "date_created": "2025-07-08T18:21:16.000",
    "date_modified": "2025-07-08T18:21:17.000",
    "request_status": "Pending",
    "responsible_agency": "Orleans Parish Communication District",
    "final_address": "1232 Harmony St",
    "address_councildis": "B",
    "status": "Pending",
    "rowid": "1207613",
    "final_x": "3675472.26043",
    "final_y": "520550.641208",
    "longitude": "-90.08748038017566",
    "latitude": "29.92551518955323",
    "geocoded_column": {
      "latitude": "29.92551518955323",
      "longitude": "-90.08748038017566"
    }
  },
  {
    "service_request": "2025-1207612",
    "request_type": "Trash/Recycling",
    "request_reason": "Request a Large Item Pick Up",
    "date_created": "2025-07-08T18:06:31.000",
    "date_modified": "2025-07-08T18:06:33.000",
    "request_status": "Pending",
    "responsible_agency": "Department of Sanitation",
    "final_address": "6049 Argonne Blvd",
    "address_councildis": "A",
    "status": "Assigned to Contractor",
    "contractor": "IV Waste",
    "rowid": "1207612",
    "final_x": "3670236.86292",
    "final_y": "547500.858066",
    "longitude": "-90.10309355962296",
    "latitude": "29.999774800895437",
    "geocoded_column": {
      "latitude": "29.999774800895437",
      "longitude": "-90.10309355962296"
    }
  },
  {
    "service_request": "2025-1207611",
    "request_type": "Trash/Recycling",
    "request_reason": "Order Trash Cart",
    "date_created": "2025-07-08T17:42:02.000",
    "date_modified": "2025-07-08T17:42:04.000",
    "request_status": "Pending",
    "responsible_agency": "Department of Sanitation",
    "final_address": "5030 Danneel St",
    "address_councildis": "B",
    "status": "Assigned to Contractor",
    "contractor": "IV Waste",
    "rowid": "1207611",
    "final_x": "3668583.04846",
    "final_y": "522061.497338",
    "longitude": "-90.10917661362056",
    "latitude": "29.929873730703292",
    "geocoded_column": {
      "latitude": "29.929873730703292",
      "longitude": "-90.10917661362056"
    }
  },
  {
    "service_request": "2025-1207610",
    "request_type": "Trash/Recycling",
    "request_reason": "Change Size of Trash Cart",
    "date_created": "2025-07-08T17:32:19.000",
    "date_modified": "2025-07-08T17:32:21.000",
    "request_status": "Pending",
    "responsible_agency": "Department of Sanitation",
    "final_address": "1234 Congress St",
    "address_councildis": "C",
    "status": "Assigned to Contractor",
    "contractor": "IV Waste",
    "rowid": "1207610",
    "final_x": "3690836.30294",
    "final_y": "536204.144647",
    "longitude": "-90.03842259361622",
    "latitude": "29.96808866927943",
    "geocoded_column": {
      "latitude": "29.96808866927943",
      "longitude": "-90.03842259361622"
    }
  },
  {
    "service_request": "2025-1207609",
    "request_type": "Trash/Recycling",
    "request_reason": "Replace Trash Cart",
    "date_created": "2025-07-08T17:30:20.000",
    "date_modified": "2025-07-08T17:30:22.000",
    "request_status": "Pending",
    "responsible_agency": "Department of Sanitation",
    "final_address": "3840 Tall Pines Dr",
    "address_councildis": "C",
    "status": "Assigned to Contractor",
    "contractor": "Richards Disposal",
    "rowid": "1207609",
    "final_x": "3704413.5395",
    "final_y": "513359.613874",
    "longitude": "-89.99638725187678",
    "latitude": "29.90484536397654",
    "geocoded_column": {
      "latitude": "29.90484536397654",
      "longitude": "-89.99638725187678"
    }
  },
  {
    "service_request": "2025-1207608",
    "request_type": "Property Maintenance",
    "request_reason": "Property Maintenance",
    "date_created": "2025-07-08T17:29:25.000",
    "date_modified": "2025-07-08T17:29:26.000",
    "request_status": "Pending",
    "responsible_agency": "Department of Code Enforcement",
    "final_address": "728 N Alexander St",
    "address_councildis": "A",
    "status": "Pending",
    "rowid": "1207608",
    "final_x": "3671611.14119",
    "final_y": "541180.258316",
    "longitude": "-90.09896724419093",
    "latitude": "29.98235468989208",
    "geocoded_column": {
      "latitude": "29.98235468989208",
      "longitude": "-90.09896724419093"
    }
  },
  {
    "service_request": "2025-1207607",
    "request_type": "Trash/Recycling",
    "request_reason": "Request a Large Item Pick Up",
    "date_created": "2025-07-08T17:25:55.000",
    "date_modified": "2025-07-08T17:25:56.000",
    "request_status": "Pending",
    "responsible_agency": "Department of Sanitation",
    "final_address": "7820 St Charles Ave",
    "address_councildis": "A",
    "status": "Assigned to Contractor",
    "contractor": "IV Waste",
    "rowid": "1207607",
    "final_x": "3661226.88166",
    "final_y": "526145.267454",
    "longitude": "-90.13226376887074",
    "latitude": "29.94131685753672",
    "geocoded_column": {
      "latitude": "29.94131685753672",
      "longitude": "-90.13226376887074"
    }
  },
  {
    "service_request": "2025-1207606",
    "request_type": "Trash/Recycling",
    "request_reason": "Replace Trash Cart",
    "date_created": "2025-07-08T17:25:24.000",
    "date_modified": "2025-07-08T17:25:26.000",
    "request_status": "Pending",
    "responsible_agency": "Department of Sanitation",
    "final_address": "8918 Palm St",
    "address_councildis": "A",
    "status": "Assigned to Contractor",
    "contractor": "IV Waste",
    "rowid": "1207606",
    "final_x": "3665487.91975",
    "final_y": "536677.729607",
    "longitude": "-90.11845823716503",
    "latitude": "29.970154194687836",
    "geocoded_column": {
      "latitude": "29.970154194687836",
      "longitude": "-90.11845823716503"
    }
  },
  {
    "service_request": "2025-1207605",
    "request_type": "Parks & Parkways",
    "request_reason": "Request Tree Service (Right of Way/Public Property)",
    "date_created": "2025-07-08T17:18:27.000",
    "date_modified": "2025-07-08T17:18:28.000",
    "request_status": "Pending",
    "responsible_agency": "Department of Parks & Parkway",
    "final_address": "199 Lennox Ct",
    "address_councildis": "C",
    "status": "Pending",
    "rowid": "1207605",
    "final_x": "3706704.08689",
    "final_y": "521068.403449",
    "longitude": "-89.98887279562899",
    "latitude": "29.92596818142957",
    "geocoded_column": {
      "latitude": "29.92596818142957",
      "longitude": "-89.98887279562899"
    }
  },
  {
    "service_request": "2025-1207604",
    "request_type": "Abandoned Vehicles",
    "request_reason": "Abandoned/Junk Vehicles",
    "date_created": "2025-07-08T17:12:00.000",
    "date_modified": "2025-07-08T17:12:01.000",
    "request_status": "Pending",
    "responsible_agency": "Department of Public Works",
    "final_address": "4710 Nottingham Dr",
    "address_councildis": "E",
    "status": "Pending",
    "rowid": "1207604",
    "final_x": "3716328.20517",
    "final_y": "556802.052826",
    "longitude": "-89.95713787506214",
    "latitude": "30.023908221469654",
    "geocoded_column": {
      "latitude": "30.023908221469654",
      "longitude": "-89.95713787506214"
    }
  },
  {
    "service_request": "2025-1207603",
    "request_type": "Roads and Streets",
    "request_reason": "Pothole",
    "date_created": "2025-07-08T17:11:19.000",
    "date_modified": "2025-07-08T17:11:26.000",
    "request_status": "Pending",
    "responsible_agency": "Department of Public Works",
    "final_address": "6700 BLK Colbert St",
    "address_councildis": "A",
    "status": "Pending",
    "rowid": "1207603",
    "final_x": "3667876.86729",
    "final_y": "552442.555664",
    "longitude": "-90.11038229293759",
    "latitude": "30.01343220694541",
    "geocoded_column": {
      "latitude": "30.01343220694541",
      "longitude": "-90.11038229293759"
    }
  },
  {
    "service_request": "2025-1207602",
    "request_type": "Trash/Recycling",
    "request_reason": "Order Trash Cart",
    "date_created": "2025-07-08T16:59:41.000",
    "date_modified": "2025-07-08T16:59:42.000",
    "request_status": "Pending",
    "responsible_agency": "Department of Sanitation",
    "final_address": "1638 N Miro St B",
    "address_councildis": "D",
    "status": "Assigned to Contractor",
    "contractor": "IV Waste",
    "rowid": "1207602",
    "final_x": "3680728.91931",
    "final_y": "539290.063242",
    "longitude": "-90.07023465727681",
    "latitude": "29.976884083991095",
    "geocoded_column": {
      "latitude": "29.976884083991095",
      "longitude": "-90.07023465727681"
    }
  },
  {
    "service_request": "2025-1207601",
    "request_type": "Trash/Recycling",
    "request_reason": "Request a Large Item Pick Up",
    "date_created": "2025-07-08T16:59:39.000",
    "date_modified": "2025-07-08T16:59:40.000",
    "request_status": "Pending",
    "responsible_agency": "Department of Sanitation",
    "final_address": "388 Broadway St",
    "address_councildis": "A",
    "status": "Assigned to Contractor",
    "contractor": "IV Waste",
    "rowid": "1207601",
    "final_x": "3661925.8032",
    "final_y": "523252.688187",
    "longitude": "-90.13015302298862",
    "latitude": "29.9333430165629",
    "geocoded_column": {
      "latitude": "29.9333430165629",
      "longitude": "-90.13015302298862"
    }
  },
  {
    "service_request": "2025-1207600",
    "request_type": "Trash/Recycling",
    "request_reason": "Request a Large Item Pick Up",
    "date_created": "2025-07-08T16:58:56.000",
    "date_modified": "2025-07-08T16:58:58.000",
    "request_status": "Pending",
    "responsible_agency": "Department of Sanitation",
    "final_address": "4428 Constance St, New Orleans, Louisiana, 70115",
    "address_councildis": "B",
    "status": "Assigned to Contractor",
    "contractor": "IV Waste",
    "rowid": "1207600",
    "final_x": "3670797.62561",
    "final_y": "518343.355254",
    "longitude": "-90.10231165481648",
    "latitude": "29.919584784086783",
    "geocoded_column": {
      "latitude": "29.919584784086783",
      "longitude": "-90.10231165481648"
    }
  },
  {
    "service_request": "2025-1207599",
    "request_type": "Trash/Recycling",
    "request_reason": "Request a Large Item Pick Up",
    "date_created": "2025-07-08T16:54:04.000",
    "date_modified": "2025-07-08T16:54:07.000",
    "request_status": "Pending",
    "responsible_agency": "Department of Sanitation",
    "final_address": "1906 Broadway St",
    "address_councildis": "A",
    "status": "Assigned to Contractor",
    "contractor": "IV Waste",
    "rowid": "1207599",
    "final_x": "3665552.24749",
    "final_y": "528650.718464",
    "longitude": "-90.11852384280849",
    "latitude": "29.948080666662566",
    "geocoded_column": {
      "latitude": "29.948080666662566",
      "longitude": "-90.11852384280849"
    }
  },
  {
    "service_request": "2025-1207598",
    "request_type": "Trash/Recycling",
    "request_reason": "Request a Large Item Pick Up",
    "date_created": "2025-07-08T16:50:57.000",
    "date_modified": "2025-07-08T16:51:00.000",
    "request_status": "Pending",
    "responsible_agency": "Department of Sanitation",
    "final_address": "1904 Brutus St",
    "address_councildis": "D",
    "status": "Assigned to Contractor",
    "contractor": "IV Waste",
    "rowid": "1207598",
    "final_x": "3681701.83004",
    "final_y": "550089.692628",
    "longitude": "-90.06678488141307",
    "latitude": "30.00654971973073",
    "geocoded_column": {
      "latitude": "30.00654971973073",
      "longitude": "-90.06678488141307"
    }
  },
  {
    "service_request": "2025-1207597",
    "request_type": "Drainage",
    "request_reason": "Catch Basin Clogged",
    "date_created": "2025-07-08T16:44:03.000",
    "date_modified": "2025-07-08T16:44:04.000",
    "request_status": "Pending",
    "responsible_agency": "Sewerage & Water Board",
    "final_address": "1200 BLK Mirabeau Ave",
    "address_councildis": "D",
    "status": "Pending",
    "rowid": "1207597",
    "final_x": "3677307.22704",
    "final_y": "550143.148517",
    "longitude": "-90.08066671966297",
    "latitude": "30.006829537567146",
    "geocoded_column": {
      "latitude": "30.006829537567146",
      "longitude": "-90.08066671966297"
    }
  },
  {
    "service_request": "2025-1207596",
    "request_type": "Trash/Recycling",
    "request_reason": "Repair Trash Cart",
    "date_created": "2025-07-08T16:41:43.000",
    "date_modified": "2025-07-08T16:41:45.000",
    "request_status": "Pending",
    "responsible_agency": "Department of Sanitation",
    "final_address": "616 Sixth St",
    "address_councildis": "B",
    "status": "Assigned to Contractor",
    "contractor": "IV Waste",
    "rowid": "1207596",
    "final_x": "3677513.93486",
    "final_y": "519130.305271",
    "longitude": "-90.08108443967728",
    "latitude": "29.921548528515974",
    "geocoded_column": {
      "latitude": "29.921548528515974",
      "longitude": "-90.08108443967728"
    }
  },
  {
    "service_request": "2025-1207595",
    "request_type": "Trash/Recycling",
    "request_reason": "Request a Large Item Pick Up",
    "date_created": "2025-07-08T16:38:42.000",
    "date_modified": "2025-07-08T16:38:43.000",
    "request_status": "Pending",
    "responsible_agency": "Department of Sanitation",
    "final_address": "4428 Werner Dr",
    "address_councildis": "E",
    "status": "Assigned to Contractor",
    "contractor": "Waste Pro",
    "rowid": "1207595",
    "final_x": "3704864.47115",
    "final_y": "553499.336343",
    "longitude": "-89.99348279040518",
    "latitude": "30.015200620583016",
    "geocoded_column": {
      "latitude": "30.015200620583016",
      "longitude": "-89.99348279040518"
    }
  },
  {
    "service_request": "2025-1207594",
    "request_type": "Mosquito, Termite & Rodent Control",
    "request_reason": "Mosquito Complaint",
    "date_created": "2025-07-08T16:35:30.000",
    "date_modified": "2025-07-08T16:35:31.000",
    "request_status": "Pending",
    "responsible_agency": "Mosquito, Termite & Rodent Control Board",
    "final_address": "8520 Hickory St",
    "address_councildis": "A",
    "status": "Pending",
    "rowid": "1207594",
    "final_x": "3662167.99405",
    "final_y": "530988.228162",
    "longitude": "-90.12913179251497",
    "latitude": "29.954606289278892",
    "geocoded_column": {
      "latitude": "29.954606289278892",
      "longitude": "-90.12913179251497"
    }
  },
  {
    "service_request": "2025-1207593",
    "request_type": "Abandoned Vehicles",
    "request_reason": "Abandoned/Junk Vehicles",
    "date_created": "2025-07-08T16:35:04.000",
    "date_modified": "2025-07-08T16:35:05.000",
    "request_status": "Pending",
    "responsible_agency": "Department of Public Works",
    "final_address": "2600 BLK Amazon St",
    "address_councildis": "C",
    "status": "Pending",
    "rowid": "1207593",
    "final_x": "3693332.43745",
    "final_y": "521629.383366",
    "longitude": "-90.03106285156743",
    "latitude": "29.92793532298203",
    "geocoded_column": {
      "latitude": "29.92793532298203",
      "longitude": "-90.03106285156743"
    }
  },
  {
    "service_request": "2025-1207592",
    "request_type": "Safety & Permits",
    "request_reason": "Zoning Enforcement",
    "date_created": "2025-07-08T16:30:04.000",
    "date_modified": "2025-07-08T16:30:07.000",
    "request_status": "Pending",
    "responsible_agency": "Safety and Permits",
    "final_address": "419 S Lopez St",
    "address_councildis": "B",
    "status": "Pending",
    "rowid": "1207592",
    "final_x": "3673021.84936",
    "final_y": "535167.277062",
    "longitude": "-90.09471682508293",
    "latitude": "29.965779169955976",
    "geocoded_column": {
      "latitude": "29.965779169955976",
      "longitude": "-90.09471682508293"
    }
  },
  {
    "service_request": "2025-1207591",
    "request_type": "Trash/Recycling",
    "request_reason": "Request a Large Item Pick Up",
    "date_created": "2025-07-08T16:23:57.000",
    "date_modified": "2025-07-08T16:23:59.000",
    "request_status": "Pending",
    "responsible_agency": "Department of Sanitation",
    "final_address": "8030 Lacombe St",
    "address_councildis": "E",
    "status": "Assigned to Contractor",
    "contractor": "Waste Pro",
    "rowid": "1207591",
    "final_x": "3709032.53969",
    "final_y": "566239.660259",
    "longitude": "-89.97983829408822",
    "latitude": "30.05009680860759",
    "geocoded_column": {
      "latitude": "30.05009680860759",
      "longitude": "-89.97983829408822"
    }
  },
  {
    "service_request": "2025-1207590",
    "request_type": "Trash/Recycling",
    "request_reason": "Order Recycling Cart",
    "date_created": "2025-07-08T16:23:24.000",
    "date_modified": "2025-07-08T16:23:26.000",
    "request_status": "Pending",
    "responsible_agency": "Department of Sanitation",
    "final_address": "2535 Peniston St",
    "address_councildis": "B",
    "status": "Pending",
    "rowid": "1207590",
    "final_x": "3672104.33883",
    "final_y": "524531.565948",
    "longitude": "-90.09797640943755",
    "latitude": "29.93656171017608",
    "geocoded_column": {
      "latitude": "29.93656171017608",
      "longitude": "-90.09797640943755"
    }
  },
  {
    "service_request": "2025-1207589",
    "request_type": "Trash/Recycling",
    "request_reason": "Order Trash Cart",
    "date_created": "2025-07-08T16:22:16.000",
    "date_modified": "2025-07-08T16:22:19.000",
    "request_status": "Pending",
    "responsible_agency": "Department of Sanitation",
    "final_address": "320 36Th St",
    "address_councildis": "A",
    "status": "Assigned to Contractor",
    "contractor": "IV Waste",
    "rowid": "1207589",
    "final_x": "3665171.47456",
    "final_y": "551877.542806",
    "longitude": "-90.11894886638615",
    "latitude": "30.01195773601377",
    "geocoded_column": {
      "latitude": "30.01195773601377",
      "longitude": "-90.11894886638615"
    }
  },
  {
    "service_request": "2025-1207588",
    "request_type": "Trash/Recycling",
    "request_reason": "Missed Trash Pick-Up",
    "date_created": "2025-07-08T16:21:56.000",
    "date_modified": "2025-07-08T16:21:58.000",
    "request_status": "Pending",
    "responsible_agency": "Department of Sanitation",
    "final_address": "4612 Bienville Ave",
    "address_councildis": "A",
    "status": "Assigned to Contractor",
    "contractor": "IV Waste",
    "rowid": "1207588",
    "final_x": "3669775.04026",
    "final_y": "540259.153995",
    "longitude": "-90.10479775961475",
    "latitude": "29.97987622490413",
    "geocoded_column": {
      "latitude": "29.97987622490413",
      "longitude": "-90.10479775961475"
    }
  },
  {
    "service_request": "2025-1207587",
    "request_type": "Trash/Recycling",
    "request_reason": "Request a Large Item Pick Up",
    "date_created": "2025-07-08T16:18:24.000",
    "date_modified": "2025-07-08T16:18:25.000",
    "request_status": "Pending",
    "responsible_agency": "Department of Sanitation",
    "final_address": "6051 Louisville St",
    "address_councildis": "A",
    "status": "Assigned to Contractor",
    "contractor": "IV Waste",
    "rowid": "1207587",
    "final_x": "3667878.37921",
    "final_y": "547742.226386",
    "longitude": "-90.1105359958544",
    "latitude": "30.000507896128276",
    "geocoded_column": {
      "latitude": "30.000507896128276",
      "longitude": "-90.1105359958544"
    }
  },
  {
    "service_request": "2025-1207586",
    "request_type": "Abandoned Vehicles",
    "request_reason": "Abandoned/Junk Vehicles",
    "date_created": "2025-07-08T16:13:27.000",
    "date_modified": "2025-07-08T16:14:53.000",
    "request_status": "Pending",
    "responsible_agency": "Department of Public Works",
    "final_address": "3400 BLK Second St",
    "address_councildis": "B",
    "status": "Pending",
    "rowid": "1207586",
    "final_x": "3673092.8047",
    "final_y": "528501.741341",
    "longitude": "-90.09472028829207",
    "latitude": "29.947449054225284",
    "geocoded_column": {
      "latitude": "29.947449054225284",
      "longitude": "-90.09472028829207"
    }
  },
  {
    "service_request": "2025-1207585",
    "request_type": "Safety & Permits",
    "request_reason": "Zoning Enforcement",
    "date_created": "2025-07-08T16:10:27.000",
    "date_modified": "2025-07-08T16:10:30.000",
    "request_status": "Pending",
    "responsible_agency": "Safety and Permits",
    "final_address": "828 Lesseps St",
    "address_councildis": "C",
    "status": "Pending",
    "rowid": "1207585",
    "final_x": "3692446.27798",
    "final_y": "534204.802501",
    "longitude": "-90.03340988171105",
    "latitude": "29.96254105627978",
    "geocoded_column": {
      "latitude": "29.96254105627978",
      "longitude": "-90.03340988171105"
    }
  },
  {
    "service_request": "2025-1207584",
    "request_type": "Parks & Parkways",
    "request_reason": "Request Tree Service (Right of Way/Public Property)",
    "date_created": "2025-07-08T16:08:52.000",
    "date_modified": "2025-07-08T16:08:53.000",
    "request_status": "Pending",
    "responsible_agency": "Department of Parks & Parkway",
    "final_address": "2742 St Charles Ave",
    "address_councildis": "B",
    "status": "Pending",
    "rowid": "1207584",
    "final_x": "3676022.74901",
    "final_y": "522469.35577",
    "longitude": "-90.08567670604667",
    "latitude": "29.93077456294261",
    "geocoded_column": {
      "latitude": "29.93077456294261",
      "longitude": "-90.08567670604667"
    }
  },
  {
    "service_request": "2025-1207583",
    "request_type": "Trash/Recycling",
    "request_reason": "Repair Trash Cart",
    "date_created": "2025-07-08T16:08:16.000",
    "date_modified": "2025-07-08T16:08:19.000",
    "request_status": "Pending",
    "responsible_agency": "Department of Sanitation",
    "final_address": "278 Audubon Blvd",
    "address_councildis": "A",
    "status": "Assigned to Contractor",
    "contractor": "IV Waste",
    "rowid": "1207583",
    "final_x": "3666810.92973",
    "final_y": "529551.345345",
    "longitude": "-90.11451941070627",
    "latitude": "29.950520345399767",
    "geocoded_column": {
      "latitude": "29.950520345399767",
      "longitude": "-90.11451941070627"
    }
  },
  {
    "service_request": "2025-1207582",
    "request_type": "Trash/Recycling",
    "request_reason": "Order Recycling Cart",
    "date_created": "2025-07-08T16:03:09.000",
    "date_modified": "2025-07-08T16:03:11.000",
    "request_status": "Pending",
    "responsible_agency": "Department of Sanitation",
    "final_address": "501 Emerald St",
    "address_councildis": "D",
    "status": "Pending",
    "rowid": "1207582",
    "final_x": "3668182.66503",
    "final_y": "555159.506521",
    "longitude": "-90.10932443220793",
    "latitude": "30.020893884047855",
    "geocoded_column": {
      "latitude": "30.020893884047855",
      "longitude": "-90.10932443220793"
    }
  },
  {
    "service_request": "2025-1207581",
    "request_type": "Trash/Recycling",
    "request_reason": "Request a Large Item Pick Up",
    "date_created": "2025-07-08T15:57:40.000",
    "date_modified": "2025-07-08T15:57:43.000",
    "request_status": "Pending",
    "responsible_agency": "Department of Sanitation",
    "final_address": "2835 General Pershing St",
    "address_councildis": "B",
    "status": "Assigned to Contractor",
    "contractor": "IV Waste",
    "rowid": "1207581",
    "final_x": "3670853.54836",
    "final_y": "525399.865789",
    "longitude": "-90.10189575560553",
    "latitude": "29.938986273948863",
    "geocoded_column": {
      "latitude": "29.938986273948863",
      "longitude": "-90.10189575560553"
    }
  },
  {
    "service_request": "2025-1207580",
    "request_type": "Trash/Recycling",
    "request_reason": "Order Trash Cart",
    "date_created": "2025-07-08T15:57:10.000",
    "date_modified": "2025-07-08T15:57:11.000",
    "request_status": "Pending",
    "responsible_agency": "Department of Sanitation",
    "final_address": "226 S Dorgenois St",
    "address_councildis": "B",
    "status": "Assigned to Contractor",
    "contractor": "IV Waste",
    "rowid": "1207580",
    "final_x": "3675454.2692",
    "final_y": "534208.704325",
    "longitude": "-90.08706824336065",
    "latitude": "29.963070895596854",
    "geocoded_column": {
      "latitude": "29.963070895596854",
      "longitude": "-90.08706824336065"
    }
  },
  {
    "service_request": "2025-1207579",
    "request_type": "Trash/Recycling",
    "request_reason": "Request a Large Item Pick Up",
    "date_created": "2025-07-08T15:56:24.000",
    "date_modified": "2025-07-08T15:56:34.000",
    "request_status": "Pending",
    "responsible_agency": "Department of Sanitation",
    "final_address": "6214 Wainwright Dr",
    "address_councildis": "D",
    "status": "Assigned to Contractor",
    "contractor": "IV Waste",
    "rowid": "1207579",
    "final_x": "3681303.1092",
    "final_y": "555788.510681",
    "longitude": "-90.0678457020567",
    "latitude": "30.022231513244183",
    "geocoded_column": {
      "latitude": "30.022231513244183",
      "longitude": "-90.0678457020567"
    }
  },
  {
    "service_request": "2025-1207578",
    "request_type": "Drainage",
    "request_reason": "Street Flooding",
    "date_created": "2025-07-08T15:56:24.000",
    "date_modified": "2025-07-08T15:56:34.000",
    "request_status": "Pending",
    "responsible_agency": "Sewerage & Water Board",
    "final_address": "3327 Lancaster St",
    "address_councildis": "C",
    "status": "Pending",
    "rowid": "1207578",
    "final_x": "3709875.59217",
    "final_y": "518415.88127",
    "longitude": "-89.97896035304636",
    "latitude": "29.918571974434318",
    "geocoded_column": {
      "latitude": "29.918571974434318",
      "longitude": "-89.97896035304636"
    }
  },
  {
    "service_request": "2025-1207577",
    "request_type": "Abandoned Vehicles",
    "request_reason": "Abandoned/Junk Vehicles",
    "date_created": "2025-07-08T15:55:25.000",
    "date_modified": "2025-07-08T15:55:31.000",
    "request_status": "Pending",
    "responsible_agency": "Department of Public Works",
    "final_address": "317 S Johnson St",
    "address_councildis": "B",
    "status": "Pending",
    "rowid": "1207577",
    "final_x": "3676696.46094",
    "final_y": "532970.979844",
    "longitude": "-90.08318819221469",
    "latitude": "29.959630362748477",
    "geocoded_column": {
      "latitude": "29.959630362748477",
      "longitude": "-90.08318819221469"
    }
  },
  {
    "service_request": "2025-1207576",
    "request_type": "Property Maintenance",
    "request_reason": "Property Maintenance",
    "date_created": "2025-07-08T15:55:10.000",
    "date_modified": "2025-07-08T15:55:12.000",
    "request_status": "Pending",
    "responsible_agency": "Department of Code Enforcement",
    "final_address": "2601 Frenchmen St",
    "address_councildis": "D",
    "status": "Pending",
    "rowid": "1207576",
    "final_x": "3684175.46268",
    "final_y": "541834.109516",
    "longitude": "-90.05926005701961",
    "latitude": "29.98377440195315",
    "geocoded_column": {
      "latitude": "29.98377440195315",
      "longitude": "-90.05926005701961"
    }
  },
  {
    "service_request": "2025-1207575",
    "request_type": "Trash/Recycling",
    "request_reason": "Return Recycling Cart",
    "date_created": "2025-07-08T15:47:16.000",
    "date_modified": "2025-07-08T15:47:19.000",
    "request_status": "Pending",
    "responsible_agency": "Department of Sanitation",
    "final_address": "5500 Laurel St",
    "address_councildis": "A",
    "status": "Pending",
    "rowid": "1207575",
    "final_x": "3666180.45556",
    "final_y": "517839.385462",
    "longitude": "-90.11690271516281",
    "latitude": "29.918334612849645",
    "geocoded_column": {
      "latitude": "29.918334612849645",
      "longitude": "-90.11690271516281"
    }
  },
  {
    "service_request": "2025-1207574",
    "request_type": "Abandoned Vehicles",
    "request_reason": "Abandoned/Junk Vehicles",
    "date_created": "2025-07-08T15:45:57.000",
    "date_modified": "2025-07-08T15:49:19.000",
    "request_status": "Pending",
    "responsible_agency": "Department of Public Works",
    "final_address": "1900 BLK Saint Claude Ave",
    "address_councildis": "C",
    "status": "Inspected",
    "rowid": "1207574",
    "final_x": "3684054.22372",
    "final_y": "536221.234104",
    "longitude": "-90.05984002895792",
    "latitude": "29.968344661279527",
    "geocoded_column": {
      "latitude": "29.968344661279527",
      "longitude": "-90.05984002895792"
    }
  },
  {
    "service_request": "2025-1207573",
    "request_type": "Trash/Recycling",
    "request_reason": "Repair Trash Cart",
    "date_created": "2025-07-08T15:45:08.000",
    "date_modified": "2025-07-08T15:45:10.000",
    "request_status": "Pending",
    "responsible_agency": "Department of Sanitation",
    "final_address": "23 Rail St",
    "address_councildis": "D",
    "status": "Assigned to Contractor",
    "contractor": "IV Waste",
    "rowid": "1207573",
    "final_x": "3674043.84712",
    "final_y": "557245.442715",
    "longitude": "-90.0907332893834",
    "latitude": "30.026455997672745",
    "geocoded_column": {
      "latitude": "30.026455997672745",
      "longitude": "-90.0907332893834"
    }
  },
  {
    "service_request": "2025-1207572",
    "request_type": "Property Maintenance",
    "request_reason": "Property Maintenance",
    "date_created": "2025-07-08T15:44:11.000",
    "date_modified": "2025-07-08T15:44:13.000",
    "request_status": "Pending",
    "responsible_agency": "Department of Code Enforcement",
    "final_address": "1529 Delery St",
    "address_councildis": "E",
    "status": "Pending",
    "rowid": "1207572",
    "final_x": "3701136.83095",
    "final_y": "534583.809477",
    "longitude": "-90.00595262963255",
    "latitude": "29.963309234293778",
    "geocoded_column": {
      "latitude": "29.963309234293778",
      "longitude": "-90.00595262963255"
    }
  },
  {
    "service_request": "2025-1207571",
    "request_type": "Trash/Recycling",
    "request_reason": "Order Trash Cart",
    "date_created": "2025-07-08T15:42:24.000",
    "date_modified": "2025-07-08T15:42:26.000",
    "request_status": "Pending",
    "responsible_agency": "Department of Sanitation",
    "final_address": "1963 N Galvez St",
    "address_councildis": "D",
    "status": "Assigned to Contractor",
    "contractor": "IV Waste",
    "rowid": "1207571",
    "final_x": "3683404.78767",
    "final_y": "539918.83585",
    "longitude": "-90.06176139040804",
    "latitude": "29.978531611104486",
    "geocoded_column": {
      "latitude": "29.978531611104486",
      "longitude": "-90.06176139040804"
    }
  },
  {
    "service_request": "2025-1207570",
    "request_type": "Trash/Recycling",
    "request_reason": "Request a Large Item Pick Up",
    "date_created": "2025-07-08T15:41:52.000",
    "date_modified": "2025-07-08T15:41:54.000",
    "request_status": "Pending",
    "responsible_agency": "Department of Sanitation",
    "final_address": "4883 Lurline St",
    "address_councildis": "E",
    "status": "Assigned to Contractor",
    "contractor": "Waste Pro",
    "rowid": "1207570",
    "final_x": "3711942.17067",
    "final_y": "556990.696282",
    "longitude": "-89.97098966328403",
    "latitude": "30.02457103164344",
    "geocoded_column": {
      "latitude": "30.02457103164344",
      "longitude": "-89.97098966328403"
    }
  },
  {
    "service_request": "2025-1207569",
    "request_type": "Trash/Recycling",
    "request_reason": "Replace Trash Cart",
    "date_created": "2025-07-08T15:36:39.000",
    "date_modified": "2025-07-08T15:36:41.000",
    "request_status": "Pending",
    "responsible_agency": "Department of Sanitation",
    "final_address": "328 Eliza St",
    "address_councildis": "C",
    "status": "Assigned to Contractor",
    "contractor": "Richards Disposal",
    "rowid": "1207569",
    "final_x": "3686513.95503",
    "final_y": "529600.235137",
    "longitude": "-90.05230586336496",
    "latitude": "29.95006379834177",
    "geocoded_column": {
      "latitude": "29.95006379834177",
      "longitude": "-90.05230586336496"
    }
  },
  {
    "service_request": "2025-1207568",
    "request_type": "Trash/Recycling",
    "request_reason": "Request a Large Item Pick Up",
    "date_created": "2025-07-08T15:32:00.000",
    "date_modified": "2025-07-08T15:32:02.000",
    "request_status": "Pending",
    "responsible_agency": "Department of Sanitation",
    "final_address": "5664 Campus Blvd",
    "address_councildis": "D",
    "status": "Assigned to Contractor",
    "contractor": "IV Waste",
    "rowid": "1207568",
    "final_x": "3688882.07158",
    "final_y": "554160.70396",
    "longitude": "-90.0439560020119",
    "latitude": "30.017523318210863",
    "geocoded_column": {
      "latitude": "30.017523318210863",
      "longitude": "-90.0439560020119"
    }
  },
  {
    "service_request": "2025-1207567",
    "request_type": "Roads and Streets",
    "request_reason": "Sidewalk Damaged or Missing",
    "date_created": "2025-07-08T15:28:49.000",
    "date_modified": "2025-07-08T15:28:51.000",
    "request_status": "Pending",
    "responsible_agency": "Department of Public Works",
    "final_address": "1905 St Charles Ave",
    "address_councildis": "B",
    "status": "Pending",
    "rowid": "1207567",
    "final_x": "3678265.72411",
    "final_y": "524314.500348",
    "longitude": "-90.07853216283384",
    "latitude": "29.93578075994759",
    "geocoded_column": {
      "latitude": "29.93578075994759",
      "longitude": "-90.07853216283384"
    }
  },
  {
    "service_request": "2025-1207566",
    "request_type": "Trash/Recycling",
    "request_reason": "Repair Trash Cart",
    "date_created": "2025-07-08T15:25:25.000",
    "date_modified": "2025-07-08T15:25:27.000",
    "request_status": "Pending",
    "responsible_agency": "Department of Sanitation",
    "final_address": "2111 Cadiz St",
    "address_councildis": "B",
    "status": "Assigned to Contractor",
    "contractor": "IV Waste",
    "rowid": "1207566",
    "final_x": "3669951.66055",
    "final_y": "522681.717306",
    "longitude": "-90.10483513508949",
    "latitude": "29.931538861508102",
    "geocoded_column": {
      "latitude": "29.931538861508102",
      "longitude": "-90.10483513508949"
    }
  },
  {
    "service_request": "2025-1207565",
    "request_type": "Drainage",
    "request_reason": "Catch Basin Clogged",
    "date_created": "2025-07-08T15:25:19.000",
    "date_modified": "2025-07-08T15:25:20.000",
    "request_status": "Pending",
    "responsible_agency": "Sewerage & Water Board",
    "final_address": "1402 Behrman Ave",
    "address_councildis": "C",
    "status": "Pending",
    "rowid": "1207565",
    "final_x": "3691412.4758",
    "final_y": "526192.901054",
    "longitude": "-90.03696071748173",
    "latitude": "29.94054330736292",
    "geocoded_column": {
      "latitude": "29.94054330736292",
      "longitude": "-90.03696071748173"
    }
  },
  {
    "service_request": "2025-1207564",
    "request_type": "Drainage",
    "request_reason": "Street Flooding",
    "date_created": "2025-07-08T15:23:56.000",
    "date_modified": "2025-07-08T15:23:57.000",
    "request_status": "Pending",
    "responsible_agency": "Sewerage & Water Board",
    "final_address": "1836 St Bernard Ave",
    "address_councildis": "D",
    "status": "Pending",
    "rowid": "1207564",
    "final_x": "3681623.71074",
    "final_y": "538747.623305",
    "longitude": "-90.06742755165772",
    "latitude": "29.97536541073931",
    "geocoded_column": {
      "latitude": "29.97536541073931",
      "longitude": "-90.06742755165772"
    }
  },
  {
    "service_request": "2025-1207563",
    "request_type": "Trash/Recycling",
    "request_reason": "Order Recycling Cart",
    "date_created": "2025-07-08T15:22:03.000",
    "date_modified": "2025-07-08T15:22:05.000",
    "request_status": "Pending",
    "responsible_agency": "Department of Sanitation",
    "final_address": "2111 Cadiz St",
    "address_councildis": "B",
    "status": "Pending",
    "rowid": "1207563",
    "final_x": "3669951.66055",
    "final_y": "522681.717306",
    "longitude": "-90.10483513508949",
    "latitude": "29.931538861508102",
    "geocoded_column": {
      "latitude": "29.931538861508102",
      "longitude": "-90.10483513508949"
    }
  },
  {
    "service_request": "2025-1207562",
    "request_type": "Parks & Parkways",
    "request_reason": "Request Tree Service (Right of Way/Public Property)",
    "date_created": "2025-07-08T15:14:25.000",
    "date_modified": "2025-07-08T15:14:27.000",
    "request_status": "Pending",
    "responsible_agency": "Department of Parks & Parkway",
    "final_address": "2115 Iberville St",
    "address_councildis": "B",
    "status": "Pending",
    "rowid": "1207562",
    "final_x": "3677421.38766",
    "final_y": "534126.997765",
    "longitude": "-90.080859137051",
    "latitude": "29.962787254002478",
    "geocoded_column": {
      "latitude": "29.962787254002478",
      "longitude": "-90.080859137051"
    }
  },
  {
    "service_request": "2025-1207561",
    "request_type": "Trash/Recycling",
    "request_reason": "Request a Large Item Pick Up",
    "date_created": "2025-07-08T15:13:45.000",
    "date_modified": "2025-07-08T15:13:47.000",
    "request_status": "Pending",
    "responsible_agency": "Department of Sanitation",
    "final_address": "4030 Laurel St",
    "address_councildis": "B",
    "status": "Assigned to Contractor",
    "contractor": "IV Waste",
    "rowid": "1207561",
    "final_x": "3672349.15284",
    "final_y": "518132.11295",
    "longitude": "-90.09742143477854",
    "latitude": "29.91895801031698",
    "geocoded_column": {
      "latitude": "29.91895801031698",
      "longitude": "-90.09742143477854"
    }
  },
  {
    "service_request": "2025-1207560",
    "request_type": "Healthy Homes",
    "request_reason": "Healthy Homes",
    "date_created": "2025-07-08T15:07:13.000",
    "date_modified": "2025-07-08T15:28:38.000",
    "case_close_date": "2025-07-08T10:28:37.000",
    "request_status": "Closed",
    "responsible_agency": "Department of Code Enforcement",
    "final_address": "410 Dauphine St Apt 1A",
    "address_councildis": "C",
    "status": "Referred to Code Enforcement",
    "rowid": "1207560",
    "final_x": "3681394.16156",
    "final_y": "532072.885635",
    "longitude": "-90.06838524813452",
    "latitude": "29.95701914379275",
    "geocoded_column": {
      "latitude": "29.95701914379275",
      "longitude": "-90.06838524813452"
    }
  },
  {
    "service_request": "2025-1207559",
    "request_type": "Trash/Recycling",
    "request_reason": "Request a Large Item Pick Up",
    "date_created": "2025-07-08T15:01:34.000",
    "date_modified": "2025-07-08T15:01:36.000",
    "request_status": "Pending",
    "responsible_agency": "Department of Sanitation",
    "final_address": "7327 Weaver Ave",
    "address_councildis": "E",
    "status": "Assigned to Contractor",
    "contractor": "Waste Pro",
    "rowid": "1207559",
    "final_x": "3707982.08446",
    "final_y": "563439.370976",
    "longitude": "-89.98326265256676",
    "latitude": "30.042431209997275",
    "geocoded_column": {
      "latitude": "30.042431209997275",
      "longitude": "-89.98326265256676"
    }
  },
  {
    "service_request": "2025-1207558",
    "request_type": "Roads and Streets",
    "request_reason": "Street Subsidence (Sinking)",
    "date_created": "2025-07-08T14:59:38.000",
    "date_modified": "2025-07-08T14:59:40.000",
    "request_status": "Pending",
    "responsible_agency": "Department of Public Works",
    "final_address": "14637 Emory Rd",
    "address_councildis": "E",
    "status": "Pending",
    "rowid": "1207558",
    "final_x": "3720119.0055",
    "final_y": "573455.052266",
    "longitude": "-89.94452205932876",
    "latitude": "30.069571384620502",
    "geocoded_column": {
      "latitude": "30.069571384620502",
      "longitude": "-89.94452205932876"
    }
  },
  {
    "service_request": "2025-1207555",
    "request_type": "Trash/Recycling",
    "request_reason": "Request a Large Item Pick Up",
    "date_created": "2025-07-08T14:58:24.000",
    "date_modified": "2025-07-08T14:58:26.000",
    "request_status": "Pending",
    "responsible_agency": "Department of Sanitation",
    "final_address": "1039 Marais St Apt F",
    "address_councildis": "C",
    "status": "Assigned to Contractor",
    "contractor": "IV Waste",
    "rowid": "1207555",
    "final_x": "3681356.58408",
    "final_y": "535191.499654",
    "longitude": "-90.0683951944163",
    "latitude": "29.96559540886105",
    "geocoded_column": {
      "latitude": "29.96559540886105",
      "longitude": "-90.0683951944163"
    }
  },
  {
    "service_request": "2025-1207556",
    "request_type": "Trash/Recycling",
    "request_reason": "Request a Large Item Pick Up",
    "date_created": "2025-07-08T14:58:24.000",
    "date_modified": "2025-07-08T14:58:26.000",
    "request_status": "Pending",
    "responsible_agency": "Department of Sanitation",
    "final_address": "1039 Marais St Apt F",
    "address_councildis": "C",
    "status": "Assigned to Contractor",
    "contractor": "IV Waste",
    "rowid": "1207556",
    "final_x": "3681356.58408",
    "final_y": "535191.499654",
    "longitude": "-90.0683951944163",
    "latitude": "29.96559540886105",
    "geocoded_column": {
      "latitude": "29.96559540886105",
      "longitude": "-90.0683951944163"
    }
  },
  {
    "service_request": "2025-1207557",
    "request_type": "Trash/Recycling",
    "request_reason": "Request a Large Item Pick Up",
    "date_created": "2025-07-08T14:58:24.000",
    "date_modified": "2025-07-08T14:58:26.000",
    "request_status": "Pending",
    "responsible_agency": "Department of Sanitation",
    "final_address": "1039 Marais St Apt F",
    "address_councildis": "C",
    "status": "Assigned to Contractor",
    "contractor": "IV Waste",
    "rowid": "1207557",
    "final_x": "3681356.58408",
    "final_y": "535191.499654",
    "longitude": "-90.0683951944163",
    "latitude": "29.96559540886105",
    "geocoded_column": {
      "latitude": "29.96559540886105",
      "longitude": "-90.0683951944163"
    }
  },
  {
    "service_request": "2025-1207554",
    "request_type": "Trash/Recycling",
    "request_reason": "Request a Large Item Pick Up",
    "date_created": "2025-07-08T14:58:00.000",
    "date_modified": "2025-07-08T14:58:02.000",
    "request_status": "Pending",
    "responsible_agency": "Department of Sanitation",
    "final_address": "7621 Poitevent Ave",
    "address_councildis": "E",
    "status": "Assigned to Contractor",
    "contractor": "Waste Pro",
    "rowid": "1207554",
    "final_x": "3706998.22731",
    "final_y": "564179.977697",
    "longitude": "-89.98634448589046",
    "latitude": "30.04449942094845",
    "geocoded_column": {
      "latitude": "30.04449942094845",
      "longitude": "-89.98634448589046"
    }
  },
  {
    "service_request": "2025-1207553",
    "request_type": "Abandoned Vehicles",
    "request_reason": "Abandoned/Junk Vehicles",
    "date_created": "2025-07-08T14:56:55.000",
    "date_modified": "2025-07-08T14:56:56.000",
    "request_status": "Pending",
    "responsible_agency": "Department of Public Works",
    "final_address": "9026 Green St",
    "address_councildis": "A",
    "status": "Pending",
    "rowid": "1207553",
    "final_x": "3660585.59443",
    "final_y": "531945.871811",
    "longitude": "-90.13409677579662",
    "latitude": "29.957285132742253",
    "geocoded_column": {
      "latitude": "29.957285132742253",
      "longitude": "-90.13409677579662"
    }
  },
  {
    "service_request": "2025-1207552",
    "request_type": "Abandoned Vehicles",
    "request_reason": "Abandoned/Junk Vehicles",
    "date_created": "2025-07-08T14:54:21.000",
    "date_modified": "2025-07-08T14:54:22.000",
    "request_status": "Pending",
    "responsible_agency": "Department of Public Works",
    "final_address": "9026 Green St",
    "address_councildis": "A",
    "status": "Pending",
    "rowid": "1207552",
    "final_x": "3660585.59443",
    "final_y": "531945.871811",
    "longitude": "-90.13409677579662",
    "latitude": "29.957285132742253",
    "geocoded_column": {
      "latitude": "29.957285132742253",
      "longitude": "-90.13409677579662"
    }
  },
  {
    "service_request": "2025-1207551",
    "request_type": "Trash/Recycling",
    "request_reason": "Request a Large Item Pick Up",
    "date_created": "2025-07-08T14:52:05.000",
    "date_modified": "2025-07-08T14:52:06.000",
    "request_status": "Pending",
    "responsible_agency": "Department of Sanitation",
    "final_address": "4837 Virgilian St",
    "address_councildis": "D",
    "status": "Assigned to Contractor",
    "contractor": "Waste Pro",
    "rowid": "1207551",
    "final_x": "3697505.53367",
    "final_y": "554332.309208",
    "longitude": "-90.01670320289696",
    "latitude": "30.01772553231827",
    "geocoded_column": {
      "latitude": "30.01772553231827",
      "longitude": "-90.01670320289696"
    }
  },
  {
    "service_request": "2025-1207550",
    "request_type": "Abandoned Vehicles",
    "request_reason": "Abandoned/Junk Vehicles",
    "date_created": "2025-07-08T14:45:39.000",
    "date_modified": "2025-07-08T14:45:42.000",
    "request_status": "Pending",
    "responsible_agency": "Department of Public Works",
    "final_address": "3514 Second St",
    "address_councildis": "B",
    "status": "Pending",
    "rowid": "1207550",
    "final_x": "3672885.20238",
    "final_y": "528743.25152",
    "longitude": "-90.09536753155878",
    "latitude": "29.948119296672775",
    "geocoded_column": {
      "latitude": "29.948119296672775",
      "longitude": "-90.09536753155878"
    }
  },
  {
    "service_request": "2025-1207549",
    "request_type": "Roads and Streets",
    "request_reason": "Sidewalk Damaged or Missing",
    "date_created": "2025-07-08T14:45:09.000",
    "date_modified": "2025-07-08T14:51:12.000",
    "request_status": "Pending",
    "responsible_agency": "Department of Public Works",
    "final_address": "6800 Coventry St",
    "address_councildis": "E",
    "status": "Pending",
    "rowid": "1207549",
    "final_x": "3698514.08362",
    "final_y": "559572.378269",
    "longitude": "-90.01332586611309",
    "latitude": "30.032101815706504",
    "geocoded_column": {
      "latitude": "30.032101815706504",
      "longitude": "-90.01332586611309"
    }
  },
  {
    "service_request": "2025-1207548",
    "request_type": "Trash/Recycling",
    "request_reason": "Request a Large Item Pick Up",
    "date_created": "2025-07-08T14:43:55.000",
    "date_modified": "2025-07-08T14:43:57.000",
    "request_status": "Pending",
    "responsible_agency": "Department of Sanitation",
    "final_address": "3225 Bringier St",
    "address_councildis": "C",
    "status": "Assigned to Contractor",
    "contractor": "Richards Disposal",
    "rowid": "1207548",
    "final_x": "3696105.25219",
    "final_y": "525078.940157",
    "longitude": "-90.02218515998094",
    "latitude": "29.937333477933628",
    "geocoded_column": {
      "latitude": "29.937333477933628",
      "longitude": "-90.02218515998094"
    }
  },
  {
    "service_request": "2025-1207547",
    "request_type": "Property Maintenance",
    "request_reason": "Property Maintenance",
    "date_created": "2025-07-08T14:42:37.000",
    "date_modified": "2025-07-08T15:11:09.000",
    "case_close_date": "2025-07-08T10:11:07.000",
    "request_status": "Closed",
    "responsible_agency": "Department of Code Enforcement",
    "final_address": "1805 Henriette Delille St",
    "address_councildis": "C",
    "status": "Referred to Code Enforcement",
    "rowid": "1207547",
    "final_x": "3683574.83535",
    "final_y": "536216.342023",
    "longitude": "-90.06135412921512",
    "latitude": "29.968345851068687",
    "geocoded_column": {
      "latitude": "29.968345851068687",
      "longitude": "-90.06135412921512"
    }
  },
  {
    "service_request": "2025-1207546",
    "request_type": "Trash/Recycling",
    "request_reason": "Illegal Dumping",
    "date_created": "2025-07-08T14:38:39.000",
    "date_modified": "2025-07-08T14:38:40.000",
    "request_status": "Pending",
    "responsible_agency": "Department of Sanitation",
    "final_address": "MONTICELLO AVE & PRITCHARD PL",
    "address_councildis": "A",
    "status": "Pending",
    "rowid": "1207546",
    "final_x": "3662609.3",
    "final_y": "536032.98",
    "longitude": "-90.12757068855134",
    "latitude": "29.968464952479756",
    "geocoded_column": {
      "latitude": "29.968464952479756",
      "longitude": "-90.12757068855134"
    }
  },
  {
    "service_request": "2025-1207545",
    "request_type": "Healthy Homes",
    "request_reason": "Healthy Homes",
    "date_created": "2025-07-08T14:35:42.000",
    "date_modified": "2025-07-08T15:34:02.000",
    "case_close_date": "2025-07-08T10:34:01.000",
    "request_status": "Closed",
    "responsible_agency": "Department of Code Enforcement",
    "final_address": "1201 Canal St",
    "address_councildis": "C",
    "status": "Referred to Code Enforcement",
    "rowid": "1207545",
    "final_x": "3679792.28808",
    "final_y": "531855.811267",
    "longitude": "-90.07345100081632",
    "latitude": "29.956470790064685",
    "geocoded_column": {
      "latitude": "29.956470790064685",
      "longitude": "-90.07345100081632"
    }
  },
  {
    "service_request": "2025-1207544",
    "request_type": "Trash/Recycling",
    "request_reason": "Request a Large Item Pick Up",
    "date_created": "2025-07-08T14:34:04.000",
    "date_modified": "2025-07-08T14:34:06.000",
    "request_status": "Pending",
    "responsible_agency": "Department of Sanitation",
    "final_address": "4814 Nottingham Dr",
    "address_councildis": "E",
    "status": "Assigned to Contractor",
    "contractor": "Waste Pro",
    "rowid": "1207544",
    "final_x": "3716286.26751",
    "final_y": "557214.636891",
    "longitude": "-89.95725473203404",
    "latitude": "30.025044048348413",
    "geocoded_column": {
      "latitude": "30.025044048348413",
      "longitude": "-89.95725473203404"
    }
  },
  {
    "service_request": "2025-1207543",
    "request_type": "Mosquito, Termite & Rodent Control",
    "request_reason": "Mosquito Complaint",
    "date_created": "2025-07-08T14:29:23.000",
    "date_modified": "2025-07-08T14:29:25.000",
    "request_status": "Pending",
    "responsible_agency": "Mosquito, Termite & Rodent Control Board",
    "final_address": "104 Mary Jane Ln",
    "address_councildis": "E",
    "status": "Pending",
    "rowid": "1207543",
    "final_x": "3718038.56306",
    "final_y": "571367.949352",
    "longitude": "-89.95117836970987",
    "latitude": "30.06390189563918",
    "geocoded_column": {
      "latitude": "30.06390189563918",
      "longitude": "-89.95117836970987"
    }
  },
  {
    "service_request": "2025-1207542",
    "request_type": "Drainage",
    "request_reason": "Catch Basin Clogged",
    "date_created": "2025-07-08T14:28:00.000",
    "date_modified": "2025-07-08T14:28:03.000",
    "request_status": "Pending",
    "responsible_agency": "Sewerage & Water Board",
    "final_address": "5862 Marcia Ave",
    "address_councildis": "A",
    "status": "Pending",
    "rowid": "1207542",
    "final_x": "3664714.02567",
    "final_y": "546828.160401",
    "longitude": "-90.12056299946171",
    "latitude": "29.998087000855246",
    "geocoded_column": {
      "latitude": "29.998087000855246",
      "longitude": "-90.12056299946171"
    }
  },
  {
    "service_request": "2025-1207541",
    "request_type": "Traffic Signals",
    "request_reason": "Traffic Signal Malfunctioning or Damaged",
    "date_created": "2025-07-08T14:23:09.000",
    "date_modified": "2025-07-08T14:23:13.000",
    "request_status": "Pending",
    "responsible_agency": "Department of Public Works",
    "final_address": "S BROAD ST & TULANE AVE",
    "address_councildis": "B",
    "status": "Pending",
    "rowid": "1207541",
    "final_x": "3674378.8",
    "final_y": "533744.48",
    "longitude": "-90.09048035136306",
    "latitude": "29.961826554304412",
    "geocoded_column": {
      "latitude": "29.961826554304412",
      "longitude": "-90.09048035136306"
    }
  },
  {
    "service_request": "2025-1207540",
    "request_type": "Street and Traffic Signs",
    "request_reason": "Traffic or Parking Sign Damaged or Missing",
    "date_created": "2025-07-08T14:22:00.000",
    "date_modified": "2025-07-08T14:22:02.000",
    "request_status": "Pending",
    "responsible_agency": "Department of Public Works",
    "final_address": "0 BLK French Market Pl",
    "address_councildis": "C",
    "status": "Pending",
    "rowid": "1207540",
    "final_x": "3684510.60863",
    "final_y": "533473.450557",
    "longitude": "-90.05849529192028",
    "latitude": "29.960775249897164",
    "geocoded_column": {
      "latitude": "29.960775249897164",
      "longitude": "-90.05849529192028"
    }
  },
  {
    "service_request": "2025-1207539",
    "request_type": "Trash/Recycling",
    "request_reason": "Request a Large Item Pick Up",
    "date_created": "2025-07-08T14:21:49.000",
    "date_modified": "2025-07-08T14:22:45.000",
    "request_status": "Pending",
    "responsible_agency": "Department of Sanitation",
    "final_address": "2517 Frenchmen St",
    "address_councildis": "D",
    "status": "Assigned to Contractor",
    "contractor": "IV Waste",
    "rowid": "1207539",
    "final_x": "3684197.16124",
    "final_y": "541592.444556",
    "longitude": "-90.05920000916132",
    "latitude": "29.98310924504975",
    "geocoded_column": {
      "latitude": "29.98310924504975",
      "longitude": "-90.05920000916132"
    }
  },
  {
    "service_request": "2025-1207538",
    "request_type": "Trash/Recycling",
    "request_reason": "Missed Trash Pick-Up",
    "date_created": "2025-07-08T14:20:19.000",
    "date_modified": "2025-07-08T15:12:19.000",
    "case_close_date": "2025-07-08T10:12:17.000",
    "request_status": "Closed",
    "responsible_agency": "Department of Sanitation",
    "final_address": "6720 General Diaz St",
    "address_councildis": "A",
    "status": "Invalid Request",
    "contractor": "IV Waste",
    "contractor_action": "Invalid",
    "rowid": "1207538",
    "final_x": "3669893.63252",
    "final_y": "552077.198998",
    "longitude": "-90.10402274180268",
    "latitude": "30.012368265198315",
    "geocoded_column": {
      "latitude": "30.012368265198315",
      "longitude": "-90.10402274180268"
    }
  },
  {
    "service_request": "2025-1207537",
    "request_type": "Trash/Recycling",
    "request_reason": "Illegal Dumping",
    "date_created": "2025-07-08T14:19:37.000",
    "date_modified": "2025-07-08T14:19:39.000",
    "request_status": "Pending",
    "responsible_agency": "Department of Sanitation",
    "final_address": "1200 BLK Sumner St",
    "address_councildis": "C",
    "status": "Pending",
    "rowid": "1207537",
    "final_x": "3691071.72707",
    "final_y": "526833.629847",
    "longitude": "-90.03801364637667",
    "latitude": "29.94231568843218",
    "geocoded_column": {
      "latitude": "29.94231568843218",
      "longitude": "-90.03801364637667"
    }
  },
  {
    "service_request": "2025-1207536",
    "request_type": "Trash/Recycling",
    "request_reason": "Repair Recycling Cart",
    "date_created": "2025-07-08T14:16:34.000",
    "date_modified": "2025-07-08T14:16:35.000",
    "request_status": "Pending",
    "responsible_agency": "Department of Sanitation",
    "final_address": "6127 Arts St",
    "address_councildis": "D",
    "status": "Pending",
    "rowid": "1207536",
    "final_x": "3685702.40431",
    "final_y": "555749.888217",
    "longitude": "-90.05394640663977",
    "latitude": "30.02199098653498",
    "geocoded_column": {
      "latitude": "30.02199098653498",
      "longitude": "-90.05394640663977"
    }
  },
  {
    "service_request": "2025-1207535",
    "request_type": "Trash/Recycling",
    "request_reason": "Replace Trash Cart",
    "date_created": "2025-07-08T14:16:28.000",
    "date_modified": "2025-07-08T14:16:30.000",
    "request_status": "Pending",
    "responsible_agency": "Department of Sanitation",
    "final_address": "1300 Pauline St",
    "address_councildis": "D",
    "status": "Assigned to Contractor",
    "contractor": "IV Waste",
    "rowid": "1207535",
    "final_x": "3691359.28886",
    "final_y": "536228.537415",
    "longitude": "-90.03677011850134",
    "latitude": "29.968139479293676",
    "geocoded_column": {
      "latitude": "29.968139479293676",
      "longitude": "-90.03677011850134"
    }
  },
  {
    "service_request": "2025-1207534",
    "request_type": "Property Maintenance",
    "request_reason": "Property Maintenance",
    "date_created": "2025-07-08T14:15:35.000",
    "date_modified": "2025-07-08T14:26:59.000",
    "case_close_date": "2025-07-08T09:26:57.000",
    "request_status": "Closed",
    "responsible_agency": "Department of Code Enforcement",
    "final_address": "5612 Hawthorne Pl",
    "address_councildis": "A",
    "status": "Referred to Code Enforcement",
    "rowid": "1207534",
    "final_x": "3667788.35476",
    "final_y": "544735.861455",
    "longitude": "-90.11092170963295",
    "latitude": "29.992244068560925",
    "geocoded_column": {
      "latitude": "29.992244068560925",
      "longitude": "-90.11092170963295"
    }
  },
  {
    "service_request": "2025-1207533",
    "request_type": "Trash/Recycling",
    "request_reason": "Replace Trash Cart",
    "date_created": "2025-07-08T14:14:50.000",
    "date_modified": "2025-07-08T14:14:54.000",
    "request_status": "Pending",
    "responsible_agency": "Department of Sanitation",
    "final_address": "2236 Lapeyrouse St Apt B",
    "address_councildis": "D",
    "status": "Assigned to Contractor",
    "contractor": "IV Waste",
    "rowid": "1207533",
    "final_x": "3680208.61672",
    "final_y": "539219.44481",
    "longitude": "-90.07188039257946",
    "latitude": "29.976705668066113",
    "geocoded_column": {
      "latitude": "29.976705668066113",
      "longitude": "-90.07188039257946"
    }
  },
  {
    "service_request": "2025-1207532",
    "request_type": "Trash/Recycling",
    "request_reason": "Order Trash Cart",
    "date_created": "2025-07-08T14:13:16.000",
    "date_modified": "2025-07-08T14:13:18.000",
    "request_status": "Pending",
    "responsible_agency": "Department of Sanitation",
    "final_address": "7535 Carole Ln",
    "address_councildis": "E",
    "status": "Assigned to Contractor",
    "contractor": "Waste Pro",
    "rowid": "1207532",
    "final_x": "3696137.00995",
    "final_y": "558750.058716",
    "longitude": "-90.02086730029289",
    "latitude": "30.029915832995766",
    "geocoded_column": {
      "latitude": "30.029915832995766",
      "longitude": "-90.02086730029289"
    }
  },
  {
    "service_request": "2025-1207531",
    "request_type": "Trash/Recycling",
    "request_reason": "Request a Large Item Pick Up",
    "date_created": "2025-07-08T14:11:17.000",
    "date_modified": "2025-07-08T14:11:19.000",
    "request_status": "Pending",
    "responsible_agency": "Department of Sanitation",
    "final_address": "13118 Calais St",
    "address_councildis": "E",
    "status": "Assigned to Contractor",
    "contractor": "Waste Pro",
    "rowid": "1207531",
    "final_x": "3724509.51539",
    "final_y": "560563.007262",
    "longitude": "-89.93114147155886",
    "latitude": "30.03397659708521",
    "geocoded_column": {
      "latitude": "30.03397659708521",
      "longitude": "-89.93114147155886"
    }
  },
  {
    "service_request": "2025-1207530",
    "request_type": "Roads and Streets",
    "request_reason": "Debris in Driving Lanes",
    "date_created": "2025-07-08T14:08:45.000",
    "date_modified": "2025-07-08T14:08:47.000",
    "request_status": "Pending",
    "responsible_agency": "Department of Public Works",
    "final_address": "N ROCHEBLAVE ST & PORT ST",
    "address_councildis": "D",
    "status": "Pending",
    "rowid": "1207530",
    "final_x": "3688665.8",
    "final_y": "541280.98",
    "longitude": "-90.04509685270166",
    "latitude": "29.982115442432494",
    "geocoded_column": {
      "latitude": "29.982115442432494",
      "longitude": "-90.04509685270166"
    }
  },
  {
    "service_request": "2025-1207529",
    "request_type": "Property Maintenance",
    "request_reason": "Property Maintenance",
    "date_created": "2025-07-08T14:08:05.000",
    "date_modified": "2025-07-08T14:21:12.000",
    "case_close_date": "2025-07-08T09:21:10.000",
    "request_status": "Closed",
    "responsible_agency": "Department of Code Enforcement",
    "final_address": "8926 Peach St",
    "address_councildis": "A",
    "status": "Referred to Code Enforcement",
    "rowid": "1207529",
    "final_x": "3666405.53594",
    "final_y": "537729.343624",
    "longitude": "-90.11552500194306",
    "latitude": "29.97301899971755",
    "geocoded_column": {
      "latitude": "29.97301899971755",
      "longitude": "-90.11552500194306"
    }
  },
  {
    "service_request": "2025-1207528",
    "request_type": "Property Maintenance",
    "request_reason": "Property Maintenance",
    "date_created": "2025-07-08T14:08:05.000",
    "date_modified": "2025-07-08T15:50:55.000",
    "case_close_date": "2025-07-08T10:50:54.000",
    "request_status": "Closed",
    "responsible_agency": "Department of Code Enforcement",
    "final_address": "8926 Peach St",
    "address_councildis": "A",
    "status": "Referred to Code Enforcement",
    "rowid": "1207528",
    "final_x": "3666405.53594",
    "final_y": "537729.343624",
    "longitude": "-90.11552500194306",
    "latitude": "29.97301899971755",
    "geocoded_column": {
      "latitude": "29.97301899971755",
      "longitude": "-90.11552500194306"
    }
  },
  {
    "service_request": "2025-1207527",
    "request_type": "Trash/Recycling",
    "request_reason": "Request a Large Item Pick Up",
    "date_created": "2025-07-08T14:07:12.000",
    "date_modified": "2025-07-08T14:07:15.000",
    "request_status": "Pending",
    "responsible_agency": "Department of Sanitation",
    "final_address": "4475 Lafaye St",
    "address_councildis": "D",
    "status": "Assigned to Contractor",
    "contractor": "IV Waste",
    "rowid": "1207527",
    "final_x": "3687568.23644",
    "final_y": "549533.092179",
    "longitude": "-90.04827116924668",
    "latitude": "30.004839669130263",
    "geocoded_column": {
      "latitude": "30.004839669130263",
      "longitude": "-90.04827116924668"
    }
  },
  {
    "service_request": "2025-1207526",
    "request_type": "Trash/Recycling",
    "request_reason": "Repair Trash Cart",
    "date_created": "2025-07-08T14:06:07.000",
    "date_modified": "2025-07-08T14:06:09.000",
    "request_status": "Pending",
    "responsible_agency": "Department of Sanitation",
    "final_address": "322 Harney St",
    "address_councildis": "A",
    "status": "Assigned to Contractor",
    "contractor": "IV Waste",
    "rowid": "1207526",
    "final_x": "3667329.43745",
    "final_y": "546859.288081",
    "longitude": "-90.11229986759926",
    "latitude": "29.998096216707697",
    "geocoded_column": {
      "latitude": "29.998096216707697",
      "longitude": "-90.11229986759926"
    }
  },
  {
    "service_request": "2025-1207525",
    "request_type": "Trash/Recycling",
    "request_reason": "Request a Large Item Pick Up",
    "date_created": "2025-07-08T14:03:06.000",
    "date_modified": "2025-07-08T14:03:09.000",
    "request_status": "Pending",
    "responsible_agency": "Department of Sanitation",
    "final_address": "7400 Fieldston Rd",
    "address_councildis": "E",
    "status": "Assigned to Contractor",
    "contractor": "Waste Pro",
    "rowid": "1207525",
    "final_x": "3700641.00356",
    "final_y": "559915.356189",
    "longitude": "-90.00659215483287",
    "latitude": "30.03297732895083",
    "geocoded_column": {
      "latitude": "30.03297732895083",
      "longitude": "-90.00659215483287"
    }
  },
  {
    "service_request": "2025-1207524",
    "request_type": "Trash/Recycling",
    "request_reason": "Missed Trash Pick-Up",
    "date_created": "2025-07-08T14:01:04.000",
    "date_modified": "2025-07-08T14:01:07.000",
    "request_status": "Pending",
    "responsible_agency": "Department of Sanitation",
    "final_address": "704 Opelousas Ave",
    "address_councildis": "C",
    "status": "Assigned to Contractor",
    "contractor": "Richards Disposal",
    "rowid": "1207524",
    "final_x": "3687566.98524",
    "final_y": "529193.381824",
    "longitude": "-90.04899536160246",
    "latitude": "29.948912677943543",
    "geocoded_column": {
      "latitude": "29.948912677943543",
      "longitude": "-90.04899536160246"
    }
  },
  {
    "service_request": "2025-1207523",
    "request_type": "Trash/Recycling",
    "request_reason": "Repair Trash Cart",
    "date_created": "2025-07-08T13:59:17.000",
    "date_modified": "2025-07-08T13:59:18.000",
    "request_status": "Pending",
    "responsible_agency": "Department of Sanitation",
    "final_address": "920 N Tonti St",
    "address_councildis": "D",
    "status": "Assigned to Contractor",
    "contractor": "IV Waste",
    "rowid": "1207523",
    "final_x": "3678381.32654",
    "final_y": "536816.916488",
    "longitude": "-90.07773469270326",
    "latitude": "29.970154727603145",
    "geocoded_column": {
      "latitude": "29.970154727603145",
      "longitude": "-90.07773469270326"
    }
  },
  {
    "service_request": "2025-1207522",
    "request_type": "Property Maintenance",
    "request_reason": "Property Maintenance",
    "date_created": "2025-07-08T13:58:27.000",
    "date_modified": "2025-07-08T13:58:28.000",
    "request_status": "Pending",
    "responsible_agency": "Department of Code Enforcement",
    "final_address": "9107 Palmetto St",
    "address_councildis": "A",
    "status": "Pending",
    "rowid": "1207522",
    "final_x": "3665586.41978",
    "final_y": "537697.735304",
    "longitude": "-90.11811299923797",
    "latitude": "29.972955999457348",
    "geocoded_column": {
      "latitude": "29.972955999457348",
      "longitude": "-90.11811299923797"
    }
  },
  {
    "service_request": "2025-1207521",
    "request_type": "Trash/Recycling",
    "request_reason": "Request a Large Item Pick Up",
    "date_created": "2025-07-08T13:57:58.000",
    "date_modified": "2025-07-08T13:58:00.000",
    "request_status": "Pending",
    "responsible_agency": "Department of Sanitation",
    "final_address": "7018 S Claiborne Ave",
    "address_councildis": "A",
    "status": "Assigned to Contractor",
    "contractor": "IV Waste",
    "rowid": "1207521",
    "final_x": "3666472.94753",
    "final_y": "529094.971328",
    "longitude": "-90.11560190166895",
    "latitude": "29.949275345913975",
    "geocoded_column": {
      "latitude": "29.949275345913975",
      "longitude": "-90.11560190166895"
    }
  },
  {
    "service_request": "2025-1207520",
    "request_type": "Trash/Recycling",
    "request_reason": "Request a Large Item Pick Up",
    "date_created": "2025-07-08T13:56:27.000",
    "date_modified": "2025-07-08T13:57:59.000",
    "request_status": "Pending",
    "responsible_agency": "Department of Sanitation",
    "final_address": "4608 Duplessis St",
    "address_councildis": "D",
    "status": "Assigned to Contractor",
    "contractor": "IV Waste",
    "rowid": "1207520",
    "final_x": "3678101.82498",
    "final_y": "549557.421267",
    "longitude": "-90.0781766434305",
    "latitude": "30.005195087073268",
    "geocoded_column": {
      "latitude": "30.005195087073268",
      "longitude": "-90.0781766434305"
    }
  },
  {
    "service_request": "2025-1207519",
    "request_type": "Trash/Recycling",
    "request_reason": "Return Recycling Cart",
    "date_created": "2025-07-08T13:53:31.000",
    "date_modified": "2025-07-08T13:53:34.000",
    "request_status": "Pending",
    "responsible_agency": "Department of Sanitation",
    "final_address": "2315 Jena St",
    "address_councildis": "B",
    "status": "Pending",
    "rowid": "1207519",
    "final_x": "3670227.85159",
    "final_y": "523448.255163",
    "longitude": "-90.1039372669037",
    "latitude": "29.93363844930391",
    "geocoded_column": {
      "latitude": "29.93363844930391",
      "longitude": "-90.1039372669037"
    }
  },
  {
    "service_request": "2025-1207518",
    "request_type": "Abandoned Vehicles",
    "request_reason": "Abandoned/Junk Vehicles",
    "date_created": "2025-07-08T13:53:08.000",
    "date_modified": "2025-07-08T13:53:10.000",
    "request_status": "Pending",
    "responsible_agency": "Department of Public Works",
    "final_address": "2714 Palmyra St",
    "address_councildis": "B",
    "status": "Pending",
    "rowid": "1207518",
    "final_x": "3674707.57947",
    "final_y": "534553.347333",
    "longitude": "-90.08941438783637",
    "latitude": "29.964040857617118",
    "geocoded_column": {
      "latitude": "29.964040857617118",
      "longitude": "-90.08941438783637"
    }
  },
  {
    "service_request": "2025-1207517",
    "request_type": "Trash/Recycling",
    "request_reason": "Request a Large Item Pick Up",
    "date_created": "2025-07-08T13:51:55.000",
    "date_modified": "2025-07-08T13:51:57.000",
    "request_status": "Pending",
    "responsible_agency": "Department of Sanitation",
    "final_address": "2315 Jena St",
    "address_councildis": "B",
    "status": "Assigned to Contractor",
    "contractor": "IV Waste",
    "rowid": "1207517",
    "final_x": "3670227.85159",
    "final_y": "523448.255163",
    "longitude": "-90.1039372669037",
    "latitude": "29.93363844930391",
    "geocoded_column": {
      "latitude": "29.93363844930391",
      "longitude": "-90.1039372669037"
    }
  },
  {
    "service_request": "2025-1207516",
    "request_type": "Trash/Recycling",
    "request_reason": "Missed Trash Pick-Up",
    "date_created": "2025-07-08T13:50:07.000",
    "date_modified": "2025-07-08T13:54:51.000",
    "case_close_date": "2025-07-08T08:54:49.000",
    "request_status": "Closed",
    "responsible_agency": "Department of Sanitation",
    "final_address": "324 State St",
    "address_councildis": "A",
    "status": "Invalid Request",
    "contractor": "IV Waste",
    "contractor_action": "Invalid",
    "rowid": "1207516",
    "final_x": "3664135.42375",
    "final_y": "517743.122742",
    "longitude": "-90.12336102294785",
    "latitude": "29.918129457963605",
    "geocoded_column": {
      "latitude": "29.918129457963605",
      "longitude": "-90.12336102294785"
    }
  },
  {
    "service_request": "2025-1207515",
    "request_type": "Trash/Recycling",
    "request_reason": "Missed Trash Pick-Up",
    "date_created": "2025-07-08T13:49:18.000",
    "date_modified": "2025-07-08T13:49:20.000",
    "request_status": "Pending",
    "responsible_agency": "Department of Sanitation",
    "final_address": "5042 Savoie Ct",
    "address_councildis": "E",
    "status": "Assigned to Contractor",
    "contractor": "Waste Pro",
    "rowid": "1207515",
    "final_x": "3725711.94092",
    "final_y": "560980.12931",
    "longitude": "-89.92732553872973",
    "latitude": "30.035082997562537",
    "geocoded_column": {
      "latitude": "30.035082997562537",
      "longitude": "-89.92732553872973"
    }
  },
  {
    "service_request": "2025-1207514",
    "request_type": "Drainage",
    "request_reason": "Catch Basin Damaged",
    "date_created": "2025-07-08T13:48:41.000",
    "date_modified": "2025-07-08T13:48:44.000",
    "request_status": "Pending",
    "responsible_agency": "Sewerage & Water Board",
    "final_address": "4500 BLK S Robertson St",
    "address_councildis": "B",
    "status": "Pending",
    "rowid": "1207514",
    "final_x": "3669926.14403",
    "final_y": "524332.50985",
    "longitude": "-90.10485981612761",
    "latitude": "29.93607876260261",
    "geocoded_column": {
      "latitude": "29.93607876260261",
      "longitude": "-90.10485981612761"
    }
  },
  {
    "service_request": "2025-1207513",
    "request_type": "Trash/Recycling",
    "request_reason": "Request a Large Item Pick Up",
    "date_created": "2025-07-08T13:48:37.000",
    "date_modified": "2025-07-08T13:48:39.000",
    "request_status": "Pending",
    "responsible_agency": "Department of Sanitation",
    "final_address": "1718 N Robertson St",
    "address_councildis": "C",
    "status": "Assigned to Contractor",
    "contractor": "IV Waste",
    "rowid": "1207513",
    "final_x": "3683193.61762",
    "final_y": "537611.050824",
    "longitude": "-90.06250918123902",
    "latitude": "29.97219244793451",
    "geocoded_column": {
      "latitude": "29.97219244793451",
      "longitude": "-90.06250918123902"
    }
  },
  {
    "service_request": "2025-1207512",
    "request_type": "Trash/Recycling",
    "request_reason": "Change Size of Trash Cart",
    "date_created": "2025-07-08T13:47:45.000",
    "date_modified": "2025-07-08T13:47:46.000",
    "request_status": "Pending",
    "responsible_agency": "Department of Sanitation",
    "final_address": "1718 N Robertson St",
    "address_councildis": "C",
    "status": "Assigned to Contractor",
    "contractor": "IV Waste",
    "rowid": "1207512",
    "final_x": "3683193.61762",
    "final_y": "537611.050824",
    "longitude": "-90.06250918123902",
    "latitude": "29.97219244793451",
    "geocoded_column": {
      "latitude": "29.97219244793451",
      "longitude": "-90.06250918123902"
    }
  },
  {
    "service_request": "2025-1207511",
    "request_type": "Trash/Recycling",
    "request_reason": "Request a Large Item Pick Up",
    "date_created": "2025-07-08T13:47:06.000",
    "date_modified": "2025-07-08T13:47:08.000",
    "request_status": "Pending",
    "responsible_agency": "Department of Sanitation",
    "final_address": "2932 Johnny Jackson Jr Blvd",
    "address_councildis": "D",
    "status": "Assigned to Contractor",
    "contractor": "IV Waste",
    "rowid": "1207511",
    "final_x": "3691364.04259",
    "final_y": "543294.616142",
    "longitude": "-90.03650255181947",
    "latitude": "29.987568530717983",
    "geocoded_column": {
      "latitude": "29.987568530717983",
      "longitude": "-90.03650255181947"
    }
  },
  {
    "service_request": "2025-1207510",
    "request_type": "Trash/Recycling",
    "request_reason": "Repair Recycling Cart",
    "date_created": "2025-07-08T13:46:46.000",
    "date_modified": "2025-07-08T13:46:49.000",
    "request_status": "Pending",
    "responsible_agency": "Department of Sanitation",
    "final_address": "248 Audubon St",
    "address_councildis": "A",
    "status": "Pending",
    "rowid": "1207510",
    "final_x": "3661124.83584",
    "final_y": "521656.938873",
    "longitude": "-90.13273442608937",
    "latitude": "29.9289783078837",
    "geocoded_column": {
      "latitude": "29.9289783078837",
      "longitude": "-90.13273442608937"
    }
  },
  {
    "service_request": "2025-1207509",
    "request_type": "Mosquito, Termite & Rodent Control",
    "request_reason": "Rodent Complaint (Mice & Rats)",
    "date_created": "2025-07-08T13:45:55.000",
    "date_modified": "2025-07-08T13:47:12.000",
    "request_status": "Pending",
    "responsible_agency": "Mosquito, Termite & Rodent Control Board",
    "final_address": "2300 New York St",
    "address_councildis": "D",
    "status": "Pending",
    "rowid": "1207509",
    "final_x": "3684209.83765",
    "final_y": "556555.468314",
    "longitude": "-90.05863421312304",
    "latitude": "30.024251773216537",
    "geocoded_column": {
      "latitude": "30.024251773216537",
      "longitude": "-90.05863421312304"
    }
  },
  {
    "service_request": "2025-1207508",
    "request_type": "Property Maintenance",
    "request_reason": "Property Maintenance",
    "date_created": "2025-07-08T13:45:00.000",
    "date_modified": "2025-07-08T14:14:13.000",
    "case_close_date": "2025-07-08T09:14:12.000",
    "request_status": "Closed",
    "responsible_agency": "Department of Code Enforcement",
    "final_address": "9013 Palmetto St",
    "address_councildis": "A",
    "status": "Referred to Code Enforcement",
    "rowid": "1207508",
    "final_x": "3665801.01005",
    "final_y": "537502.872264",
    "longitude": "-90.117441809554",
    "latitude": "29.9724139314503",
    "geocoded_column": {
      "latitude": "29.9724139314503",
      "longitude": "-90.117441809554"
    }
  },
  {
    "service_request": "2025-1207507",
    "request_type": "Trash/Recycling",
    "request_reason": "Repair Trash Cart",
    "date_created": "2025-07-08T13:44:04.000",
    "date_modified": "2025-07-08T13:44:05.000",
    "request_status": "Pending",
    "responsible_agency": "Department of Sanitation",
    "final_address": "2704 General Pershing St",
    "address_councildis": "B",
    "status": "Assigned to Contractor",
    "contractor": "IV Waste",
    "rowid": "1207507",
    "final_x": "3670718.20724",
    "final_y": "524828.2295",
    "longitude": "-90.10234243290853",
    "latitude": "29.937418457925553",
    "geocoded_column": {
      "latitude": "29.937418457925553",
      "longitude": "-90.10234243290853"
    }
  },
  {
    "service_request": "2025-1207506",
    "request_type": "Healthy Homes",
    "request_reason": "Healthy Homes",
    "date_created": "2025-07-08T13:35:13.000",
    "date_modified": "2025-07-08T15:36:28.000",
    "case_close_date": "2025-07-08T10:36:26.000",
    "request_status": "Closed",
    "responsible_agency": "Department of Code Enforcement",
    "final_address": "1828 Third St",
    "address_councildis": "B",
    "status": "Referred to Code Enforcement",
    "rowid": "1207506",
    "final_x": "3675867.36462",
    "final_y": "523682.874939",
    "longitude": "-90.08612553485624",
    "latitude": "29.934115996595573",
    "geocoded_column": {
      "latitude": "29.934115996595573",
      "longitude": "-90.08612553485624"
    }
  },
  {
    "service_request": "2025-1207505",
    "request_type": "Trash/Recycling",
    "request_reason": "Repair Trash Cart",
    "date_created": "2025-07-08T13:34:32.000",
    "date_modified": "2025-07-08T16:48:28.000",
    "request_status": "Pending",
    "responsible_agency": "Department of Sanitation",
    "final_address": "6654 Curran Rd",
    "address_councildis": "E",
    "status": "Pending",
    "contractor": "Waste Pro",
    "rowid": "1207505",
    "final_x": "3697685.41847",
    "final_y": "559839.837533",
    "longitude": "-90.01593477009823",
    "latitude": "30.03286344821977",
    "geocoded_column": {
      "latitude": "30.03286344821977",
      "longitude": "-90.01593477009823"
    }
  },
  {
    "service_request": "2025-1207504",
    "request_type": "Property Maintenance",
    "request_reason": "Property Maintenance",
    "date_created": "2025-07-08T13:32:42.000",
    "date_modified": "2025-07-08T13:32:44.000",
    "request_status": "Pending",
    "responsible_agency": "Department of Code Enforcement",
    "final_address": "3822 Hollygrove St",
    "address_councildis": "A",
    "status": "Pending",
    "rowid": "1207504",
    "final_x": "3665892.57978",
    "final_y": "537558.514376",
    "longitude": "-90.11715074999277",
    "latitude": "29.972564256631507",
    "geocoded_column": {
      "latitude": "29.972564256631507",
      "longitude": "-90.11715074999277"
    }
  },