[
  {
    "service_request": "2022-920718",
    "request_type": "Traffic Signals/Signs/Striping/Streetlights",
    "request_reason": "Traffic Signal Malfunctioning/Damaged",
    "date_created": "2022-09-17T01:01:22.000",
    "date_modified": "2022-09-17T01:01:24.000",
    "request_status": "Pending",
    "responsible_agency": "Department of Public Works",
    "final_address": "PRYTANIA ST & LOUISIANA AVE",
    "address_councildis": "B",
    "status": "Pending",
    "rowid": "920718",
    "final_x": "3674447.5",
    "final_y": "521058.78",
    "longitude": "-90.0906978420144",
    "latitude": "29.92694300464821",
    "geocoded_column": {
      "latitude": "29.92694300464821",
      "longitude": "-90.0906978420144"
    }
  },
  {
    "service_request": "2022-920717",
    "request_type": "Taxi Issues",
    "request_reason": "Taxi Complaint",
    "date_created": "2022-09-17T00:18:52.000",
    "date_modified": "2022-09-17T00:18:52.000",
    "request_status": "Pending",
    "responsible_agency": "Ground Transportation Bureau",
    "final_address": "508 Frenchmen St",
    "address_councildis": "C",
    "status": "Pending",
    "rowid": "920717",
    "final_x": "3684724.01282",
    "final_y": "534208.579333",
    "longitude": "-90.05779556230611",
    "latitude": "29.96279007077403",
    "geocoded_column": {
      "latitude": "29.96279007077403",
      "longitude": "-90.05779556230611"
    }
  },
  {
    "service_request": "2022-920716",
    "request_type": "Trash/Recycling",
    "request_reason": "Replace Trash Cart",
    "date_created": "2022-09-16T22:15:38.000",
    "date_modified": "2022-09-16T22:15:38.000",
    "request_status": "Pending",
    "responsible_agency": "Department of Sanitation",
    "final_address": "3318 Short St",
    "address_councildis": "B",
    "status": "Assigned to Contractor",
    "contractor": "Richards Disposal",
    "rowid": "920716",
    "final_x": "3667415.3433",
    "final_y": "533747.688709",
    "longitude": "-90.11246980453193",
    "latitude": "29.96204122244859",
    "geocoded_column": {
      "latitude": "29.96204122244859",
      "longitude": "-90.11246980453193"
    }
  },
  {
    "service_request": "2022-920715",
    "request_type": "Trash/Recycling",
    "request_reason": "MIssed Recycling Pick-Up",
    "date_created": "2022-09-16T22:06:15.000",
    "date_modified": "2022-09-16T22:06:16.000",
    "request_status": "Pending",
    "responsible_agency": "Department of Sanitation",
    "final_address": "3108 College Ct",
    "address_councildis": "B",
    "status": "Assigned to Contractor",
    "contractor": "Richards Disposal",
    "rowid": "920715",
    "final_x": "3668438.72218",
    "final_y": "531824.666499",
    "longitude": "-90.10930299017294",
    "latitude": "29.956723524055274",
    "geocoded_column": {
      "latitude": "29.956723524055274",
      "longitude": "-90.10930299017294"
    }
  },
  {
    "service_request": "2022-920714",
    "request_type": "Property Maintenance",
    "request_reason": "Property Maintenance",
    "date_created": "2022-09-16T21:45:24.000",
    "date_modified": "2022-09-16T21:45:24.000",
    "request_status": "Pending",
    "responsible_agency": "Department of Code Enforcement",
    "final_address": "4808 St Claude Ave",
    "address_councildis": "E",
    "status": "Pending",
    "rowid": "920714",
    "final_x": "3695140.33008",
    "final_y": "534421.409861",
    "longitude": "-90.0248946657472",
    "latitude": "29.963052336513883",
    "geocoded_column": {
      "latitude": "29.963052336513883",
      "longitude": "-90.0248946657472"
    }
  },
  {
    "service_request": "2022-920713",
    "request_type": "Trash/Recycling",
    "request_reason": "Missed Trash Pick-Up",
    "date_created": "2022-09-16T21:40:56.000",
    "date_modified": "2022-09-16T21:40:57.000",
    "request_status": "Pending",
    "responsible_agency": "Department of Sanitation",
    "final_address": "1533 Filmore Ave",
    "address_councildis": "D",
    "status": "Assigned to Contractor",
    "contractor": "Metro Disposal",
    "rowid": "920713",
    "final_x": "3679063.99413",
    "final_y": "552006.476374",
    "longitude": "-90.07505198256058",
    "latitude": "30.011900095186125",
    "geocoded_column": {
      "latitude": "30.011900095186125",
      "longitude": "-90.07505198256058"
    }
  },
  {
    "service_request": "2022-920712",
    "request_type": "Trash/Recycling",
    "request_reason": "Missed Trash Pick-Up",
    "date_created": "2022-09-16T21:31:22.000",
    "date_modified": "2022-09-16T21:31:23.000",
    "request_status": "Pending",
    "responsible_agency": "Department of Sanitation",
    "final_address": "522 Webster St",
    "address_councildis": "A",
    "status": "Assigned to Contractor",
    "contractor": "Richards Disposal",
    "rowid": "920712",
    "final_x": "3663799.95719",
    "final_y": "518647.589943",
    "longitude": "-90.12438979248748",
    "latitude": "29.920626197462248",
    "geocoded_column": {
      "latitude": "29.920626197462248",
      "longitude": "-90.12438979248748"
    }
  },
  {
    "service_request": "2022-920711",
    "request_type": "Mosquito, Termite & Rodent Control",
    "request_reason": "Mosquito Complaint",
    "date_created": "2022-09-16T21:30:43.000",
    "date_modified": "2022-09-16T21:30:43.000",
    "request_status": "Pending",
    "responsible_agency": "Mosquito, Termite & Rodent Control Board",
    "final_address": "1659 N Rocheblave St",
    "address_councildis": "D",
    "status": "Pending",
    "rowid": "920711",
    "final_x": "3680228.89333",
    "final_y": "539951.295946",
    "longitude": "-90.07179090465783",
    "latitude": "29.978717391121254",
    "geocoded_column": {
      "latitude": "29.978717391121254",
      "longitude": "-90.07179090465783"
    }
  },
  {
    "service_request": "2022-920710",
    "request_type": "Trash/Recycling",
    "request_reason": "Missed Trash Pick-Up",
    "date_created": "2022-09-16T21:12:48.000",
    "date_modified": "2022-09-16T21:12:48.000",
    "request_status": "Pending",
    "responsible_agency": "Department of Sanitation",
    "final_address": "3801 N Roman St",
    "address_councildis": "D",
    "status": "Assigned to Contractor",
    "contractor": "Metro Disposal",
    "rowid": "920710",
    "final_x": "3691920.75056",
    "final_y": "538109.602313",
    "longitude": "-90.03492969277225",
    "latitude": "29.973294261221923",
    "geocoded_column": {
      "latitude": "29.973294261221923",
      "longitude": "-90.03492969277225"
    }
  },
  {
    "service_request": "2022-920709",
    "request_type": "Trash/Recycling",
    "request_reason": "Missed Trash Pick-Up",
    "date_created": "2022-09-16T20:47:19.000",
    "date_modified": "2022-09-16T20:47:19.000",
    "request_status": "Pending",
    "responsible_agency": "Department of Sanitation",
    "final_address": "4800 BLK Warrington Dr",
    "address_councildis": "D",
    "status": "Assigned to Contractor",
    "contractor": "Metro Disposal",
    "rowid": "920709",
    "final_x": "3681143.41425",
    "final_y": "550270.946818",
    "longitude": "-90.06854273815667",
    "latitude": "30.00706506369968",
    "geocoded_column": {
      "latitude": "30.00706506369968",
      "longitude": "-90.06854273815667"
    }
  },
  {
    "service_request": "2022-920708",
    "request_type": "Trash/Recycling",
    "request_reason": "Request a Large Item Pick Up",
    "date_created": "2022-09-16T20:47:00.000",
    "date_modified": "2022-09-16T20:47:01.000",
    "request_status": "Pending",
    "responsible_agency": "Department of Sanitation",
    "final_address": "4319 Dumaine St",
    "address_councildis": "A",
    "status": "Assigned to Contractor",
    "contractor": "Richards Disposal",
    "rowid": "920708",
    "final_x": "3672023.57063",
    "final_y": "541458.139148",
    "longitude": "-90.09765512215259",
    "latitude": "29.983106544179797",
    "geocoded_column": {
      "latitude": "29.983106544179797",
      "longitude": "-90.09765512215259"
    }
  },
  {
    "service_request": "2022-920707",
    "request_type": "Trash/Recycling",
    "request_reason": "Missed Trash Pick-Up",
    "date_created": "2022-09-16T20:29:20.000",
    "date_modified": "2022-09-16T20:29:20.000",
    "request_status": "Pending",
    "responsible_agency": "Department of Sanitation",
    "final_address": "1729 Terpsichore St",
    "address_councildis": "B",
    "status": "Assigned to Contractor",
    "contractor": "Richards Disposal",
    "rowid": "920707",
    "final_x": "3678449.5229",
    "final_y": "525680.650173",
    "longitude": "-90.07790465245449",
    "latitude": "29.939531685636776",
    "geocoded_column": {
      "latitude": "29.939531685636776",
      "longitude": "-90.07790465245449"
    }
  },
  {
    "service_request": "2022-920706",
    "request_type": "Trash/Recycling",
    "request_reason": "MIssed Recycling Pick-Up",
    "date_created": "2022-09-16T20:28:29.000",
    "date_modified": "2022-09-16T20:28:29.000",
    "request_status": "Pending",
    "responsible_agency": "Department of Sanitation",
    "final_address": "1729 Terpsichore St",
    "address_councildis": "B",
    "status": "Assigned to Contractor",
    "contractor": "Richards Disposal",
    "rowid": "920706",
    "final_x": "3678449.5229",
    "final_y": "525680.650173",
    "longitude": "-90.07790465245449",
    "latitude": "29.939531685636776",
    "geocoded_column": {
      "latitude": "29.939531685636776",
      "longitude": "-90.07790465245449"
    }
  },
  {
    "service_request": "2022-920705",
    "request_type": "Traffic Signals/Signs/Striping/Streetlights",
    "request_reason": "Street Light Outage/Malfunction",
    "date_created": "2022-09-16T20:19:33.000",
    "date_modified": "2022-09-16T20:19:34.000",
    "request_status": "Pending",
    "responsible_agency": "Department of Public Works",
    "final_address": "9800 E Rockton Cir",
    "address_councildis": "E",
    "status": "Pending",
    "contractor": "Legacy Professional Services",
    "rowid": "920705",
    "final_x": "3708247.24696",
    "final_y": "562988.954848",
    "longitude": "-89.98244142473779",
    "latitude": "30.04118415198417",
    "geocoded_column": {
      "latitude": "30.04118415198417",
      "longitude": "-89.98244142473779"
    }
  },
  {
    "service_request": "2022-920704",
    "request_type": "Property Maintenance",
    "request_reason": "Property Maintenance",
    "date_created": "2022-09-16T20:19:27.000",
    "date_modified": "2022-09-16T20:19:27.000",
    "request_status": "Pending",
    "responsible_agency": "Department of Code Enforcement",
    "final_address": "2152 Florida Ave",
    "address_councildis": "D",
    "status": "Pending",
    "rowid": "920704",
    "final_x": "3684252.93909",
    "final_y": "542413.228173",
    "longitude": "-90.05899500251422",
    "latitude": "29.985364404927264",
    "geocoded_column": {
      "latitude": "29.985364404927264",
      "longitude": "-90.05899500251422"
    }
  },
  {
    "service_request": "2022-920703",
    "request_type": "Trash/Recycling",
    "request_reason": "Missed Trash Pick-Up",
    "date_created": "2022-09-16T20:16:43.000",
    "date_modified": "2022-09-16T20:16:44.000",
    "request_status": "Pending",
    "responsible_agency": "Department of Sanitation",
    "final_address": "7517 Mayo Rd",
    "address_councildis": "E",
    "status": "Assigned to Contractor",
    "contractor": "Metro Disposal",
    "rowid": "920703",
    "final_x": "3700992.47556",
    "final_y": "560554.536734",
    "longitude": "-90.00545807048017",
    "latitude": "30.034723632592225",
    "geocoded_column": {
      "latitude": "30.034723632592225",
      "longitude": "-90.00545807048017"
    }
  },
  {
    "service_request": "2022-920702",
    "request_type": "Property Maintenance",
    "request_reason": "Property Maintenance",
    "date_created": "2022-09-16T20:15:51.000",
    "date_modified": "2022-09-16T20:15:51.000",
    "request_status": "Pending",
    "responsible_agency": "Department of Code Enforcement",
    "final_address": "2148 Florida Ave",
    "address_councildis": "D",
    "status": "Pending",
    "rowid": "920702",
    "final_x": "3684221.27241",
    "final_y": "542421.561549",
    "longitude": "-90.05909473155859",
    "latitude": "29.9853882870981",
    "geocoded_column": {
      "latitude": "29.9853882870981",
      "longitude": "-90.05909473155859"
    }
  },
  {
    "service_request": "2022-920701",
    "request_type": "Property Maintenance",
    "request_reason": "Property Maintenance",
    "date_created": "2022-09-16T20:13:16.000",
    "date_modified": "2022-09-16T20:13:16.000",
    "request_status": "Pending",
    "responsible_agency": "Department of Code Enforcement",
    "final_address": "2144 Florida Ave",
    "address_councildis": "D",
    "status": "Pending",
    "rowid": "920701",
    "final_x": "3684183.35573",
    "final_y": "542440.728205",
    "longitude": "-90.05921382130225",
    "latitude": "29.98544214798094",
    "geocoded_column": {
      "latitude": "29.98544214798094",
      "longitude": "-90.05921382130225"
    }
  },
  {
    "service_request": "2022-920700",
    "request_type": "Trash/Recycling",
    "request_reason": "Repair Trash Cart",
    "date_created": "2022-09-16T20:03:51.000",
    "date_modified": "2022-09-16T20:03:52.000",
    "request_status": "Pending",
    "responsible_agency": "Department of Sanitation",
    "final_address": "1535 Maura Pl",
    "address_councildis": "C",
    "status": "Assigned to Contractor",
    "contractor": "Richards Disposal",
    "rowid": "920700",
    "final_x": "3699197.08586",
    "final_y": "525426.513597",
    "longitude": "-90.01241144982899",
    "latitude": "29.938191542022487",
    "geocoded_column": {
      "latitude": "29.938191542022487",
      "longitude": "-90.01241144982899"
    }
  },
  {
    "service_request": "2022-920699",
    "request_type": "Trash/Recycling",
    "request_reason": "Missed Trash Pick-Up",
    "date_created": "2022-09-16T20:01:53.000",
    "date_modified": "2022-09-16T20:01:53.000",
    "request_status": "Pending",
    "responsible_agency": "Department of Sanitation",
    "final_address": "6118 Pratt Dr",
    "address_councildis": "D",
    "status": "Assigned to Contractor",
    "contractor": "Metro Disposal",
    "rowid": "920699",
    "final_x": "3680065.70267",
    "final_y": "555130.172569",
    "longitude": "-90.07177850250537",
    "latitude": "30.020458842571028",
    "geocoded_column": {
      "latitude": "30.020458842571028",
      "longitude": "-90.07177850250537"
    }
  },
  {
    "service_request": "2022-920698",
    "request_type": "Trash/Recycling",
    "request_reason": "Missed Trash Pick-Up",
    "date_created": "2022-09-16T20:01:21.000",
    "date_modified": "2022-09-16T20:01:22.000",
    "request_status": "Pending",
    "responsible_agency": "Department of Sanitation",
    "final_address": "1833 Bordeaux St",
    "address_councildis": "B",
    "status": "Assigned to Contractor",
    "contractor": "Richards Disposal",
    "rowid": "920698",
    "final_x": "3669354.66522",
    "final_y": "521716.935609",
    "longitude": "-90.10675238766437",
    "latitude": "29.92890360633734",
    "geocoded_column": {
      "latitude": "29.92890360633734",
      "longitude": "-90.10675238766437"
    }
  },
  {
    "service_request": "2022-920697",
    "request_type": "Traffic Signals/Signs/Striping/Streetlights",
    "request_reason": "Street Light Outage/Malfunction",
    "date_created": "2022-09-16T19:53:03.000",
    "date_modified": "2022-09-16T19:53:03.000",
    "request_status": "Pending",
    "responsible_agency": "Department of Public Works",
    "final_address": "313 Opelousas Ave",
    "address_councildis": "C",
    "status": "Pending",
    "contractor": "Legacy Professional Services",
    "rowid": "920697",
    "final_x": "3686239.45634",
    "final_y": "528967.884416",
    "longitude": "-90.05319488874494",
    "latitude": "29.948333484712226",
    "geocoded_column": {
      "latitude": "29.948333484712226",
      "longitude": "-90.05319488874494"
    }
  },
  {
    "service_request": "2022-920696",
    "request_type": "Trash/Recycling",
    "request_reason": "Missed Trash Pick-Up",
    "date_created": "2022-09-16T19:40:19.000",
    "date_modified": "2022-09-16T19:40:20.000",
    "request_status": "Pending",
    "responsible_agency": "Department of Sanitation",
    "final_address": "7920 Pebble Dr",
    "address_councildis": "E",
    "status": "Assigned to Contractor",
    "contractor": "Metro Disposal",
    "rowid": "920696",
    "final_x": "3714396.49688",
    "final_y": "569829.70519",
    "longitude": "-89.96274924339146",
    "latitude": "30.059792652463052",
    "geocoded_column": {
      "latitude": "30.059792652463052",
      "longitude": "-89.96274924339146"
    }
  },
  {
    "service_request": "2022-920695",
    "request_type": "Trash/Recycling",
    "request_reason": "Missed Trash Pick-Up",
    "date_created": "2022-09-16T19:40:03.000",
    "date_modified": "2022-09-16T19:40:04.000",
    "request_status": "Pending",
    "responsible_agency": "Department of Sanitation",
    "final_address": "1616 Charlton Dr",
    "address_councildis": "D",
    "status": "Assigned to Contractor",
    "contractor": "Metro Disposal",
    "rowid": "920695",
    "final_x": "3679897.72072",
    "final_y": "550664.678292",
    "longitude": "-90.07246453481575",
    "latitude": "30.008185432966",
    "geocoded_column": {
      "latitude": "30.008185432966",
      "longitude": "-90.07246453481575"
    }
  },
  {
    "service_request": "2022-920693",
    "request_type": "Trash/Recycling",
    "request_reason": "Missed Trash Pick-Up",
    "date_created": "2022-09-16T19:26:53.000",
    "date_modified": "2022-09-16T19:26:54.000",
    "request_status": "Pending",
    "responsible_agency": "Department of Sanitation",
    "final_address": "4420 Pauger St",
    "address_councildis": "D",
    "status": "Assigned to Contractor",
    "contractor": "Metro Disposal",
    "rowid": "920693",
    "final_x": "3682803.378",
    "final_y": "548937.690195",
    "longitude": "-90.06334515098254",
    "latitude": "30.00334860257981",
    "geocoded_column": {
      "latitude": "30.00334860257981",
      "longitude": "-90.06334515098254"
    }
  },
  {
    "service_request": "2022-920691",
    "request_type": "Abandoned Vehicles",
    "request_reason": "Abandoned/Junk Vehicles",
    "date_created": "2022-09-16T19:18:19.000",
    "date_modified": "2022-09-16T19:18:19.000",
    "request_status": "Pending",
    "responsible_agency": "Department of Public Works",
    "final_address": "3301 Walter St",
    "address_councildis": "C",
    "status": "Pending",
    "rowid": "920691",
    "final_x": "3711830.19051",
    "final_y": "518449.787062",
    "longitude": "-89.97278951064926",
    "latitude": "29.918601532703327",
    "geocoded_column": {
      "latitude": "29.918601532703327",
      "longitude": "-89.97278951064926"
    }
  },
  {
    "service_request": "2022-920690",
    "request_type": "Mosquito, Termite & Rodent Control",
    "request_reason": "Mosquito Complaint",
    "date_created": "2022-09-16T19:14:21.000",
    "date_modified": "2022-09-16T19:14:21.000",
    "request_status": "Pending",
    "responsible_agency": "Mosquito, Termite & Rodent Control Board",
    "final_address": "6854 Argonne Blvd",
    "address_councildis": "A",
    "status": "Pending",
    "rowid": "920690",
    "final_x": "3670623.2354",
    "final_y": "552926.655383",
    "longitude": "-90.10168875121856",
    "latitude": "30.01468242671583",
    "geocoded_column": {
      "latitude": "30.01468242671583",
      "longitude": "-90.10168875121856"
    }
  },
  {
    "service_request": "2022-920688",
    "request_type": "Trash/Recycling",
    "request_reason": "Repair Trash Cart",
    "date_created": "2022-09-16T19:07:15.000",
    "date_modified": "2022-09-16T19:07:16.000",
    "request_status": "Pending",
    "responsible_agency": "Department of Sanitation",
    "final_address": "3631 State Street Dr",
    "address_councildis": "A",
    "status": "Assigned to Contractor",
    "contractor": "Richards Disposal",
    "rowid": "920688",
    "final_x": "3668010.29383",
    "final_y": "529280.573249",
    "longitude": "-90.11074154918275",
    "latitude": "29.949740677107595",
    "geocoded_column": {
      "latitude": "29.949740677107595",
      "longitude": "-90.11074154918275"
    }
  },
  {
    "service_request": "2022-920687",
    "request_type": "Traffic Signals/Signs/Striping/Streetlights",
    "request_reason": "Street Light Outage/Malfunction",
    "date_created": "2022-09-16T19:05:15.000",
    "date_modified": "2022-09-16T19:05:16.000",
    "request_status": "Pending",
    "responsible_agency": "Department of Public Works",
    "final_address": "400 Chartres St",
    "address_councildis": "C",
    "status": "Pending",
    "contractor": "Legacy Professional Services",
    "rowid": "920687",
    "final_x": "3682207.49794",
    "final_y": "531375.162242",
    "longitude": "-90.06584135886212",
    "latitude": "29.95507592785548",
    "geocoded_column": {
      "latitude": "29.95507592785548",
      "longitude": "-90.06584135886212"
    }
  },
  {
    "service_request": "2022-920686",
    "request_type": "Trash/Recycling",
    "request_reason": "Missed Trash Pick-Up",
    "date_created": "2022-09-16T19:03:46.000",
    "date_modified": "2022-09-16T19:03:47.000",
    "request_status": "Pending",
    "responsible_agency": "Department of Sanitation",
    "final_address": "3148 N Villere St",
    "address_councildis": "C",
    "status": "Assigned to Contractor",
    "contractor": "Metro Disposal",
    "rowid": "920686",
    "final_x": "3689654.41148",
    "final_y": "536979.069896",
    "longitude": "-90.04212746320455",
    "latitude": "29.970256114366908",
    "geocoded_column": {
      "latitude": "29.970256114366908",
      "longitude": "-90.04212746320455"
    }
  },
  {
    "service_request": "2022-920685",
    "request_type": "Trash/Recycling",
    "request_reason": "Missed Trash Pick-Up",
    "date_created": "2022-09-16T19:01:44.000",
    "date_modified": "2022-09-16T19:01:45.000",
    "request_status": "Pending",
    "responsible_agency": "Department of Sanitation",
    "final_address": "3153 N Villere St",
    "address_councildis": "C",
    "status": "Assigned to Contractor",
    "contractor": "Metro Disposal",
    "rowid": "920685",
    "final_x": "3689703.51516",
    "final_y": "537029.647624",
    "longitude": "-90.04197058887337",
    "latitude": "29.970393663764415",
    "geocoded_column": {
      "latitude": "29.970393663764415",
      "longitude": "-90.04197058887337"
    }
  },
  {
    "service_request": "2022-920684",
    "request_type": "Trash/Recycling",
    "request_reason": "Missed Trash Pick-Up",
    "date_created": "2022-09-16T18:58:35.000",
    "date_modified": "2022-09-16T18:58:36.000",
    "request_status": "Pending",
    "responsible_agency": "Department of Sanitation",
    "final_address": "901 Webster St",
    "address_councildis": "A",
    "status": "Assigned to Contractor",
    "contractor": "Richards Disposal",
    "rowid": "920684",
    "final_x": "3664299.37684",
    "final_y": "519797.805688",
    "longitude": "-90.12277499124255",
    "latitude": "29.923774432923828",
    "geocoded_column": {
      "latitude": "29.923774432923828",
      "longitude": "-90.12277499124255"
    }
  },
  {
    "service_request": "2022-920683",
    "request_type": "Trash/Recycling",
    "request_reason": "Missed Trash Pick-Up",
    "date_created": "2022-09-16T18:57:33.000",
    "date_modified": "2022-09-16T18:57:54.000",
    "request_status": "Pending",
    "responsible_agency": "Department of Sanitation",
    "final_address": "8000 Pebble Dr",
    "address_councildis": "E",
    "status": "Assigned to Contractor",
    "contractor": "Metro Disposal",
    "rowid": "920683",
    "final_x": "3714286.56639",
    "final_y": "569979.474406",
    "longitude": "-89.96309106236329",
    "latitude": "30.060208071109884",
    "geocoded_column": {
      "latitude": "30.060208071109884",
      "longitude": "-89.96309106236329"
    }
  },
  {
    "service_request": "2022-920682",
    "request_type": "Trash/Recycling",
    "request_reason": "Missed Trash Pick-Up",
    "date_created": "2022-09-16T18:53:39.000",
    "date_modified": "2022-09-16T18:53:39.000",
    "request_status": "Pending",
    "responsible_agency": "Department of Sanitation",
    "final_address": "3143 N Villere St",
    "address_councildis": "C",
    "status": "Assigned to Contractor",
    "contractor": "Metro Disposal",
    "rowid": "920682",
    "final_x": "3689631.24483",
    "final_y": "537051.062984",
    "longitude": "-90.04219806381501",
    "latitude": "29.9704547878306",
    "geocoded_column": {
      "latitude": "29.9704547878306",
      "longitude": "-90.04219806381501"
    }
  },
  {
    "service_request": "2022-920681",
    "request_type": "Trash/Recycling",
    "request_reason": "Missed Trash Pick-Up",
    "date_created": "2022-09-16T18:52:15.000",
    "date_modified": "2022-09-16T18:52:16.000",
    "request_status": "Pending",
    "responsible_agency": "Department of Sanitation",
    "final_address": "8220 Curran Rd",
    "address_councildis": "E",
    "status": "Assigned to Contractor",
    "contractor": "Metro Disposal",
    "rowid": "920681",
    "final_x": "3702849.90538",
    "final_y": "561854.662495",
    "longitude": "-89.99954053413776",
    "latitude": "30.038239152995732",
    "geocoded_column": {
      "latitude": "30.038239152995732",
      "longitude": "-89.99954053413776"
    }
  },
  {
    "service_request": "2022-920680",
    "request_type": "Trash/Recycling",
    "request_reason": "Missed Trash Pick-Up",
    "date_created": "2022-09-16T18:48:09.000",
    "date_modified": "2022-09-16T18:48:10.000",
    "request_status": "Pending",
    "responsible_agency": "Department of Sanitation",
    "final_address": "5200 Cartier Ave",
    "address_councildis": "D",
    "status": "Assigned to Contractor",
    "contractor": "Metro Disposal",
    "rowid": "920680",
    "final_x": "3677614.39522",
    "final_y": "551199.234325",
    "longitude": "-90.07965978908142",
    "latitude": "30.009724159239312",
    "geocoded_column": {
      "latitude": "30.009724159239312",
      "longitude": "-90.07965978908142"
    }
  },
  {
    "service_request": "2022-920679",
    "request_type": "Trash/Recycling",
    "request_reason": "Missed Trash Pick-Up",
    "date_created": "2022-09-16T18:41:17.000",
    "date_modified": "2022-09-16T18:41:17.000",
    "request_status": "Pending",
    "responsible_agency": "Department of Sanitation",
    "final_address": "1533 Clouet St",
    "address_councildis": "D",
    "status": "Assigned to Contractor",
    "contractor": "Metro Disposal",
    "rowid": "920679",
    "final_x": "3689474.89308",
    "final_y": "537738.15028",
    "longitude": "-90.0426673972429",
    "latitude": "29.972348879366034",
    "geocoded_column": {
      "latitude": "29.972348879366034",
      "longitude": "-90.0426673972429"
    }
  },
  {
    "service_request": "2022-920678",
    "request_type": "Trash/Recycling",
    "request_reason": "MIssed Recycling Pick-Up",
    "date_created": "2022-09-16T18:26:47.000",
    "date_modified": "2022-09-16T18:26:47.000",
    "request_status": "Pending",
    "responsible_agency": "Department of Sanitation",
    "final_address": "2727 Audubon St, New Orleans, Louisiana, 70125",
    "address_councildis": "B",
    "status": "Assigned to Contractor",
    "contractor": "Richards Disposal",
    "rowid": "920678",
    "final_x": "3667374.45953",
    "final_y": "530842.530178",
    "longitude": "-90.11269663873546",
    "latitude": "29.954054188401447",
    "geocoded_column": {
      "latitude": "29.954054188401447",
      "longitude": "-90.11269663873546"
    }
  },
  {
    "service_request": "2022-920677",
    "request_type": "Trash/Recycling",
    "request_reason": "Missed Trash Pick-Up",
    "date_created": "2022-09-16T18:21:14.000",
    "date_modified": "2022-09-16T18:21:14.000",
    "request_status": "Pending",
    "responsible_agency": "Department of Sanitation",
    "final_address": "4114 Vincennes Pl",
    "address_councildis": "B",
    "status": "Assigned to Contractor",
    "contractor": "Richards Disposal",
    "rowid": "920677",
    "final_x": "3668494.16948",
    "final_y": "530619.72045",
    "longitude": "-90.10916855402616",
    "latitude": "29.953408689128235",
    "geocoded_column": {
      "latitude": "29.953408689128235",
      "longitude": "-90.10916855402616"
    }
  },
  {
    "service_request": "2022-920676",
    "request_type": "Roads/Drainage",
    "request_reason": "Catch Basin - Broken/Damage",
    "date_created": "2022-09-16T18:16:34.000",
    "date_modified": "2022-09-16T18:16:34.000",
    "request_status": "Pending",
    "responsible_agency": "Department of Public Works",
    "final_address": "6000 Burgundy St",
    "address_councildis": "E",
    "status": "Pending",
    "rowid": "920676",
    "final_x": "3698876.49264",
    "final_y": "532650.859332",
    "longitude": "-90.01316080658339",
    "latitude": "29.95806611425129",
    "geocoded_column": {
      "latitude": "29.95806611425129",
      "longitude": "-90.01316080658339"
    }
  },
  {
    "service_request": "2022-920675",
    "request_type": "Trash/Recycling",
    "request_reason": "Missed Trash Pick-Up",
    "date_created": "2022-09-16T18:12:27.000",
    "date_modified": "2022-09-16T18:12:27.000",
    "request_status": "Pending",
    "responsible_agency": "Department of Sanitation",
    "final_address": "4838 Banks St",
    "address_councildis": "A",
    "status": "Assigned to Contractor",
    "contractor": "Richards Disposal",
    "rowid": "920675",
    "final_x": "3667802.04001",
    "final_y": "539243.858058",
    "longitude": "-90.11106353375348",
    "latitude": "29.97714252156278",
    "geocoded_column": {
      "latitude": "29.97714252156278",
      "longitude": "-90.11106353375348"
    }
  },
  {
    "service_request": "2022-920674",
    "request_type": "Trash/Recycling",
    "request_reason": "Replace Trash Cart",
    "date_created": "2022-09-16T18:12:15.000",
    "date_modified": "2022-09-16T18:12:16.000",
    "request_status": "Pending",
    "responsible_agency": "Department of Sanitation",
    "final_address": "2163 N Tonti St",
    "address_councildis": "D",
    "status": "Assigned to Contractor",
    "contractor": "Metro Disposal",
    "rowid": "920674",
    "final_x": "3684069.2806",
    "final_y": "540709.731467",
    "longitude": "-90.05963491298226",
    "latitude": "29.980686003809446",
    "geocoded_column": {
      "latitude": "29.980686003809446",
      "longitude": "-90.05963491298226"
    }
  },
  {
    "service_request": "2022-920673",
    "request_type": "Trash/Recycling",
    "request_reason": "Request a Large Item Pick Up",
    "date_created": "2022-09-16T18:10:40.000",
    "date_modified": "2022-09-16T18:11:34.000",
    "request_status": "Pending",
    "responsible_agency": "Department of Sanitation",
    "final_address": "2163 N Tonti St",
    "address_councildis": "D",
    "status": "Assigned to Contractor",
    "contractor": "Metro Disposal",
    "rowid": "920673",
    "final_x": "3684069.2806",
    "final_y": "540709.731467",
    "longitude": "-90.05963491298226",
    "latitude": "29.980686003809446",
    "geocoded_column": {
      "latitude": "29.980686003809446",
      "longitude": "-90.05963491298226"
    }
  },
  {
    "service_request": "2022-920672",
    "request_type": "Trash/Recycling",
    "request_reason": "Missed Trash Pick-Up",
    "date_created": "2022-09-16T18:09:38.000",
    "date_modified": "2022-09-16T18:09:38.000",
    "request_status": "Pending",
    "responsible_agency": "Department of Sanitation",
    "final_address": "6014 Vermillion Blvd, New Orleans, Louisiana, 70122",
    "address_councildis": "D",
    "status": "Assigned to Contractor",
    "contractor": "Metro Disposal",
    "rowid": "920672",
    "final_x": "3682985.34498",
    "final_y": "554932.352664",
    "longitude": "-90.06256026077457",
    "latitude": "30.019826200564356",
    "geocoded_column": {
      "latitude": "30.019826200564356",
      "longitude": "-90.06256026077457"
    }
  },
  {
    "service_request": "2022-920671",
    "request_type": "Trash/Recycling",
    "request_reason": "Missed Trash Pick-Up",
    "date_created": "2022-09-16T18:08:29.000",
    "date_modified": "2022-09-16T18:08:30.000",
    "request_status": "Pending",
    "responsible_agency": "Department of Sanitation",
    "final_address": "1423 New York St",
    "address_councildis": "D",
    "status": "Assigned to Contractor",
    "contractor": "Metro Disposal",
    "rowid": "920671",
    "final_x": "3678010.07483",
    "final_y": "555687.324121",
    "longitude": "-90.07825438285846",
    "latitude": "30.022052877056513",
    "geocoded_column": {
      "latitude": "30.022052877056513",
      "longitude": "-90.07825438285846"
    }
  },
  {
    "service_request": "2022-920670",
    "request_type": "Trash/Recycling",
    "request_reason": "MIssed Recycling Pick-Up",
    "date_created": "2022-09-16T18:07:02.000",
    "date_modified": "2022-09-16T18:07:03.000",
    "request_status": "Pending",
    "responsible_agency": "Department of Sanitation",
    "final_address": "4918 S Prieur St",
    "address_councildis": "B",
    "status": "Assigned to Contractor",
    "contractor": "Richards Disposal",
    "rowid": "920670",
    "final_x": "3669090.91943",
    "final_y": "526637.515006",
    "longitude": "-90.10741879456256",
    "latitude": "29.942441378548565",
    "geocoded_column": {
      "latitude": "29.942441378548565",
      "longitude": "-90.10741879456256"
    }
  },
  {
    "service_request": "2022-920669",
    "request_type": "Trash/Recycling",
    "request_reason": "Missed Trash Pick-Up",
    "date_created": "2022-09-16T18:06:17.000",
    "date_modified": "2022-09-16T18:06:18.000",
    "request_status": "Pending",
    "responsible_agency": "Department of Sanitation",
    "final_address": "2828 Baronne St",
    "address_councildis": "B",
    "status": "Assigned to Contractor",
    "contractor": "Richards Disposal",
    "rowid": "920669",
    "final_x": "3675325.2955",
    "final_y": "522983.112507",
    "longitude": "-90.08786084143355",
    "latitude": "29.93220809033752",
    "geocoded_column": {
      "latitude": "29.93220809033752",
      "longitude": "-90.08786084143355"
    }
  },
  {
    "service_request": "2022-920668",
    "request_type": "Trash/Recycling",
    "request_reason": "Missed Trash Pick-Up",
    "date_created": "2022-09-16T18:05:41.000",
    "date_modified": "2022-09-16T18:05:42.000",
    "request_status": "Pending",
    "responsible_agency": "Department of Sanitation",
    "final_address": "4918 S Prieur St",
    "address_councildis": "B",
    "status": "Assigned to Contractor",
    "contractor": "Richards Disposal",
    "rowid": "920668",
    "final_x": "3669090.91943",
    "final_y": "526637.515006",
    "longitude": "-90.10741879456256",
    "latitude": "29.942441378548565",
    "geocoded_column": {
      "latitude": "29.942441378548565",
      "longitude": "-90.10741879456256"
    }
  },
  {
    "service_request": "2022-920667",
    "request_type": "Trash/Recycling",
    "request_reason": "Missed Trash Pick-Up",
    "date_created": "2022-09-16T18:03:32.000",
    "date_modified": "2022-09-16T18:03:34.000",
    "request_status": "Pending",
    "responsible_agency": "Department of Sanitation",
    "final_address": "5826 Louis Xiv St",
    "address_councildis": "A",
    "status": "Assigned to Contractor",
    "contractor": "Metro Disposal",
    "rowid": "920667",
    "final_x": "3667926.39053",
    "final_y": "546363.750544",
    "longitude": "-90.11043080016663",
    "latitude": "29.996716154536976",
    "geocoded_column": {
      "latitude": "29.996716154536976",
      "longitude": "-90.11043080016663"
    }
  },
  {
    "service_request": "2022-920666",
    "request_type": "Trash/Recycling",
    "request_reason": "Repair Trash Cart",
    "date_created": "2022-09-16T17:58:46.000",
    "date_modified": "2022-09-16T17:58:47.000",
    "request_status": "Pending",
    "responsible_agency": "Department of Sanitation",
    "final_address": "8502 Palm St",
    "address_councildis": "A",
    "status": "Assigned to Contractor",
    "contractor": "Richards Disposal",
    "rowid": "920666",
    "final_x": "3666601.6105",
    "final_y": "535664.220294",
    "longitude": "-90.11497510639494",
    "latitude": "29.96733486587647",
    "geocoded_column": {
      "latitude": "29.96733486587647",
      "longitude": "-90.11497510639494"
    }
  },
  {
    "service_request": "2022-920665",
    "request_type": "Property Maintenance",
    "request_reason": "Property Maintenance",
    "date_created": "2022-09-16T17:57:49.000",
    "date_modified": "2022-09-16T17:57:49.000",
    "request_status": "Pending",
    "responsible_agency": "Department of Code Enforcement",
    "final_address": "641 Slidell St",
    "address_councildis": "C",
    "status": "Pending",
    "rowid": "920665",
    "final_x": "3687430.18473",
    "final_y": "528697.905472",
    "longitude": "-90.0494448278756",
    "latitude": "29.947554502593444",
    "geocoded_column": {
      "latitude": "29.947554502593444",
      "longitude": "-90.0494448278756"
    }
  },
  {
    "service_request": "2022-920664",
    "request_type": "Trash/Recycling",
    "request_reason": "Missed Trash Pick-Up",
    "date_created": "2022-09-16T17:57:43.000",
    "date_modified": "2022-09-16T17:57:44.000",
    "request_status": "Pending",
    "responsible_agency": "Department of Sanitation",
    "final_address": "8502 Palm St",
    "address_councildis": "A",
    "status": "Assigned to Contractor",
    "contractor": "Richards Disposal",
    "rowid": "920664",
    "final_x": "3666601.6105",
    "final_y": "535664.220294",
    "longitude": "-90.11497510639494",
    "latitude": "29.96733486587647",
    "geocoded_column": {
      "latitude": "29.96733486587647",
      "longitude": "-90.11497510639494"
    }
  },
  {
    "service_request": "2022-920663",
    "request_type": "Trash/Recycling",
    "request_reason": "Missed Trash Pick-Up",
    "date_created": "2022-09-16T17:57:31.000",
    "date_modified": "2022-09-16T17:57:54.000",
    "request_status": "Pending",
    "responsible_agency": "Department of Sanitation",
    "final_address": "3110 Oliver White Ave",
    "address_councildis": "D",
    "status": "Assigned to Contractor",
    "contractor": "Metro Disposal",
    "rowid": "920663",
    "final_x": "3692144.76521",
    "final_y": "543749.37307",
    "longitude": "-90.03402024008749",
    "latitude": "29.98879462907483",
    "geocoded_column": {
      "latitude": "29.98879462907483",
      "longitude": "-90.03402024008749"
    }
  },
  {
    "service_request": "2022-920662",
    "request_type": "Trash/Recycling",
    "request_reason": "Missed Trash Pick-Up",
    "date_created": "2022-09-16T17:54:39.000",
    "date_modified": "2022-09-16T17:54:40.000",
    "request_status": "Pending",
    "responsible_agency": "Department of Sanitation",
    "final_address": "420 Audubon Blvd",
    "address_councildis": "B",
    "status": "Assigned to Contractor",
    "contractor": "Richards Disposal",
    "rowid": "920662",
    "final_x": "3667410.05498",
    "final_y": "530461.35053",
    "longitude": "-90.11259706519068",
    "latitude": "29.95300502622495",
    "geocoded_column": {
      "latitude": "29.95300502622495",
      "longitude": "-90.11259706519068"
    }
  },
  {
    "service_request": "2022-920661",
    "request_type": "Trash/Recycling",
    "request_reason": "Missed Trash Pick-Up",
    "date_created": "2022-09-16T17:53:47.000",
    "date_modified": "2022-09-16T17:53:47.000",
    "request_status": "Pending",
    "responsible_agency": "Department of Sanitation",
    "final_address": "1500 BLK Seville Dr",
    "address_councildis": "D",
    "status": "Assigned to Contractor",
    "contractor": "Metro Disposal",
    "rowid": "920661",
    "final_x": "3678884.89876",
    "final_y": "551242.840871",
    "longitude": "-90.07564430266635",
    "latitude": "30.009805778505726",
    "geocoded_column": {
      "latitude": "30.009805778505726",
      "longitude": "-90.07564430266635"
    }
  },
  {
    "service_request": "2022-920660",
    "request_type": "Trash/Recycling",
    "request_reason": "Missed Trash Pick-Up",
    "date_created": "2022-09-16T17:52:35.000",
    "date_modified": "2022-09-16T17:52:36.000",
    "request_status": "Pending",
    "responsible_agency": "Department of Sanitation",
    "final_address": "1325 Bartholomew St",
    "address_councildis": "D",
    "status": "Assigned to Contractor",
    "contractor": "Metro Disposal",
    "rowid": "920660",
    "final_x": "3692075.42595",
    "final_y": "536245.491271",
    "longitude": "-90.03450793097261",
    "latitude": "29.96816379551186",
    "geocoded_column": {
      "latitude": "29.96816379551186",
      "longitude": "-90.03450793097261"
    }
  },
  {
    "service_request": "2022-920659",
    "request_type": "Trash/Recycling",
    "request_reason": "Replace Trash Cart",
    "date_created": "2022-09-16T17:49:33.000",
    "date_modified": "2022-09-16T17:49:34.000",
    "request_status": "Pending",
    "responsible_agency": "Department of Sanitation",
    "final_address": "7072 E Tamaron Blvd",
    "address_councildis": "E",
    "status": "Assigned to Contractor",
    "contractor": "Metro Disposal",
    "rowid": "920659",
    "final_x": "3718729.58245",
    "final_y": "568605.228069",
    "longitude": "-89.94909953457669",
    "latitude": "30.056282625632136",
    "geocoded_column": {
      "latitude": "30.056282625632136",
      "longitude": "-89.94909953457669"
    }
  },
  {
    "service_request": "2022-920658",
    "request_type": "Trash/Recycling",
    "request_reason": "Request a Large Item Pick Up",
    "date_created": "2022-09-16T17:38:41.000",
    "date_modified": "2022-09-16T17:38:42.000",
    "request_status": "Pending",
    "responsible_agency": "Department of Sanitation",
    "final_address": "6206 Curie St",
    "address_councildis": "D",
    "status": "Assigned to Contractor",
    "contractor": "Metro Disposal",
    "rowid": "920658",
    "final_x": "3682443.85455",
    "final_y": "555781.938777",
    "longitude": "-90.06424146214795",
    "latitude": "30.022178752025248",
    "geocoded_column": {
      "latitude": "30.022178752025248",
      "longitude": "-90.06424146214795"
    }
  },
  {
    "service_request": "2022-920657",
    "request_type": "Trash/Recycling",
    "request_reason": "Missed Trash Pick-Up",
    "date_created": "2022-09-16T17:27:37.000",
    "date_modified": "2022-09-16T17:27:38.000",
    "request_status": "Pending",
    "responsible_agency": "Department of Sanitation",
    "final_address": "4816 Pauger St",
    "address_councildis": "D",
    "status": "Assigned to Contractor",
    "contractor": "Metro Disposal",
    "rowid": "920657",
    "final_x": "3682687.72348",
    "final_y": "550348.110356",
    "longitude": "-90.06366114843836",
    "latitude": "30.007230274111592",
    "geocoded_column": {
      "latitude": "30.007230274111592",
      "longitude": "-90.06366114843836"
    }
  },
  {
    "service_request": "2022-920656",
    "request_type": "Trash/Recycling",
    "request_reason": "Missed Trash Pick-Up",
    "date_created": "2022-09-16T17:25:28.000",
    "date_modified": "2022-09-16T17:25:29.000",
    "request_status": "Pending",
    "responsible_agency": "Department of Sanitation",
    "final_address": "6057 Vermillion Blvd, New Orleans, Louisiana, 70122",
    "address_councildis": "D",
    "status": "Assigned to Contractor",
    "contractor": "Metro Disposal",
    "rowid": "920656",
    "final_x": "3683162.4788",
    "final_y": "555559.282201",
    "longitude": "-90.06197859705208",
    "latitude": "30.021544623787406",
    "geocoded_column": {
      "latitude": "30.021544623787406",
      "longitude": "-90.06197859705208"
    }
  },
  {
    "service_request": "2022-920655",
    "request_type": "Trash/Recycling",
    "request_reason": "Missed Trash Pick-Up",
    "date_created": "2022-09-16T17:14:43.000",
    "date_modified": "2022-09-16T17:14:43.000",
    "request_status": "Pending",
    "responsible_agency": "Department of Sanitation",
    "final_address": "20 Neron Pl",
    "address_councildis": "A",
    "status": "Assigned to Contractor",
    "contractor": "Richards Disposal",
    "rowid": "920655",
    "final_x": "3665002.91904",
    "final_y": "530773.532482",
    "longitude": "-90.12018733970334",
    "latitude": "29.95393372017727",
    "geocoded_column": {
      "latitude": "29.95393372017727",
      "longitude": "-90.12018733970334"
    }
  },
  {
    "service_request": "2022-920654",
    "request_type": "Trash/Recycling",
    "request_reason": "Missed Trash Pick-Up",
    "date_created": "2022-09-16T17:13:43.000",
    "date_modified": "2022-09-16T17:13:44.000",
    "request_status": "Pending",
    "responsible_agency": "Department of Sanitation",
    "final_address": "7909 Sycamore St",
    "address_councildis": "A",
    "status": "Assigned to Contractor",
    "contractor": "Richards Disposal",
    "rowid": "920654",
    "final_x": "3664860.09575",
    "final_y": "530539.122242",
    "longitude": "-90.12064615261875",
    "latitude": "29.953293325207124",
    "geocoded_column": {
      "latitude": "29.953293325207124",
      "longitude": "-90.12064615261875"
    }
  },
  {
    "service_request": "2022-920653",
    "request_type": "Trash/Recycling",
    "request_reason": "Missed Trash Pick-Up",
    "date_created": "2022-09-16T17:10:32.000",
    "date_modified": "2022-09-16T17:10:33.000",
    "request_status": "Pending",
    "responsible_agency": "Department of Sanitation",
    "final_address": "3225 Vincennes Pl",
    "address_councildis": "A",
    "status": "Assigned to Contractor",
    "contractor": "Richards Disposal",
    "rowid": "920653",
    "final_x": "3667828.38215",
    "final_y": "528020.964159",
    "longitude": "-90.11135834385944",
    "latitude": "29.94628249723488",
    "geocoded_column": {
      "latitude": "29.94628249723488",
      "longitude": "-90.11135834385944"
    }
  },
  {
    "service_request": "2022-920652",
    "request_type": "Property Maintenance",
    "request_reason": "Property Maintenance",
    "date_created": "2022-09-16T17:08:41.000",
    "date_modified": "2022-09-16T17:08:41.000",
    "request_status": "Pending",
    "responsible_agency": "Department of Code Enforcement",
    "final_address": "2100 Josephine St",
    "address_councildis": "B",
    "status": "Pending",
    "rowid": "920652",
    "final_x": "3676715.36289",
    "final_y": "525441.185981",
    "longitude": "-90.08338788068801",
    "latitude": "29.938925368101806",
    "geocoded_column": {
      "latitude": "29.938925368101806",
      "longitude": "-90.08338788068801"
    }
  },
  {
    "service_request": "2022-920651",
    "request_type": "Mayor's Request",
    "request_reason": "Requests to the Mayor",
    "date_created": "2022-09-16T17:07:18.000",
    "date_modified": "2022-09-16T17:07:18.000",
    "request_status": "Pending",
    "responsible_agency": "Executive Office of the Mayor",
    "final_address": "200 Carondelet St",
    "address_councildis": "B",
    "status": "Pending",
    "rowid": "920651",
    "final_x": "3680618.51733",
    "final_y": "530414.539586",
    "longitude": "-90.07089218374696",
    "latitude": "29.952482774541487",
    "geocoded_column": {
      "latitude": "29.952482774541487",
      "longitude": "-90.07089218374696"
    }
  },
  {
    "service_request": "2022-920650",
    "request_type": "Trash/Recycling",
    "request_reason": "Request a Large Item Pick Up",
    "date_created": "2022-09-16T17:05:37.000",
    "date_modified": "2022-09-16T17:05:39.000",
    "request_status": "Pending",
    "responsible_agency": "Department of Sanitation",
    "final_address": "1201 Kentucky St",
    "address_councildis": "D",
    "status": "Assigned to Contractor",
    "contractor": "Metro Disposal",
    "rowid": "920650",
    "final_x": "3693451.99561",
    "final_y": "535301.960518",
    "longitude": "-90.03019457441668",
    "latitude": "29.965526443296298",
    "geocoded_column": {
      "latitude": "29.965526443296298",
      "longitude": "-90.03019457441668"
    }
  },
  {
    "service_request": "2022-920649",
    "request_type": "Trash/Recycling",
    "request_reason": "Request a Large Item Pick Up",
    "date_created": "2022-09-16T17:02:32.000",
    "date_modified": "2022-09-16T17:02:33.000",
    "request_status": "Pending",
    "responsible_agency": "Department of Sanitation",
    "final_address": "1719 Toledano St",
    "address_councildis": "B",
    "status": "Assigned to Contractor",
    "contractor": "Richards Disposal",
    "rowid": "920649",
    "final_x": "3674403.64788",
    "final_y": "522246.697082",
    "longitude": "-90.09079560780958",
    "latitude": "29.930210700280217",
    "geocoded_column": {
      "latitude": "29.930210700280217",
      "longitude": "-90.09079560780958"
    }
  },
  {
    "service_request": "2022-920648",
    "request_type": "Trash/Recycling",
    "request_reason": "Missed Trash Pick-Up",
    "date_created": "2022-09-16T17:02:29.000",
    "date_modified": "2022-09-16T17:02:30.000",
    "request_status": "Pending",
    "responsible_agency": "Department of Sanitation",
    "final_address": "1807 Congress St",
    "address_councildis": "D",
    "status": "Assigned to Contractor",
    "contractor": "Metro Disposal",
    "rowid": "920648",
    "final_x": "3691423.37724",
    "final_y": "538274.209993",
    "longitude": "-90.03649460915622",
    "latitude": "29.973762361543912",
    "geocoded_column": {
      "latitude": "29.973762361543912",
      "longitude": "-90.03649460915622"
    }
  },
  {
    "service_request": "2022-920647",
    "request_type": "Abandoned Vehicles",
    "request_reason": "Abandoned/Junk Vehicles",
    "date_created": "2022-09-16T17:01:19.000",
    "date_modified": "2022-09-16T17:01:44.000",
    "request_status": "Pending",
    "responsible_agency": "Department of Public Works",
    "final_address": "310 Wallace Dr",
    "address_councildis": "D",
    "status": "Pending",
    "rowid": "920647",
    "final_x": "3682194.09244",
    "final_y": "547834.048338",
    "longitude": "-90.06530856019421",
    "latitude": "30.000332537195185",
    "geocoded_column": {
      "latitude": "30.000332537195185",
      "longitude": "-90.06530856019421"
    }
  },
  {
    "service_request": "2022-920646",
    "request_type": "Trash/Recycling",
    "request_reason": "Missed Trash Pick-Up",
    "date_created": "2022-09-16T17:00:44.000",
    "date_modified": "2022-09-16T17:00:44.000",
    "request_status": "Pending",
    "responsible_agency": "Department of Sanitation",
    "final_address": "5015 N Villere St",
    "address_councildis": "E",
    "status": "Assigned to Contractor",
    "contractor": "Metro Disposal",
    "rowid": "920646",
    "final_x": "3696423.88887",
    "final_y": "535421.211398",
    "longitude": "-90.02080519858774",
    "latitude": "29.965761071455816",
    "geocoded_column": {
      "latitude": "29.965761071455816",
      "longitude": "-90.02080519858774"
    }
  },
  {
    "service_request": "2022-920645",
    "request_type": "Abandoned Vehicles",
    "request_reason": "Abandoned/Junk Vehicles",
    "date_created": "2022-09-16T17:00:26.000",
    "date_modified": "2022-09-16T17:01:04.000",
    "request_status": "Pending",
    "responsible_agency": "Department of Public Works",
    "final_address": "312 Wallace Dr",
    "address_councildis": "D",
    "status": "Pending",
    "rowid": "920645",
    "final_x": "3682165.45487",
    "final_y": "547864.802002",
    "longitude": "-90.0653979528456",
    "latitude": "30.000417970137242",
    "geocoded_column": {
      "latitude": "30.000417970137242",
      "longitude": "-90.0653979528456"
    }
  },
  {
    "service_request": "2022-920644",
    "request_type": "Trash/Recycling",
    "request_reason": "Request a Large Item Pick Up",
    "date_created": "2022-09-16T16:56:45.000",
    "date_modified": "2022-09-16T16:56:46.000",
    "request_status": "Pending",
    "responsible_agency": "Department of Sanitation",
    "final_address": "5022 Annunciation St",
    "address_councildis": "B",
    "status": "Assigned to Contractor",
    "contractor": "Richards Disposal",
    "rowid": "920644",
    "final_x": "3668406.08116",
    "final_y": "517469.203766",
    "longitude": "-90.10989006029018",
    "latitude": "29.91725157430246",
    "geocoded_column": {
      "latitude": "29.91725157430246",
      "longitude": "-90.10989006029018"
    }
  },
  {
    "service_request": "2022-920643",
    "request_type": "Trash/Recycling",
    "request_reason": "Order Recycling Cart",
    "date_created": "2022-09-16T16:54:50.000",
    "date_modified": "2022-09-16T16:54:50.000",
    "request_status": "Pending",
    "responsible_agency": "Department of Sanitation",
    "final_address": "3600 River Oaks Dr",
    "address_councildis": "C",
    "status": "Pending",
    "rowid": "920643",
    "final_x": "3701432.75313",
    "final_y": "517739.736374",
    "longitude": "-90.00563448406645",
    "latitude": "29.916984507139396",
    "geocoded_column": {
      "latitude": "29.916984507139396",
      "longitude": "-90.00563448406645"
    }
  },
  {
    "service_request": "2022-920642",
    "request_type": "Trash/Recycling",
    "request_reason": "MIssed Recycling Pick-Up",
    "date_created": "2022-09-16T16:53:30.000",
    "date_modified": "2022-09-16T16:53:31.000",
    "request_status": "Pending",
    "responsible_agency": "Department of Sanitation",
    "final_address": "508 Millaudon St",
    "address_councildis": "A",
    "status": "Assigned to Contractor",
    "contractor": "Richards Disposal",
    "rowid": "920642",
    "final_x": "3662156.72192",
    "final_y": "525044.984253",
    "longitude": "-90.12936457079851",
    "latitude": "29.93826459526661",
    "geocoded_column": {
      "latitude": "29.93826459526661",
      "longitude": "-90.12936457079851"
    }
  },
  {
    "service_request": "2022-920641",
    "request_type": "Trash/Recycling",
    "request_reason": "Repair Trash Cart",
    "date_created": "2022-09-16T16:51:12.000",
    "date_modified": "2022-09-16T16:51:12.000",
    "request_status": "Pending",
    "responsible_agency": "Department of Sanitation",
    "final_address": "2916 Cadiz St",
    "address_councildis": "B",
    "status": "Assigned to Contractor",
    "contractor": "Richards Disposal",
    "rowid": "920641",
    "final_x": "3669530.39278",
    "final_y": "525504.420669",
    "longitude": "-90.10606958997944",
    "latitude": "29.93931280005938",
    "geocoded_column": {
      "latitude": "29.93931280005938",
      "longitude": "-90.10606958997944"
    }
  },
  {
    "service_request": "2022-920640",
    "request_type": "Trash/Recycling",
    "request_reason": "Missed Trash Pick-Up",
    "date_created": "2022-09-16T16:50:19.000",
    "date_modified": "2022-09-16T16:50:19.000",
    "request_status": "Pending",
    "responsible_agency": "Department of Sanitation",
    "final_address": "5846 Louis Xiv St",
    "address_councildis": "A",
    "status": "Assigned to Contractor",
    "contractor": "Metro Disposal",
    "rowid": "920640",
    "final_x": "3667933.95053",
    "final_y": "546449.833553",
    "longitude": "-90.11040401619863",
    "latitude": "29.996952631302385",
    "geocoded_column": {
      "latitude": "29.996952631302385",
      "longitude": "-90.11040401619863"
    }
  },
  {
    "service_request": "2022-920639",
    "request_type": "Parks & Parkways",
    "request_reason": "Request Grass Cutting Service (City Owned Property)",
    "date_created": "2022-09-16T16:48:53.000",
    "date_modified": "2022-09-16T16:48:53.000",
    "request_status": "Pending",
    "responsible_agency": "Department of Parks & Parkway",
    "final_address": "MOUND AVE & ROSEMARY PL",
    "address_councildis": "A",
    "status": "Pending",
    "rowid": "920639",
    "final_x": "3667066.9",
    "final_y": "543903.98",
    "longitude": "-90.11322863204387",
    "latitude": "29.989977821975543",
    "geocoded_column": {
      "latitude": "29.989977821975543",
      "longitude": "-90.11322863204387"
    }
  },
  {
    "service_request": "2022-920638",
    "request_type": "Trash/Recycling",
    "request_reason": "Missed Trash Pick-Up",
    "date_created": "2022-09-16T16:44:25.000",
    "date_modified": "2022-09-16T16:44:26.000",
    "request_status": "Pending",
    "responsible_agency": "Department of Sanitation",
    "final_address": "2729 Edna St",
    "address_councildis": "D",
    "status": "Assigned to Contractor",
    "contractor": "Metro Disposal",
    "rowid": "920638",
    "final_x": "3689619.9638",
    "final_y": "545327.968975",
    "longitude": "-90.04193909236174",
    "latitude": "29.993213679326495",
    "geocoded_column": {
      "latitude": "29.993213679326495",
      "longitude": "-90.04193909236174"
    }
  },
  {
    "service_request": "2022-920637",
    "request_type": "Roads/Drainage",
    "request_reason": "Leaking Hydrant",
    "date_created": "2022-09-16T16:43:43.000",
    "date_modified": "2022-09-16T16:43:44.000",
    "request_status": "Pending",
    "responsible_agency": "Department of Public Works",
    "final_address": "NAPOLEON AVE & S CLAIBORNE AVE",
    "address_councildis": "B",
    "status": "Pending",
    "rowid": "920637",
    "final_x": "3670320.5",
    "final_y": "525786.88",
    "longitude": "-90.10356554298984",
    "latitude": "29.940066178929065",
    "geocoded_column": {
      "latitude": "29.940066178929065",
      "longitude": "-90.10356554298984"
    }
  },
  {
    "service_request": "2022-920636",
    "request_type": "Abandoned Vehicles",
    "request_reason": "Abandoned/Junk Vehicles",
    "date_created": "2022-09-16T16:43:27.000",
    "date_modified": "2022-09-16T16:43:27.000",
    "request_status": "Pending",
    "responsible_agency": "Department of Public Works",
    "final_address": "ALLEN ST & N GALVEZ ST",
    "address_councildis": "D",
    "status": "Pending",
    "rowid": "920636",
    "final_x": "3682482.4",
    "final_y": "539808.38",
    "longitude": "-90.0646784906074",
    "latitude": "29.97825600925972",
    "geocoded_column": {
      "latitude": "29.97825600925972",
      "longitude": "-90.0646784906074"
    }
  },
  {
    "service_request": "2022-920635",
    "request_type": "Abandoned Vehicles",
    "request_reason": "Abandoned/Junk Vehicles",
    "date_created": "2022-09-16T16:38:56.000",
    "date_modified": "2022-09-16T16:38:56.000",
    "request_status": "Pending",
    "responsible_agency": "Department of Public Works",
    "final_address": "2400 BLK N Robertson St",
    "address_councildis": "C",
    "status": "Pending",
    "rowid": "920635",
    "final_x": "3686571.97164",
    "final_y": "537912.731705",
    "longitude": "-90.05182913907227",
    "latitude": "29.972918506811354",
    "geocoded_column": {
      "latitude": "29.972918506811354",
      "longitude": "-90.05182913907227"
    }
  },
  {
    "service_request": "2022-920634",
    "request_type": "Trash/Recycling",
    "request_reason": "Request a Large Item Pick Up",
    "date_created": "2022-09-16T16:38:40.000",
    "date_modified": "2022-09-16T16:38:41.000",
    "request_status": "Pending",
    "responsible_agency": "Department of Sanitation",
    "final_address": "715 Valence St",
    "address_councildis": "B",
    "status": "Assigned to Contractor",
    "contractor": "Richards Disposal",
    "rowid": "920634",
    "final_x": "3670052.72078",
    "final_y": "518081.46655",
    "longitude": "-90.10467182040249",
    "latitude": "29.918886657117476",
    "geocoded_column": {
      "latitude": "29.918886657117476",
      "longitude": "-90.10467182040249"
    }
  },
  {
    "service_request": "2022-920633",
    "request_type": "Trash/Recycling",
    "request_reason": "Order Trash Cart",
    "date_created": "2022-09-16T16:37:44.000",
    "date_modified": "2022-09-16T16:37:45.000",
    "request_status": "Pending",
    "responsible_agency": "Department of Sanitation",
    "final_address": "2834 Calhoun St",
    "address_councildis": "A",
    "status": "Assigned to Contractor",
    "contractor": "Richards Disposal",
    "rowid": "920633",
    "final_x": "3666661.96097",
    "final_y": "527229.210751",
    "longitude": "-90.11506773420625",
    "latitude": "29.944139583339734",
    "geocoded_column": {
      "latitude": "29.944139583339734",
      "longitude": "-90.11506773420625"
    }
  },
  {
    "service_request": "2022-920632",
    "request_type": "Abandoned Vehicles",
    "request_reason": "Abandoned/Junk Vehicles",
    "date_created": "2022-09-16T16:35:16.000",
    "date_modified": "2022-09-16T16:37:29.000",
    "request_status": "Pending",
    "responsible_agency": "Department of Public Works",
    "final_address": "1518 Arts St",
    "address_councildis": "C",
    "status": "Pending",
    "rowid": "920632",
    "final_x": "3687036.8863",
    "final_y": "538125.489545",
    "longitude": "-90.05035332967411",
    "latitude": "29.973489211000782",
    "geocoded_column": {
      "latitude": "29.973489211000782",
      "longitude": "-90.05035332967411"
    }
  },
  {
    "service_request": "2022-920631",
    "request_type": "Roads/Drainage",
    "request_reason": "Street Subsidence (Sinking)",
    "date_created": "2022-09-16T16:35:06.000",
    "date_modified": "2022-09-16T16:35:06.000",
    "request_status": "Pending",
    "responsible_agency": "Department of Public Works",
    "final_address": "MILAN ST & LOYOLA AVE",
    "address_councildis": "B",
    "status": "Pending",
    "rowid": "920631",
    "final_x": "3671385.2",
    "final_y": "523075.98",
    "longitude": "-90.1002962159479",
    "latitude": "29.932580617992837",
    "geocoded_column": {
      "latitude": "29.932580617992837",
      "longitude": "-90.1002962159479"
    }
  },
  {
    "service_request": "2022-920630",
    "request_type": "Trash/Recycling",
    "request_reason": "Request a Large Item Pick Up",
    "date_created": "2022-09-16T16:34:34.000",
    "date_modified": "2022-09-16T16:34:34.000",
    "request_status": "Pending",
    "responsible_agency": "Department of Sanitation",
    "final_address": "1715 Valence St",
    "address_councildis": "B",
    "status": "Assigned to Contractor",
    "contractor": "Richards Disposal",
    "rowid": "920630",
    "final_x": "3669786.44417",
    "final_y": "521256.902905",
    "longitude": "-90.10540490728553",
    "latitude": "29.92762594712507",
    "geocoded_column": {
      "latitude": "29.92762594712507",
      "longitude": "-90.10540490728553"
    }
  },
  {
    "service_request": "2022-920629",
    "request_type": "Abandoned Vehicles",
    "request_reason": "Abandoned/Junk Vehicles",
    "date_created": "2022-09-16T16:34:21.000",
    "date_modified": "2022-09-16T16:34:22.000",
    "request_status": "Pending",
    "responsible_agency": "Department of Public Works",
    "final_address": "MARENGO ST & CONSTANCE ST",
    "address_councildis": "B",
    "status": "Pending",
    "rowid": "920629",
    "final_x": "3672202.3",
    "final_y": "518527.58",
    "longitude": "-90.0978715152206",
    "latitude": "29.920049773465276",
    "geocoded_column": {
      "latitude": "29.920049773465276",
      "longitude": "-90.0978715152206"
    }
  },
  {
    "service_request": "2022-920628",
    "request_type": "Roads/Drainage",
    "request_reason": "Road Shoulder Repair",
    "date_created": "2022-09-16T16:31:19.000",
    "date_modified": "2022-09-16T16:31:19.000",
    "request_status": "Pending",
    "responsible_agency": "Department of Public Works",
    "final_address": "5620 New England Dr",
    "address_councildis": "E",
    "status": "Pending",
    "rowid": "920628",
    "final_x": "3723578.98175",
    "final_y": "564220.931169",
    "longitude": "-89.93394085926474",
    "latitude": "30.044065661332613",
    "geocoded_column": {
      "latitude": "30.044065661332613",
      "longitude": "-89.93394085926474"
    }
  },
  {
    "service_request": "2022-920627",
    "request_type": "Mosquito, Termite & Rodent Control",
    "request_reason": "Rodent Complaint (Rats)",
    "date_created": "2022-09-16T16:29:45.000",
    "date_modified": "2022-09-16T16:29:46.000",
    "request_status": "Pending",
    "responsible_agency": "Mosquito, Termite & Rodent Control Board",
    "final_address": "2409 Memorial Park Dr",
    "address_councildis": "C",
    "status": "Pending",
    "rowid": "920627",
    "final_x": "3692251.03139",
    "final_y": "521534.625849",
    "longitude": "-90.03447997675566",
    "latitude": "29.92770852205644",
    "geocoded_column": {
      "latitude": "29.92770852205644",
      "longitude": "-90.03447997675566"
    }
  },
  {
    "service_request": "2022-920626",
    "request_type": "Trash/Recycling",
    "request_reason": "Missed Trash Pick-Up",
    "date_created": "2022-09-16T16:22:12.000",
    "date_modified": "2022-09-16T16:22:13.000",
    "request_status": "Pending",
    "responsible_agency": "Department of Sanitation",
    "final_address": "5411 Mckenna St",
    "address_councildis": "A",
    "status": "Assigned to Contractor",
    "contractor": "Richards Disposal",
    "rowid": "920626",
    "final_x": "3668863.69914",
    "final_y": "529055.638528",
    "longitude": "-90.10805454419828",
    "latitude": "29.949097114830185",
    "geocoded_column": {
      "latitude": "29.949097114830185",
      "longitude": "-90.10805454419828"
    }
  },
  {
    "service_request": "2022-920625",
    "request_type": "Trash/Recycling",
    "request_reason": "Missed Trash Pick-Up",
    "date_created": "2022-09-16T16:16:19.000",
    "date_modified": "2022-09-16T16:16:21.000",
    "request_status": "Pending",
    "responsible_agency": "Department of Sanitation",
    "final_address": "100 BLK N dOrgenois St",
    "address_councildis": "B",
    "status": "Assigned to Contractor",
    "contractor": "Richards Disposal",
    "rowid": "920625",
    "final_x": "3675942.95877",
    "final_y": "534957.96268",
    "longitude": "-90.08549925224865",
    "latitude": "29.965116478946634",
    "geocoded_column": {
      "latitude": "29.965116478946634",
      "longitude": "-90.08549925224865"
    }
  },
  {
    "service_request": "2022-920624",
    "request_type": "Trash/Recycling",
    "request_reason": "Request a Large Item Pick Up",
    "date_created": "2022-09-16T16:14:49.000",
    "date_modified": "2022-09-16T16:14:50.000",
    "request_status": "Pending",
    "responsible_agency": "Department of Sanitation",
    "final_address": "1116 Crete St",
    "address_councildis": "A",
    "status": "Assigned to Contractor",
    "contractor": "Richards Disposal",
    "rowid": "920624",
    "final_x": "3677703.04008",
    "final_y": "538834.381705",
    "longitude": "-90.07980709125921",
    "latitude": "29.975722485118784",
    "geocoded_column": {
      "latitude": "29.975722485118784",
      "longitude": "-90.07980709125921"
    }
  },
  {
    "service_request": "2022-920623",
    "request_type": "Health Related Questions",
    "request_reason": "Request Health Records (Immunization, Lead and Health)",
    "date_created": "2022-09-16T16:12:58.000",
    "date_modified": "2022-09-16T16:12:58.000",
    "request_status": "Pending",
    "responsible_agency": "Health Department",
    "status": "Pending",
    "rowid": "920623",
    "longitude": "0.0",
    "latitude": "0.0",
    "geocoded_column": {
      "latitude": "0.0",
      "longitude": "0.0"
    }
  },
  {
    "service_request": "2022-920622",
    "request_type": "Trash/Recycling",
    "request_reason": "MIssed Recycling Pick-Up",
    "date_created": "2022-09-16T16:12:27.000",
    "date_modified": "2022-09-16T16:12:27.000",
    "request_status": "Pending",
    "responsible_agency": "Department of Sanitation",
    "final_address": "2308 Gravier St",
    "address_councildis": "B",
    "status": "Assigned to Contractor",
    "contractor": "Richards Disposal",
    "rowid": "920622",
    "final_x": "3675419.42465",
    "final_y": "532550.951812",
    "longitude": "-90.08723520868648",
    "latitude": "29.958513675345614",
    "geocoded_column": {
      "latitude": "29.958513675345614",
      "longitude": "-90.08723520868648"
    }
  },
  {
    "service_request": "2022-920621",
    "request_type": "Law Enforcement Services",
    "request_reason": "Off Duty Officer for Hire",
    "date_created": "2022-09-16T16:11:59.000",
    "date_modified": "2022-09-16T16:11:59.000",
    "request_status": "Pending",
    "responsible_agency": "Office of Police Secondary Employment",
    "status": "Pending",
    "rowid": "920621",
    "longitude": "0.0",
    "latitude": "0.0",
    "geocoded_column": {
      "latitude": "0.0",
      "longitude": "0.0"
    }
  },
  {
    "service_request": "2022-920620",
    "request_type": "Roads/Drainage",
    "request_reason": "Debris in Roadway",
    "date_created": "2022-09-16T16:11:48.000",
    "date_modified": "2022-09-16T16:11:49.000",
    "request_status": "Pending",
    "responsible_agency": "Department of Public Works",
    "final_address": "500 S Hennessey St",
    "address_councildis": "A",
    "status": "Pending",
    "rowid": "920620",
    "final_x": "3669328.40948",
    "final_y": "537625.285896",
    "longitude": "-90.10629749088581",
    "latitude": "29.972647135303404",
    "geocoded_column": {
      "latitude": "29.972647135303404",
      "longitude": "-90.10629749088581"
    }
  },
  {
    "service_request": "2022-920619",
    "request_type": "Abandoned Vehicles",
    "request_reason": "Abandoned/Junk Vehicles",
    "date_created": "2022-09-16T16:10:27.000",
    "date_modified": "2022-09-16T16:10:28.000",
    "request_status": "Pending",
    "responsible_agency": "Department of Public Works",
    "final_address": "BURGUNDY ST & ALABO ST",
    "address_councildis": "E",
    "status": "Pending",
    "rowid": "920619",
    "final_x": "3698689.0",
    "final_y": "532755.98",
    "longitude": "-90.01374902976457",
    "latitude": "29.9583610972212",
    "geocoded_column": {
      "latitude": "29.9583610972212",
      "longitude": "-90.01374902976457"
    }
  },
  {
    "service_request": "2022-920618",
    "request_type": "Trash/Recycling",
    "request_reason": "Missed Trash Pick-Up",
    "date_created": "2022-09-16T16:07:46.000",
    "date_modified": "2022-09-16T16:07:47.000",
    "request_status": "Pending",
    "responsible_agency": "Department of Sanitation",
    "final_address": "2160 Robin St",
    "address_councildis": "D",
    "status": "Assigned to Contractor",
    "contractor": "Metro Disposal",
    "rowid": "920618",
    "final_x": "3683529.855",
    "final_y": "551789.004245",
    "longitude": "-90.06095007552754",
    "latitude": "30.01116652495809",
    "geocoded_column": {
      "latitude": "30.01116652495809",
      "longitude": "-90.06095007552754"
    }
  },
  {
    "service_request": "2022-920617",
    "request_type": "Trash/Recycling",
    "request_reason": "Missed Trash Pick-Up",
    "date_created": "2022-09-16T16:06:29.000",
    "date_modified": "2022-09-16T16:06:29.000",
    "request_status": "Pending",
    "responsible_agency": "Department of Sanitation",
    "final_address": "5514 St Anthony Ave",
    "address_councildis": "D",
    "status": "Assigned to Contractor",
    "contractor": "Metro Disposal",
    "rowid": "920617",
    "final_x": "3682032.01192",
    "final_y": "553280.264855",
    "longitude": "-90.06563023474358",
    "latitude": "30.015312598802346",
    "geocoded_column": {
      "latitude": "30.015312598802346",
      "longitude": "-90.06563023474358"
    }
  },
  {
    "service_request": "2022-920616",
    "request_type": "Trash/Recycling",
    "request_reason": "Missed Trash Pick-Up",
    "date_created": "2022-09-16T16:04:46.000",
    "date_modified": "2022-09-16T16:04:47.000",
    "request_status": "Pending",
    "responsible_agency": "Department of Sanitation",
    "final_address": "5319 Pasteur Blvd, New Orleans, Louisiana, 70122",
    "address_councildis": "D",
    "status": "Assigned to Contractor",
    "contractor": "Metro Disposal",
    "rowid": "920616",
    "final_x": "3683016.51663",
    "final_y": "552383.24527",
    "longitude": "-90.06255109449584",
    "latitude": "30.012816135629862",
    "geocoded_column": {
      "latitude": "30.012816135629862",
      "longitude": "-90.06255109449584"
    }
  },
  {
    "service_request": "2022-920615",
    "request_type": "Trash/Recycling",
    "request_reason": "Missed Trash Pick-Up",
    "date_created": "2022-09-16T16:04:03.000",
    "date_modified": "2022-09-16T16:04:04.000",
    "request_status": "Pending",
    "responsible_agency": "Department of Sanitation",
    "final_address": "7300 BLK Edward St",
    "address_councildis": "E",
    "status": "Assigned to Contractor",
    "contractor": "Metro Disposal",
    "rowid": "920615",
    "final_x": "3701224.05224",
    "final_y": "560484.746928",
    "longitude": "-90.00472881597022",
    "latitude": "30.034524356676016",
    "geocoded_column": {
      "latitude": "30.034524356676016",
      "longitude": "-90.00472881597022"
    }
  },
  {
    "service_request": "2022-920614",
    "request_type": "Traffic Signals/Signs/Striping/Streetlights",
    "request_reason": "Street Light Outage/Malfunction",
    "date_created": "2022-09-16T16:03:24.000",
    "date_modified": "2022-09-16T16:04:52.000",
    "request_status": "Pending",
    "responsible_agency": "Department of Public Works",
    "final_address": "7557 Forest Glen Rd",
    "address_councildis": "E",
    "status": "Pending",
    "contractor": "Legacy Professional Services",
    "rowid": "920614",
    "final_x": "3709883.88331",
    "final_y": "564738.65789",
    "longitude": "-89.97720368037342",
    "latitude": "30.045941978280243",
    "geocoded_column": {
      "latitude": "30.045941978280243",
      "longitude": "-89.97720368037342"
    }
  },
  {
    "service_request": "2022-920613",
    "request_type": "Trash/Recycling",
    "request_reason": "Illegal Dumping",
    "date_created": "2022-09-16T15:59:10.000",
    "date_modified": "2022-09-16T15:59:11.000",
    "request_status": "Pending",
    "responsible_agency": "Department of Sanitation",
    "final_address": "SISTER ST & ST CLAUDE AVE",
    "address_councildis": "E",
    "status": "Pending",
    "rowid": "920613",
    "final_x": "3694658.9",
    "final_y": "534585.98",
    "longitude": "-90.02640902894048",
    "latitude": "29.96351995360696",
    "geocoded_column": {
      "latitude": "29.96351995360696",
      "longitude": "-90.02640902894048"
    }
  },
  {
    "service_request": "2022-920612",
    "request_type": "Abandoned Vehicles",
    "request_reason": "Abandoned/Junk Vehicles",
    "date_created": "2022-09-16T15:57:11.000",
    "date_modified": "2022-09-16T15:57:11.000",
    "request_status": "Pending",
    "responsible_agency": "Department of Public Works",
    "final_address": "939 Jourdan Ave",
    "address_councildis": "E",
    "status": "Pending",
    "rowid": "920612",
    "final_x": "3694946.17322",
    "final_y": "534011.921285",
    "longitude": "-90.02552254565832",
    "latitude": "29.961932482358126",
    "geocoded_column": {
      "latitude": "29.961932482358126",
      "longitude": "-90.02552254565832"
    }
  },
  {
    "service_request": "2022-920611",
    "request_type": "Trash/Recycling",
    "request_reason": "Missed Trash Pick-Up",
    "date_created": "2022-09-16T15:47:53.000",
    "date_modified": "2022-09-16T15:47:54.000",
    "request_status": "Pending",
    "responsible_agency": "Department of Sanitation",
    "final_address": "1461 Granada Dr",
    "address_councildis": "D",
    "status": "Assigned to Contractor",
    "contractor": "Metro Disposal",
    "rowid": "920611",
    "final_x": "3678091.95867",
    "final_y": "550677.962004",
    "longitude": "-90.0781690354261",
    "latitude": "30.008276471254078",
    "geocoded_column": {
      "latitude": "30.008276471254078",
      "longitude": "-90.0781690354261"
    }
  },
  {
    "service_request": "2022-920610",
    "request_type": "Traffic Signals/Signs/Striping/Streetlights",
    "request_reason": "Street Light Outage/Malfunction",
    "date_created": "2022-09-16T15:44:43.000",
    "date_modified": "2022-09-16T15:44:45.000",
    "request_status": "Pending",
    "responsible_agency": "Department of Public Works",
    "final_address": "1813 General Ogden St",
    "address_councildis": "A",
    "status": "Pending",
    "contractor": "Legacy Professional Services",
    "rowid": "920610",
    "final_x": "3661402.82086",
    "final_y": "531908.140995",
    "longitude": "-90.13151745877876",
    "latitude": "29.957157841741097",
    "geocoded_column": {
      "latitude": "29.957157841741097",
      "longitude": "-90.13151745877876"
    }
  },
  {
    "service_request": "2022-920609",
    "request_type": "Abandoned Vehicles",
    "request_reason": "Abandoned/Junk Vehicles",
    "date_created": "2022-09-16T15:41:14.000",
    "date_modified": "2022-09-16T15:42:41.000",
    "request_status": "Pending",
    "responsible_agency": "Department of Public Works",
    "final_address": "4222 Mithra St",
    "address_councildis": "D",
    "status": "Pending",
    "rowid": "920609",
    "final_x": "3689546.55516",
    "final_y": "553013.230487",
    "longitude": "-90.0418973662229",
    "latitude": "30.014347615037057",
    "geocoded_column": {
      "latitude": "30.014347615037057",
      "longitude": "-90.0418973662229"
    }
  },
  {
    "service_request": "2022-920608",
    "request_type": "Roads/Drainage",
    "request_reason": "Accessibility Ramps, Curbs and Sidewalk Repair",
    "date_created": "2022-09-16T15:40:13.000",
    "date_modified": "2022-09-16T15:40:13.000",
    "request_status": "Pending",
    "responsible_agency": "Department of Public Works",
    "final_address": "8416 Freret St",
    "address_councildis": "A",
    "status": "Pending",
    "rowid": "920608",
    "final_x": "3660549.17958",
    "final_y": "528652.26912",
    "longitude": "-90.13432059182536",
    "latitude": "29.948229830374423",
    "geocoded_column": {
      "latitude": "29.948229830374423",
      "longitude": "-90.13432059182536"
    }
  },
  {
    "service_request": "2022-920607",
    "request_type": "Traffic Signals/Signs/Striping/Streetlights",
    "request_reason": "Street Light Outage/Malfunction",
    "date_created": "2022-09-16T15:38:21.000",
    "date_modified": "2022-09-16T15:38:22.000",
    "request_status": "Pending",
    "responsible_agency": "Department of Public Works",
    "final_address": "2200 BLK Baronne St",
    "address_councildis": "B",
    "status": "Pending",
    "contractor": "Legacy Professional Services",
    "rowid": "920607",
    "final_x": "3676800.80483",
    "final_y": "524330.969827",
    "longitude": "-90.08315637283167",
    "latitude": "29.9358700751469",
    "geocoded_column": {
      "latitude": "29.9358700751469",
      "longitude": "-90.08315637283167"
    }
  },
  {
    "service_request": "2022-920606",
    "request_type": "Traffic Signals/Signs/Striping/Streetlights",
    "request_reason": "Street Light Outage/Malfunction",
    "date_created": "2022-09-16T15:37:39.000",
    "date_modified": "2022-09-16T15:37:40.000",
    "request_status": "Pending",
    "responsible_agency": "Department of Public Works",
    "final_address": "1815 Philip St",
    "address_councildis": "B",
    "status": "Pending",
    "contractor": "Legacy Professional Services",
    "rowid": "920606",
    "final_x": "3676541.03899",
    "final_y": "524309.418108",
    "longitude": "-90.08397720105418",
    "latitude": "29.93581860552078",
    "geocoded_column": {
      "latitude": "29.93581860552078",
      "longitude": "-90.08397720105418"
    }
  },
  {
    "service_request": "2022-920605",
    "request_type": "Abandoned Vehicles",
    "request_reason": "Abandoned/Junk Vehicles",
    "date_created": "2022-09-16T15:35:26.000",
    "date_modified": "2022-09-16T15:35:26.000",
    "request_status": "Pending",
    "responsible_agency": "Department of Public Works",
    "final_address": "7150 Pinebrook Dr",
    "address_councildis": "E",
    "status": "Pending",
    "rowid": "920605",
    "final_x": "3719163.07525",
    "final_y": "570188.807143",
    "longitude": "-89.94766882366548",
    "latitude": "30.060622402902112",
    "geocoded_column": {
      "latitude": "30.060622402902112",
      "longitude": "-89.94766882366548"
    }
  },
  {
    "service_request": "2022-920604",
    "request_type": "Trash/Recycling",
    "request_reason": "Repair Trash Cart",
    "date_created": "2022-09-16T15:30:23.000",
    "date_modified": "2022-09-16T15:30:24.000",
    "request_status": "Pending",
    "responsible_agency": "Department of Sanitation",
    "final_address": "214 N Alexander St",
    "address_councildis": "A",
    "status": "Assigned to Contractor",
    "contractor": "Richards Disposal",
    "rowid": "920604",
    "final_x": "3670354.9954",
    "final_y": "539588.490634",
    "longitude": "-90.10298876225767",
    "latitude": "29.97801501768856",
    "geocoded_column": {
      "latitude": "29.97801501768856",
      "longitude": "-90.10298876225767"
    }
  },
  {
    "service_request": "2022-920603",
    "request_type": "Trash/Recycling",
    "request_reason": "Request a Large Item Pick Up",
    "date_created": "2022-09-16T15:28:43.000",
    "date_modified": "2022-09-16T15:28:44.000",
    "request_status": "Pending",
    "responsible_agency": "Department of Sanitation",
    "final_address": "6019 Bellaire Dr",
    "address_councildis": "A",
    "status": "Assigned to Contractor",
    "contractor": "Metro Disposal",
    "rowid": "920603",
    "final_x": "3664339.07309",
    "final_y": "547764.40565",
    "longitude": "-90.12171620171776",
    "latitude": "30.000672261254035",
    "geocoded_column": {
      "latitude": "30.000672261254035",
      "longitude": "-90.12171620171776"
    }
  },
  {
    "service_request": "2022-920602",
    "request_type": "Trash/Recycling",
    "request_reason": "Missed Trash Pick-Up",
    "date_created": "2022-09-16T15:27:01.000",
    "date_modified": "2022-09-16T15:27:01.000",
    "request_status": "Pending",
    "responsible_agency": "Department of Sanitation",
    "final_address": "1827 Pauline St",
    "address_councildis": "D",
    "status": "Assigned to Contractor",
    "contractor": "Metro Disposal",
    "rowid": "920602",
    "final_x": "3691964.64317",
    "final_y": "538287.090313",
    "longitude": "-90.03478471906726",
    "latitude": "29.973780922553146",
    "geocoded_column": {
      "latitude": "29.973780922553146",
      "longitude": "-90.03478471906726"
    }
  },
  {
    "service_request": "2022-920601",
    "request_type": "Parks & Parkways",
    "request_reason": "Request Tree Service (Right of Way/Public Property)",
    "date_created": "2022-09-16T15:24:07.000",
    "date_modified": "2022-09-16T15:46:04.000",
    "request_status": "Pending",
    "responsible_agency": "Department of Parks & Parkway",
    "final_address": "2600 BLK Eads St",
    "address_councildis": "D",
    "status": "Pending",
    "rowid": "920601",
    "final_x": "3687819.43338",
    "final_y": "542274.352903",
    "longitude": "-90.04773487738048",
    "latitude": "29.98487300183892",
    "geocoded_column": {
      "latitude": "29.98487300183892",
      "longitude": "-90.04773487738048"
    }
  },
  {
    "service_request": "2022-920600",
    "request_type": "Traffic Signals/Signs/Striping/Streetlights",
    "request_reason": "Street Light Outage/Malfunction",
    "date_created": "2022-09-16T15:22:59.000",
    "date_modified": "2022-09-16T15:23:00.000",
    "request_status": "Pending",
    "responsible_agency": "Department of Public Works",
    "final_address": "11 New Basin Way",
    "address_councildis": "A",
    "status": "Pending",
    "contractor": "Legacy Professional Services",
    "rowid": "920600",
    "final_x": "3666688.3746",
    "final_y": "554712.42652",
    "longitude": "-90.11406100681539",
    "latitude": "30.019708378005763",
    "geocoded_column": {
      "latitude": "30.019708378005763",
      "longitude": "-90.11406100681539"
    }
  },
  {
    "service_request": "2022-920599",
    "request_type": "Trash/Recycling",
    "request_reason": "Missed Trash Pick-Up",
    "date_created": "2022-09-16T15:22:22.000",
    "date_modified": "2022-09-16T15:22:23.000",
    "request_status": "Pending",
    "responsible_agency": "Department of Sanitation",
    "final_address": "3928 Second St",
    "address_councildis": "B",
    "status": "Assigned to Contractor",
    "contractor": "Richards Disposal",
    "rowid": "920599",
    "final_x": "3672104.19342",
    "final_y": "529907.152193",
    "longitude": "-90.09779387367925",
    "latitude": "29.951342819096894",
    "geocoded_column": {
      "latitude": "29.951342819096894",
      "longitude": "-90.09779387367925"
    }
  },
  {
    "service_request": "2022-920598",
    "request_type": "Trash/Recycling",
    "request_reason": "Missed Trash Pick-Up",
    "date_created": "2022-09-16T15:21:01.000",
    "date_modified": "2022-09-16T15:21:02.000",
    "request_status": "Pending",
    "responsible_agency": "Department of Sanitation",
    "final_address": "438 Audubon Blvd",
    "address_councildis": "B",
    "status": "Assigned to Contractor",
    "contractor": "Richards Disposal",
    "rowid": "920598",
    "final_x": "3667448.83239",
    "final_y": "530593.17485",
    "longitude": "-90.11247018775092",
    "latitude": "29.953366364044836",
    "geocoded_column": {
      "latitude": "29.953366364044836",
      "longitude": "-90.11247018775092"
    }
  },
  {
    "service_request": "2022-920597",
    "request_type": "Trash/Recycling",
    "request_reason": "MIssed Recycling Pick-Up",
    "date_created": "2022-09-16T15:18:26.000",
    "date_modified": "2022-09-16T15:18:27.000",
    "request_status": "Pending",
    "responsible_agency": "Department of Sanitation",
    "final_address": "11247 Willow Dr",
    "address_councildis": "C",
    "status": "Assigned to Contractor",
    "contractor": "Richards Disposal",
    "rowid": "920597",
    "final_x": "3725921.12032",
    "final_y": "514781.819251",
    "longitude": "-89.92845448648133",
    "latitude": "29.90804837929013",
    "geocoded_column": {
      "latitude": "29.90804837929013",
      "longitude": "-89.92845448648133"
    }
  },
  {
    "service_request": "2022-920596",
    "request_type": "Property Maintenance",
    "request_reason": "Property Maintenance",
    "date_created": "2022-09-16T15:15:16.000",
    "date_modified": "2022-09-16T15:15:16.000",
    "request_status": "Pending",
    "responsible_agency": "Department of Code Enforcement",
    "final_address": "2943 S Saratoga St",
    "address_councildis": "B",
    "status": "Pending",
    "rowid": "920596",
    "final_x": "3674431.88891",
    "final_y": "523743.620347",
    "longitude": "-90.09065520610005",
    "latitude": "29.93432591133816",
    "geocoded_column": {
      "latitude": "29.93432591133816",
      "longitude": "-90.09065520610005"
    }
  },
  {
    "service_request": "2022-920595",
    "request_type": "Abandoned Vehicles",
    "request_reason": "Vehicle Blocking Your Driveway",
    "date_created": "2022-09-16T15:12:23.000",
    "date_modified": "2022-09-16T15:12:23.000",
    "request_status": "Pending",
    "responsible_agency": "Department of Public Works",
    "final_address": "5919 West End Blvd",
    "address_councildis": "A",
    "status": "Pending",
    "rowid": "920595",
    "final_x": "3666518.69415",
    "final_y": "547315.600017",
    "longitude": "-90.11484567719323",
    "latitude": "29.99937464808035",
    "geocoded_column": {
      "latitude": "29.99937464808035",
      "longitude": "-90.11484567719323"
    }
  },
  {
    "service_request": "2022-920594",
    "request_type": "Trash/Recycling",
    "request_reason": "Illegal Dumping",
    "date_created": "2022-09-16T15:10:06.000",
    "date_modified": "2022-09-16T15:10:06.000",
    "request_status": "Pending",
    "responsible_agency": "Department of Code Enforcement",
    "final_address": "2147 S Claiborne Ave",
    "address_councildis": "B",
    "status": "Pending",
    "rowid": "920594",
    "final_x": "3674544.12417",
    "final_y": "527835.538047",
    "longitude": "-90.09016072844754",
    "latitude": "29.945573997677965",
    "geocoded_column": {
      "latitude": "29.945573997677965",
      "longitude": "-90.09016072844754"
    }
  },
  {
    "service_request": "2022-920593",
    "request_type": "Trash/Recycling",
    "request_reason": "Repair Recycling Cart",
    "date_created": "2022-09-16T15:06:55.000",
    "date_modified": "2022-09-16T15:06:55.000",
    "request_status": "Pending",
    "responsible_agency": "Department of Sanitation",
    "final_address": "5620 New England Dr",
    "address_councildis": "E",
    "status": "Pending",
    "rowid": "920593",
    "final_x": "3723578.98175",
    "final_y": "564220.931169",
    "longitude": "-89.93394085926474",
    "latitude": "30.044065661332613",
    "geocoded_column": {
      "latitude": "30.044065661332613",
      "longitude": "-89.93394085926474"
    }
  },
  {
    "service_request": "2022-920591",
    "request_type": "Trash/Recycling",
    "request_reason": "Illegal Dumping",
    "date_created": "2022-09-16T15:05:19.000",
    "date_modified": "2022-09-16T15:05:19.000",
    "request_status": "Pending",
    "responsible_agency": "Department of Sanitation",
    "final_address": "214 N Carrollton Ave",
    "address_councildis": "A",
    "status": "Pending",
    "rowid": "920591",
    "final_x": "3671573.28558",
    "final_y": "538698.689737",
    "longitude": "-90.09917123274633",
    "latitude": "29.97553234152688",
    "geocoded_column": {
      "latitude": "29.97553234152688",
      "longitude": "-90.09917123274633"
    }
  },
  {
    "service_request": "2022-920592",
    "request_type": "Abandoned Vehicles",
    "request_reason": "Abandoned/Junk Vehicles",
    "date_created": "2022-09-16T15:05:19.000",
    "date_modified": "2022-09-16T15:06:15.000",
    "request_status": "Pending",
    "responsible_agency": "Department of Public Works",
    "final_address": "2502 Audubon St",
    "address_councildis": "A",
    "status": "Pending",
    "rowid": "920592",
    "final_x": "3667040.94567",
    "final_y": "530290.291585",
    "longitude": "-90.11376830343504",
    "latitude": "29.952545477424074",
    "geocoded_column": {
      "latitude": "29.952545477424074",
      "longitude": "-90.11376830343504"
    }
  },
  {
    "service_request": "2022-920588",
    "request_type": "Trash/Recycling",
    "request_reason": "Missed Trash Pick-Up",
    "date_created": "2022-09-16T14:58:40.000",
    "date_modified": "2022-09-16T14:58:41.000",
    "request_status": "Pending",
    "responsible_agency": "Department of Sanitation",
    "final_address": "1836 Pauline St",
    "address_councildis": "D",
    "status": "Assigned to Contractor",
    "contractor": "Metro Disposal",
    "rowid": "920588",
    "final_x": "3691892.73315",
    "final_y": "538346.275529",
    "longitude": "-90.03500970780188",
    "latitude": "29.973945901476313",
    "geocoded_column": {
      "latitude": "29.973945901476313",
      "longitude": "-90.03500970780188"
    }
  },
  {
    "service_request": "2022-920587",
    "request_type": "Traffic Signals/Signs/Striping/Streetlights",
    "request_reason": "Additional signage",
    "date_created": "2022-09-16T14:57:30.000",
    "date_modified": "2022-09-16T14:57:30.000",
    "request_status": "Pending",
    "responsible_agency": "Department of Public Works",
    "final_address": "ST PHILIP ST & N RENDON ST",
    "address_councildis": "A",
    "status": "Pending",
    "rowid": "920587",
    "final_x": "3675670.1",
    "final_y": "539191.18",
    "longitude": "-90.08621542745283",
    "latitude": "29.976764553867437",
    "geocoded_column": {
      "latitude": "29.976764553867437",
      "longitude": "-90.08621542745283"
    }
  },
  {
    "service_request": "2022-920586",
    "request_type": "Trash/Recycling",
    "request_reason": "Missed Trash Pick-Up",
    "date_created": "2022-09-16T14:57:23.000",
    "date_modified": "2022-09-16T14:57:23.000",
    "request_status": "Pending",
    "responsible_agency": "Department of Sanitation",
    "final_address": "1618 Gallier St",
    "address_councildis": "D",
    "status": "Assigned to Contractor",
    "contractor": "Metro Disposal",
    "rowid": "920586",
    "final_x": "3690922.97705",
    "final_y": "537677.080264",
    "longitude": "-90.03809629380828",
    "latitude": "29.97213602906852",
    "geocoded_column": {
      "latitude": "29.97213602906852",
      "longitude": "-90.03809629380828"
    }
  },
  {
    "service_request": "2022-920585",
    "request_type": "Traffic Signals/Signs/Striping/Streetlights",
    "request_reason": "Request for Stop Sign",
    "date_created": "2022-09-16T14:56:07.000",
    "date_modified": "2022-09-16T14:56:07.000",
    "request_status": "Pending",
    "responsible_agency": "Department of Public Works",
    "final_address": "ST PHILIP ST & N RENDON ST",
    "address_councildis": "A",
    "status": "Pending",
    "rowid": "920585",
    "final_x": "3675670.1",
    "final_y": "539191.18",
    "longitude": "-90.08621542745283",
    "latitude": "29.976764553867437",
    "geocoded_column": {
      "latitude": "29.976764553867437",
      "longitude": "-90.08621542745283"
    }
  },
  {
    "service_request": "2022-920584",
    "request_type": "Traffic Signals/Signs/Striping/Streetlights",
    "request_reason": "Request for Stop Sign",
    "date_created": "2022-09-16T14:55:03.000",
    "date_modified": "2022-09-16T14:55:03.000",
    "request_status": "Pending",
    "responsible_agency": "Department of Public Works",
    "final_address": "ST PHILIP ST & N RENDON ST",
    "address_councildis": "A",
    "status": "Pending",
    "rowid": "920584",
    "final_x": "3675670.1",
    "final_y": "539191.18",
    "longitude": "-90.08621542745283",
    "latitude": "29.976764553867437",
    "geocoded_column": {
      "latitude": "29.976764553867437",
      "longitude": "-90.08621542745283"
    }
  },
  {
    "service_request": "2022-920583",
    "request_type": "Traffic Signals/Signs/Striping/Streetlights",
    "request_reason": "Street Name Sign Damaged or Missing",
    "date_created": "2022-09-16T14:54:01.000",
    "date_modified": "2022-09-16T14:56:24.000",
    "request_status": "Pending",
    "responsible_agency": "Department of Public Works",
    "final_address": "N RENDON ST & ORLEANS AVE",
    "address_councildis": "A",
    "status": "Pending",
    "rowid": "920583",
    "final_x": "3675039.4",
    "final_y": "538359.38",
    "longitude": "-90.08823592451465",
    "latitude": "29.97449624783542",
    "geocoded_column": {
      "latitude": "29.97449624783542",
      "longitude": "-90.08823592451465"
    }
  },
  {
    "service_request": "2022-920582",
    "request_type": "Trash/Recycling",
    "request_reason": "MIssed Recycling Pick-Up",
    "date_created": "2022-09-16T14:53:52.000",
    "date_modified": "2022-09-16T14:53:53.000",
    "request_status": "Pending",
    "responsible_agency": "Department of Sanitation",
    "final_address": "954 Felicity St",
    "address_councildis": "B",
    "status": "Assigned to Contractor",
    "contractor": "Richards Disposal",
    "rowid": "920582",
    "final_x": "3680186.53947",
    "final_y": "522794.030715",
    "longitude": "-90.07252093721202",
    "latitude": "29.931541991666755",
    "geocoded_column": {
      "latitude": "29.931541991666755",
      "longitude": "-90.07252093721202"
    }
  },
  {
    "service_request": "2022-920580",
    "request_type": "Property Maintenance",
    "request_reason": "Property Maintenance",
    "date_created": "2022-09-16T14:48:47.000",
    "date_modified": "2022-09-16T14:48:47.000",
    "request_status": "Pending",
    "responsible_agency": "Department of Code Enforcement",
    "final_address": "4140 Paris Ave",
    "address_councildis": "D",
    "status": "Pending",
    "rowid": "920580",
    "final_x": "3679416.98517",
    "final_y": "547672.646098",
    "longitude": "-90.07408720943036",
    "latitude": "29.999972949184837",
    "geocoded_column": {
      "latitude": "29.999972949184837",
      "longitude": "-90.07408720943036"
    }
  },
  {
    "service_request": "2022-920579",
    "request_type": "Trash/Recycling",
    "request_reason": "Missed Trash Pick-Up",
    "date_created": "2022-09-16T14:47:38.000",
    "date_modified": "2022-09-16T14:47:38.000",
    "request_status": "Pending",
    "responsible_agency": "Department of Sanitation",
    "final_address": "1832 France St",
    "address_councildis": "D",
    "status": "Assigned to Contractor",
    "contractor": "Metro Disposal",
    "rowid": "920579",
    "final_x": "3693036.40752",
    "final_y": "538023.034441",
    "longitude": "-90.03140934283263",
    "latitude": "29.973021422067077",
    "geocoded_column": {
      "latitude": "29.973021422067077",
      "longitude": "-90.03140934283263"
    }
  },
  {
    "service_request": "2022-920578",
    "request_type": "Roads/Drainage",
    "request_reason": "Street Subsidence (Sinking)",
    "date_created": "2022-09-16T14:47:30.000",
    "date_modified": "2022-09-16T14:47:31.000",
    "request_status": "Pending",
    "responsible_agency": "Department of Public Works",
    "final_address": "READ BLVD & PLAINFIELD DR",
    "address_councildis": "E",
    "status": "Pending",
    "rowid": "920578",
    "final_x": "3709686.8",
    "final_y": "562464.08",
    "longitude": "-89.97791159370864",
    "latitude": "30.039694211492243",
    "geocoded_column": {
      "latitude": "30.039694211492243",
      "longitude": "-89.97791159370864"
    }
  },
  {
    "service_request": "2022-920577",
    "request_type": "Traffic Signals/Signs/Striping/Streetlights",
    "request_reason": "Street Light Outage/Malfunction",
    "date_created": "2022-09-16T14:43:56.000",
    "date_modified": "2022-09-16T14:43:57.000",
    "request_status": "Pending",
    "responsible_agency": "Department of Public Works",
    "final_address": "4016 N Rampart St",
    "address_councildis": "C",
    "status": "Pending",
    "contractor": "Legacy Professional Services",
    "rowid": "920577",
    "final_x": "3691822.12355",
    "final_y": "534798.95847",
    "longitude": "-90.0353596144258",
    "latitude": "29.964194231875553",
    "geocoded_column": {
      "latitude": "29.964194231875553",
      "longitude": "-90.0353596144258"
    }
  },
  {
    "service_request": "2022-920576",
    "request_type": "Trash/Recycling",
    "request_reason": "Missed Trash Pick-Up",
    "date_created": "2022-09-16T14:43:46.000",
    "date_modified": "2022-09-16T14:43:47.000",
    "request_status": "Pending",
    "responsible_agency": "Department of Sanitation",
    "final_address": "7831 Pebble Dr",
    "address_councildis": "E",
    "status": "Assigned to Contractor",
    "contractor": "Metro Disposal",
    "rowid": "920576",
    "final_x": "3714674.48312",
    "final_y": "569725.33079",
    "longitude": "-89.96187450330059",
    "latitude": "30.05949652026476",
    "geocoded_column": {
      "latitude": "30.05949652026476",
      "longitude": "-89.96187450330059"
    }
  },