[
  {
    "service_request": "2023-1019222",
    "request_type": "Trash/Recycling",
    "request_reason": "Request a Large Item Pick Up",
    "date_created": "2023-07-21T01:42:23.000",
    "date_modified": "2023-07-21T01:42:23.000",
    "request_status": "Pending",
    "responsible_agency": "Department of Sanitation",
    "final_address": "510 Passera Ct",
    "address_councildis": "A",
    "status": "Assigned to Contractor",
    "contractor": "Richards Disposal",
    "rowid": "1019222",
    "final_x": "3670569.72615",
    "final_y": "540746.442379",
    "longitude": "-90.10227127280247",
    "latitude": "29.981192650275013",
    "geocoded_column": {
      "latitude": "29.981192650275013",
      "longitude": "-90.10227127280247"
    }
  },
  {
    "service_request": "2023-1019221",
    "request_type": "Trash/Recycling",
    "request_reason": "Dead Animal Pick Up",
    "date_created": "2023-07-21T00:52:23.000",
    "date_modified": "2023-07-21T00:52:24.000",
    "request_status": "Pending",
    "responsible_agency": "Department of Sanitation",
    "final_address": "2323 S Derbigny St",
    "address_councildis": "B",
    "status": "Assigned to Contractor",
    "contractor": "Richards Disposal",
    "rowid": "1019221",
    "final_x": "3674137.70356",
    "final_y": "527898.158079",
    "longitude": "-90.09144178990732",
    "latitude": "29.945758300373992",
    "geocoded_column": {
      "latitude": "29.945758300373992",
      "longitude": "-90.09144178990732"
    }
  },
  {
    "service_request": "2023-1019220",
    "request_type": "Trash/Recycling",
    "request_reason": "Dead Animal Pick Up",
    "date_created": "2023-07-21T00:51:22.000",
    "date_modified": "2023-07-21T00:51:22.000",
    "request_status": "Pending",
    "responsible_agency": "Department of Sanitation",
    "final_address": "2323 S Derbigny St",
    "address_councildis": "B",
    "status": "Assigned to Contractor",
    "contractor": "Richards Disposal",
    "rowid": "1019220",
    "final_x": "3674137.70356",
    "final_y": "527898.158079",
    "longitude": "-90.09144178990732",
    "latitude": "29.945758300373992",
    "geocoded_column": {
      "latitude": "29.945758300373992",
      "longitude": "-90.09144178990732"
    }
  },
  {
    "service_request": "2023-1019219",
    "request_type": "Roads/Drainage",
    "request_reason": "Pothole",
    "date_created": "2023-07-21T00:48:50.000",
    "date_modified": "2023-07-21T00:48:50.000",
    "request_status": "Pending",
    "responsible_agency": "Department of Public Works",
    "final_address": "1400 BLK Antonine St",
    "address_councildis": "B",
    "status": "Pending",
    "rowid": "1019219",
    "final_x": "3673453.99918",
    "final_y": "520417.05541",
    "longitude": "-90.09385598095305",
    "latitude": "29.925208056701",
    "geocoded_column": {
      "latitude": "29.925208056701",
      "longitude": "-90.09385598095305"
    }
  },
  {
    "service_request": "2023-1019218",
    "request_type": "Roads/Drainage",
    "request_reason": "Pothole",
    "date_created": "2023-07-20T23:48:26.000",
    "date_modified": "2023-07-20T23:48:26.000",
    "request_status": "Pending",
    "responsible_agency": "Department of Public Works",
    "final_address": "1422 General Pershing St",
    "address_councildis": "B",
    "status": "Pending",
    "rowid": "1019218",
    "final_x": "3671239.44116",
    "final_y": "520532.324984",
    "longitude": "-90.10084273889387",
    "latitude": "29.925590694745555",
    "geocoded_column": {
      "latitude": "29.925590694745555",
      "longitude": "-90.10084273889387"
    }
  },
  {
    "service_request": "2023-1019217",
    "request_type": "Roads/Drainage",
    "request_reason": "Pothole",
    "date_created": "2023-07-20T23:39:54.000",
    "date_modified": "2023-07-20T23:39:54.000",
    "request_status": "Pending",
    "responsible_agency": "Department of Public Works",
    "final_address": "1521 Webster St",
    "address_councildis": "A",
    "status": "Pending",
    "rowid": "1019217",
    "final_x": "3665172.71917",
    "final_y": "522143.293626",
    "longitude": "-90.11993975188861",
    "latitude": "29.93019838632039",
    "geocoded_column": {
      "latitude": "29.93019838632039",
      "longitude": "-90.11993975188861"
    }
  },
  {
    "service_request": "2023-1019216",
    "request_type": "Abandoned Vehicles",
    "request_reason": "Abandoned/Junk Vehicles",
    "date_created": "2023-07-20T23:16:52.000",
    "date_modified": "2023-07-20T23:16:52.000",
    "request_status": "Pending",
    "responsible_agency": "Department of Public Works",
    "final_address": "Canal Street & North Clark Street",
    "address_councildis": "B",
    "status": "Pending",
    "rowid": "1019216",
    "final_x": "3672890.4308",
    "final_y": "537035.976072",
    "longitude": "-90.09506806816947",
    "latitude": "29.970921368066737",
    "geocoded_column": {
      "latitude": "29.970921368066737",
      "longitude": "-90.09506806816947"
    }
  },
  {
    "service_request": "2023-1019215",
    "request_type": "Abandoned Vehicles",
    "request_reason": "Abandoned/Junk Vehicles",
    "date_created": "2023-07-20T23:13:55.000",
    "date_modified": "2023-07-20T23:13:55.000",
    "request_status": "Pending",
    "responsible_agency": "Department of Public Works",
    "final_address": "CANAL ST & N CLARK ST & S CLARK ST",
    "address_councildis": "B",
    "status": "Pending",
    "rowid": "1019215",
    "final_x": "3672888.0",
    "final_y": "537036.38",
    "longitude": "-90.09507573117628",
    "latitude": "29.97092255096199",
    "geocoded_column": {
      "latitude": "29.97092255096199",
      "longitude": "-90.09507573117628"
    }
  },
  {
    "service_request": "2023-1019214",
    "request_type": "Traffic Signals/Signs/Striping/Streetlights",
    "request_reason": "Traffic Sign Missing/Damaged",
    "date_created": "2023-07-20T23:12:22.000",
    "date_modified": "2023-07-20T23:12:22.000",
    "request_status": "Pending",
    "responsible_agency": "Department of Public Works",
    "final_address": "MARDI GRAS BLVD & THAYER ST",
    "address_councildis": "C",
    "status": "Pending",
    "rowid": "1019214",
    "final_x": "3689333.8",
    "final_y": "525342.48",
    "longitude": "-90.04355364544487",
    "latitude": "29.93826944007958",
    "geocoded_column": {
      "latitude": "29.93826944007958",
      "longitude": "-90.04355364544487"
    }
  },
  {
    "service_request": "2023-1019213",
    "request_type": "Traffic Signals/Signs/Striping/Streetlights",
    "request_reason": "Road Surface Marking Maintenance-Bike Lane",
    "date_created": "2023-07-20T22:39:41.000",
    "date_modified": "2023-07-20T22:39:41.000",
    "request_status": "Pending",
    "responsible_agency": "Department of Public Works",
    "final_address": "2200 BLK Royal St",
    "address_councildis": "C",
    "status": "Pending",
    "rowid": "1019213",
    "final_x": "3685349.32972",
    "final_y": "534886.922468",
    "longitude": "-90.05579701287544",
    "latitude": "29.96463612494658",
    "geocoded_column": {
      "latitude": "29.96463612494658",
      "longitude": "-90.05579701287544"
    }
  },
  {
    "service_request": "2023-1019212",
    "request_type": "Traffic Signals/Signs/Striping/Streetlights",
    "request_reason": "Street Light Outage/Malfunction",
    "date_created": "2023-07-20T22:25:32.000",
    "date_modified": "2023-07-20T22:25:33.000",
    "request_status": "Pending",
    "responsible_agency": "Department of Public Works",
    "final_address": "3321 N Rampart St",
    "address_councildis": "C",
    "status": "Assigned to Contractor",
    "contractor": "Legacy Professional Services",
    "rowid": "1019212",
    "final_x": "3689912.80611",
    "final_y": "535420.344582",
    "longitude": "-90.04136693182757",
    "latitude": "29.965962158167706",
    "geocoded_column": {
      "latitude": "29.965962158167706",
      "longitude": "-90.04136693182757"
    }
  },
  {
    "service_request": "2023-1019211",
    "request_type": "Property Maintenance",
    "request_reason": "Property Maintenance",
    "date_created": "2023-07-20T22:09:29.000",
    "date_modified": "2023-07-20T22:09:29.000",
    "request_status": "Pending",
    "responsible_agency": "Department of Code Enforcement",
    "final_address": "1603 Arts St",
    "address_councildis": "D",
    "status": "Pending",
    "rowid": "1019211",
    "final_x": "3687091.04239",
    "final_y": "538366.916681",
    "longitude": "-90.05017375528617",
    "latitude": "29.97415138345498",
    "geocoded_column": {
      "latitude": "29.97415138345498",
      "longitude": "-90.05017375528617"
    }
  },
  {
    "service_request": "2023-1019210",
    "request_type": "Property Maintenance",
    "request_reason": "Property Maintenance",
    "date_created": "2023-07-20T22:03:24.000",
    "date_modified": "2023-07-20T22:03:24.000",
    "request_status": "Pending",
    "responsible_agency": "Department of Code Enforcement",
    "final_address": "3417 Clara St",
    "address_councildis": "B",
    "status": "Pending",
    "rowid": "1019210",
    "final_x": "3672288.69889",
    "final_y": "525461.054589",
    "longitude": "-90.0973627234373",
    "latitude": "29.939112035402673",
    "geocoded_column": {
      "latitude": "29.939112035402673",
      "longitude": "-90.0973627234373"
    }
  },
  {
    "service_request": "2023-1019209",
    "request_type": "Trash/Recycling",
    "request_reason": "MIssed Recycling Pick-Up",
    "date_created": "2023-07-20T21:57:48.000",
    "date_modified": "2023-07-20T21:57:49.000",
    "request_status": "Pending",
    "responsible_agency": "Department of Sanitation",
    "final_address": "2514 Amelia St",
    "address_councildis": "B",
    "status": "Assigned to Contractor",
    "contractor": "Richards Disposal",
    "rowid": "1019209",
    "final_x": "3672303.55988",
    "final_y": "524398.937276",
    "longitude": "-90.09735197566623",
    "latitude": "29.93619111695968",
    "geocoded_column": {
      "latitude": "29.93619111695968",
      "longitude": "-90.09735197566623"
    }
  },
  {
    "service_request": "2023-1019207",
    "request_type": "Trash/Recycling",
    "request_reason": "Missed Trash Pick-Up",
    "date_created": "2023-07-20T21:36:54.000",
    "date_modified": "2023-07-20T21:36:55.000",
    "request_status": "Pending",
    "responsible_agency": "Department of Sanitation",
    "final_address": "5330 Camp St",
    "address_councildis": "B",
    "status": "Assigned to Contractor",
    "contractor": "Richards Disposal",
    "rowid": "1019207",
    "final_x": "3667254.12948",
    "final_y": "519003.313463",
    "longitude": "-90.11347457721239",
    "latitude": "29.921503664049855",
    "geocoded_column": {
      "latitude": "29.921503664049855",
      "longitude": "-90.11347457721239"
    }
  },
  {
    "service_request": "2023-1019206",
    "request_type": "Abandoned Vehicles",
    "request_reason": "Abandoned/Junk Vehicles",
    "date_created": "2023-07-20T21:27:41.000",
    "date_modified": "2023-07-20T21:27:41.000",
    "request_status": "Pending",
    "responsible_agency": "Department of Public Works",
    "final_address": "10840 Roger Dr",
    "address_councildis": "E",
    "status": "Pending",
    "rowid": "1019206",
    "final_x": "3711867.71685",
    "final_y": "563184.178912",
    "longitude": "-89.97099224236545",
    "latitude": "30.041603079054916",
    "geocoded_column": {
      "latitude": "30.041603079054916",
      "longitude": "-89.97099224236545"
    }
  },
  {
    "service_request": "2023-1019205",
    "request_type": "Traffic Signals/Signs/Striping/Streetlights",
    "request_reason": "Street Light Outage/Malfunction",
    "date_created": "2023-07-20T21:22:07.000",
    "date_modified": "2023-07-20T21:22:07.000",
    "request_status": "Pending",
    "responsible_agency": "Department of Public Works",
    "final_address": "2433 Danneel St",
    "address_councildis": "B",
    "status": "Assigned to Contractor",
    "contractor": "Legacy Professional Services",
    "rowid": "1019205",
    "final_x": "3675893.15067",
    "final_y": "524379.505084",
    "longitude": "-90.08602018920072",
    "latitude": "29.93603073007256",
    "geocoded_column": {
      "latitude": "29.93603073007256",
      "longitude": "-90.08602018920072"
    }
  },
  {
    "service_request": "2023-1019202",
    "request_type": "Safety & Permits",
    "request_reason": "Licenses & Permits",
    "date_created": "2023-07-20T21:10:01.000",
    "date_modified": "2023-07-20T21:10:01.000",
    "request_status": "Pending",
    "responsible_agency": "Safety and Permits",
    "status": "Pending",
    "rowid": "1019202",
    "longitude": "0.0",
    "latitude": "0.0",
    "geocoded_column": {
      "latitude": "0.0",
      "longitude": "0.0"
    }
  },
  {
    "service_request": "2023-1019201",
    "request_type": "Abandoned Vehicles",
    "request_reason": "Abandoned/Junk Vehicles",
    "date_created": "2023-07-20T21:07:43.000",
    "date_modified": "2023-07-20T21:07:43.000",
    "request_status": "Pending",
    "responsible_agency": "Department of Public Works",
    "final_address": "10840 Roger Dr",
    "address_councildis": "E",
    "status": "Pending",
    "rowid": "1019201",
    "final_x": "3711867.71685",
    "final_y": "563184.178912",
    "longitude": "-89.97099224236545",
    "latitude": "30.041603079054916",
    "geocoded_column": {
      "latitude": "30.041603079054916",
      "longitude": "-89.97099224236545"
    }
  },
  {
    "service_request": "2023-1019200",
    "request_type": "Abandoned Vehicles",
    "request_reason": "Abandoned/Junk Vehicles",
    "date_created": "2023-07-20T20:59:44.000",
    "date_modified": "2023-07-20T20:59:44.000",
    "request_status": "Pending",
    "responsible_agency": "Department of Public Works",
    "final_address": "10840 Roger Dr",
    "address_councildis": "E",
    "status": "Pending",
    "rowid": "1019200",
    "final_x": "3711867.71685",
    "final_y": "563184.178912",
    "longitude": "-89.97099224236545",
    "latitude": "30.041603079054916",
    "geocoded_column": {
      "latitude": "30.041603079054916",
      "longitude": "-89.97099224236545"
    }
  },
  {
    "service_request": "2023-1019199",
    "request_type": "Property Maintenance",
    "request_reason": "Property Maintenance",
    "date_created": "2023-07-20T20:53:13.000",
    "date_modified": "2023-07-20T20:53:13.000",
    "request_status": "Pending",
    "responsible_agency": "Department of Code Enforcement",
    "final_address": "1843 Franklin Ave",
    "address_councildis": "D",
    "status": "Pending",
    "rowid": "1019199",
    "final_x": "3687766.31868",
    "final_y": "539454.269322",
    "longitude": "-90.04800256121659",
    "latitude": "29.97712040997242",
    "geocoded_column": {
      "latitude": "29.97712040997242",
      "longitude": "-90.04800256121659"
    }
  },
  {
    "service_request": "2023-1019198",
    "request_type": "Trash/Recycling",
    "request_reason": "Request a Large Item Pick Up",
    "date_created": "2023-07-20T20:53:10.000",
    "date_modified": "2023-07-20T20:53:11.000",
    "request_status": "Pending",
    "responsible_agency": "Department of Sanitation",
    "final_address": "2619 Banks St A",
    "address_councildis": "B",
    "status": "Assigned to Contractor",
    "contractor": "Richards Disposal",
    "rowid": "1019198",
    "final_x": "3674963.31176",
    "final_y": "533963.863429",
    "longitude": "-90.08862702873034",
    "latitude": "29.96241233919172",
    "geocoded_column": {
      "latitude": "29.96241233919172",
      "longitude": "-90.08862702873034"
    }
  },
  {
    "service_request": "2023-1019197",
    "request_type": "Abandoned Vehicles",
    "request_reason": "Abandoned/Junk Vehicles",
    "date_created": "2023-07-20T20:44:11.000",
    "date_modified": "2023-07-20T20:44:53.000",
    "request_status": "Pending",
    "responsible_agency": "Department of Public Works",
    "final_address": "7000 BLK Read Blvd",
    "address_councildis": "E",
    "status": "Pending",
    "rowid": "1019197",
    "final_x": "3709850.17245",
    "final_y": "562212.623066",
    "longitude": "-89.97740469552025",
    "latitude": "30.0389974904308",
    "geocoded_column": {
      "latitude": "30.0389974904308",
      "longitude": "-89.97740469552025"
    }
  },
  {
    "service_request": "2023-1019195",
    "request_type": "Trash/Recycling",
    "request_reason": "Return Trash Cart",
    "date_created": "2023-07-20T20:25:42.000",
    "date_modified": "2023-07-20T20:25:42.000",
    "request_status": "Pending",
    "responsible_agency": "Department of Sanitation",
    "final_address": "1209 Desire St",
    "address_councildis": "C",
    "status": "Assigned to Contractor",
    "contractor": "IV Waste",
    "rowid": "1019195",
    "final_x": "3690328.73584",
    "final_y": "536152.907655",
    "longitude": "-90.0400273308647",
    "latitude": "29.967963547815195",
    "geocoded_column": {
      "latitude": "29.967963547815195",
      "longitude": "-90.0400273308647"
    }
  },
  {
    "service_request": "2023-1019194",
    "request_type": "Trash/Recycling",
    "request_reason": "Request a Large Item Pick Up",
    "date_created": "2023-07-20T20:16:16.000",
    "date_modified": "2023-07-20T20:16:16.000",
    "request_status": "Pending",
    "responsible_agency": "Department of Sanitation",
    "final_address": "7811 Allison Rd",
    "address_councildis": "E",
    "status": "Assigned to Contractor",
    "contractor": "Waste Pro",
    "rowid": "1019194",
    "final_x": "3699905.67204",
    "final_y": "561066.477534",
    "longitude": "-90.00887380920388",
    "latitude": "30.036165856668973",
    "geocoded_column": {
      "latitude": "30.036165856668973",
      "longitude": "-90.00887380920388"
    }
  },
  {
    "service_request": "2023-1019193",
    "request_type": "Trash/Recycling",
    "request_reason": "Repair Trash Cart",
    "date_created": "2023-07-20T20:09:07.000",
    "date_modified": "2023-07-20T20:09:07.000",
    "request_status": "Pending",
    "responsible_agency": "Department of Sanitation",
    "final_address": "6752 Bamberry St",
    "address_councildis": "E",
    "status": "Assigned to Contractor",
    "contractor": "Waste Pro",
    "rowid": "1019193",
    "final_x": "3698577.74148",
    "final_y": "558927.596636",
    "longitude": "-90.01314818000687",
    "latitude": "30.03032689798105",
    "geocoded_column": {
      "latitude": "30.03032689798105",
      "longitude": "-90.01314818000687"
    }
  },
  {
    "service_request": "2023-1019192",
    "request_type": "Trash/Recycling",
    "request_reason": "Request a Large Item Pick Up",
    "date_created": "2023-07-20T20:03:23.000",
    "date_modified": "2023-07-20T20:20:57.000",
    "request_status": "Pending",
    "responsible_agency": "Department of Sanitation",
    "final_address": "7811 Allison Rd",
    "address_councildis": "E",
    "status": "Assigned to Contractor",
    "contractor": "IV Waste",
    "rowid": "1019192",
    "final_x": "3699905.67204",
    "final_y": "561066.477534",
    "longitude": "-90.00887380920388",
    "latitude": "30.036165856668973",
    "geocoded_column": {
      "latitude": "30.036165856668973",
      "longitude": "-90.00887380920388"
    }
  },
  {
    "service_request": "2023-1019191",
    "request_type": "Trash/Recycling",
    "request_reason": "Order Recycling Cart",
    "date_created": "2023-07-20T19:51:10.000",
    "date_modified": "2023-07-20T19:51:10.000",
    "request_status": "Pending",
    "responsible_agency": "Department of Sanitation",
    "final_address": "1125 Clouet St",
    "address_councildis": "C",
    "status": "Pending",
    "rowid": "1019191",
    "final_x": "3689101.87011",
    "final_y": "536271.939719",
    "longitude": "-90.04389757320125",
    "latitude": "29.968328863338805",
    "geocoded_column": {
      "latitude": "29.968328863338805",
      "longitude": "-90.04389757320125"
    }
  },
  {
    "service_request": "2023-1019190",
    "request_type": "Roads/Drainage",
    "request_reason": "Damaged Sidewalk",
    "date_created": "2023-07-20T19:45:07.000",
    "date_modified": "2023-07-20T19:45:07.000",
    "request_status": "Pending",
    "responsible_agency": "Department of Public Works",
    "final_address": "4741 St Anthony Ave",
    "address_councildis": "D",
    "status": "Pending",
    "rowid": "1019190",
    "final_x": "3682479.86012",
    "final_y": "550147.297108",
    "longitude": "-90.06432487206015",
    "latitude": "30.006684441657036",
    "geocoded_column": {
      "latitude": "30.006684441657036",
      "longitude": "-90.06432487206015"
    }
  },
  {
    "service_request": "2023-1019189",
    "request_type": "Trash/Recycling",
    "request_reason": "Replace Recycling Cart",
    "date_created": "2023-07-20T19:39:10.000",
    "date_modified": "2023-07-20T19:39:10.000",
    "request_status": "Pending",
    "responsible_agency": "Department of Sanitation",
    "final_address": "1809 Camp St",
    "address_councildis": "B",
    "status": "Pending",
    "rowid": "1019189",
    "final_x": "3679560.65871",
    "final_y": "523288.009659",
    "longitude": "-90.07447963641624",
    "latitude": "29.932919192972673",
    "geocoded_column": {
      "latitude": "29.932919192972673",
      "longitude": "-90.07447963641624"
    }
  },
  {
    "service_request": "2023-1019188",
    "request_type": "Safety & Permits",
    "request_reason": "Safety & Permits Request (Cyber Incident Back Up)",
    "date_created": "2023-07-20T19:35:16.000",
    "date_modified": "2023-07-20T19:35:16.000",
    "request_status": "Pending",
    "responsible_agency": "Safety and Permits",
    "final_address": "4801 General Meyer Ave",
    "address_councildis": "C",
    "status": "Pending",
    "rowid": "1019188",
    "final_x": "3701829.81098",
    "final_y": "523228.361979",
    "longitude": "-90.00418025137867",
    "latitude": "29.93206367715014",
    "geocoded_column": {
      "latitude": "29.93206367715014",
      "longitude": "-90.00418025137867"
    }
  },
  {
    "service_request": "2023-1019187",
    "request_type": "Trash/Recycling",
    "request_reason": "Request a Large Item Pick Up",
    "date_created": "2023-07-20T19:34:14.000",
    "date_modified": "2023-07-20T19:34:14.000",
    "request_status": "Pending",
    "responsible_agency": "Department of Sanitation",
    "final_address": "1212 Independence St",
    "address_councildis": "D",
    "status": "Assigned to Contractor",
    "contractor": "IV Waste",
    "rowid": "1019187",
    "final_x": "3691034.5126",
    "final_y": "535981.938631",
    "longitude": "-90.03780457623306",
    "latitude": "29.9674715203273",
    "geocoded_column": {
      "latitude": "29.9674715203273",
      "longitude": "-90.03780457623306"
    }
  },
  {
    "service_request": "2023-1019186",
    "request_type": "Trash/Recycling",
    "request_reason": "Request a Large Item Pick Up",
    "date_created": "2023-07-20T19:33:14.000",
    "date_modified": "2023-07-20T19:33:14.000",
    "request_status": "Pending",
    "responsible_agency": "Department of Sanitation",
    "final_address": "8223 Sycamore St",
    "address_councildis": "A",
    "status": "Assigned to Contractor",
    "contractor": "Richards Disposal",
    "rowid": "1019186",
    "final_x": "3663935.89197",
    "final_y": "531377.648323",
    "longitude": "-90.12353644922686",
    "latitude": "29.95562586268642",
    "geocoded_column": {
      "latitude": "29.95562586268642",
      "longitude": "-90.12353644922686"
    }
  },
  {
    "service_request": "2023-1019185",
    "request_type": "Property Maintenance",
    "request_reason": "Property Maintenance",
    "date_created": "2023-07-20T19:19:32.000",
    "date_modified": "2023-07-20T19:19:32.000",
    "request_status": "Pending",
    "responsible_agency": "Department of Code Enforcement",
    "final_address": "5252 Crowder Blvd",
    "address_councildis": "E",
    "status": "Pending",
    "rowid": "1019185",
    "final_x": "3705897.33815",
    "final_y": "557171.647771",
    "longitude": "-89.99008342618183",
    "latitude": "30.025264807794713",
    "geocoded_column": {
      "latitude": "30.025264807794713",
      "longitude": "-89.99008342618183"
    }
  },
  {
    "service_request": "2023-1019184",
    "request_type": "Trash/Recycling",
    "request_reason": "MIssed Recycling Pick-Up",
    "date_created": "2023-07-20T19:16:19.000",
    "date_modified": "2023-07-20T19:16:19.000",
    "request_status": "Pending",
    "responsible_agency": "Department of Sanitation",
    "final_address": "1430 Urania St",
    "address_councildis": "B",
    "status": "Assigned to Contractor",
    "contractor": "Richards Disposal",
    "rowid": "1019184",
    "final_x": "3679124.03253",
    "final_y": "524044.04134",
    "longitude": "-90.07583183965485",
    "latitude": "29.93501121400894",
    "geocoded_column": {
      "latitude": "29.93501121400894",
      "longitude": "-90.07583183965485"
    }
  },
  {
    "service_request": "2023-1019183",
    "request_type": "Property Maintenance",
    "request_reason": "Property Maintenance",
    "date_created": "2023-07-20T19:14:34.000",
    "date_modified": "2023-07-20T19:14:34.000",
    "request_status": "Pending",
    "responsible_agency": "Department of Code Enforcement",
    "final_address": "5252 Crowder Blvd",
    "address_councildis": "E",
    "status": "Pending",
    "rowid": "1019183",
    "final_x": "3705897.33815",
    "final_y": "557171.647771",
    "longitude": "-89.99008342618183",
    "latitude": "30.025264807794713",
    "geocoded_column": {
      "latitude": "30.025264807794713",
      "longitude": "-89.99008342618183"
    }
  },
  {
    "service_request": "2023-1019182",
    "request_type": "Trash/Recycling",
    "request_reason": "MIssed Recycling Pick-Up",
    "date_created": "2023-07-20T19:13:54.000",
    "date_modified": "2023-07-20T19:13:54.000",
    "request_status": "Pending",
    "responsible_agency": "Department of Sanitation",
    "final_address": "Urania St, New Orleans, Louisiana, 70130",
    "address_councildis": "B",
    "status": "Assigned to Contractor",
    "contractor": "Richards Disposal",
    "rowid": "1019182",
    "final_x": "3679151.9709",
    "final_y": "524026.418748",
    "longitude": "-90.07574424904759",
    "latitude": "29.934961914582257",
    "geocoded_column": {
      "latitude": "29.934961914582257",
      "longitude": "-90.07574424904759"
    }
  },
  {
    "service_request": "2023-1019181",
    "request_type": "Trash/Recycling",
    "request_reason": "Repair Recycling Cart",
    "date_created": "2023-07-20T19:11:01.000",
    "date_modified": "2023-07-20T19:11:01.000",
    "request_status": "Pending",
    "responsible_agency": "Department of Sanitation",
    "final_address": "1011 Marengo St",
    "address_councildis": "B",
    "status": "Pending",
    "rowid": "1019181",
    "final_x": "3672166.29089",
    "final_y": "519398.885367",
    "longitude": "-90.09795552684317",
    "latitude": "29.92244665303627",
    "geocoded_column": {
      "latitude": "29.92244665303627",
      "longitude": "-90.09795552684317"
    }
  },
  {
    "service_request": "2023-1019180",
    "request_type": "Property Maintenance",
    "request_reason": "Property Maintenance",
    "date_created": "2023-07-20T18:35:26.000",
    "date_modified": "2023-07-20T18:35:27.000",
    "request_status": "Pending",
    "responsible_agency": "Department of Code Enforcement",
    "final_address": "1726 St Ann St",
    "address_councildis": "D",
    "status": "Pending",
    "rowid": "1019180",
    "final_x": "3679719.4013",
    "final_y": "535025.071686",
    "longitude": "-90.07357112879214",
    "latitude": "29.965187383171163",
    "geocoded_column": {
      "latitude": "29.965187383171163",
      "longitude": "-90.07357112879214"
    }
  },
  {
    "service_request": "2023-1019178",
    "request_type": "Roads/Drainage",
    "request_reason": "Damaged Sidewalk",
    "date_created": "2023-07-20T18:31:45.000",
    "date_modified": "2023-07-20T18:31:46.000",
    "request_status": "Pending",
    "responsible_agency": "Department of Public Works",
    "final_address": "935 N Villere St",
    "address_councildis": "C",
    "status": "Pending",
    "rowid": "1019178",
    "final_x": "3680870.94383",
    "final_y": "535019.457414",
    "longitude": "-90.06993481631078",
    "latitude": "29.965137084062658",
    "geocoded_column": {
      "latitude": "29.965137084062658",
      "longitude": "-90.06993481631078"
    }
  },
  {
    "service_request": "2023-1019177",
    "request_type": "Trash/Recycling",
    "request_reason": "Replace Trash Cart",
    "date_created": "2023-07-20T18:28:42.000",
    "date_modified": "2023-07-20T18:28:42.000",
    "request_status": "Pending",
    "responsible_agency": "Department of Sanitation",
    "status": "Assigned to Contractor",
    "rowid": "1019177",
    "longitude": "0.0",
    "latitude": "0.0",
    "geocoded_column": {
      "latitude": "0.0",
      "longitude": "0.0"
    }
  },
  {
    "service_request": "2023-1019176",
    "request_type": "Trash/Recycling",
    "request_reason": "Replace Trash Cart",
    "date_created": "2023-07-20T18:27:29.000",
    "date_modified": "2023-07-20T18:27:30.000",
    "request_status": "Pending",
    "responsible_agency": "Department of Sanitation",
    "final_address": "803 St Mary St",
    "address_councildis": "B",
    "status": "Assigned to Contractor",
    "contractor": "Richards Disposal",
    "rowid": "1019176",
    "final_x": "3680480.19003",
    "final_y": "522074.299962",
    "longitude": "-90.0716189360833",
    "latitude": "29.929554080968742",
    "geocoded_column": {
      "latitude": "29.929554080968742",
      "longitude": "-90.0716189360833"
    }
  },
  {
    "service_request": "2023-1019175",
    "request_type": "Traffic Signals/Signs/Striping/Streetlights",
    "request_reason": "Street Light Outage/Malfunction",
    "date_created": "2023-07-20T18:25:50.000",
    "date_modified": "2023-07-20T18:25:50.000",
    "request_status": "Pending",
    "responsible_agency": "Department of Public Works",
    "final_address": "1240 Gallier St",
    "address_councildis": "C",
    "status": "Assigned to Contractor",
    "contractor": "Legacy Professional Services",
    "rowid": "1019175",
    "final_x": "3690604.9992",
    "final_y": "536328.326151",
    "longitude": "-90.03914862774398",
    "latitude": "29.96843731018457",
    "geocoded_column": {
      "latitude": "29.96843731018457",
      "longitude": "-90.03914862774398"
    }
  },
  {
    "service_request": "2023-1019174",
    "request_type": "Property Maintenance",
    "request_reason": "Property Maintenance",
    "date_created": "2023-07-20T18:24:31.000",
    "date_modified": "2023-07-20T18:24:31.000",
    "request_status": "Pending",
    "responsible_agency": "Department of Code Enforcement",
    "final_address": "1835 General Pershing St",
    "address_councildis": "B",
    "status": "Pending",
    "rowid": "1019174",
    "final_x": "3671182.40315",
    "final_y": "521912.665018",
    "longitude": "-90.10097592772313",
    "latitude": "29.929387874746556",
    "geocoded_column": {
      "latitude": "29.929387874746556",
      "longitude": "-90.10097592772313"
    }
  },
  {
    "service_request": "2023-1019173",
    "request_type": "Trash/Recycling",
    "request_reason": "Request a Large Item Pick Up",
    "date_created": "2023-07-20T18:24:01.000",
    "date_modified": "2023-07-20T18:24:02.000",
    "request_status": "Pending",
    "responsible_agency": "Department of Sanitation",
    "final_address": "822 Louque Pl",
    "address_councildis": "A",
    "status": "Assigned to Contractor",
    "contractor": "IV Waste",
    "rowid": "1019173",
    "final_x": "3668857.56391",
    "final_y": "543456.085262",
    "longitude": "-90.10758752274542",
    "latitude": "29.988693714964533",
    "geocoded_column": {
      "latitude": "29.988693714964533",
      "longitude": "-90.10758752274542"
    }
  },
  {
    "service_request": "2023-1019172",
    "request_type": "Traffic Signals/Signs/Striping/Streetlights",
    "request_reason": "Street Light Outage/Malfunction",
    "date_created": "2023-07-20T18:21:54.000",
    "date_modified": "2023-07-20T18:21:55.000",
    "request_status": "Pending",
    "responsible_agency": "Department of Public Works",
    "final_address": "1712 St Ann St",
    "address_councildis": "D",
    "status": "Assigned to Contractor",
    "contractor": "Legacy Professional Services",
    "rowid": "1019172",
    "final_x": "3679811.64271",
    "final_y": "534991.327942",
    "longitude": "-90.07328100722383",
    "latitude": "29.9650918105825",
    "geocoded_column": {
      "latitude": "29.9650918105825",
      "longitude": "-90.07328100722383"
    }
  },
  {
    "service_request": "2023-1019170",
    "request_type": "Trash/Recycling",
    "request_reason": "Request a Large Item Pick Up",
    "date_created": "2023-07-20T18:19:36.000",
    "date_modified": "2023-07-20T18:19:36.000",
    "request_status": "Pending",
    "responsible_agency": "Department of Sanitation",
    "final_address": "616 Soraparu St",
    "address_councildis": "B",
    "status": "Assigned to Contractor",
    "contractor": "Richards Disposal",
    "rowid": "1019170",
    "final_x": "3679252.24591",
    "final_y": "520258.439096",
    "longitude": "-90.07555825698765",
    "latitude": "29.924598178539554",
    "geocoded_column": {
      "latitude": "29.924598178539554",
      "longitude": "-90.07555825698765"
    }
  },
  {
    "service_request": "2023-1019169",
    "request_type": "Trash/Recycling",
    "request_reason": "Request a Large Item Pick Up",
    "date_created": "2023-07-20T18:17:41.000",
    "date_modified": "2023-07-20T18:28:21.000",
    "request_status": "Pending",
    "responsible_agency": "Department of Sanitation",
    "final_address": "1718 St Ann St",
    "address_councildis": "D",
    "status": "Assigned to Contractor",
    "contractor": "Richards Disposal",
    "rowid": "1019169",
    "final_x": "3679786.52226",
    "final_y": "535005.453766",
    "longitude": "-90.07335984565474",
    "latitude": "29.965131411327427",
    "geocoded_column": {
      "latitude": "29.965131411327427",
      "longitude": "-90.07335984565474"
    }
  },
  {
    "service_request": "2023-1019168",
    "request_type": "Traffic Signals/Signs/Striping/Streetlights",
    "request_reason": "Street Light Outage/Malfunction",
    "date_created": "2023-07-20T18:15:06.000",
    "date_modified": "2023-07-20T18:15:07.000",
    "request_status": "Pending",
    "responsible_agency": "Department of Public Works",
    "final_address": "3206 Louisiana Avenue Prkwy",
    "address_councildis": "B",
    "status": "Assigned to Contractor",
    "contractor": "Legacy Professional Services",
    "rowid": "1019168",
    "final_x": "3671859.65185",
    "final_y": "526961.681662",
    "longitude": "-90.09866623074755",
    "latitude": "29.943250989446703",
    "geocoded_column": {
      "latitude": "29.943250989446703",
      "longitude": "-90.09866623074755"
    }
  },
  {
    "service_request": "2023-1019167",
    "request_type": "Parks & Parkways",
    "request_reason": "Tree Stump (removal, grind)",
    "date_created": "2023-07-20T18:09:38.000",
    "date_modified": "2023-07-20T18:09:38.000",
    "request_status": "Pending",
    "responsible_agency": "Department of Parks & Parkway",
    "final_address": "LINCOLN CT & N DORGENOIS ST",
    "address_councildis": "D",
    "status": "Pending",
    "rowid": "1019167",
    "final_x": "3682869.6",
    "final_y": "541324.38",
    "longitude": "-90.06340250886352",
    "latitude": "29.982412685173205",
    "geocoded_column": {
      "latitude": "29.982412685173205",
      "longitude": "-90.06340250886352"
    }
  },
  {
    "service_request": "2023-1019165",
    "request_type": "Traffic Signals/Signs/Striping/Streetlights",
    "request_reason": "Street Light Outage/Malfunction",
    "date_created": "2023-07-20T18:00:23.000",
    "date_modified": "2023-07-20T18:00:24.000",
    "request_status": "Pending",
    "responsible_agency": "Department of Public Works",
    "status": "Assigned to Contractor",
    "contractor": "Legacy Professional Services",
    "rowid": "1019165",
    "longitude": "0.0",
    "latitude": "0.0",
    "geocoded_column": {
      "latitude": "0.0",
      "longitude": "0.0"
    }
  },
  {
    "service_request": "2023-1019164",
    "request_type": "Property Maintenance",
    "request_reason": "Property Maintenance",
    "date_created": "2023-07-20T17:46:59.000",
    "date_modified": "2023-07-20T17:46:59.000",
    "request_status": "Pending",
    "responsible_agency": "Department of Code Enforcement",
    "final_address": "3324 Octavia St",
    "address_councildis": "A",
    "status": "Pending",
    "rowid": "1019164",
    "final_x": "3668388.43604",
    "final_y": "527935.548095",
    "longitude": "-90.10959293312362",
    "latitude": "29.94603119606775",
    "geocoded_column": {
      "latitude": "29.94603119606775",
      "longitude": "-90.10959293312362"
    }
  },
  {
    "service_request": "2023-1019163",
    "request_type": "Trash/Recycling",
    "request_reason": "Illegal Dumping",
    "date_created": "2023-07-20T17:39:17.000",
    "date_modified": "2023-07-20T17:39:17.000",
    "request_status": "Pending",
    "responsible_agency": "Department of Sanitation",
    "final_address": "2831 Marais St",
    "address_councildis": "C",
    "status": "Pending",
    "rowid": "1019163",
    "final_x": "3687996.0383",
    "final_y": "536720.956615",
    "longitude": "-90.04737391737255",
    "latitude": "29.969597673472023",
    "geocoded_column": {
      "latitude": "29.969597673472023",
      "longitude": "-90.04737391737255"
    }
  },
  {
    "service_request": "2023-1019162",
    "request_type": "Trash/Recycling",
    "request_reason": "Order Trash Cart",
    "date_created": "2023-07-20T17:37:07.000",
    "date_modified": "2023-07-20T17:37:07.000",
    "request_status": "Pending",
    "responsible_agency": "Department of Sanitation",
    "final_address": "4616 Conti St Unit A",
    "address_councildis": "A",
    "status": "Assigned to Contractor",
    "contractor": "Richards Disposal",
    "rowid": "1019162",
    "final_x": "3669960.91873",
    "final_y": "540610.075979",
    "longitude": "-90.1041987880269",
    "latitude": "29.98083566008714",
    "geocoded_column": {
      "latitude": "29.98083566008714",
      "longitude": "-90.1041987880269"
    }
  },
  {
    "service_request": "2023-1019161",
    "request_type": "Trash/Recycling",
    "request_reason": "Request a Large Item Pick Up",
    "date_created": "2023-07-20T17:32:30.000",
    "date_modified": "2023-07-20T17:32:31.000",
    "request_status": "Pending",
    "responsible_agency": "Department of Sanitation",
    "final_address": "922 Charbonnet St",
    "address_councildis": "E",
    "status": "Assigned to Contractor",
    "contractor": "Waste Pro",
    "rowid": "1019161",
    "final_x": "3698410.3793",
    "final_y": "533004.47002",
    "longitude": "-90.01461980317758",
    "latitude": "29.959053176444797",
    "geocoded_column": {
      "latitude": "29.959053176444797",
      "longitude": "-90.01461980317758"
    }
  },
  {
    "service_request": "2023-1019160",
    "request_type": "Abandoned Vehicles",
    "request_reason": "Abandoned/Junk Vehicles",
    "date_created": "2023-07-20T17:30:23.000",
    "date_modified": "2023-07-20T17:30:23.000",
    "request_status": "Pending",
    "responsible_agency": "Department of Public Works",
    "final_address": "2000 BLK S Saratoga St",
    "address_councildis": "B",
    "status": "Pending",
    "rowid": "1019160",
    "final_x": "3676896.27117",
    "final_y": "525544.055655",
    "longitude": "-90.08281318750763",
    "latitude": "29.93920279828856",
    "geocoded_column": {
      "latitude": "29.93920279828856",
      "longitude": "-90.08281318750763"
    }
  },
  {
    "service_request": "2023-1019159",
    "request_type": "Abandoned Vehicles",
    "request_reason": "Abandoned/Junk Vehicles",
    "date_created": "2023-07-20T17:27:18.000",
    "date_modified": "2023-07-20T17:27:18.000",
    "request_status": "Pending",
    "responsible_agency": "Department of Public Works",
    "final_address": "3200 BLK Loyola Ave",
    "address_councildis": "B",
    "status": "Pending",
    "rowid": "1019159",
    "final_x": "3673798.238",
    "final_y": "523707.477635",
    "longitude": "-90.09265686184722",
    "latitude": "29.934245411217198",
    "geocoded_column": {
      "latitude": "29.934245411217198",
      "longitude": "-90.09265686184722"
    }
  },
  {
    "service_request": "2023-1019158",
    "request_type": "Trash/Recycling",
    "request_reason": "MIssed Recycling Pick-Up",
    "date_created": "2023-07-20T17:24:02.000",
    "date_modified": "2023-07-20T17:24:02.000",
    "request_status": "Pending",
    "responsible_agency": "Department of Sanitation",
    "final_address": "6065 General Meyer Ave",
    "address_councildis": "C",
    "status": "Assigned to Contractor",
    "contractor": "Richards Disposal",
    "rowid": "1019158",
    "final_x": "3706429.86993",
    "final_y": "520953.953593",
    "longitude": "-89.98974264689541",
    "latitude": "29.925662328529434",
    "geocoded_column": {
      "latitude": "29.925662328529434",
      "longitude": "-89.98974264689541"
    }
  },
  {
    "service_request": "2023-1019157",
    "request_type": "Abandoned Vehicles",
    "request_reason": "Abandoned/Junk Vehicles",
    "date_created": "2023-07-20T17:22:22.000",
    "date_modified": "2023-07-20T17:22:22.000",
    "request_status": "Pending",
    "responsible_agency": "Department of Public Works",
    "final_address": "2000 BLK S Saratoga St",
    "address_councildis": "B",
    "status": "Pending",
    "rowid": "1019157",
    "final_x": "3676896.27117",
    "final_y": "525544.055655",
    "longitude": "-90.08281318750763",
    "latitude": "29.93920279828856",
    "geocoded_column": {
      "latitude": "29.93920279828856",
      "longitude": "-90.08281318750763"
    }
  },
  {
    "service_request": "2023-1019156",
    "request_type": "Trash/Recycling",
    "request_reason": "Request a Large Item Pick Up",
    "date_created": "2023-07-20T17:21:00.000",
    "date_modified": "2023-07-20T17:21:01.000",
    "request_status": "Pending",
    "responsible_agency": "Department of Sanitation",
    "final_address": "2708 Chartres St",
    "address_councildis": "C",
    "status": "Assigned to Contractor",
    "contractor": "IV Waste",
    "rowid": "1019156",
    "final_x": "3687024.61308",
    "final_y": "534495.851333",
    "longitude": "-90.05052042537808",
    "latitude": "29.963509349774682",
    "geocoded_column": {
      "latitude": "29.963509349774682",
      "longitude": "-90.05052042537808"
    }
  },
  {
    "service_request": "2023-1019155",
    "request_type": "Abandoned Vehicles",
    "request_reason": "Abandoned/Junk Vehicles",
    "date_created": "2023-07-20T17:16:07.000",
    "date_modified": "2023-07-20T17:16:07.000",
    "request_status": "Pending",
    "responsible_agency": "Department of Public Works",
    "final_address": "3300 BLK Toledano St",
    "address_councildis": "B",
    "status": "Pending",
    "rowid": "1019155",
    "final_x": "3671990.36727",
    "final_y": "527790.58233",
    "longitude": "-90.09822531892951",
    "latitude": "29.94552632170271",
    "geocoded_column": {
      "latitude": "29.94552632170271",
      "longitude": "-90.09822531892951"
    }
  },
  {
    "service_request": "2023-1019154",
    "request_type": "Abandoned Vehicles",
    "request_reason": "Abandoned/Junk Vehicles",
    "date_created": "2023-07-20T17:11:11.000",
    "date_modified": "2023-07-20T17:11:11.000",
    "request_status": "Pending",
    "responsible_agency": "Department of Public Works",
    "final_address": "1311 S Galvez St",
    "address_councildis": "B",
    "status": "Pending",
    "rowid": "1019154",
    "final_x": "3673743.7684",
    "final_y": "529478.428609",
    "longitude": "-90.09263155091472",
    "latitude": "29.950115257206246",
    "geocoded_column": {
      "latitude": "29.950115257206246",
      "longitude": "-90.09263155091472"
    }
  },
  {
    "service_request": "2023-1019153",
    "request_type": "Trash/Recycling",
    "request_reason": "Replace Trash Cart",
    "date_created": "2023-07-20T17:09:08.000",
    "date_modified": "2023-07-20T17:09:08.000",
    "request_status": "Pending",
    "responsible_agency": "Department of Sanitation",
    "final_address": "2736 Palmyra St",
    "address_councildis": "B",
    "status": "Assigned to Contractor",
    "contractor": "Richards Disposal",
    "rowid": "1019153",
    "final_x": "3674577.32852",
    "final_y": "534656.392582",
    "longitude": "-90.08982217777248",
    "latitude": "29.96432808472884",
    "geocoded_column": {
      "latitude": "29.96432808472884",
      "longitude": "-90.08982217777248"
    }
  },
  {
    "service_request": "2023-1019152",
    "request_type": "Trash/Recycling",
    "request_reason": "Start Trash Service",
    "date_created": "2023-07-20T17:05:02.000",
    "date_modified": "2023-07-20T17:05:02.000",
    "request_status": "Pending",
    "responsible_agency": "Department of Sanitation",
    "final_address": "1032 Cherokee St",
    "address_councildis": "A",
    "status": "Assigned to Contractor",
    "contractor": "Richards Disposal",
    "rowid": "1019152",
    "final_x": "3663197.90093",
    "final_y": "526619.78547",
    "longitude": "-90.12602506926132",
    "latitude": "29.942564674710052",
    "geocoded_column": {
      "latitude": "29.942564674710052",
      "longitude": "-90.12602506926132"
    }
  },
  {
    "service_request": "2023-1019151",
    "request_type": "Trash/Recycling",
    "request_reason": "MIssed Recycling Pick-Up",
    "date_created": "2023-07-20T16:45:50.000",
    "date_modified": "2023-07-20T16:45:51.000",
    "request_status": "Pending",
    "responsible_agency": "Department of Sanitation",
    "final_address": "5613 N Villere St",
    "address_councildis": "E",
    "status": "Assigned to Contractor",
    "contractor": "Waste Pro",
    "rowid": "1019151",
    "final_x": "3698479.05207",
    "final_y": "534893.31303",
    "longitude": "-90.01433429450884",
    "latitude": "29.964244649031198",
    "geocoded_column": {
      "latitude": "29.964244649031198",
      "longitude": "-90.01433429450884"
    }
  },
  {
    "service_request": "2023-1019150",
    "request_type": "Trash/Recycling",
    "request_reason": "Repair Recycling Cart",
    "date_created": "2023-07-20T16:42:47.000",
    "date_modified": "2023-07-20T16:42:48.000",
    "request_status": "Pending",
    "responsible_agency": "Department of Sanitation",
    "final_address": "3400 Touro St",
    "address_councildis": "D",
    "status": "Pending",
    "rowid": "1019150",
    "final_x": "3683473.27362",
    "final_y": "545123.721295",
    "longitude": "-90.06136260194431",
    "latitude": "29.992841120388324",
    "geocoded_column": {
      "latitude": "29.992841120388324",
      "longitude": "-90.06136260194431"
    }
  },
  {
    "service_request": "2023-1019149",
    "request_type": "Trash/Recycling",
    "request_reason": "Missed Trash Pick-Up",
    "date_created": "2023-07-20T16:41:49.000",
    "date_modified": "2023-07-20T16:41:50.000",
    "request_status": "Pending",
    "responsible_agency": "Department of Sanitation",
    "final_address": "121 Elmira Ave",
    "address_councildis": "C",
    "status": "Assigned to Contractor",
    "contractor": "Richards Disposal",
    "rowid": "1019149",
    "final_x": "3688226.60636",
    "final_y": "531222.519426",
    "longitude": "-90.04684072578077",
    "latitude": "29.954471763641905",
    "geocoded_column": {
      "latitude": "29.954471763641905",
      "longitude": "-90.04684072578077"
    }
  },
  {
    "service_request": "2023-1019148",
    "request_type": "Trash/Recycling",
    "request_reason": "Missed Trash Pick-Up",
    "date_created": "2023-07-20T16:41:33.000",
    "date_modified": "2023-07-20T16:41:34.000",
    "request_status": "Pending",
    "responsible_agency": "Department of Sanitation",
    "final_address": "116 Elmira Ave",
    "address_councildis": "C",
    "status": "Assigned to Contractor",
    "contractor": "Richards Disposal",
    "rowid": "1019148",
    "final_x": "3688310.15017",
    "final_y": "531252.800706",
    "longitude": "-90.04657585420118",
    "latitude": "29.954552447317553",
    "geocoded_column": {
      "latitude": "29.954552447317553",
      "longitude": "-90.04657585420118"
    }
  },
  {
    "service_request": "2023-1019147",
    "request_type": "Trash/Recycling",
    "request_reason": "Return Trash Cart",
    "date_created": "2023-07-20T16:40:02.000",
    "date_modified": "2023-07-20T16:40:03.000",
    "request_status": "Pending",
    "responsible_agency": "Department of Sanitation",
    "final_address": "954 Felicity St",
    "address_councildis": "B",
    "status": "Assigned to Contractor",
    "contractor": "Richards Disposal",
    "rowid": "1019147",
    "final_x": "3680186.53947",
    "final_y": "522794.030715",
    "longitude": "-90.07252093721202",
    "latitude": "29.931541991666755",
    "geocoded_column": {
      "latitude": "29.931541991666755",
      "longitude": "-90.07252093721202"
    }
  },
  {
    "service_request": "2023-1019146",
    "request_type": "Trash/Recycling",
    "request_reason": "MIssed Recycling Pick-Up",
    "date_created": "2023-07-20T16:39:17.000",
    "date_modified": "2023-07-20T16:39:17.000",
    "request_status": "Pending",
    "responsible_agency": "Department of Sanitation",
    "final_address": "2823 Second St",
    "address_councildis": "B",
    "status": "Assigned to Contractor",
    "contractor": "Richards Disposal",
    "rowid": "1019146",
    "final_x": "3674291.72552",
    "final_y": "526780.611518",
    "longitude": "-90.09099374698583",
    "latitude": "29.942680823820208",
    "geocoded_column": {
      "latitude": "29.942680823820208",
      "longitude": "-90.09099374698583"
    }
  },
  {
    "service_request": "2023-1019145",
    "request_type": "Traffic Signals/Signs/Striping/Streetlights",
    "request_reason": "Street Light Outage/Malfunction",
    "date_created": "2023-07-20T16:31:22.000",
    "date_modified": "2023-07-20T16:31:23.000",
    "request_status": "Pending",
    "responsible_agency": "Department of Public Works",
    "final_address": "404 Fern St",
    "address_councildis": "A",
    "status": "Assigned to Contractor",
    "contractor": "Legacy Professional Services",
    "rowid": "1019145",
    "final_x": "3660656.11674",
    "final_y": "525855.856509",
    "longitude": "-90.13407535604672",
    "latitude": "29.940537507349468",
    "geocoded_column": {
      "latitude": "29.940537507349468",
      "longitude": "-90.13407535604672"
    }
  },
  {
    "service_request": "2023-1019144",
    "request_type": "Trash/Recycling",
    "request_reason": "Request a Large Item Pick Up",
    "date_created": "2023-07-20T16:31:03.000",
    "date_modified": "2023-07-20T16:31:04.000",
    "request_status": "Pending",
    "responsible_agency": "Department of Sanitation",
    "final_address": "2511 Fern St",
    "address_councildis": "A",
    "status": "Assigned to Contractor",
    "contractor": "Richards Disposal",
    "rowid": "1019144",
    "final_x": "3665792.60992",
    "final_y": "531346.393858",
    "longitude": "-90.1176746185383",
    "latitude": "29.95548588932275",
    "geocoded_column": {
      "latitude": "29.95548588932275",
      "longitude": "-90.1176746185383"
    }
  },
  {
    "service_request": "2023-1019142",
    "request_type": "Abandoned Vehicles",
    "request_reason": "Abandoned/Junk Vehicles",
    "date_created": "2023-07-20T16:25:01.000",
    "date_modified": "2023-07-20T16:25:01.000",
    "request_status": "Pending",
    "responsible_agency": "Department of Public Works",
    "final_address": "2215 Clara St",
    "address_councildis": "B",
    "status": "Pending",
    "rowid": "1019142",
    "final_x": "3674899.44168",
    "final_y": "527011.44275",
    "longitude": "-90.08906712818555",
    "latitude": "29.94329740234129",
    "geocoded_column": {
      "latitude": "29.94329740234129",
      "longitude": "-90.08906712818555"
    }
  },
  {
    "service_request": "2023-1019141",
    "request_type": "Trash/Recycling",
    "request_reason": "Missed Trash Pick-Up",
    "date_created": "2023-07-20T16:24:07.000",
    "date_modified": "2023-07-20T16:24:07.000",
    "request_status": "Pending",
    "responsible_agency": "Department of Sanitation",
    "final_address": "5208 Dauphine St",
    "address_councildis": "E",
    "status": "Assigned to Contractor",
    "contractor": "Waste Pro",
    "rowid": "1019141",
    "final_x": "3696293.98999",
    "final_y": "532950.308804",
    "longitude": "-90.0213047597758",
    "latitude": "29.95897105559996",
    "geocoded_column": {
      "latitude": "29.95897105559996",
      "longitude": "-90.0213047597758"
    }
  },
  {
    "service_request": "2023-1019140",
    "request_type": "Property Maintenance",
    "request_reason": "Property Maintenance",
    "date_created": "2023-07-20T16:14:50.000",
    "date_modified": "2023-07-20T16:14:50.000",
    "request_status": "Pending",
    "responsible_agency": "Department of Code Enforcement",
    "final_address": "13610 Dwyer Blvd",
    "address_councildis": "E",
    "status": "Pending",
    "rowid": "1019140",
    "final_x": "3726499.47917",
    "final_y": "562071.584223",
    "longitude": "-89.92479443035415",
    "latitude": "30.038057453600622",
    "geocoded_column": {
      "latitude": "30.038057453600622",
      "longitude": "-89.92479443035415"
    }
  },
  {
    "service_request": "2023-1019138",
    "request_type": "Traffic Signals/Signs/Striping/Streetlights",
    "request_reason": "Street Light Outage/Malfunction",
    "date_created": "2023-07-20T16:06:36.000",
    "date_modified": "2023-07-20T16:06:37.000",
    "request_status": "Pending",
    "responsible_agency": "Department of Public Works",
    "final_address": "2317 Burgundy St",
    "address_councildis": "C",
    "status": "Assigned to Contractor",
    "contractor": "Legacy Professional Services",
    "rowid": "1019138",
    "final_x": "3685604.03804",
    "final_y": "535686.672647",
    "longitude": "-90.05496448702907",
    "latitude": "29.966827349809723",
    "geocoded_column": {
      "latitude": "29.966827349809723",
      "longitude": "-90.05496448702907"
    }
  },
  {
    "service_request": "2023-1019137",
    "request_type": "Traffic Signals/Signs/Striping/Streetlights",
    "request_reason": "Traffic Signal Malfunctioning/Damaged",
    "date_created": "2023-07-20T16:04:46.000",
    "date_modified": "2023-07-20T16:04:46.000",
    "request_status": "Pending",
    "responsible_agency": "Department of Public Works",
    "final_address": "0 BLK N Broad St",
    "address_councildis": "B",
    "status": "Pending",
    "rowid": "1019137",
    "final_x": "3675449.49847",
    "final_y": "535200.531093",
    "longitude": "-90.08704924250887",
    "latitude": "29.965798227126992",
    "geocoded_column": {
      "latitude": "29.965798227126992",
      "longitude": "-90.08704924250887"
    }
  },
  {
    "service_request": "2023-1019136",
    "request_type": "Trash/Recycling",
    "request_reason": "MIssed Recycling Pick-Up",
    "date_created": "2023-07-20T16:01:40.000",
    "date_modified": "2023-07-20T16:01:41.000",
    "request_status": "Pending",
    "responsible_agency": "Department of Sanitation",
    "final_address": "1124 Charbonnet St",
    "address_councildis": "E",
    "status": "Assigned to Contractor",
    "contractor": "Waste Pro",
    "rowid": "1019136",
    "final_x": "3698656.15268",
    "final_y": "533870.494405",
    "longitude": "-90.01381222441475",
    "latitude": "29.96142665578984",
    "geocoded_column": {
      "latitude": "29.96142665578984",
      "longitude": "-90.01381222441475"
    }
  },
  {
    "service_request": "2023-1019134",
    "request_type": "Trash/Recycling",
    "request_reason": "Request a Large Item Pick Up",
    "date_created": "2023-07-20T15:58:46.000",
    "date_modified": "2023-07-20T15:58:47.000",
    "request_status": "Pending",
    "responsible_agency": "Department of Sanitation",
    "final_address": "120 S Hennessey St",
    "address_councildis": "A",
    "status": "Assigned to Contractor",
    "contractor": "Richards Disposal",
    "rowid": "1019134",
    "final_x": "3670176.1746",
    "final_y": "538731.317961",
    "longitude": "-90.10358259801656",
    "latitude": "29.97566336101968",
    "geocoded_column": {
      "latitude": "29.97566336101968",
      "longitude": "-90.10358259801656"
    }
  },
  {
    "service_request": "2023-1019133",
    "request_type": "Trash/Recycling",
    "request_reason": "Order Recycling Cart",
    "date_created": "2023-07-20T15:51:24.000",
    "date_modified": "2023-07-20T15:51:25.000",
    "request_status": "Pending",
    "responsible_agency": "Department of Sanitation",
    "final_address": "4547 Danneel St",
    "address_councildis": "B",
    "status": "Pending",
    "rowid": "1019133",
    "final_x": "3670003.72046",
    "final_y": "522255.571898",
    "longitude": "-90.10468521277733",
    "latitude": "29.93036556335154",
    "geocoded_column": {
      "latitude": "29.93036556335154",
      "longitude": "-90.10468521277733"
    }
  },
  {
    "service_request": "2023-1019131",
    "request_type": "Trash/Recycling",
    "request_reason": "Missed Trash Pick-Up",
    "date_created": "2023-07-20T15:50:50.000",
    "date_modified": "2023-07-20T15:50:50.000",
    "request_status": "Pending",
    "responsible_agency": "Department of Sanitation",
    "final_address": "NEWTON ST & HENDEE ST",
    "address_councildis": "C",
    "status": "Assigned to Contractor",
    "contractor": "Richards Disposal",
    "rowid": "1019131",
    "final_x": "3690799.6",
    "final_y": "527825.28",
    "longitude": "-90.03883743876052",
    "latitude": "29.945050842634746",
    "geocoded_column": {
      "latitude": "29.945050842634746",
      "longitude": "-90.03883743876052"
    }
  },
  {
    "service_request": "2023-1019127",
    "request_type": "Roads/Drainage",
    "request_reason": "Damaged Sidewalk",
    "date_created": "2023-07-20T15:47:55.000",
    "date_modified": "2023-07-20T15:50:47.000",
    "request_status": "Pending",
    "responsible_agency": "Department of Public Works",
    "final_address": "4346 Van Ave",
    "address_councildis": "D",
    "status": "Pending",
    "rowid": "1019127",
    "final_x": "3679827.15042",
    "final_y": "548693.682003",
    "longitude": "-90.07275599321554",
    "latitude": "30.002768033609094",
    "geocoded_column": {
      "latitude": "30.002768033609094",
      "longitude": "-90.07275599321554"
    }
  },
  {
    "service_request": "2023-1019124",
    "request_type": "Parks & Parkways",
    "request_reason": "Request Tree Service (Right of Way/Public Property)",
    "date_created": "2023-07-20T15:47:04.000",
    "date_modified": "2023-07-20T15:51:06.000",
    "request_status": "Pending",
    "responsible_agency": "Department of Parks & Parkway",
    "final_address": "4346 Van Ave",
    "address_councildis": "D",
    "status": "Pending",
    "rowid": "1019124",
    "final_x": "3679827.15042",
    "final_y": "548693.682003",
    "longitude": "-90.07275599321554",
    "latitude": "30.002768033609094",
    "geocoded_column": {
      "latitude": "30.002768033609094",
      "longitude": "-90.07275599321554"
    }
  },
  {
    "service_request": "2023-1019123",
    "request_type": "Trash/Recycling",
    "request_reason": "Replace Recycling Cart",
    "date_created": "2023-07-20T15:40:54.000",
    "date_modified": "2023-07-20T15:40:54.000",
    "request_status": "Pending",
    "responsible_agency": "Department of Sanitation",
    "final_address": "3823 Iberville St",
    "address_councildis": "A",
    "status": "Pending",
    "rowid": "1019123",
    "final_x": "3672194.2683",
    "final_y": "538095.113993",
    "longitude": "-90.09723055925431",
    "latitude": "29.97385430713262",
    "geocoded_column": {
      "latitude": "29.97385430713262",
      "longitude": "-90.09723055925431"
    }
  },
  {
    "service_request": "2023-1019122",
    "request_type": "Trash/Recycling",
    "request_reason": "Replace Trash Cart",
    "date_created": "2023-07-20T15:40:13.000",
    "date_modified": "2023-07-20T15:40:13.000",
    "request_status": "Pending",
    "responsible_agency": "Department of Sanitation",
    "final_address": "3823 Iberville St",
    "address_councildis": "A",
    "status": "Assigned to Contractor",
    "contractor": "Richards Disposal",
    "rowid": "1019122",
    "final_x": "3672194.2683",
    "final_y": "538095.113993",
    "longitude": "-90.09723055925431",
    "latitude": "29.97385430713262",
    "geocoded_column": {
      "latitude": "29.97385430713262",
      "longitude": "-90.09723055925431"
    }
  },
  {
    "service_request": "2023-1019121",
    "request_type": "Trash/Recycling",
    "request_reason": "Replace Trash Cart",
    "date_created": "2023-07-20T15:39:00.000",
    "date_modified": "2023-07-20T15:39:01.000",
    "request_status": "Pending",
    "responsible_agency": "Department of Sanitation",
    "final_address": "3821 Iberville St",
    "address_councildis": "A",
    "status": "Assigned to Contractor",
    "contractor": "Richards Disposal",
    "rowid": "1019121",
    "final_x": "3672199.70625",
    "final_y": "538087.971209",
    "longitude": "-90.0972136283295",
    "latitude": "29.97383450559011",
    "geocoded_column": {
      "latitude": "29.97383450559011",
      "longitude": "-90.0972136283295"
    }
  },
  {
    "service_request": "2023-1019120",
    "request_type": "Trash/Recycling",
    "request_reason": "MIssed Recycling Pick-Up",
    "date_created": "2023-07-20T15:35:46.000",
    "date_modified": "2023-07-20T15:35:47.000",
    "request_status": "Pending",
    "responsible_agency": "Department of Sanitation",
    "final_address": "2069 Timoleon St",
    "address_councildis": "D",
    "status": "Assigned to Contractor",
    "contractor": "IV Waste",
    "rowid": "1019120",
    "final_x": "3682878.0356",
    "final_y": "551081.686677",
    "longitude": "-90.06303420727644",
    "latitude": "30.00924154392315",
    "geocoded_column": {
      "latitude": "30.00924154392315",
      "longitude": "-90.06303420727644"
    }
  },
  {
    "service_request": "2023-1019119",
    "request_type": "Abandoned Vehicles",
    "request_reason": "Abandoned/Junk Vehicles",
    "date_created": "2023-07-20T15:33:04.000",
    "date_modified": "2023-07-20T15:33:04.000",
    "request_status": "Pending",
    "responsible_agency": "Department of Public Works",
    "final_address": "4225 Carondelet St",
    "address_councildis": "B",
    "status": "Pending",
    "rowid": "1019119",
    "final_x": "3671358.44929",
    "final_y": "521336.572729",
    "longitude": "-90.10043974932738",
    "latitude": "29.927798598337045",
    "geocoded_column": {
      "latitude": "29.927798598337045",
      "longitude": "-90.10043974932738"
    }
  },
  {
    "service_request": "2023-1019118",
    "request_type": "Traffic Signals/Signs/Striping/Streetlights",
    "request_reason": "Street Light Outage/Malfunction",
    "date_created": "2023-07-20T15:30:06.000",
    "date_modified": "2023-07-20T15:30:07.000",
    "request_status": "Pending",
    "responsible_agency": "Department of Public Works",
    "final_address": "8835 Nelson St",
    "address_councildis": "A",
    "status": "Assigned to Contractor",
    "contractor": "Legacy Professional Services",
    "rowid": "1019118",
    "final_x": "3663095.03859",
    "final_y": "533736.070469",
    "longitude": "-90.12611311763706",
    "latitude": "29.962135140683188",
    "geocoded_column": {
      "latitude": "29.962135140683188",
      "longitude": "-90.12611311763706"
    }
  },
  {
    "service_request": "2023-1019117",
    "request_type": "Trash/Recycling",
    "request_reason": "Order Trash Cart",
    "date_created": "2023-07-20T15:27:46.000",
    "date_modified": "2023-07-20T15:27:46.000",
    "request_status": "Pending",
    "responsible_agency": "Department of Sanitation",
    "final_address": "2920 Broadway St",
    "address_councildis": "B",
    "status": "Assigned to Contractor",
    "contractor": "Richards Disposal",
    "rowid": "1019117",
    "final_x": "3667605.94823",
    "final_y": "531784.633987",
    "longitude": "-90.11193397933228",
    "latitude": "29.956637882552354",
    "geocoded_column": {
      "latitude": "29.956637882552354",
      "longitude": "-90.11193397933228"
    }
  },
  {
    "service_request": "2023-1019116",
    "request_type": "Trash/Recycling",
    "request_reason": "Request a Large Item Pick Up",
    "date_created": "2023-07-20T15:22:58.000",
    "date_modified": "2023-07-20T15:22:59.000",
    "request_status": "Pending",
    "responsible_agency": "Department of Sanitation",
    "final_address": "1331 Louisiana Ave",
    "address_councildis": "B",
    "status": "Assigned to Contractor",
    "contractor": "Richards Disposal",
    "rowid": "1019116",
    "final_x": "3674732.85697",
    "final_y": "520580.112888",
    "longitude": "-90.08981344234653",
    "latitude": "29.92561831222598",
    "geocoded_column": {
      "latitude": "29.92561831222598",
      "longitude": "-90.08981344234653"
    }
  },
  {
    "service_request": "2023-1019115",
    "request_type": "Property Maintenance",
    "request_reason": "Property Maintenance",
    "date_created": "2023-07-20T15:22:05.000",
    "date_modified": "2023-07-20T15:22:05.000",
    "request_status": "Pending",
    "responsible_agency": "Department of Code Enforcement",
    "final_address": "3600 Rue Renee",
    "address_councildis": "C",
    "status": "Pending",
    "rowid": "1019115",
    "final_x": "3705315.26219",
    "final_y": "517072.421429",
    "longitude": "-89.9934043785556",
    "latitude": "29.91502535079253",
    "geocoded_column": {
      "latitude": "29.91502535079253",
      "longitude": "-89.9934043785556"
    }
  },
  {
    "service_request": "2023-1019114",
    "request_type": "Trash/Recycling",
    "request_reason": "Replace Trash Cart",
    "date_created": "2023-07-20T15:21:10.000",
    "date_modified": "2023-07-20T15:21:11.000",
    "request_status": "Pending",
    "responsible_agency": "Department of Sanitation",
    "final_address": "2910 Philip St",
    "address_councildis": "B",
    "status": "Assigned to Contractor",
    "contractor": "Richards Disposal",
    "rowid": "1019114",
    "final_x": "3674515.81057",
    "final_y": "527242.543807",
    "longitude": "-90.0902704352013",
    "latitude": "29.943944303376476",
    "geocoded_column": {
      "latitude": "29.943944303376476",
      "longitude": "-90.0902704352013"
    }
  },
  {
    "service_request": "2023-1019113",
    "request_type": "Trash/Recycling",
    "request_reason": "Request a Large Item Pick Up",
    "date_created": "2023-07-20T15:20:58.000",
    "date_modified": "2023-07-20T15:20:58.000",
    "request_status": "Pending",
    "responsible_agency": "Department of Sanitation",
    "final_address": "2114 Josephine St",
    "address_councildis": "B",
    "status": "Assigned to Contractor",
    "contractor": "Richards Disposal",
    "rowid": "1019113",
    "final_x": "3676652.72891",
    "final_y": "525533.816253",
    "longitude": "-90.08358243391223",
    "latitude": "29.9391819494385",
    "geocoded_column": {
      "latitude": "29.9391819494385",
      "longitude": "-90.08358243391223"
    }
  },
  {
    "service_request": "2023-1019112",
    "request_type": "Traffic Signals/Signs/Striping/Streetlights",
    "request_reason": "Street Light Outage/Malfunction",
    "date_created": "2023-07-20T15:16:44.000",
    "date_modified": "2023-07-20T15:16:45.000",
    "request_status": "Pending",
    "responsible_agency": "Department of Public Works",
    "final_address": "DESAIX BLVD & WINTHROP PL",
    "address_councildis": "D",
    "status": "Assigned to Contractor",
    "contractor": "Legacy Professional Services",
    "rowid": "1019112",
    "final_x": "3677600.6",
    "final_y": "543621.58",
    "longitude": "-90.07996524449345",
    "latitude": "29.988888703135093",
    "geocoded_column": {
      "latitude": "29.988888703135093",
      "longitude": "-90.07996524449345"
    }
  },
  {
    "service_request": "2023-1019111",
    "request_type": "Trash/Recycling",
    "request_reason": "MIssed Recycling Pick-Up",
    "date_created": "2023-07-20T15:16:35.000",
    "date_modified": "2023-07-20T15:16:35.000",
    "request_status": "Pending",
    "responsible_agency": "Department of Sanitation",
    "final_address": "1431 Constance St, New Orleans, Louisiana, 70130",
    "address_councildis": "B",
    "status": "Assigned to Contractor",
    "contractor": "Richards Disposal",
    "rowid": "1019111",
    "final_x": "3680635.16514",
    "final_y": "524194.270716",
    "longitude": "-90.07105598366722",
    "latitude": "29.935378608323525",
    "geocoded_column": {
      "latitude": "29.935378608323525",
      "longitude": "-90.07105598366722"
    }
  },
  {
    "service_request": "2023-1019110",
    "request_type": "Parks & Parkways",
    "request_reason": "Request Tree Service (Right of Way/Public Property)",
    "date_created": "2023-07-20T15:08:50.000",
    "date_modified": "2023-07-20T15:08:50.000",
    "request_status": "Pending",
    "responsible_agency": "Department of Parks & Parkway",
    "final_address": "VICKSBURG ST & HARRISON AVE",
    "address_councildis": "A",
    "status": "Pending",
    "rowid": "1019110",
    "final_x": "3669052.8",
    "final_y": "549285.68",
    "longitude": "-90.10677371967084",
    "latitude": "30.004717343212388",
    "geocoded_column": {
      "latitude": "30.004717343212388",
      "longitude": "-90.10677371967084"
    }
  },
  {
    "service_request": "2023-1019109",
    "request_type": "Parks & Parkways",
    "request_reason": "Request Tree Service (Right of Way/Public Property)",
    "date_created": "2023-07-20T15:07:40.000",
    "date_modified": "2023-07-20T15:07:40.000",
    "request_status": "Pending",
    "responsible_agency": "Department of Parks & Parkway",
    "final_address": "6301 Canal Blvd",
    "address_councildis": "A",
    "status": "Pending",
    "rowid": "1019109",
    "final_x": "3668805.38932",
    "final_y": "549369.744083",
    "longitude": "-90.10755250041724",
    "latitude": "30.004955769971186",
    "geocoded_column": {
      "latitude": "30.004955769971186",
      "longitude": "-90.10755250041724"
    }
  },
  {
    "service_request": "2023-1019108",
    "request_type": "Trash/Recycling",
    "request_reason": "Missed Trash Pick-Up",
    "date_created": "2023-07-20T15:05:41.000",
    "date_modified": "2023-07-20T15:05:41.000",
    "request_status": "Pending",
    "responsible_agency": "Department of Sanitation",
    "final_address": "2300 Harmony St",
    "address_councildis": "B",
    "status": "Assigned to Contractor",
    "contractor": "Richards Disposal",
    "rowid": "1019108",
    "final_x": "3673684.10164",
    "final_y": "524077.994684",
    "longitude": "-90.09300452556485",
    "latitude": "29.9352676103742",
    "geocoded_column": {
      "latitude": "29.9352676103742",
      "longitude": "-90.09300452556485"
    }
  },
  {
    "service_request": "2023-1019107",
    "request_type": "Trash/Recycling",
    "request_reason": "Request a Large Item Pick Up",
    "date_created": "2023-07-20T14:54:49.000",
    "date_modified": "2023-07-20T14:54:50.000",
    "request_status": "Pending",
    "responsible_agency": "Department of Sanitation",
    "final_address": "5445 Grand Bayou Dr, New Orleans, Louisiana, 70129",
    "address_councildis": "E",
    "status": "Assigned to Contractor",
    "contractor": "Waste Pro",
    "rowid": "1019107",
    "final_x": "3725782.70931",
    "final_y": "563918.063905",
    "longitude": "-89.9269879519494",
    "latitude": "30.043158715755137",
    "geocoded_column": {
      "latitude": "30.043158715755137",
      "longitude": "-89.9269879519494"
    }
  },
  {
    "service_request": "2023-1019106",
    "request_type": "Trash/Recycling",
    "request_reason": "Request a Large Item Pick Up",
    "date_created": "2023-07-20T14:50:41.000",
    "date_modified": "2023-07-20T14:50:42.000",
    "request_status": "Pending",
    "responsible_agency": "Department of Sanitation",
    "final_address": "49 Morrison Ct",
    "address_councildis": "E",
    "status": "Assigned to Contractor",
    "contractor": "Waste Pro",
    "rowid": "1019106",
    "final_x": "3704169.51108",
    "final_y": "561433.857886",
    "longitude": "-89.99538579737612",
    "latitude": "30.037039803783657",
    "geocoded_column": {
      "latitude": "30.037039803783657",
      "longitude": "-89.99538579737612"
    }
  },
  {
    "service_request": "2023-1019105",
    "request_type": "Trash/Recycling",
    "request_reason": "Missed Trash Pick-Up",
    "date_created": "2023-07-20T14:49:18.000",
    "date_modified": "2023-07-20T14:49:19.000",
    "request_status": "Pending",
    "responsible_agency": "Department of Sanitation",
    "final_address": "2428 St Anthony St",
    "address_councildis": "D",
    "status": "Assigned to Contractor",
    "contractor": "IV Waste",
    "rowid": "1019105",
    "final_x": "3683042.03816",
    "final_y": "541207.963724",
    "longitude": "-90.06286194191904",
    "latitude": "29.982087325211563",
    "geocoded_column": {
      "latitude": "29.982087325211563",
      "longitude": "-90.06286194191904"
    }
  },
  {
    "service_request": "2023-1019104",
    "request_type": "Property Maintenance",
    "request_reason": "Property Maintenance",
    "date_created": "2023-07-20T14:48:37.000",
    "date_modified": "2023-07-20T14:48:37.000",
    "request_status": "Pending",
    "responsible_agency": "Department of Code Enforcement",
    "final_address": "217 S Rendon St",
    "address_councildis": "B",
    "status": "Pending",
    "rowid": "1019104",
    "final_x": "3673171.2914",
    "final_y": "535996.859911",
    "longitude": "-90.09421656086991",
    "latitude": "29.968055800837906",
    "geocoded_column": {
      "latitude": "29.968055800837906",
      "longitude": "-90.09421656086991"
    }
  },
  {
    "service_request": "2023-1019103",
    "request_type": "Trash/Recycling",
    "request_reason": "Missed Trash Pick-Up",
    "date_created": "2023-07-20T14:43:10.000",
    "date_modified": "2023-07-20T15:40:44.000",
    "case_close_date": "2023-07-20T10:40:44.000",
    "request_status": "Closed",
    "responsible_agency": "Department of Sanitation",
    "final_address": "6056 Beechcraft St",
    "address_councildis": "D",
    "status": "Invalid Request",
    "contractor": "Waste Pro",
    "contractor_action": "Invalid Pick-Up",
    "rowid": "1019103",
    "final_x": "3696729.19568",
    "final_y": "553298.429271",
    "longitude": "-90.01919357952458",
    "latitude": "30.014907257536297",
    "geocoded_column": {
      "latitude": "30.014907257536297",
      "longitude": "-90.01919357952458"
    }
  },
  {
    "service_request": "2023-1019102",
    "request_type": "Trash/Recycling",
    "request_reason": "Repair Trash Cart",
    "date_created": "2023-07-20T14:43:09.000",
    "date_modified": "2023-07-20T14:43:09.000",
    "request_status": "Pending",
    "responsible_agency": "Department of Sanitation",
    "final_address": "2223 Marengo St",
    "address_councildis": "B",
    "status": "Assigned to Contractor",
    "contractor": "Richards Disposal",
    "rowid": "1019102",
    "final_x": "3671775.25364",
    "final_y": "523316.789563",
    "longitude": "-90.09905665812164",
    "latitude": "29.93323121947047",
    "geocoded_column": {
      "latitude": "29.93323121947047",
      "longitude": "-90.09905665812164"
    }
  },
  {
    "service_request": "2023-1019101",
    "request_type": "Roads/Drainage",
    "request_reason": "Accessibility Ramps, Curbs and Sidewalk Repair",
    "date_created": "2023-07-20T14:41:54.000",
    "date_modified": "2023-07-20T16:48:47.000",
    "case_close_date": "2023-07-20T11:48:47.000",
    "request_status": "Closed",
    "responsible_agency": "Department of Public Works",
    "final_address": "1916 Stephen Girard St",
    "address_councildis": "D",
    "status": "Resolved",
    "rowid": "1019101",
    "final_x": "3681990.52572",
    "final_y": "548621.380691",
    "longitude": "-90.06592412784231",
    "latitude": "30.00250361196857",
    "geocoded_column": {
      "latitude": "30.00250361196857",
      "longitude": "-90.06592412784231"
    }
  },
  {
    "service_request": "2023-1019100",
    "request_type": "Trash/Recycling",
    "request_reason": "Request a Large Item Pick Up",
    "date_created": "2023-07-20T14:33:25.000",
    "date_modified": "2023-07-20T14:33:25.000",
    "request_status": "Pending",
    "responsible_agency": "Department of Sanitation",
    "final_address": "5858 W Deer Park Blvd",
    "address_councildis": "E",
    "status": "Assigned to Contractor",
    "contractor": "Waste Pro",
    "rowid": "1019100",
    "final_x": "3712113.03499",
    "final_y": "561006.90819",
    "longitude": "-89.9702988074547",
    "latitude": "30.035608434434877",
    "geocoded_column": {
      "latitude": "30.035608434434877",
      "longitude": "-89.9702988074547"
    }
  },
  {
    "service_request": "2023-1019098",
    "request_type": "Trash/Recycling",
    "request_reason": "MIssed Recycling Pick-Up",
    "date_created": "2023-07-20T14:29:51.000",
    "date_modified": "2023-07-20T14:29:51.000",
    "request_status": "Pending",
    "responsible_agency": "Department of Sanitation",
    "final_address": "745 S Genois St",
    "address_councildis": "B",
    "status": "Assigned to Contractor",
    "contractor": "Richards Disposal",
    "rowid": "1019098",
    "final_x": "3670907.48359",
    "final_y": "535033.38247",
    "longitude": "-90.1013984815006",
    "latitude": "29.965473680370117",
    "geocoded_column": {
      "latitude": "29.965473680370117",
      "longitude": "-90.1013984815006"
    }
  },
  {
    "service_request": "2023-1019097",
    "request_type": "Trash/Recycling",
    "request_reason": "Repair Recycling Cart",
    "date_created": "2023-07-20T14:28:40.000",
    "date_modified": "2023-07-20T14:28:40.000",
    "request_status": "Pending",
    "responsible_agency": "Department of Sanitation",
    "final_address": "5711 Macarthur Blvd",
    "address_councildis": "C",
    "status": "Pending",
    "rowid": "1019097",
    "final_x": "3704410.03268",
    "final_y": "519338.833015",
    "longitude": "-89.99617810631355",
    "latitude": "29.9212862765193",
    "geocoded_column": {
      "latitude": "29.9212862765193",
      "longitude": "-89.99617810631355"
    }
  },
  {
    "service_request": "2023-1019096",
    "request_type": "Abandoned Vehicles",
    "request_reason": "Abandoned/Junk Vehicles",
    "date_created": "2023-07-20T14:26:28.000",
    "date_modified": "2023-07-20T15:39:41.000",
    "request_status": "Pending",
    "responsible_agency": "Department of Public Works",
    "final_address": "2200 BLK Clara St",
    "address_councildis": "B",
    "status": "Inspected",
    "rowid": "1019096",
    "final_x": "3674924.33548",
    "final_y": "526969.821832",
    "longitude": "-90.08898995907938",
    "latitude": "29.94318221519209",
    "geocoded_column": {
      "latitude": "29.94318221519209",
      "longitude": "-90.08898995907938"
    }
  },
  {
    "service_request": "2023-1019095",
    "request_type": "Trash/Recycling",
    "request_reason": "Order Trash Cart",
    "date_created": "2023-07-20T14:23:49.000",
    "date_modified": "2023-07-20T14:23:50.000",
    "request_status": "Pending",
    "responsible_agency": "Department of Sanitation",
    "final_address": "600 Second St",
    "address_councildis": "B",
    "status": "Assigned to Contractor",
    "contractor": "Richards Disposal",
    "rowid": "1019095",
    "final_x": "3678777.40654",
    "final_y": "519804.023544",
    "longitude": "-90.07707289152579",
    "latitude": "29.923363006987003",
    "geocoded_column": {
      "latitude": "29.923363006987003",
      "longitude": "-90.07707289152579"
    }
  },
  {
    "service_request": "2023-1019094",
    "request_type": "Trash/Recycling",
    "request_reason": "Order Recycling Cart",
    "date_created": "2023-07-20T14:21:49.000",
    "date_modified": "2023-07-20T14:21:49.000",
    "request_status": "Pending",
    "responsible_agency": "Department of Sanitation",
    "final_address": "9005 Olive St",
    "address_councildis": "A",
    "status": "Pending",
    "rowid": "1019094",
    "final_x": "3664872.52519",
    "final_y": "536388.138631",
    "longitude": "-90.12041140634454",
    "latitude": "29.96937584174801",
    "geocoded_column": {
      "latitude": "29.96937584174801",
      "longitude": "-90.12041140634454"
    }
  },
  {
    "service_request": "2023-1019093",
    "request_type": "Property Maintenance",
    "request_reason": "Property Maintenance",
    "date_created": "2023-07-20T14:21:48.000",
    "date_modified": "2023-07-20T14:21:48.000",
    "request_status": "Pending",
    "responsible_agency": "Department of Code Enforcement",
    "final_address": "2816 N Dorgenois St",
    "address_councildis": "D",
    "status": "Pending",
    "rowid": "1019093",
    "final_x": "3688014.59996",
    "final_y": "541699.738188",
    "longitude": "-90.04713880452864",
    "latitude": "29.983286993487496",
    "geocoded_column": {
      "latitude": "29.983286993487496",
      "longitude": "-90.04713880452864"
    }
  },
  {
    "service_request": "2023-1019092",
    "request_type": "Trash/Recycling",
    "request_reason": "Missed Trash Pick-Up",
    "date_created": "2023-07-20T14:20:42.000",
    "date_modified": "2023-07-20T14:20:42.000",
    "request_status": "Pending",
    "responsible_agency": "Department of Sanitation",
    "final_address": "924 Lamanche St",
    "address_councildis": "E",
    "status": "Assigned to Contractor",
    "contractor": "Waste Pro",
    "rowid": "1019092",
    "final_x": "3698140.68048",
    "final_y": "533067.7577",
    "longitude": "-90.01546914180466",
    "latitude": "29.95923572697157",
    "geocoded_column": {
      "latitude": "29.95923572697157",
      "longitude": "-90.01546914180466"
    }
  },
  {
    "service_request": "2023-1019091",
    "request_type": "Trash/Recycling",
    "request_reason": "Illegal Dumping",
    "date_created": "2023-07-20T14:19:07.000",
    "date_modified": "2023-07-20T14:19:07.000",
    "request_status": "Pending",
    "responsible_agency": "Department of Sanitation",
    "final_address": "8821 Edinburgh St",
    "address_councildis": "A",
    "status": "Pending",
    "rowid": "1019091",
    "final_x": "3665537.70266",
    "final_y": "536252.746439",
    "longitude": "-90.11831524864651",
    "latitude": "29.96898418041593",
    "geocoded_column": {
      "latitude": "29.96898418041593",
      "longitude": "-90.11831524864651"
    }
  },
  {
    "service_request": "2023-1019090",
    "request_type": "Trash/Recycling",
    "request_reason": "Missed Trash Pick-Up",
    "date_created": "2023-07-20T14:19:04.000",
    "date_modified": "2023-07-20T14:19:05.000",
    "request_status": "Pending",
    "responsible_agency": "Department of Sanitation",
    "final_address": "1600 BLK Chippewa St",
    "address_councildis": "B",
    "status": "Assigned to Contractor",
    "contractor": "Richards Disposal",
    "rowid": "1019090",
    "final_x": "3681072.78775",
    "final_y": "522677.18278",
    "longitude": "-90.06972722527576",
    "latitude": "29.93119385456631",
    "geocoded_column": {
      "latitude": "29.93119385456631",
      "longitude": "-90.06972722527576"
    }
  },
  {
    "service_request": "2023-1019089",
    "request_type": "Trash/Recycling",
    "request_reason": "Order Recycling Cart",
    "date_created": "2023-07-20T14:18:01.000",
    "date_modified": "2023-07-20T14:18:01.000",
    "request_status": "Pending",
    "responsible_agency": "Department of Sanitation",
    "final_address": "6336 Louisville St",
    "address_councildis": "A",
    "status": "Pending",
    "rowid": "1019089",
    "final_x": "3667864.22567",
    "final_y": "549687.340628",
    "longitude": "-90.11051513241343",
    "latitude": "30.00585670046995",
    "geocoded_column": {
      "latitude": "30.00585670046995",
      "longitude": "-90.11051513241343"
    }
  },
  {
    "service_request": "2023-1019088",
    "request_type": "Trash/Recycling",
    "request_reason": "Order Recycling Cart",
    "date_created": "2023-07-20T14:17:42.000",
    "date_modified": "2023-07-20T14:17:42.000",
    "request_status": "Pending",
    "responsible_agency": "Department of Sanitation",
    "final_address": "6334 Louisville St",
    "address_councildis": "A",
    "status": "Pending",
    "rowid": "1019088",
    "final_x": "3667864.22567",
    "final_y": "549687.340628",
    "longitude": "-90.11051513241343",
    "latitude": "30.00585670046995",
    "geocoded_column": {
      "latitude": "30.00585670046995",
      "longitude": "-90.11051513241343"
    }
  },
  {
    "service_request": "2023-1019087",
    "request_type": "Property Maintenance",
    "request_reason": "Property Maintenance",
    "date_created": "2023-07-20T14:15:48.000",
    "date_modified": "2023-07-20T14:15:48.000",
    "request_status": "Pending",
    "responsible_agency": "Department of Code Enforcement",
    "final_address": "8821 Edinburgh St",
    "address_councildis": "A",
    "status": "Pending",
    "rowid": "1019087",
    "final_x": "3665537.70266",
    "final_y": "536252.746439",
    "longitude": "-90.11831524864651",
    "latitude": "29.96898418041593",
    "geocoded_column": {
      "latitude": "29.96898418041593",
      "longitude": "-90.11831524864651"
    }
  },
  {
    "service_request": "2023-1019086",
    "request_type": "Trash/Recycling",
    "request_reason": "MIssed Recycling Pick-Up",
    "date_created": "2023-07-20T14:15:29.000",
    "date_modified": "2023-07-20T14:15:30.000",
    "request_status": "Pending",
    "responsible_agency": "Department of Sanitation",
    "final_address": "13913 Wales St",
    "address_councildis": "E",
    "status": "Assigned to Contractor",
    "contractor": "Waste Pro",
    "rowid": "1019086",
    "final_x": "3717891.78354",
    "final_y": "572413.188969",
    "longitude": "-89.95160250225499",
    "latitude": "30.066780734887708",
    "geocoded_column": {
      "latitude": "30.066780734887708",
      "longitude": "-89.95160250225499"
    }
  },
  {
    "service_request": "2023-1019085",
    "request_type": "Mosquito, Termite & Rodent Control",
    "request_reason": "Mosquito Complaint",
    "date_created": "2023-07-20T14:13:41.000",
    "date_modified": "2023-07-20T16:11:11.000",
    "case_close_date": "2023-07-20T11:11:11.000",
    "request_status": "Closed",
    "responsible_agency": "Mosquito, Termite & Rodent Control Board",
    "final_address": "1904 Milan St",
    "address_councildis": "B",
    "status": "Resolved",
    "rowid": "1019085",
    "final_x": "3671439.90388",
    "final_y": "522084.324538",
    "longitude": "-90.100157211905",
    "latitude": "29.929852265746902",
    "geocoded_column": {
      "latitude": "29.929852265746902",
      "longitude": "-90.100157211905"
    }
  },
  {
    "service_request": "2023-1019084",
    "request_type": "Property Maintenance",
    "request_reason": "Property Maintenance",
    "date_created": "2023-07-20T14:13:17.000",
    "date_modified": "2023-07-20T14:13:17.000",
    "request_status": "Pending",
    "responsible_agency": "Department of Code Enforcement",
    "final_address": "3429 Monroe St",
    "address_councildis": "A",
    "status": "Pending",
    "rowid": "1019084",
    "final_x": "3665872.3161",
    "final_y": "535754.327175",
    "longitude": "-90.1172752178881",
    "latitude": "29.967603932077193",
    "geocoded_column": {
      "latitude": "29.967603932077193",
      "longitude": "-90.1172752178881"
    }
  },
  {
    "service_request": "2023-1019083",
    "request_type": "Trash/Recycling",
    "request_reason": "Replace Trash Cart",
    "date_created": "2023-07-20T14:11:36.000",
    "date_modified": "2023-07-20T14:11:37.000",
    "request_status": "Pending",
    "responsible_agency": "Department of Sanitation",
    "final_address": "8649 Grant Street",
    "address_councildis": "E",
    "status": "Assigned to Contractor",
    "contractor": "Waste Pro",
    "rowid": "1019083",
    "final_x": "3707480.6835",
    "final_y": "554464.716248",
    "longitude": "-89.98518097512552",
    "latitude": "30.0177706665698",
    "geocoded_column": {
      "latitude": "30.0177706665698",
      "longitude": "-89.98518097512552"
    }
  },
  {
    "service_request": "2023-1019082",
    "request_type": "Traffic Signals/Signs/Striping/Streetlights",
    "request_reason": "Street Light Outage/Malfunction",
    "date_created": "2023-07-20T14:11:35.000",
    "date_modified": "2023-07-20T14:11:35.000",
    "request_status": "Pending",
    "responsible_agency": "Department of Public Works",
    "final_address": "607 Forstall St",
    "address_councildis": "E",
    "status": "Assigned to Contractor",
    "contractor": "Legacy Professional Services",
    "rowid": "1019082",
    "final_x": "3695795.34762",
    "final_y": "532490.119876",
    "longitude": "-90.02289595860255",
    "latitude": "29.957721388313033",
    "geocoded_column": {
      "latitude": "29.957721388313033",
      "longitude": "-90.02289595860255"
    }
  },
  {
    "service_request": "2023-1019081",
    "request_type": "Property Maintenance",
    "request_reason": "Property Maintenance",
    "date_created": "2023-07-20T14:10:34.000",
    "date_modified": "2023-07-20T14:10:34.000",
    "request_status": "Pending",
    "responsible_agency": "Department of Code Enforcement",
    "final_address": "3437 Monroe St",
    "address_councildis": "A",
    "status": "Pending",
    "rowid": "1019081",
    "final_x": "3665904.43341",
    "final_y": "535795.994119",
    "longitude": "-90.11717239367317",
    "latitude": "29.967717565106835",
    "geocoded_column": {
      "latitude": "29.967717565106835",
      "longitude": "-90.11717239367317"
    }
  },
  {
    "service_request": "2023-1019080",
    "request_type": "Abandoned Vehicles",
    "request_reason": "Abandoned/Junk Vehicles",
    "date_created": "2023-07-20T14:10:15.000",
    "date_modified": "2023-07-20T15:00:52.000",
    "request_status": "Pending",
    "responsible_agency": "Department of Public Works",
    "final_address": "2300 BLK Clara St",
    "address_councildis": "B",
    "status": "Inspected",
    "rowid": "1019080",
    "final_x": "3674708.92646",
    "final_y": "526818.720757",
    "longitude": "-90.08967523810009",
    "latitude": "29.942773167359444",
    "geocoded_column": {
      "latitude": "29.942773167359444",
      "longitude": "-90.08967523810009"
    }
  },
  {
    "service_request": "2023-1019079",
    "request_type": "Abandoned Vehicles",
    "request_reason": "Abandoned/Junk Vehicles",
    "date_created": "2023-07-20T14:08:30.000",
    "date_modified": "2023-07-20T14:08:30.000",
    "request_status": "Pending",
    "responsible_agency": "Department of Public Works",
    "final_address": "2517 N Tonti St",
    "address_councildis": "D",
    "status": "Pending",
    "rowid": "1019079",
    "final_x": "3686650.9823",
    "final_y": "540921.201675",
    "longitude": "-90.05147331695088",
    "latitude": "29.981188310631808",
    "geocoded_column": {
      "latitude": "29.981188310631808",
      "longitude": "-90.05147331695088"
    }
  },
  {
    "service_request": "2023-1019078",
    "request_type": "Trash/Recycling",
    "request_reason": "Return Trash Cart",
    "date_created": "2023-07-20T14:02:37.000",
    "date_modified": "2023-07-20T14:02:38.000",
    "request_status": "Pending",
    "responsible_agency": "Department of Sanitation",
    "final_address": "4618 Bundy Rd",
    "address_councildis": "E",
    "status": "Assigned to Contractor",
    "contractor": "Waste Pro",
    "rowid": "1019078",
    "final_x": "3709348.30117",
    "final_y": "554963.619032",
    "longitude": "-89.97926145664017",
    "latitude": "30.019081903457163",
    "geocoded_column": {
      "latitude": "30.019081903457163",
      "longitude": "-89.97926145664017"
    }
  },
  {
    "service_request": "2023-1019077",
    "request_type": "Trash/Recycling",
    "request_reason": "Request a Large Item Pick Up",
    "date_created": "2023-07-20T14:00:02.000",
    "date_modified": "2023-07-20T14:00:02.000",
    "request_status": "Pending",
    "responsible_agency": "Department of Sanitation",
    "final_address": "1278 Casa Calvo St",
    "address_councildis": "C",
    "status": "Assigned to Contractor",
    "contractor": "Richards Disposal",
    "rowid": "1019077",
    "final_x": "3692115.61993",
    "final_y": "526321.146814",
    "longitude": "-90.03473619423914",
    "latitude": "29.94087404646885",
    "geocoded_column": {
      "latitude": "29.94087404646885",
      "longitude": "-90.03473619423914"
    }
  },
  {
    "service_request": "2023-1019076",
    "request_type": "Trash/Recycling",
    "request_reason": "Missed Trash Pick-Up",
    "date_created": "2023-07-20T13:58:09.000",
    "date_modified": "2023-07-20T13:58:09.000",
    "case_close_date": "2022-11-24T18:00:00.000",
    "request_status": "Pending",
    "responsible_agency": "Department of Sanitation",
    "final_address": "8649 Grant St",
    "address_councildis": "E",
    "status": "Assigned to Contractor",
    "contractor": "Waste Pro",
    "rowid": "1019076",
    "final_x": "3707480.6835",
    "final_y": "554464.716248",
    "longitude": "-89.98518097512552",
    "latitude": "30.0177706665698",
    "geocoded_column": {
      "latitude": "30.0177706665698",
      "longitude": "-89.98518097512552"
    }
  },
  {
    "service_request": "2023-1019075",
    "request_type": "Trash/Recycling",
    "request_reason": "Replace Trash Cart",
    "date_created": "2023-07-20T13:57:27.000",
    "date_modified": "2023-07-20T13:57:27.000",
    "request_status": "Pending",
    "responsible_agency": "Department of Sanitation",
    "final_address": "8701 Willow St",
    "address_councildis": "A",
    "status": "Assigned to Contractor",
    "contractor": "Richards Disposal",
    "rowid": "1019075",
    "final_x": "3660854.51322",
    "final_y": "530385.938498",
    "longitude": "-90.13329919501578",
    "latitude": "29.952988076916768",
    "geocoded_column": {
      "latitude": "29.952988076916768",
      "longitude": "-90.13329919501578"
    }
  },
  {
    "service_request": "2023-1019074",
    "request_type": "Trash/Recycling",
    "request_reason": "Replace Trash Cart",
    "date_created": "2023-07-20T13:56:54.000",
    "date_modified": "2023-07-20T13:56:54.000",
    "request_status": "Pending",
    "responsible_agency": "Department of Sanitation",
    "final_address": "566 Abalon Ct",
    "address_councildis": "C",
    "status": "Assigned to Contractor",
    "contractor": "Richards Disposal",
    "rowid": "1019074",
    "final_x": "3688970.14236",
    "final_y": "530652.615298",
    "longitude": "-90.04451317874492",
    "latitude": "29.95288174847581",
    "geocoded_column": {
      "latitude": "29.95288174847581",
      "longitude": "-90.04451317874492"
    }
  },
  {
    "service_request": "2023-1019073",
    "request_type": "Trash/Recycling",
    "request_reason": "Request a Large Item Pick Up",
    "date_created": "2023-07-20T13:56:51.000",
    "date_modified": "2023-07-20T13:56:51.000",
    "request_status": "Pending",
    "responsible_agency": "Department of Sanitation",
    "final_address": "812 N Dorgenois St",
    "address_councildis": "D",
    "status": "Assigned to Contractor",
    "contractor": "Richards Disposal",
    "rowid": "1019073",
    "final_x": "3677463.5204",
    "final_y": "536937.858248",
    "longitude": "-90.08062904560428",
    "latitude": "29.970514898112313",
    "geocoded_column": {
      "latitude": "29.970514898112313",
      "longitude": "-90.08062904560428"
    }
  },
  {
    "service_request": "2023-1019072",
    "request_type": "Trash/Recycling",
    "request_reason": "Request a Large Item Pick Up",
    "date_created": "2023-07-20T13:56:49.000",
    "date_modified": "2023-07-20T13:56:50.000",
    "request_status": "Pending",
    "responsible_agency": "Department of Sanitation",
    "final_address": "711 Evelina St",
    "address_councildis": "C",
    "status": "Assigned to Contractor",
    "contractor": "Richards Disposal",
    "rowid": "1019072",
    "final_x": "3687617.47766",
    "final_y": "529463.573633",
    "longitude": "-90.04882637212265",
    "latitude": "29.949654056766654",
    "geocoded_column": {
      "latitude": "29.949654056766654",
      "longitude": "-90.04882637212265"
    }
  },
  {
    "service_request": "2023-1019071",
    "request_type": "Property Maintenance",
    "request_reason": "Property Maintenance",
    "date_created": "2023-07-20T13:55:12.000",
    "date_modified": "2023-07-20T13:55:12.000",
    "request_status": "Pending",
    "responsible_agency": "Department of Code Enforcement",
    "final_address": "2709 Cherry St",
    "address_councildis": "A",
    "status": "Pending",
    "rowid": "1019071",
    "final_x": "3662545.52039",
    "final_y": "535250.071238",
    "longitude": "-90.12779812153735",
    "latitude": "29.96631405562454",
    "geocoded_column": {
      "latitude": "29.96631405562454",
      "longitude": "-90.12779812153735"
    }
  },
  {
    "service_request": "2023-1019070",
    "request_type": "Parks & Parkways",
    "request_reason": "Request Tree Service (Right of Way/Public Property)",
    "date_created": "2023-07-20T13:51:14.000",
    "date_modified": "2023-07-20T13:51:15.000",
    "request_status": "Pending",
    "responsible_agency": "Department of Parks & Parkway",
    "final_address": "S CARROLLTON AVE & S CLAIBORNE AVE",
    "address_councildis": "A",
    "status": "Pending",
    "rowid": "1019070",
    "final_x": "3664907.5",
    "final_y": "531545.98",
    "longitude": "-90.120462817646",
    "latitude": "29.956060477053942",
    "geocoded_column": {
      "latitude": "29.956060477053942",
      "longitude": "-90.120462817646"
    }
  },
  {
    "service_request": "2023-1019069",
    "request_type": "Trash/Recycling",
    "request_reason": "Replace Trash Cart",
    "date_created": "2023-07-20T13:49:16.000",
    "date_modified": "2023-07-20T13:49:16.000",
    "request_status": "Pending",
    "responsible_agency": "Department of Sanitation",
    "final_address": "1621 Coliseum St",
    "address_councildis": "B",
    "status": "Assigned to Contractor",
    "contractor": "Richards Disposal",
    "rowid": "1019069",
    "final_x": "3679749.21749",
    "final_y": "524622.318588",
    "longitude": "-90.0738380691634",
    "latitude": "29.9365824049453",
    "geocoded_column": {
      "latitude": "29.9365824049453",
      "longitude": "-90.0738380691634"
    }
  },
  {
    "service_request": "2023-1019068",
    "request_type": "Trash/Recycling",
    "request_reason": "Request a Large Item Pick Up",
    "date_created": "2023-07-20T13:47:29.000",
    "date_modified": "2023-07-20T13:47:29.000",
    "request_status": "Pending",
    "responsible_agency": "Department of Sanitation",
    "final_address": "959 Filmore Ave",
    "address_councildis": "A",
    "status": "Assigned to Contractor",
    "contractor": "IV Waste",
    "rowid": "1019068",
    "final_x": "3670859.8779",
    "final_y": "551938.706262",
    "longitude": "-90.1009746454141",
    "latitude": "30.0119589200283",
    "geocoded_column": {
      "latitude": "30.0119589200283",
      "longitude": "-90.1009746454141"
    }
  },