[
  {
    "service_request": "2022-919746",
    "request_type": "Trash/Recycling",
    "request_reason": "Missed Trash Pick-Up",
    "date_created": "2022-09-15T00:15:09.000",
    "date_modified": "2022-09-15T00:15:10.000",
    "request_status": "Pending",
    "responsible_agency": "Department of Sanitation",
    "final_address": "1636 Sauvage St",
    "address_councildis": "A",
    "status": "Assigned to Contractor",
    "contractor": "Metro Disposal",
    "rowid": "919746",
    "final_x": "3677189.80334",
    "final_y": "540890.440587",
    "longitude": "-90.08135708663261",
    "latitude": "29.981391367136602",
    "geocoded_column": {
      "latitude": "29.981391367136602",
      "longitude": "-90.08135708663261"
    }
  },
  {
    "service_request": "2022-919745",
    "request_type": "Property Maintenance",
    "request_reason": "Property Maintenance",
    "date_created": "2022-09-15T00:02:26.000",
    "date_modified": "2022-09-15T00:02:26.000",
    "request_status": "Pending",
    "responsible_agency": "Department of Code Enforcement",
    "final_address": "1434 N Rampart St",
    "address_councildis": "C",
    "status": "Pending",
    "rowid": "919745",
    "final_x": "3683109.2116",
    "final_y": "535537.719558",
    "longitude": "-90.06284835144005",
    "latitude": "29.966494077709207",
    "geocoded_column": {
      "latitude": "29.966494077709207",
      "longitude": "-90.06284835144005"
    }
  },
  {
    "service_request": "2022-919744",
    "request_type": "Trash/Recycling",
    "request_reason": "Missed Trash Pick-Up",
    "date_created": "2022-09-14T23:39:54.000",
    "date_modified": "2022-09-14T23:39:54.000",
    "request_status": "Pending",
    "responsible_agency": "Department of Sanitation",
    "final_address": "3541 Desaix Blvd",
    "address_councildis": "D",
    "status": "Assigned to Contractor",
    "contractor": "Metro Disposal",
    "rowid": "919744",
    "final_x": "3675976.1099",
    "final_y": "543782.65179",
    "longitude": "-90.08509097879313",
    "latitude": "29.98938035401002",
    "geocoded_column": {
      "latitude": "29.98938035401002",
      "longitude": "-90.08509097879313"
    }
  },
  {
    "service_request": "2022-919743",
    "request_type": "Trash/Recycling",
    "request_reason": "Missed Trash Pick-Up",
    "date_created": "2022-09-14T22:59:09.000",
    "date_modified": "2022-09-14T22:59:09.000",
    "request_status": "Pending",
    "responsible_agency": "Department of Sanitation",
    "final_address": "1671 N Broad St",
    "address_councildis": "D",
    "status": "Assigned to Contractor",
    "contractor": "Metro Disposal",
    "rowid": "919743",
    "final_x": "3679393.3332",
    "final_y": "540714.832715",
    "longitude": "-90.0744034211551",
    "latitude": "29.980842120846397",
    "geocoded_column": {
      "latitude": "29.980842120846397",
      "longitude": "-90.0744034211551"
    }
  },
  {
    "service_request": "2022-919742",
    "request_type": "Trash/Recycling",
    "request_reason": "Missed Trash Pick-Up",
    "date_created": "2022-09-14T22:25:01.000",
    "date_modified": "2022-09-14T22:25:02.000",
    "request_status": "Pending",
    "responsible_agency": "Department of Sanitation",
    "final_address": "1531 N Roman St",
    "address_councildis": "D",
    "status": "Assigned to Contractor",
    "contractor": "Metro Disposal",
    "rowid": "919742",
    "final_x": "3681291.5668",
    "final_y": "537856.839241",
    "longitude": "-90.06850760556053",
    "latitude": "29.972926148554574",
    "geocoded_column": {
      "latitude": "29.972926148554574",
      "longitude": "-90.06850760556053"
    }
  },
  {
    "service_request": "2022-919741",
    "request_type": "Health Related Questions",
    "request_reason": "Noise Ordinance Complaint",
    "date_created": "2022-09-14T22:06:21.000",
    "date_modified": "2022-09-14T22:06:21.000",
    "request_status": "Pending",
    "responsible_agency": "Health Department",
    "final_address": "1723 Henriette Delille St",
    "address_councildis": "C",
    "status": "Pending",
    "rowid": "919741",
    "final_x": "3683338.40943",
    "final_y": "536195.373255",
    "longitude": "-90.06210150700602",
    "latitude": "29.968295408632137",
    "geocoded_column": {
      "latitude": "29.968295408632137",
      "longitude": "-90.06210150700602"
    }
  },
  {
    "service_request": "2022-919740",
    "request_type": "Trash/Recycling",
    "request_reason": "Request a Large Item Pick Up",
    "date_created": "2022-09-14T21:58:37.000",
    "date_modified": "2022-09-14T21:58:38.000",
    "request_status": "Pending",
    "responsible_agency": "Department of Sanitation",
    "final_address": "4023 Lennox Blvd",
    "address_councildis": "C",
    "status": "Assigned to Contractor",
    "contractor": "Richards Disposal",
    "rowid": "919740",
    "final_x": "3700753.58781",
    "final_y": "515782.93458",
    "longitude": "-90.00784965015784",
    "latitude": "29.911625589746638",
    "geocoded_column": {
      "latitude": "29.911625589746638",
      "longitude": "-90.00784965015784"
    }
  },
  {
    "service_request": "2022-919739",
    "request_type": "Trash/Recycling",
    "request_reason": "Missed Trash Pick-Up",
    "date_created": "2022-09-14T21:57:32.000",
    "date_modified": "2022-09-14T21:57:33.000",
    "request_status": "Pending",
    "responsible_agency": "Department of Sanitation",
    "final_address": "3604 Desaix Blvd",
    "address_councildis": "A",
    "status": "Assigned to Contractor",
    "contractor": "Metro Disposal",
    "rowid": "919739",
    "final_x": "3675666.68341",
    "final_y": "543595.351886",
    "longitude": "-90.08607480904728",
    "latitude": "29.9888746092564",
    "geocoded_column": {
      "latitude": "29.9888746092564",
      "longitude": "-90.08607480904728"
    }
  },
  {
    "service_request": "2022-919738",
    "request_type": "Roads/Drainage",
    "request_reason": "Pothole",
    "date_created": "2022-09-14T21:50:00.000",
    "date_modified": "2022-09-14T21:50:00.000",
    "request_status": "Pending",
    "responsible_agency": "Department of Public Works",
    "final_address": "1212 Royal St",
    "address_councildis": "C",
    "status": "Pending",
    "rowid": "919738",
    "final_x": "3683751.98396",
    "final_y": "533982.492229",
    "longitude": "-90.06087302801959",
    "latitude": "29.96219812588947",
    "geocoded_column": {
      "latitude": "29.96219812588947",
      "longitude": "-90.06087302801959"
    }
  },
  {
    "service_request": "2022-919736",
    "request_type": "Trash/Recycling",
    "request_reason": "MIssed Recycling Pick-Up",
    "date_created": "2022-09-14T21:45:13.000",
    "date_modified": "2022-09-14T21:45:14.000",
    "request_status": "Pending",
    "responsible_agency": "Department of Sanitation",
    "final_address": "8237 Apricot St",
    "address_councildis": "A",
    "status": "Assigned to Contractor",
    "contractor": "Richards Disposal",
    "rowid": "919736",
    "final_x": "3665372.41389",
    "final_y": "533087.166724",
    "longitude": "-90.11894319578644",
    "latitude": "29.960284697163896",
    "geocoded_column": {
      "latitude": "29.960284697163896",
      "longitude": "-90.11894319578644"
    }
  },
  {
    "service_request": "2022-919735",
    "request_type": "Abandoned Vehicles",
    "request_reason": "Abandoned/Junk Vehicles",
    "date_created": "2022-09-14T21:36:04.000",
    "date_modified": "2022-09-14T21:36:04.000",
    "request_status": "Pending",
    "responsible_agency": "Department of Public Works",
    "final_address": "4809 Frenchmen St",
    "address_councildis": "D",
    "status": "Pending",
    "rowid": "919735",
    "final_x": "3683503.97525",
    "final_y": "550342.85506",
    "longitude": "-90.0610825701479",
    "latitude": "30.00719092916358",
    "geocoded_column": {
      "latitude": "30.00719092916358",
      "longitude": "-90.0610825701479"
    }
  },
  {
    "service_request": "2022-919734",
    "request_type": "Trash/Recycling",
    "request_reason": "Missed Trash Pick-Up",
    "date_created": "2022-09-14T21:17:34.000",
    "date_modified": "2022-09-14T21:17:34.000",
    "request_status": "Pending",
    "responsible_agency": "Department of Sanitation",
    "final_address": "2116 Short St",
    "address_councildis": "A",
    "status": "Assigned to Contractor",
    "contractor": "Richards Disposal",
    "rowid": "919734",
    "final_x": "3664504.69869",
    "final_y": "530548.51533",
    "longitude": "-90.12176803508385",
    "latitude": "29.953329490703766",
    "geocoded_column": {
      "latitude": "29.953329490703766",
      "longitude": "-90.12176803508385"
    }
  },
  {
    "service_request": "2022-919733",
    "request_type": "Traffic Signals/Signs/Striping/Streetlights",
    "request_reason": "Street Light Outage/Malfunction",
    "date_created": "2022-09-14T21:14:35.000",
    "date_modified": "2022-09-14T21:14:36.000",
    "request_status": "Pending",
    "responsible_agency": "Department of Public Works",
    "final_address": "WRIGHT RD & I 10 W SERVICE RD",
    "address_councildis": "E",
    "status": "Pending",
    "contractor": "Legacy Professional Services",
    "rowid": "919733",
    "final_x": "3712657.3",
    "final_y": "563329.08",
    "longitude": "-89.96849144171634",
    "latitude": "30.041975662492263",
    "geocoded_column": {
      "latitude": "30.041975662492263",
      "longitude": "-89.96849144171634"
    }
  },
  {
    "service_request": "2022-919732",
    "request_type": "Traffic Signals/Signs/Striping/Streetlights",
    "request_reason": "Traffic Sign Missing/Damaged",
    "date_created": "2022-09-14T21:07:21.000",
    "date_modified": "2022-09-14T21:07:21.000",
    "request_status": "Pending",
    "responsible_agency": "Department of Public Works",
    "final_address": "GUILDFORD RD & WRIGHT RD",
    "address_councildis": "E",
    "status": "Pending",
    "rowid": "919732",
    "final_x": "3711914.6",
    "final_y": "564332.88",
    "longitude": "-89.97080090756467",
    "latitude": "30.044760012066483",
    "geocoded_column": {
      "latitude": "30.044760012066483",
      "longitude": "-89.97080090756467"
    }
  },
  {
    "service_request": "2022-919731",
    "request_type": "Abandoned Vehicles",
    "request_reason": "Abandoned/Junk Vehicles",
    "date_created": "2022-09-14T21:05:08.000",
    "date_modified": "2022-09-14T21:05:08.000",
    "request_status": "Pending",
    "responsible_agency": "Department of Public Works",
    "final_address": "WRIGHT RD & I 10 W SERVICE RD",
    "address_councildis": "E",
    "status": "Pending",
    "rowid": "919731",
    "final_x": "3712657.3",
    "final_y": "563329.08",
    "longitude": "-89.96849144171634",
    "latitude": "30.041975662492263",
    "geocoded_column": {
      "latitude": "30.041975662492263",
      "longitude": "-89.96849144171634"
    }
  },
  {
    "service_request": "2022-919730",
    "request_type": "Trash/Recycling",
    "request_reason": "Request a Large Item Pick Up",
    "date_created": "2022-09-14T21:04:49.000",
    "date_modified": "2022-09-14T21:04:50.000",
    "request_status": "Pending",
    "responsible_agency": "Department of Sanitation",
    "final_address": "135 S Gayoso St",
    "address_councildis": "B",
    "status": "Assigned to Contractor",
    "contractor": "Richards Disposal",
    "rowid": "919730",
    "final_x": "3674071.58696",
    "final_y": "535649.765318",
    "longitude": "-90.09138527022759",
    "latitude": "29.967074606944728",
    "geocoded_column": {
      "latitude": "29.967074606944728",
      "longitude": "-90.09138527022759"
    }
  },
  {
    "service_request": "2022-919729",
    "request_type": "Health Related Questions",
    "request_reason": "Noise Ordinance Complaint",
    "date_created": "2022-09-14T21:03:03.000",
    "date_modified": "2022-09-14T21:03:03.000",
    "request_status": "Pending",
    "responsible_agency": "Health Department",
    "final_address": "1723 Henriette Delille St",
    "address_councildis": "C",
    "status": "Pending",
    "rowid": "919729",
    "final_x": "3683338.40943",
    "final_y": "536195.373255",
    "longitude": "-90.06210150700602",
    "latitude": "29.968295408632137",
    "geocoded_column": {
      "latitude": "29.968295408632137",
      "longitude": "-90.06210150700602"
    }
  },
  {
    "service_request": "2022-919728",
    "request_type": "Health Related Questions",
    "request_reason": "Noise Ordinance Complaint",
    "date_created": "2022-09-14T21:02:50.000",
    "date_modified": "2022-09-14T21:02:50.000",
    "request_status": "Pending",
    "responsible_agency": "Health Department",
    "final_address": "3111 Grand Rte Saint John St, New Orleans, LA 70119",
    "status": "Pending",
    "rowid": "919728",
    "longitude": "0.0",
    "latitude": "0.0",
    "geocoded_column": {
      "latitude": "0.0",
      "longitude": "0.0"
    }
  },
  {
    "service_request": "2022-919727",
    "request_type": "Trash/Recycling",
    "request_reason": "Missed Trash Pick-Up",
    "date_created": "2022-09-14T20:58:38.000",
    "date_modified": "2022-09-14T20:58:38.000",
    "request_status": "Pending",
    "responsible_agency": "Department of Sanitation",
    "final_address": "10700 Guildford Rd",
    "address_councildis": "E",
    "status": "Assigned to Contractor",
    "contractor": "Metro Disposal",
    "rowid": "919727",
    "final_x": "3711087.758",
    "final_y": "563624.099169",
    "longitude": "-89.97344067339783",
    "latitude": "30.042838158170323",
    "geocoded_column": {
      "latitude": "30.042838158170323",
      "longitude": "-89.97344067339783"
    }
  },
  {
    "service_request": "2022-919726",
    "request_type": "Trash/Recycling",
    "request_reason": "Request a Large Item Pick Up",
    "date_created": "2022-09-14T20:51:51.000",
    "date_modified": "2022-09-14T20:51:51.000",
    "request_status": "Pending",
    "responsible_agency": "Department of Sanitation",
    "final_address": "1911 Jackson Ave",
    "address_councildis": "B",
    "status": "Assigned to Contractor",
    "contractor": "Richards Disposal",
    "rowid": "919726",
    "final_x": "3676786.80584",
    "final_y": "524853.687036",
    "longitude": "-90.08318256338929",
    "latitude": "29.937307795954325",
    "geocoded_column": {
      "latitude": "29.937307795954325",
      "longitude": "-90.08318256338929"
    }
  },
  {
    "service_request": "2022-919725",
    "request_type": "Abandoned Vehicles",
    "request_reason": "Abandoned/Junk Vehicles",
    "date_created": "2022-09-14T20:34:32.000",
    "date_modified": "2022-09-14T20:34:32.000",
    "request_status": "Pending",
    "responsible_agency": "Department of Public Works",
    "final_address": "1460 Mandolin St",
    "address_councildis": "D",
    "status": "Pending",
    "rowid": "919725",
    "final_x": "3678368.99419",
    "final_y": "547955.357458",
    "longitude": "-90.07738807473613",
    "latitude": "30.000781931569634",
    "geocoded_column": {
      "latitude": "30.000781931569634",
      "longitude": "-90.07738807473613"
    }
  },
  {
    "service_request": "2022-919724",
    "request_type": "Trash/Recycling",
    "request_reason": "Missed Trash Pick-Up",
    "date_created": "2022-09-14T20:29:20.000",
    "date_modified": "2022-09-14T20:29:21.000",
    "request_status": "Pending",
    "responsible_agency": "Department of Sanitation",
    "final_address": "8012 Willow St",
    "address_councildis": "A",
    "status": "Assigned to Contractor",
    "contractor": "Richards Disposal",
    "rowid": "919724",
    "final_x": "3662665.59437",
    "final_y": "528632.329024",
    "longitude": "-90.12763883229549",
    "latitude": "29.948113936897634",
    "geocoded_column": {
      "latitude": "29.948113936897634",
      "longitude": "-90.12763883229549"
    }
  },
  {
    "service_request": "2022-919723",
    "request_type": "Trash/Recycling",
    "request_reason": "Missed Trash Pick-Up",
    "date_created": "2022-09-14T20:26:58.000",
    "date_modified": "2022-09-14T20:26:59.000",
    "request_status": "Pending",
    "responsible_agency": "Department of Sanitation",
    "final_address": "425 Audubon Blvd",
    "address_councildis": "B",
    "status": "Assigned to Contractor",
    "contractor": "Richards Disposal",
    "rowid": "919723",
    "final_x": "3667522.00935",
    "final_y": "530394.362882",
    "longitude": "-90.11224581527765",
    "latitude": "29.95281755201174",
    "geocoded_column": {
      "latitude": "29.95281755201174",
      "longitude": "-90.11224581527765"
    }
  },
  {
    "service_request": "2022-919722",
    "request_type": "Trash/Recycling",
    "request_reason": "Missed Trash Pick-Up",
    "date_created": "2022-09-14T20:12:50.000",
    "date_modified": "2022-09-14T20:12:51.000",
    "request_status": "Pending",
    "responsible_agency": "Department of Sanitation",
    "final_address": "11318 Hayne Blvd",
    "address_councildis": "E",
    "status": "Assigned to Contractor",
    "contractor": "Metro Disposal",
    "rowid": "919722",
    "final_x": "3710557.97733",
    "final_y": "567657.591972",
    "longitude": "-89.97496386070794",
    "latitude": "30.05394591311336",
    "geocoded_column": {
      "latitude": "30.05394591311336",
      "longitude": "-89.97496386070794"
    }
  },
  {
    "service_request": "2022-919721",
    "request_type": "Trash/Recycling",
    "request_reason": "Missed Trash Pick-Up",
    "date_created": "2022-09-14T20:09:07.000",
    "date_modified": "2022-09-14T20:09:08.000",
    "request_status": "Pending",
    "responsible_agency": "Department of Sanitation",
    "final_address": "2723 DAbadie St",
    "address_councildis": "D",
    "status": "Assigned to Contractor",
    "contractor": "Metro Disposal",
    "rowid": "919721",
    "final_x": "3679120.12405",
    "final_y": "541132.891148",
    "longitude": "-90.07525183890913",
    "latitude": "29.98199988724528",
    "geocoded_column": {
      "latitude": "29.98199988724528",
      "longitude": "-90.07525183890913"
    }
  },
  {
    "service_request": "2022-919720",
    "request_type": "Trash/Recycling",
    "request_reason": "Order Recycling Cart",
    "date_created": "2022-09-14T20:06:51.000",
    "date_modified": "2022-09-14T20:06:51.000",
    "request_status": "Pending",
    "responsible_agency": "Department of Sanitation",
    "final_address": "2407 Soniat St",
    "address_councildis": "B",
    "status": "Pending",
    "rowid": "919720",
    "final_x": "3668563.36807",
    "final_y": "524351.0407",
    "longitude": "-90.10916152343275",
    "latitude": "29.936169820329134",
    "geocoded_column": {
      "latitude": "29.936169820329134",
      "longitude": "-90.10916152343275"
    }
  },
  {
    "service_request": "2022-919719",
    "request_type": "Trash/Recycling",
    "request_reason": "Request a Large Item Pick Up",
    "date_created": "2022-09-14T20:04:40.000",
    "date_modified": "2022-09-14T20:04:41.000",
    "request_status": "Pending",
    "responsible_agency": "Department of Sanitation",
    "final_address": "2201 Robert St",
    "address_councildis": "B",
    "status": "Assigned to Contractor",
    "contractor": "Richards Disposal",
    "rowid": "919719",
    "final_x": "3668848.1394",
    "final_y": "523611.885499",
    "longitude": "-90.10828743784307",
    "latitude": "29.934129012184208",
    "geocoded_column": {
      "latitude": "29.934129012184208",
      "longitude": "-90.10828743784307"
    }
  },
  {
    "service_request": "2022-919718",
    "request_type": "Trash/Recycling",
    "request_reason": "Missed Trash Pick-Up",
    "date_created": "2022-09-14T19:56:31.000",
    "date_modified": "2022-09-14T19:56:31.000",
    "request_status": "Pending",
    "responsible_agency": "Department of Sanitation",
    "final_address": "945 Kerlerec St",
    "address_councildis": "C",
    "status": "Assigned to Contractor",
    "contractor": "Metro Disposal",
    "rowid": "919718",
    "final_x": "3683451.59893",
    "final_y": "535349.91719",
    "longitude": "-90.0617736792624",
    "latitude": "29.965967242938795",
    "geocoded_column": {
      "latitude": "29.965967242938795",
      "longitude": "-90.0617736792624"
    }
  },
  {
    "service_request": "2022-919717",
    "request_type": "Trash/Recycling",
    "request_reason": "Replace Trash Cart",
    "date_created": "2022-09-14T19:53:03.000",
    "date_modified": "2022-09-14T19:53:04.000",
    "request_status": "Pending",
    "responsible_agency": "Department of Sanitation",
    "final_address": "6348 Carlson Dr",
    "address_councildis": "D",
    "status": "Assigned to Contractor",
    "contractor": "Metro Disposal",
    "rowid": "919717",
    "final_x": "3679100.85512",
    "final_y": "557130.381402",
    "longitude": "-90.07475770964348",
    "latitude": "30.025987860498343",
    "geocoded_column": {
      "latitude": "30.025987860498343",
      "longitude": "-90.07475770964348"
    }
  },
  {
    "service_request": "2022-919716",
    "request_type": "Traffic Signals/Signs/Striping/Streetlights",
    "request_reason": "Street Light Outage/Malfunction",
    "date_created": "2022-09-14T19:53:00.000",
    "date_modified": "2022-09-14T19:53:00.000",
    "request_status": "Pending",
    "responsible_agency": "Department of Public Works",
    "final_address": "800 BLK Bourbon St",
    "address_councildis": "C",
    "status": "Pending",
    "contractor": "Legacy Professional Services",
    "rowid": "919716",
    "final_x": "3682602.88049",
    "final_y": "533123.709131",
    "longitude": "-90.06453175222377",
    "latitude": "29.95987180412784",
    "geocoded_column": {
      "latitude": "29.95987180412784",
      "longitude": "-90.06453175222377"
    }
  },
  {
    "service_request": "2022-919714",
    "request_type": "Trash/Recycling",
    "request_reason": "Replace Trash Cart",
    "date_created": "2022-09-14T19:51:45.000",
    "date_modified": "2022-09-14T19:51:46.000",
    "request_status": "Pending",
    "responsible_agency": "Department of Sanitation",
    "final_address": "2407 Soniat St",
    "address_councildis": "B",
    "status": "Assigned to Contractor",
    "contractor": "Richards Disposal",
    "rowid": "919714",
    "final_x": "3668563.36807",
    "final_y": "524351.0407",
    "longitude": "-90.10916152343275",
    "latitude": "29.936169820329134",
    "geocoded_column": {
      "latitude": "29.936169820329134",
      "longitude": "-90.10916152343275"
    }
  },
  {
    "service_request": "2022-919713",
    "request_type": "Trash/Recycling",
    "request_reason": "Missed Trash Pick-Up",
    "date_created": "2022-09-14T19:51:28.000",
    "date_modified": "2022-09-14T19:51:29.000",
    "request_status": "Pending",
    "responsible_agency": "Department of Sanitation",
    "final_address": "7560 Parry St",
    "address_councildis": "E",
    "status": "Assigned to Contractor",
    "contractor": "Metro Disposal",
    "rowid": "919713",
    "final_x": "3714551.61547",
    "final_y": "568113.265061",
    "longitude": "-89.96232384503374",
    "latitude": "30.05506804558295",
    "geocoded_column": {
      "latitude": "30.05506804558295",
      "longitude": "-89.96232384503374"
    }
  },
  {
    "service_request": "2022-919712",
    "request_type": "Roads/Drainage",
    "request_reason": "Pothole",
    "date_created": "2022-09-14T19:47:10.000",
    "date_modified": "2022-09-14T19:47:10.000",
    "request_status": "Pending",
    "responsible_agency": "Department of Public Works",
    "final_address": "4079 Fairmont Dr",
    "address_councildis": "D",
    "status": "Pending",
    "rowid": "919712",
    "final_x": "3684640.35106",
    "final_y": "547460.769873",
    "longitude": "-90.05759382600802",
    "latitude": "29.999231492901135",
    "geocoded_column": {
      "latitude": "29.999231492901135",
      "longitude": "-90.05759382600802"
    }
  },
  {
    "service_request": "2022-919711",
    "request_type": "Roads/Drainage",
    "request_reason": "Pothole",
    "date_created": "2022-09-14T19:42:42.000",
    "date_modified": "2022-09-14T19:42:42.000",
    "request_status": "Pending",
    "responsible_agency": "Department of Public Works",
    "final_address": "4065 Fairmont Dr",
    "address_councildis": "D",
    "status": "Pending",
    "rowid": "919711",
    "final_x": "3684690.62492",
    "final_y": "547374.027473",
    "longitude": "-90.05743806115585",
    "latitude": "29.99899144330669",
    "geocoded_column": {
      "latitude": "29.99899144330669",
      "longitude": "-90.05743806115585"
    }
  },
  {
    "service_request": "2022-919710",
    "request_type": "Roads/Drainage",
    "request_reason": "Pothole",
    "date_created": "2022-09-14T19:40:15.000",
    "date_modified": "2022-09-14T19:40:15.000",
    "request_status": "Pending",
    "responsible_agency": "Department of Public Works",
    "final_address": "4035 Fairmont Dr",
    "address_councildis": "D",
    "status": "Pending",
    "rowid": "919710",
    "final_x": "3684791.65737",
    "final_y": "547199.378513",
    "longitude": "-90.0571250434006",
    "latitude": "29.99850812767199",
    "geocoded_column": {
      "latitude": "29.99850812767199",
      "longitude": "-90.0571250434006"
    }
  },
  {
    "service_request": "2022-919709",
    "request_type": "Trash/Recycling",
    "request_reason": "Missed Trash Pick-Up",
    "date_created": "2022-09-14T19:36:57.000",
    "date_modified": "2022-09-14T19:36:58.000",
    "request_status": "Pending",
    "responsible_agency": "Department of Sanitation",
    "final_address": "2021 Royal St",
    "address_councildis": "C",
    "status": "Assigned to Contractor",
    "contractor": "Metro Disposal",
    "rowid": "919709",
    "final_x": "3684527.59791",
    "final_y": "534848.98311",
    "longitude": "-90.05839331258237",
    "latitude": "29.964556970942553",
    "geocoded_column": {
      "latitude": "29.964556970942553",
      "longitude": "-90.05839331258237"
    }
  },
  {
    "service_request": "2022-919708",
    "request_type": "Trash/Recycling",
    "request_reason": "Missed Trash Pick-Up",
    "date_created": "2022-09-14T19:32:16.000",
    "date_modified": "2022-09-14T19:32:17.000",
    "request_status": "Pending",
    "responsible_agency": "Department of Sanitation",
    "final_address": "2420 Pine St",
    "address_councildis": "A",
    "status": "Assigned to Contractor",
    "contractor": "Richards Disposal",
    "rowid": "919708",
    "final_x": "3666432.46957",
    "final_y": "530549.881794",
    "longitude": "-90.11568089195933",
    "latitude": "29.953277059479298",
    "geocoded_column": {
      "latitude": "29.953277059479298",
      "longitude": "-90.11568089195933"
    }
  },
  {
    "service_request": "2022-919707",
    "request_type": "Trash/Recycling",
    "request_reason": "Missed Trash Pick-Up",
    "date_created": "2022-09-14T19:29:41.000",
    "date_modified": "2022-09-14T19:29:42.000",
    "request_status": "Pending",
    "responsible_agency": "Department of Sanitation",
    "final_address": "2420 Pine St",
    "address_councildis": "A",
    "status": "Assigned to Contractor",
    "contractor": "Richards Disposal",
    "rowid": "919707",
    "final_x": "3666432.46957",
    "final_y": "530549.881794",
    "longitude": "-90.11568089195933",
    "latitude": "29.953277059479298",
    "geocoded_column": {
      "latitude": "29.953277059479298",
      "longitude": "-90.11568089195933"
    }
  },
  {
    "service_request": "2022-919706",
    "request_type": "Trash/Recycling",
    "request_reason": "MIssed Recycling Pick-Up",
    "date_created": "2022-09-14T19:25:19.000",
    "date_modified": "2022-09-14T19:25:19.000",
    "request_status": "Pending",
    "responsible_agency": "Department of Sanitation",
    "final_address": "1604 Robert C. Blakes, Sr. Dr",
    "address_councildis": "B",
    "status": "Assigned to Contractor",
    "contractor": "Richards Disposal",
    "rowid": "919706",
    "final_x": "3678647.1204",
    "final_y": "525437.572413",
    "longitude": "-90.07728922277693",
    "latitude": "29.938857347755224",
    "geocoded_column": {
      "latitude": "29.938857347755224",
      "longitude": "-90.07728922277693"
    }
  },
  {
    "service_request": "2022-919705",
    "request_type": "Trash/Recycling",
    "request_reason": "Replace Trash Cart",
    "date_created": "2022-09-14T19:24:43.000",
    "date_modified": "2022-09-14T19:24:43.000",
    "request_status": "Pending",
    "responsible_agency": "Department of Sanitation",
    "final_address": "2125 S Liberty St",
    "address_councildis": "B",
    "status": "Assigned to Contractor",
    "contractor": "Richards Disposal",
    "rowid": "919705",
    "final_x": "3676095.13685",
    "final_y": "525974.156797",
    "longitude": "-90.08532768108712",
    "latitude": "29.940409451741125",
    "geocoded_column": {
      "latitude": "29.940409451741125",
      "longitude": "-90.08532768108712"
    }
  },
  {
    "service_request": "2022-919704",
    "request_type": "Health Related Questions",
    "request_reason": "Noise Ordinance Complaint",
    "date_created": "2022-09-14T19:23:52.000",
    "date_modified": "2022-09-14T19:23:52.000",
    "request_status": "Pending",
    "responsible_agency": "Health Department",
    "final_address": "1723 Henriette Delille St",
    "address_councildis": "C",
    "status": "Pending",
    "rowid": "919704",
    "final_x": "3683338.40943",
    "final_y": "536195.373255",
    "longitude": "-90.06210150700602",
    "latitude": "29.968295408632137",
    "geocoded_column": {
      "latitude": "29.968295408632137",
      "longitude": "-90.06210150700602"
    }
  },
  {
    "service_request": "2022-919703",
    "request_type": "Trash/Recycling",
    "request_reason": "Replace Recycling Cart",
    "date_created": "2022-09-14T19:17:45.000",
    "date_modified": "2022-09-14T19:17:45.000",
    "request_status": "Pending",
    "responsible_agency": "Department of Sanitation",
    "final_address": "38 Seaward Ct",
    "address_councildis": "C",
    "status": "Pending",
    "rowid": "919703",
    "final_x": "3704380.56708",
    "final_y": "522560.723706",
    "longitude": "-89.99615243220802",
    "latitude": "29.93014630103458",
    "geocoded_column": {
      "latitude": "29.93014630103458",
      "longitude": "-89.99615243220802"
    }
  },
  {
    "service_request": "2022-919701",
    "request_type": "Roads/Drainage",
    "request_reason": "Catch Basin - Clogged",
    "date_created": "2022-09-14T19:13:16.000",
    "date_modified": "2022-09-14T19:13:16.000",
    "request_status": "Pending",
    "responsible_agency": "Department of Public Works",
    "final_address": "2019 Audubon St",
    "address_councildis": "A",
    "status": "Pending",
    "rowid": "919701",
    "final_x": "3666155.3449",
    "final_y": "528835.6736",
    "longitude": "-90.11661341142748",
    "latitude": "29.948571638287255",
    "geocoded_column": {
      "latitude": "29.948571638287255",
      "longitude": "-90.11661341142748"
    }
  },
  {
    "service_request": "2022-919700",
    "request_type": "Trash/Recycling",
    "request_reason": "Replace Trash Cart",
    "date_created": "2022-09-14T19:09:28.000",
    "date_modified": "2022-09-14T19:09:29.000",
    "request_status": "Pending",
    "responsible_agency": "Department of Sanitation",
    "final_address": "2323 Valmont St",
    "address_councildis": "B",
    "status": "Assigned to Contractor",
    "contractor": "Richards Disposal",
    "rowid": "919700",
    "final_x": "3668317.20334",
    "final_y": "524145.260412",
    "longitude": "-90.10994561125038",
    "latitude": "29.93561121971874",
    "geocoded_column": {
      "latitude": "29.93561121971874",
      "longitude": "-90.10994561125038"
    }
  },
  {
    "service_request": "2022-919699",
    "request_type": "Trash/Recycling",
    "request_reason": "Missed Trash Pick-Up",
    "date_created": "2022-09-14T19:06:39.000",
    "date_modified": "2022-09-14T19:06:39.000",
    "request_status": "Pending",
    "responsible_agency": "Department of Sanitation",
    "final_address": "1038 Burdette St",
    "address_councildis": "A",
    "status": "Assigned to Contractor",
    "contractor": "Richards Disposal",
    "rowid": "919699",
    "final_x": "3662499.1113",
    "final_y": "527355.789567",
    "longitude": "-90.1282068806243",
    "latitude": "29.944608677815346",
    "geocoded_column": {
      "latitude": "29.944608677815346",
      "longitude": "-90.1282068806243"
    }
  },
  {
    "service_request": "2022-919698",
    "request_type": "Trash/Recycling",
    "request_reason": "MIssed Recycling Pick-Up",
    "date_created": "2022-09-14T19:03:38.000",
    "date_modified": "2022-09-14T19:03:39.000",
    "request_status": "Pending",
    "responsible_agency": "Department of Sanitation",
    "final_address": "423 S Solomon St",
    "address_councildis": "A",
    "status": "Assigned to Contractor",
    "contractor": "Richards Disposal",
    "rowid": "919698",
    "final_x": "3669684.00743",
    "final_y": "537605.832264",
    "longitude": "-90.10517510291825",
    "latitude": "29.972583168970633",
    "geocoded_column": {
      "latitude": "29.972583168970633",
      "longitude": "-90.10517510291825"
    }
  },
  {
    "service_request": "2022-919697",
    "request_type": "Trash/Recycling",
    "request_reason": "Request a Large Item Pick Up",
    "date_created": "2022-09-14T19:01:56.000",
    "date_modified": "2022-09-14T19:01:57.000",
    "request_status": "Pending",
    "responsible_agency": "Department of Sanitation",
    "final_address": "6000 Burgundy St",
    "address_councildis": "E",
    "status": "Assigned to Contractor",
    "contractor": "Metro Disposal",
    "rowid": "919697",
    "final_x": "3698876.49264",
    "final_y": "532650.859332",
    "longitude": "-90.01316080658339",
    "latitude": "29.95806611425129",
    "geocoded_column": {
      "latitude": "29.95806611425129",
      "longitude": "-90.01316080658339"
    }
  },
  {
    "service_request": "2022-919696",
    "request_type": "Property Maintenance",
    "request_reason": "Property Maintenance",
    "date_created": "2022-09-14T18:58:59.000",
    "date_modified": "2022-09-14T18:58:59.000",
    "request_status": "Pending",
    "responsible_agency": "Department of Code Enforcement",
    "final_address": "7557 Avalon Way",
    "address_councildis": "E",
    "status": "Pending",
    "rowid": "919696",
    "final_x": "3709214.0995",
    "final_y": "564330.452385",
    "longitude": "-89.97933576004013",
    "latitude": "30.04484135616043",
    "geocoded_column": {
      "latitude": "30.04484135616043",
      "longitude": "-89.97933576004013"
    }
  },
  {
    "service_request": "2022-919695",
    "request_type": "Property Maintenance",
    "request_reason": "Property Maintenance",
    "date_created": "2022-09-14T18:55:19.000",
    "date_modified": "2022-09-14T18:55:19.000",
    "request_status": "Pending",
    "responsible_agency": "Department of Code Enforcement",
    "final_address": "4240 Magnolia St",
    "address_councildis": "B",
    "status": "Pending",
    "rowid": "919695",
    "final_x": "3670919.18843",
    "final_y": "524749.907708",
    "longitude": "-90.10171057783542",
    "latitude": "29.93719715980682",
    "geocoded_column": {
      "latitude": "29.93719715980682",
      "longitude": "-90.10171057783542"
    }
  },
  {
    "service_request": "2022-919694",
    "request_type": "Trash/Recycling",
    "request_reason": "Missed Trash Pick-Up",
    "date_created": "2022-09-14T18:54:24.000",
    "date_modified": "2022-09-14T18:54:25.000",
    "request_status": "Pending",
    "responsible_agency": "Department of Sanitation",
    "final_address": "1816 Hillary St",
    "address_councildis": "A",
    "status": "Assigned to Contractor",
    "contractor": "Richards Disposal",
    "rowid": "919694",
    "final_x": "3664777.50778",
    "final_y": "528851.474752",
    "longitude": "-90.12096331382203",
    "latitude": "29.94865524394827",
    "geocoded_column": {
      "latitude": "29.94865524394827",
      "longitude": "-90.12096331382203"
    }
  },
  {
    "service_request": "2022-919693",
    "request_type": "Roads/Drainage",
    "request_reason": "Street Flooding / Drainage",
    "date_created": "2022-09-14T18:50:27.000",
    "date_modified": "2022-09-14T18:50:27.000",
    "request_status": "Pending",
    "responsible_agency": "Department of Public Works",
    "final_address": "1506 Jena St",
    "address_councildis": "B",
    "status": "Pending",
    "rowid": "919693",
    "final_x": "3670392.77991",
    "final_y": "520606.86316",
    "longitude": "-90.10351287099624",
    "latitude": "29.925820664753314",
    "geocoded_column": {
      "latitude": "29.925820664753314",
      "longitude": "-90.10351287099624"
    }
  },
  {
    "service_request": "2022-919692",
    "request_type": "Roads/Drainage",
    "request_reason": "Road Shoulder Repair",
    "date_created": "2022-09-14T18:49:41.000",
    "date_modified": "2022-09-14T18:49:41.000",
    "request_status": "Pending",
    "responsible_agency": "Department of Public Works",
    "final_address": "4527 Dryades St",
    "address_councildis": "B",
    "status": "Pending",
    "rowid": "919692",
    "final_x": "3670098.83694",
    "final_y": "521965.744954",
    "longitude": "-90.10439475690283",
    "latitude": "29.929565827303957",
    "geocoded_column": {
      "latitude": "29.929565827303957",
      "longitude": "-90.10439475690283"
    }
  },
  {
    "service_request": "2022-919691",
    "request_type": "Traffic Signals/Signs/Striping/Streetlights",
    "request_reason": "Request for Traffic Calming due to Speeding",
    "date_created": "2022-09-14T18:47:22.000",
    "date_modified": "2022-09-14T18:47:22.000",
    "request_status": "Pending",
    "responsible_agency": "Department of Public Works",
    "final_address": "1601 Leonidas St",
    "address_councildis": "A",
    "status": "Pending",
    "rowid": "919691",
    "final_x": "3661786.21984",
    "final_y": "530686.79789",
    "longitude": "-90.13034728616421",
    "latitude": "29.953788479911946",
    "geocoded_column": {
      "latitude": "29.953788479911946",
      "longitude": "-90.13034728616421"
    }
  },
  {
    "service_request": "2022-919690",
    "request_type": "Roads/Drainage",
    "request_reason": "Pothole",
    "date_created": "2022-09-14T18:42:33.000",
    "date_modified": "2022-09-14T18:42:34.000",
    "request_status": "Pending",
    "responsible_agency": "Department of Public Works",
    "final_address": "MORRISON RD & VANDERKLOOT AVE & BUNDY RD",
    "address_councildis": "E",
    "status": "Pending",
    "rowid": "919690",
    "final_x": "3706372.5",
    "final_y": "562287.28",
    "longitude": "-89.98839226599206",
    "latitude": "30.039315463943318",
    "geocoded_column": {
      "latitude": "30.039315463943318",
      "longitude": "-89.98839226599206"
    }
  },
  {
    "service_request": "2022-919689",
    "request_type": "Trash/Recycling",
    "request_reason": "Missed Trash Pick-Up",
    "date_created": "2022-09-14T18:40:25.000",
    "date_modified": "2022-09-14T18:40:26.000",
    "request_status": "Pending",
    "responsible_agency": "Department of Sanitation",
    "final_address": "2013 Burdette St",
    "address_councildis": "A",
    "status": "Assigned to Contractor",
    "contractor": "Richards Disposal",
    "rowid": "919689",
    "final_x": "3664808.34701",
    "final_y": "529757.073665",
    "longitude": "-90.12083568388132",
    "latitude": "29.951144450953368",
    "geocoded_column": {
      "latitude": "29.951144450953368",
      "longitude": "-90.12083568388132"
    }
  },
  {
    "service_request": "2022-919688",
    "request_type": "Traffic Signals/Signs/Striping/Streetlights",
    "request_reason": "Street Name Sign Damaged or Missing",
    "date_created": "2022-09-14T18:36:33.000",
    "date_modified": "2022-09-14T18:36:33.000",
    "request_status": "Pending",
    "responsible_agency": "Department of Public Works",
    "final_address": "NO HAMMOND HWY & BELLAIRE DR",
    "address_councildis": "A",
    "status": "Pending",
    "rowid": "919688",
    "final_x": "3664702.0",
    "final_y": "554729.58",
    "longitude": "-90.12033675428565",
    "latitude": "30.01981351285139",
    "geocoded_column": {
      "latitude": "30.01981351285139",
      "longitude": "-90.12033675428565"
    }
  },
  {
    "service_request": "2022-919687",
    "request_type": "Traffic Signals/Signs/Striping/Streetlights",
    "request_reason": "Street Name Sign Damaged or Missing",
    "date_created": "2022-09-14T18:36:31.000",
    "date_modified": "2022-09-14T18:36:31.000",
    "request_status": "Pending",
    "responsible_agency": "Department of Public Works",
    "final_address": "NO HAMMOND HWY & BELLAIRE DR",
    "address_councildis": "A",
    "status": "Pending",
    "rowid": "919687",
    "final_x": "3664702.0",
    "final_y": "554729.58",
    "longitude": "-90.12033675428565",
    "latitude": "30.01981351285139",
    "geocoded_column": {
      "latitude": "30.01981351285139",
      "longitude": "-90.12033675428565"
    }
  },
  {
    "service_request": "2022-919686",
    "request_type": "Abandoned Vehicles",
    "request_reason": "Abandoned/Junk Vehicles",
    "date_created": "2022-09-14T18:36:22.000",
    "date_modified": "2022-09-14T18:36:23.000",
    "request_status": "Pending",
    "responsible_agency": "Department of Public Works",
    "final_address": "14000 BLK Knightway Dr",
    "address_councildis": "E",
    "status": "Pending",
    "rowid": "919686",
    "final_x": "3718616.73661",
    "final_y": "570423.466224",
    "longitude": "-89.94938680310052",
    "latitude": "30.061285772557756",
    "geocoded_column": {
      "latitude": "30.061285772557756",
      "longitude": "-89.94938680310052"
    }
  },
  {
    "service_request": "2022-919685",
    "request_type": "Roads/Drainage",
    "request_reason": "Pothole",
    "date_created": "2022-09-14T18:30:04.000",
    "date_modified": "2022-09-14T18:30:04.000",
    "request_status": "Pending",
    "responsible_agency": "Department of Public Works",
    "final_address": "4543 America St",
    "address_councildis": "E",
    "status": "Pending",
    "rowid": "919685",
    "final_x": "3699851.15261",
    "final_y": "554029.707544",
    "longitude": "-90.00930305685148",
    "latitude": "30.0168191750555",
    "geocoded_column": {
      "latitude": "30.0168191750555",
      "longitude": "-90.00930305685148"
    }
  },
  {
    "service_request": "2022-919684",
    "request_type": "Traffic Signals/Signs/Striping/Streetlights",
    "request_reason": "Traffic Sign Missing/Damaged",
    "date_created": "2022-09-14T18:25:27.000",
    "date_modified": "2022-09-14T18:25:27.000",
    "request_status": "Pending",
    "responsible_agency": "Department of Public Works",
    "final_address": "W HARRISON AVE & PONTCHARTRAIN BLVD & HARRISON AVE",
    "address_councildis": "A",
    "status": "Pending",
    "rowid": "919684",
    "final_x": "3666195.8",
    "final_y": "549576.28",
    "longitude": "-90.11578982849903",
    "latitude": "30.005600174486602",
    "geocoded_column": {
      "latitude": "30.005600174486602",
      "longitude": "-90.11578982849903"
    }
  },
  {
    "service_request": "2022-919683",
    "request_type": "Trash/Recycling",
    "request_reason": "Missed Trash Pick-Up",
    "date_created": "2022-09-14T18:25:09.000",
    "date_modified": "2022-09-14T18:25:10.000",
    "request_status": "Pending",
    "responsible_agency": "Department of Sanitation",
    "final_address": "2367 Prentiss Ave",
    "address_councildis": "D",
    "status": "Assigned to Contractor",
    "contractor": "Metro Disposal",
    "rowid": "919683",
    "final_x": "3684913.50569",
    "final_y": "554006.793496",
    "longitude": "-90.05650049477819",
    "latitude": "30.017222314350946",
    "geocoded_column": {
      "latitude": "30.017222314350946",
      "longitude": "-90.05650049477819"
    }
  },
  {
    "service_request": "2022-919682",
    "request_type": "Trash/Recycling",
    "request_reason": "Missed Trash Pick-Up",
    "date_created": "2022-09-14T18:24:50.000",
    "date_modified": "2022-09-14T18:24:51.000",
    "request_status": "Pending",
    "responsible_agency": "Department of Sanitation",
    "final_address": "5115 Chamberlain Dr",
    "address_councildis": "D",
    "status": "Assigned to Contractor",
    "contractor": "Metro Disposal",
    "rowid": "919682",
    "final_x": "3679687.55957",
    "final_y": "551095.103957",
    "longitude": "-90.07311354262012",
    "latitude": "30.00937530605506",
    "geocoded_column": {
      "latitude": "30.00937530605506",
      "longitude": "-90.07311354262012"
    }
  },
  {
    "service_request": "2022-919681",
    "request_type": "Trash/Recycling",
    "request_reason": "Missed Trash Pick-Up",
    "date_created": "2022-09-14T18:24:50.000",
    "date_modified": "2022-09-14T18:24:50.000",
    "request_status": "Pending",
    "responsible_agency": "Department of Sanitation",
    "final_address": "1118 Euterpe St",
    "address_councildis": "B",
    "status": "Assigned to Contractor",
    "contractor": "Richards Disposal",
    "rowid": "919681",
    "final_x": "3680125.73659",
    "final_y": "524214.96742",
    "longitude": "-90.07266353206109",
    "latitude": "29.935450938605573",
    "geocoded_column": {
      "latitude": "29.935450938605573",
      "longitude": "-90.07266353206109"
    }
  },
  {
    "service_request": "2022-919680",
    "request_type": "Roads/Drainage",
    "request_reason": "WaterMain Break",
    "date_created": "2022-09-14T18:24:15.000",
    "date_modified": "2022-09-14T18:24:15.000",
    "request_status": "Closed",
    "responsible_agency": "Department of Public Works",
    "final_address": "9806 E Rockton Cir",
    "address_councildis": "E",
    "status": "Invalid Case",
    "rowid": "919680",
    "final_x": "3708304.64184",
    "final_y": "563021.288672",
    "longitude": "-89.9822588333969",
    "latitude": "30.041271196445194",
    "geocoded_column": {
      "latitude": "30.041271196445194",
      "longitude": "-89.9822588333969"
    }
  },
  {
    "service_request": "2022-919679",
    "request_type": "Traffic Signals/Signs/Striping/Streetlights",
    "request_reason": "Street Name Sign Damaged or Missing",
    "date_created": "2022-09-14T18:21:15.000",
    "date_modified": "2022-09-14T18:21:15.000",
    "request_status": "Pending",
    "responsible_agency": "Department of Public Works",
    "final_address": "14TH ST & FLEUR DE LIS DR",
    "address_councildis": "A",
    "status": "Pending",
    "rowid": "919679",
    "final_x": "3665152.4",
    "final_y": "548129.38",
    "longitude": "-90.11913461669027",
    "latitude": "30.0016521426651",
    "geocoded_column": {
      "latitude": "30.0016521426651",
      "longitude": "-90.11913461669027"
    }
  },
  {
    "service_request": "2022-919678",
    "request_type": "Trash/Recycling",
    "request_reason": "Start Trash Service",
    "date_created": "2022-09-14T18:19:24.000",
    "date_modified": "2022-09-14T18:19:25.000",
    "request_status": "Pending",
    "responsible_agency": "Department of Sanitation",
    "final_address": "2107 Harmony St",
    "address_councildis": "B",
    "status": "Assigned to Contractor",
    "contractor": "Richards Disposal",
    "rowid": "919678",
    "final_x": "3674025.3403",
    "final_y": "523529.158843",
    "longitude": "-90.09194600500096",
    "latitude": "29.933748329107623",
    "geocoded_column": {
      "latitude": "29.933748329107623",
      "longitude": "-90.09194600500096"
    }
  },
  {
    "service_request": "2022-919677",
    "request_type": "Traffic Signals/Signs/Striping/Streetlights",
    "request_reason": "Street Light Outage/Malfunction",
    "date_created": "2022-09-14T18:09:35.000",
    "date_modified": "2022-09-14T18:09:36.000",
    "request_status": "Pending",
    "responsible_agency": "Department of Public Works",
    "final_address": "DOUGLASS ST & TUPELO ST",
    "address_councildis": "E",
    "status": "Pending",
    "contractor": "Legacy Professional Services",
    "rowid": "919677",
    "final_x": "3698663.8",
    "final_y": "531257.68",
    "longitude": "-90.01388308469029",
    "latitude": "29.954242100667123",
    "geocoded_column": {
      "latitude": "29.954242100667123",
      "longitude": "-90.01388308469029"
    }
  },
  {
    "service_request": "2022-919676",
    "request_type": "Trash/Recycling",
    "request_reason": "Missed Trash Pick-Up",
    "date_created": "2022-09-14T18:07:18.000",
    "date_modified": "2022-09-14T18:07:19.000",
    "request_status": "Pending",
    "responsible_agency": "Department of Sanitation",
    "final_address": "131 S Scott St",
    "address_councildis": "A",
    "status": "Assigned to Contractor",
    "contractor": "Richards Disposal",
    "rowid": "919676",
    "final_x": "3671535.89844",
    "final_y": "537610.991048",
    "longitude": "-90.09932630763416",
    "latitude": "29.972542645083124",
    "geocoded_column": {
      "latitude": "29.972542645083124",
      "longitude": "-90.09932630763416"
    }
  },
  {
    "service_request": "2022-919675",
    "request_type": "Trash/Recycling",
    "request_reason": "MIssed Recycling Pick-Up",
    "date_created": "2022-09-14T18:07:07.000",
    "date_modified": "2022-09-14T18:07:07.000",
    "request_status": "Pending",
    "responsible_agency": "Department of Sanitation",
    "final_address": "3817 Palmyra St",
    "address_councildis": "A",
    "status": "Assigned to Contractor",
    "contractor": "Richards Disposal",
    "rowid": "919675",
    "final_x": "3671489.92289",
    "final_y": "537096.625288",
    "longitude": "-90.09948899924301",
    "latitude": "29.971129674039933",
    "geocoded_column": {
      "latitude": "29.971129674039933",
      "longitude": "-90.09948899924301"
    }
  },
  {
    "service_request": "2022-919674",
    "request_type": "Trash/Recycling",
    "request_reason": "Missed Trash Pick-Up",
    "date_created": "2022-09-14T18:02:55.000",
    "date_modified": "2022-09-14T18:02:56.000",
    "request_status": "Pending",
    "responsible_agency": "Department of Sanitation",
    "final_address": "1400 BLK N White St",
    "address_councildis": "A",
    "status": "Assigned to Contractor",
    "contractor": "Metro Disposal",
    "rowid": "919674",
    "final_x": "3677671.61181",
    "final_y": "540037.7934",
    "longitude": "-90.07986477347953",
    "latitude": "29.979032398075127",
    "geocoded_column": {
      "latitude": "29.979032398075127",
      "longitude": "-90.07986477347953"
    }
  },
  {
    "service_request": "2022-919673",
    "request_type": "Trash/Recycling",
    "request_reason": "Order Trash Cart",
    "date_created": "2022-09-14T18:01:59.000",
    "date_modified": "2022-09-14T18:01:59.000",
    "request_status": "Pending",
    "responsible_agency": "Department of Sanitation",
    "final_address": "4827 Bright Dr",
    "address_councildis": "E",
    "status": "Assigned to Contractor",
    "contractor": "Metro Disposal",
    "rowid": "919673",
    "final_x": "3715900.18437",
    "final_y": "557258.851867",
    "longitude": "-89.95847300321867",
    "latitude": "30.025178365202795",
    "geocoded_column": {
      "latitude": "30.025178365202795",
      "longitude": "-89.95847300321867"
    }
  },
  {
    "service_request": "2022-919672",
    "request_type": "Property Maintenance",
    "request_reason": "Property Maintenance",
    "date_created": "2022-09-14T17:54:43.000",
    "date_modified": "2022-09-14T17:54:43.000",
    "request_status": "Pending",
    "responsible_agency": "Department of Code Enforcement",
    "final_address": "2121 Dauphine St",
    "address_councildis": "C",
    "status": "Pending",
    "rowid": "919672",
    "final_x": "3684868.88898",
    "final_y": "535235.982534",
    "longitude": "-90.05730193255954",
    "latitude": "29.96561063953787",
    "geocoded_column": {
      "latitude": "29.96561063953787",
      "longitude": "-90.05730193255954"
    }
  },
  {
    "service_request": "2022-919671",
    "request_type": "Trash/Recycling",
    "request_reason": "Missed Trash Pick-Up",
    "date_created": "2022-09-14T17:44:36.000",
    "date_modified": "2022-09-14T17:44:37.000",
    "request_status": "Pending",
    "responsible_agency": "Department of Sanitation",
    "final_address": "1558 N Rocheblave St",
    "address_councildis": "D",
    "status": "Assigned to Contractor",
    "contractor": "Metro Disposal",
    "rowid": "919671",
    "final_x": "3679836.15343",
    "final_y": "539327.647178",
    "longitude": "-90.0730529886429",
    "latitude": "29.97701445666532",
    "geocoded_column": {
      "latitude": "29.97701445666532",
      "longitude": "-90.0730529886429"
    }
  },
  {
    "service_request": "2022-919670",
    "request_type": "Trash/Recycling",
    "request_reason": "Missed Trash Pick-Up",
    "date_created": "2022-09-14T17:41:37.000",
    "date_modified": "2022-09-14T17:41:38.000",
    "request_status": "Pending",
    "responsible_agency": "Department of Sanitation",
    "final_address": "7822 Oak St",
    "address_councildis": "A",
    "status": "Assigned to Contractor",
    "contractor": "Richards Disposal",
    "rowid": "919670",
    "final_x": "3662631.63322",
    "final_y": "527712.712639",
    "longitude": "-90.12777661128112",
    "latitude": "29.945586269025636",
    "geocoded_column": {
      "latitude": "29.945586269025636",
      "longitude": "-90.12777661128112"
    }
  },
  {
    "service_request": "2022-919669",
    "request_type": "Trash/Recycling",
    "request_reason": "Missed Trash Pick-Up",
    "date_created": "2022-09-14T17:39:01.000",
    "date_modified": "2022-09-14T17:39:01.000",
    "request_status": "Pending",
    "responsible_agency": "Department of Sanitation",
    "final_address": "7822 Oak St, New Orleans, Louisiana, 70118",
    "address_councildis": "A",
    "status": "Assigned to Contractor",
    "contractor": "Richards Disposal",
    "rowid": "919669",
    "final_x": "3662631.63322",
    "final_y": "527712.712639",
    "longitude": "-90.12777661128112",
    "latitude": "29.945586269025636",
    "geocoded_column": {
      "latitude": "29.945586269025636",
      "longitude": "-90.12777661128112"
    }
  },
  {
    "service_request": "2022-919668",
    "request_type": "Trash/Recycling",
    "request_reason": "Replace Trash Cart",
    "date_created": "2022-09-14T17:31:34.000",
    "date_modified": "2022-09-14T17:31:35.000",
    "request_status": "Pending",
    "responsible_agency": "Department of Sanitation",
    "final_address": "2747 Ramsey Dr, New Orleans, Louisiana, 70131",
    "address_councildis": "C",
    "status": "Assigned to Contractor",
    "contractor": "Richards Disposal",
    "rowid": "919668",
    "final_x": "3703045.57713",
    "final_y": "520594.222136",
    "longitude": "-90.00043896126392",
    "latitude": "29.924781874415988",
    "geocoded_column": {
      "latitude": "29.924781874415988",
      "longitude": "-90.00043896126392"
    }
  },
  {
    "service_request": "2022-919667",
    "request_type": "Trash/Recycling",
    "request_reason": "Repair Trash Cart",
    "date_created": "2022-09-14T17:29:43.000",
    "date_modified": "2022-09-14T17:29:43.000",
    "request_status": "Pending",
    "responsible_agency": "Department of Sanitation",
    "final_address": "523 Arabella St",
    "address_councildis": "A",
    "status": "Assigned to Contractor",
    "contractor": "Richards Disposal",
    "rowid": "919667",
    "final_x": "3665689.51252",
    "final_y": "518117.584246",
    "longitude": "-90.1184430552486",
    "latitude": "29.919113894410575",
    "geocoded_column": {
      "latitude": "29.919113894410575",
      "longitude": "-90.1184430552486"
    }
  },
  {
    "service_request": "2022-919666",
    "request_type": "Abandoned Vehicles",
    "request_reason": "Abandoned/Junk Vehicles",
    "date_created": "2022-09-14T17:26:24.000",
    "date_modified": "2022-09-14T17:26:24.000",
    "request_status": "Pending",
    "responsible_agency": "Department of Public Works",
    "final_address": "115 28Th St",
    "address_councildis": "A",
    "status": "Pending",
    "rowid": "919666",
    "final_x": "3666069.38868",
    "final_y": "550234.606548",
    "longitude": "-90.11616709931837",
    "latitude": "30.00741403678773",
    "geocoded_column": {
      "latitude": "30.00741403678773",
      "longitude": "-90.11616709931837"
    }
  },
  {
    "service_request": "2022-919665",
    "request_type": "Trash/Recycling",
    "request_reason": "Missed Trash Pick-Up",
    "date_created": "2022-09-14T17:21:56.000",
    "date_modified": "2022-09-14T17:21:57.000",
    "request_status": "Pending",
    "responsible_agency": "Department of Sanitation",
    "final_address": "1028 Burdette St",
    "address_councildis": "A",
    "status": "Assigned to Contractor",
    "contractor": "Richards Disposal",
    "rowid": "919665",
    "final_x": "3662456.47648",
    "final_y": "527307.691327",
    "longitude": "-90.1283430890142",
    "latitude": "29.944477655921556",
    "geocoded_column": {
      "latitude": "29.944477655921556",
      "longitude": "-90.1283430890142"
    }
  },
  {
    "service_request": "2022-919664",
    "request_type": "Trash/Recycling",
    "request_reason": "Missed Trash Pick-Up",
    "date_created": "2022-09-14T17:20:45.000",
    "date_modified": "2022-09-14T17:20:46.000",
    "request_status": "Pending",
    "responsible_agency": "Department of Sanitation",
    "final_address": "741 Navarre St",
    "address_councildis": "A",
    "status": "Assigned to Contractor",
    "contractor": "Metro Disposal",
    "rowid": "919664",
    "final_x": "3668643.71726",
    "final_y": "543876.248974",
    "longitude": "-90.10824881076562",
    "latitude": "29.98985530986403",
    "geocoded_column": {
      "latitude": "29.98985530986403",
      "longitude": "-90.10824881076562"
    }
  },
  {
    "service_request": "2022-919663",
    "request_type": "Abandoned Vehicles",
    "request_reason": "Abandoned/Junk Vehicles",
    "date_created": "2022-09-14T17:19:58.000",
    "date_modified": "2022-09-14T17:19:59.000",
    "request_status": "Pending",
    "responsible_agency": "Department of Public Works",
    "final_address": "607 N St Patrick St",
    "address_councildis": "A",
    "status": "Pending",
    "rowid": "919663",
    "final_x": "3670216.83745",
    "final_y": "541373.476044",
    "longitude": "-90.10336459959338",
    "latitude": "29.98292719968493",
    "geocoded_column": {
      "latitude": "29.98292719968493",
      "longitude": "-90.10336459959338"
    }
  },
  {
    "service_request": "2022-919662",
    "request_type": "Trash/Recycling",
    "request_reason": "Order Trash Cart",
    "date_created": "2022-09-14T17:19:31.000",
    "date_modified": "2022-09-14T17:19:31.000",
    "request_status": "Pending",
    "responsible_agency": "Department of Sanitation",
    "final_address": "3416 Hollygrove St",
    "address_councildis": "A",
    "status": "Assigned to Contractor",
    "contractor": "Richards Disposal",
    "rowid": "919662",
    "final_x": "3665000.37274",
    "final_y": "536479.289607",
    "longitude": "-90.12000460378756",
    "latitude": "29.96962275496451",
    "geocoded_column": {
      "latitude": "29.96962275496451",
      "longitude": "-90.12000460378756"
    }
  },
  {
    "service_request": "2022-919661",
    "request_type": "Abandoned Vehicles",
    "request_reason": "Abandoned/Junk Vehicles",
    "date_created": "2022-09-14T17:19:06.000",
    "date_modified": "2022-09-14T17:19:06.000",
    "request_status": "Pending",
    "responsible_agency": "Department of Public Works",
    "final_address": "22 Tennyson Pl",
    "address_councildis": "C",
    "status": "Pending",
    "rowid": "919661",
    "final_x": "3705253.45867",
    "final_y": "517830.350134",
    "longitude": "-89.99357147953206",
    "latitude": "29.917111380289263",
    "geocoded_column": {
      "latitude": "29.917111380289263",
      "longitude": "-89.99357147953206"
    }
  },
  {
    "service_request": "2022-919660",
    "request_type": "Abandoned Vehicles",
    "request_reason": "Abandoned/Junk Vehicles",
    "date_created": "2022-09-14T17:17:38.000",
    "date_modified": "2022-09-14T17:17:38.000",
    "request_status": "Pending",
    "responsible_agency": "Department of Public Works",
    "final_address": "22 Tennyson Pl",
    "address_councildis": "C",
    "status": "Pending",
    "rowid": "919660",
    "final_x": "3705253.45867",
    "final_y": "517830.350134",
    "longitude": "-89.99357147953206",
    "latitude": "29.917111380289263",
    "geocoded_column": {
      "latitude": "29.917111380289263",
      "longitude": "-89.99357147953206"
    }
  },
  {
    "service_request": "2022-919659",
    "request_type": "Trash/Recycling",
    "request_reason": "Order Trash Cart",
    "date_created": "2022-09-14T17:15:20.000",
    "date_modified": "2022-09-14T17:15:21.000",
    "request_status": "Pending",
    "responsible_agency": "Department of Sanitation",
    "final_address": "3206 Hollygrove St",
    "address_councildis": "A",
    "status": "Assigned to Contractor",
    "contractor": "Richards Disposal",
    "rowid": "919659",
    "final_x": "3664420.87956",
    "final_y": "535852.617223",
    "longitude": "-90.12185562625463",
    "latitude": "29.967916472739784",
    "geocoded_column": {
      "latitude": "29.967916472739784",
      "longitude": "-90.12185562625463"
    }
  },
  {
    "service_request": "2022-919658",
    "request_type": "Roads/Drainage",
    "request_reason": "Ditch Issue",
    "date_created": "2022-09-14T17:14:50.000",
    "date_modified": "2022-09-14T17:14:50.000",
    "request_status": "Pending",
    "responsible_agency": "Department of Public Works",
    "final_address": "1521 Richland Rd",
    "address_councildis": "C",
    "status": "Pending",
    "rowid": "919658",
    "final_x": "3697856.14691",
    "final_y": "525564.373757",
    "longitude": "-90.0166398923209",
    "latitude": "29.93861304671705",
    "geocoded_column": {
      "latitude": "29.93861304671705",
      "longitude": "-90.0166398923209"
    }
  },
  {
    "service_request": "2022-919657",
    "request_type": "Trash/Recycling",
    "request_reason": "Order Trash Cart",
    "date_created": "2022-09-14T17:14:08.000",
    "date_modified": "2022-09-14T17:14:08.000",
    "request_status": "Pending",
    "responsible_agency": "Department of Sanitation",
    "final_address": "3208 Hollygrove St",
    "address_councildis": "A",
    "status": "Assigned to Contractor",
    "contractor": "Richards Disposal",
    "rowid": "919657",
    "final_x": "3664463.13012",
    "final_y": "535895.837255",
    "longitude": "-90.12172075375793",
    "latitude": "29.96803408520264",
    "geocoded_column": {
      "latitude": "29.96803408520264",
      "longitude": "-90.12172075375793"
    }
  },
  {
    "service_request": "2022-919656",
    "request_type": "Trash/Recycling",
    "request_reason": "Missed Trash Pick-Up",
    "date_created": "2022-09-14T17:12:17.000",
    "date_modified": "2022-09-14T17:12:17.000",
    "request_status": "Pending",
    "responsible_agency": "Department of Sanitation",
    "final_address": "1535 Burdette St",
    "address_councildis": "A",
    "status": "Assigned to Contractor",
    "contractor": "Richards Disposal",
    "rowid": "919656",
    "final_x": "3663730.10791",
    "final_y": "528571.58112",
    "longitude": "-90.12427973892692",
    "latitude": "29.947916057187477",
    "geocoded_column": {
      "latitude": "29.947916057187477",
      "longitude": "-90.12427973892692"
    }
  },
  {
    "service_request": "2022-919655",
    "request_type": "Abandoned Vehicles",
    "request_reason": "Abandoned/Junk Vehicles",
    "date_created": "2022-09-14T17:11:49.000",
    "date_modified": "2022-09-14T17:11:49.000",
    "request_status": "Pending",
    "responsible_agency": "Department of Public Works",
    "final_address": "1000 Cambronne St",
    "address_councildis": "A",
    "status": "Pending",
    "rowid": "919655",
    "final_x": "3660689.3065",
    "final_y": "528643.928384",
    "longitude": "-90.13387842693757",
    "latitude": "29.948202863443193",
    "geocoded_column": {
      "latitude": "29.948202863443193",
      "longitude": "-90.13387842693757"
    }
  },
  {
    "service_request": "2022-919654",
    "request_type": "Trash/Recycling",
    "request_reason": "Missed Trash Pick-Up",
    "date_created": "2022-09-14T17:05:05.000",
    "date_modified": "2022-09-14T17:05:06.000",
    "request_status": "Pending",
    "responsible_agency": "Department of Sanitation",
    "final_address": "3001 Grand Route St John St",
    "address_councildis": "A",
    "status": "Assigned to Contractor",
    "contractor": "Metro Disposal",
    "rowid": "919654",
    "final_x": "3677107.58069",
    "final_y": "540392.499467",
    "longitude": "-90.08163396394826",
    "latitude": "29.98002467101905",
    "geocoded_column": {
      "latitude": "29.98002467101905",
      "longitude": "-90.08163396394826"
    }
  },
  {
    "service_request": "2022-919653",
    "request_type": "Mosquito, Termite & Rodent Control",
    "request_reason": "Rodent Complaint (Rats)",
    "date_created": "2022-09-14T17:04:45.000",
    "date_modified": "2022-09-14T17:05:13.000",
    "request_status": "Pending",
    "responsible_agency": "Mosquito, Termite & Rodent Control Board",
    "final_address": "PHILIP ST & MAGNOLIA ST",
    "address_councildis": "B",
    "status": "Pending",
    "rowid": "919653",
    "final_x": "3674965.0",
    "final_y": "526635.08",
    "longitude": "-90.08887304910628",
    "latitude": "29.942260570904097",
    "geocoded_column": {
      "latitude": "29.942260570904097",
      "longitude": "-90.08887304910628"
    }
  },
  {
    "service_request": "2022-919652",
    "request_type": "Trash/Recycling",
    "request_reason": "Missed Trash Pick-Up",
    "date_created": "2022-09-14T17:00:54.000",
    "date_modified": "2022-09-14T17:00:55.000",
    "request_status": "Pending",
    "responsible_agency": "Department of Sanitation",
    "final_address": "1831 Bordeaux St",
    "address_councildis": "B",
    "status": "Assigned to Contractor",
    "contractor": "Richards Disposal",
    "rowid": "919652",
    "final_x": "3669356.87892",
    "final_y": "521701.446393",
    "longitude": "-90.10674592285943",
    "latitude": "29.928860950778304",
    "geocoded_column": {
      "latitude": "29.928860950778304",
      "longitude": "-90.10674592285943"
    }
  },
  {
    "service_request": "2022-919651",
    "request_type": "Trash/Recycling",
    "request_reason": "Missed Trash Pick-Up",
    "date_created": "2022-09-14T17:00:53.000",
    "date_modified": "2022-09-14T17:00:54.000",
    "request_status": "Pending",
    "responsible_agency": "Department of Sanitation",
    "final_address": "2217 Onzaga St",
    "address_councildis": "D",
    "status": "Assigned to Contractor",
    "contractor": "Metro Disposal",
    "rowid": "919651",
    "final_x": "3680607.25051",
    "final_y": "539487.855242",
    "longitude": "-90.07061204161982",
    "latitude": "29.977431630654873",
    "geocoded_column": {
      "latitude": "29.977431630654873",
      "longitude": "-90.07061204161982"
    }
  },
  {
    "service_request": "2022-919650",
    "request_type": "Trash/Recycling",
    "request_reason": "Missed Trash Pick-Up",
    "date_created": "2022-09-14T16:58:47.000",
    "date_modified": "2022-09-14T16:58:48.000",
    "request_status": "Pending",
    "responsible_agency": "Department of Sanitation",
    "final_address": "1224 Sere St",
    "address_councildis": "D",
    "status": "Assigned to Contractor",
    "contractor": "Metro Disposal",
    "rowid": "919650",
    "final_x": "3676912.26734",
    "final_y": "545254.440783",
    "longitude": "-90.08208315830299",
    "latitude": "29.993399184564343",
    "geocoded_column": {
      "latitude": "29.993399184564343",
      "longitude": "-90.08208315830299"
    }
  },
  {
    "service_request": "2022-919649",
    "request_type": "Trash/Recycling",
    "request_reason": "Order Recycling Cart",
    "date_created": "2022-09-14T16:57:24.000",
    "date_modified": "2022-09-14T16:57:25.000",
    "request_status": "Pending",
    "responsible_agency": "Department of Sanitation",
    "final_address": "5822 Mandeville St",
    "address_councildis": "D",
    "status": "Pending",
    "rowid": "919649",
    "final_x": "3684242.7645",
    "final_y": "554490.39164",
    "longitude": "-90.05860276303022",
    "latitude": "30.018572566075434",
    "geocoded_column": {
      "latitude": "30.018572566075434",
      "longitude": "-90.05860276303022"
    }
  },
  {
    "service_request": "2022-919648",
    "request_type": "Trash/Recycling",
    "request_reason": "Order Trash Cart",
    "date_created": "2022-09-14T16:57:09.000",
    "date_modified": "2022-09-14T16:57:10.000",
    "request_status": "Pending",
    "responsible_agency": "Department of Sanitation",
    "final_address": "5822 Mandeville St",
    "address_councildis": "D",
    "status": "Assigned to Contractor",
    "contractor": "Metro Disposal",
    "rowid": "919648",
    "final_x": "3684242.7645",
    "final_y": "554490.39164",
    "longitude": "-90.05860276303022",
    "latitude": "30.018572566075434",
    "geocoded_column": {
      "latitude": "30.018572566075434",
      "longitude": "-90.05860276303022"
    }
  },
  {
    "service_request": "2022-919647",
    "request_type": "Trash/Recycling",
    "request_reason": "Start Trash Service",
    "date_created": "2022-09-14T16:57:01.000",
    "date_modified": "2022-09-14T16:57:02.000",
    "request_status": "Pending",
    "responsible_agency": "Department of Sanitation",
    "final_address": "5822 Mandeville St",
    "address_councildis": "D",
    "status": "Assigned to Contractor",
    "contractor": "Metro Disposal",
    "rowid": "919647",
    "final_x": "3684242.7645",
    "final_y": "554490.39164",
    "longitude": "-90.05860276303022",
    "latitude": "30.018572566075434",
    "geocoded_column": {
      "latitude": "30.018572566075434",
      "longitude": "-90.05860276303022"
    }
  },
  {
    "service_request": "2022-919646",
    "request_type": "Traffic Signals/Signs/Striping/Streetlights",
    "request_reason": "Request for Stop Sign",
    "date_created": "2022-09-14T16:51:07.000",
    "date_modified": "2022-09-14T16:51:07.000",
    "request_status": "Pending",
    "responsible_agency": "Department of Public Works",
    "final_address": "1000 BLK Saint Philip St",
    "address_councildis": "C",
    "status": "Pending",
    "rowid": "919646",
    "final_x": "3682219.39373",
    "final_y": "534115.179261",
    "longitude": "-90.0657080812966",
    "latitude": "29.96260967855893",
    "geocoded_column": {
      "latitude": "29.96260967855893",
      "longitude": "-90.0657080812966"
    }
  },
  {
    "service_request": "2022-919645",
    "request_type": "Roads/Drainage",
    "request_reason": "Street Flooding / Drainage",
    "date_created": "2022-09-14T16:50:38.000",
    "date_modified": "2022-09-14T16:50:39.000",
    "request_status": "Pending",
    "responsible_agency": "Department of Public Works",
    "final_address": "600 BLK N Murat St",
    "address_councildis": "A",
    "status": "Pending",
    "rowid": "919645",
    "final_x": "3670890.94886",
    "final_y": "540964.840758",
    "longitude": "-90.10124928617505",
    "latitude": "29.98178367809629",
    "geocoded_column": {
      "latitude": "29.98178367809629",
      "longitude": "-90.10124928617505"
    }
  },
  {
    "service_request": "2022-919644",
    "request_type": "Abandoned Vehicles",
    "request_reason": "Abandoned/Junk Vehicles",
    "date_created": "2022-09-14T16:50:08.000",
    "date_modified": "2022-09-14T16:50:08.000",
    "request_status": "Pending",
    "responsible_agency": "Department of Public Works",
    "final_address": "3200 BLK Jackson Ave",
    "address_councildis": "B",
    "status": "Pending",
    "rowid": "919644",
    "final_x": "3673834.30518",
    "final_y": "528628.713528",
    "longitude": "-90.09237473998841",
    "latitude": "29.947776125474313",
    "geocoded_column": {
      "latitude": "29.947776125474313",
      "longitude": "-90.09237473998841"
    }
  },
  {
    "service_request": "2022-919643",
    "request_type": "Trash/Recycling",
    "request_reason": "Missed Trash Pick-Up",
    "date_created": "2022-09-14T16:49:22.000",
    "date_modified": "2022-09-14T16:49:23.000",
    "request_status": "Pending",
    "responsible_agency": "Department of Sanitation",
    "final_address": "4100 BLK State Street Dr",
    "address_councildis": "B",
    "status": "Assigned to Contractor",
    "contractor": "Richards Disposal",
    "rowid": "919643",
    "final_x": "3668360.2515",
    "final_y": "530751.734544",
    "longitude": "-90.1095869594482",
    "latitude": "29.95377561797008",
    "geocoded_column": {
      "latitude": "29.95377561797008",
      "longitude": "-90.1095869594482"
    }
  },
  {
    "service_request": "2022-919642",
    "request_type": "Traffic Signals/Signs/Striping/Streetlights",
    "request_reason": "Traffic Signal Malfunctioning/Damaged",
    "date_created": "2022-09-14T16:48:12.000",
    "date_modified": "2022-09-14T17:34:34.000",
    "request_status": "Pending",
    "responsible_agency": "Department of Public Works",
    "final_address": "New Orleans,LA",
    "address_councildis": "C",
    "rowid": "919642",
    "final_x": "3680355.4",
    "final_y": "535244.18",
    "longitude": "-90.07155506013936",
    "latitude": "29.965770614309644",
    "geocoded_column": {
      "latitude": "29.965770614309644",
      "longitude": "-90.07155506013936"
    }
  },
  {
    "service_request": "2022-919641",
    "request_type": "Trash/Recycling",
    "request_reason": "Repair Trash Cart",
    "date_created": "2022-09-14T16:47:56.000",
    "date_modified": "2022-09-14T16:47:57.000",
    "request_status": "Pending",
    "responsible_agency": "Department of Sanitation",
    "final_address": "4630 Majestic Oaks Dr",
    "address_councildis": "D",
    "status": "Assigned to Contractor",
    "contractor": "Metro Disposal",
    "rowid": "919641",
    "final_x": "3697679.22634",
    "final_y": "553860.997783",
    "longitude": "-90.01617152301681",
    "latitude": "30.01642411519278",
    "geocoded_column": {
      "latitude": "30.01642411519278",
      "longitude": "-90.01617152301681"
    }
  },
  {
    "service_request": "2022-919640",
    "request_type": "Property Maintenance",
    "request_reason": "Property Maintenance",
    "date_created": "2022-09-14T16:41:03.000",
    "date_modified": "2022-09-14T16:41:04.000",
    "request_status": "Pending",
    "responsible_agency": "Department of Code Enforcement",
    "final_address": "NEW YORK ST & PAINTERS ST",
    "address_councildis": "D",
    "status": "Pending",
    "rowid": "919640",
    "final_x": "3685943.2",
    "final_y": "556720.48",
    "longitude": "-90.05315129132282",
    "latitude": "30.02465235921994",
    "geocoded_column": {
      "latitude": "30.02465235921994",
      "longitude": "-90.05315129132282"
    }
  },
  {
    "service_request": "2022-919638",
    "request_type": "Abandoned Vehicles",
    "request_reason": "Abandoned/Junk Vehicles",
    "date_created": "2022-09-14T16:39:28.000",
    "date_modified": "2022-09-14T16:39:28.000",
    "request_status": "Pending",
    "responsible_agency": "Department of Public Works",
    "final_address": "3200 BLK Jackson Ave",
    "address_councildis": "B",
    "status": "Pending",
    "rowid": "919638",
    "final_x": "3673834.30518",
    "final_y": "528628.713528",
    "longitude": "-90.09237473998841",
    "latitude": "29.947776125474313",
    "geocoded_column": {
      "latitude": "29.947776125474313",
      "longitude": "-90.09237473998841"
    }
  },
  {
    "service_request": "2022-919637",
    "request_type": "Trash/Recycling",
    "request_reason": "Missed Trash Pick-Up",
    "date_created": "2022-09-14T16:37:41.000",
    "date_modified": "2022-09-14T16:37:42.000",
    "request_status": "Pending",
    "responsible_agency": "Department of Sanitation",
    "final_address": "3138 Maurepas St",
    "address_councildis": "A",
    "status": "Assigned to Contractor",
    "contractor": "Metro Disposal",
    "rowid": "919637",
    "final_x": "3676289.42824",
    "final_y": "540718.469131",
    "longitude": "-90.08420680866847",
    "latitude": "29.980945524597498",
    "geocoded_column": {
      "latitude": "29.980945524597498",
      "longitude": "-90.08420680866847"
    }
  },
  {
    "service_request": "2022-919636",
    "request_type": "Trash/Recycling",
    "request_reason": "Missed Trash Pick-Up",
    "date_created": "2022-09-14T16:36:08.000",
    "date_modified": "2022-09-14T16:36:09.000",
    "request_status": "Pending",
    "responsible_agency": "Department of Sanitation",
    "final_address": "7328 Plum St",
    "address_councildis": "A",
    "status": "Assigned to Contractor",
    "contractor": "Richards Disposal",
    "rowid": "919636",
    "final_x": "3663927.37088",
    "final_y": "527035.813182",
    "longitude": "-90.12370808767713",
    "latitude": "29.94368746359225",
    "geocoded_column": {
      "latitude": "29.94368746359225",
      "longitude": "-90.12370808767713"
    }
  },
  {
    "service_request": "2022-919635",
    "request_type": "Roads/Drainage",
    "request_reason": "Street Subsidence (Sinking)",
    "date_created": "2022-09-14T16:31:56.000",
    "date_modified": "2022-09-14T16:31:56.000",
    "request_status": "Pending",
    "responsible_agency": "Department of Public Works",
    "final_address": "6027 Laurel St",
    "address_councildis": "A",
    "status": "Pending",
    "rowid": "919635",
    "final_x": "3664205.01146",
    "final_y": "518335.35583",
    "longitude": "-90.12312162749483",
    "latitude": "29.919755893766826",
    "geocoded_column": {
      "latitude": "29.919755893766826",
      "longitude": "-90.12312162749483"
    }
  },
  {
    "service_request": "2022-919634",
    "request_type": "Trash/Recycling",
    "request_reason": "Missed Trash Pick-Up",
    "date_created": "2022-09-14T16:31:02.000",
    "date_modified": "2022-09-14T16:35:37.000",
    "request_status": "Pending",
    "responsible_agency": "Department of Sanitation",
    "final_address": "3406 Toledano St",
    "address_councildis": "B",
    "status": "Assigned to Contractor",
    "contractor": "Richards Disposal",
    "rowid": "919634",
    "final_x": "3671847.28571",
    "final_y": "527977.718655",
    "longitude": "-90.09867070832402",
    "latitude": "29.946045125319127",
    "geocoded_column": {
      "latitude": "29.946045125319127",
      "longitude": "-90.09867070832402"
    }
  },
  {
    "service_request": "2022-919633",
    "request_type": "Trash/Recycling",
    "request_reason": "Missed Trash Pick-Up",
    "date_created": "2022-09-14T16:28:21.000",
    "date_modified": "2022-09-14T16:28:22.000",
    "request_status": "Pending",
    "responsible_agency": "Department of Sanitation",
    "final_address": "3513 Encampment St, New Orleans, Louisiana, 70122",
    "address_councildis": "D",
    "status": "Assigned to Contractor",
    "contractor": "Metro Disposal",
    "rowid": "919633",
    "final_x": "3676719.94305",
    "final_y": "545483.480144",
    "longitude": "-90.08268278358202",
    "latitude": "29.99403473588247",
    "geocoded_column": {
      "latitude": "29.99403473588247",
      "longitude": "-90.08268278358202"
    }
  },
  {
    "service_request": "2022-919632",
    "request_type": "Trash/Recycling",
    "request_reason": "Missed Trash Pick-Up",
    "date_created": "2022-09-14T16:27:42.000",
    "date_modified": "2022-09-14T16:27:49.000",
    "request_status": "Pending",
    "responsible_agency": "Department of Sanitation",
    "final_address": "3003 Ponce De Leon St",
    "address_councildis": "A",
    "status": "Assigned to Contractor",
    "contractor": "Metro Disposal",
    "rowid": "919632",
    "final_x": "3677088.08264",
    "final_y": "540552.415755",
    "longitude": "-90.08169002974675",
    "latitude": "29.980464971260762",
    "geocoded_column": {
      "latitude": "29.980464971260762",
      "longitude": "-90.08169002974675"
    }
  },
  {
    "service_request": "2022-919631",
    "request_type": "Roads/Drainage",
    "request_reason": "Damaged Sidewalk",
    "date_created": "2022-09-14T16:25:27.000",
    "date_modified": "2022-09-14T16:25:27.000",
    "request_status": "Pending",
    "responsible_agency": "Department of Public Works",
    "final_address": "413 Camp St",
    "address_councildis": "B",
    "status": "Pending",
    "rowid": "919631",
    "final_x": "3681038.52725",
    "final_y": "529613.667393",
    "longitude": "-90.06959387427673",
    "latitude": "29.950267915247363",
    "geocoded_column": {
      "latitude": "29.950267915247363",
      "longitude": "-90.06959387427673"
    }
  },
  {
    "service_request": "2022-919630",
    "request_type": "Trash/Recycling",
    "request_reason": "Missed Trash Pick-Up",
    "date_created": "2022-09-14T16:24:24.000",
    "date_modified": "2022-09-14T16:24:24.000",
    "request_status": "Pending",
    "responsible_agency": "Department of Sanitation",
    "final_address": "3400 Derby Pl",
    "address_councildis": "A",
    "status": "Assigned to Contractor",
    "contractor": "Metro Disposal",
    "rowid": "919630",
    "final_x": "3677316.97499",
    "final_y": "542859.890381",
    "longitude": "-90.08088742832194",
    "latitude": "29.986802849573426",
    "geocoded_column": {
      "latitude": "29.986802849573426",
      "longitude": "-90.08088742832194"
    }
  },
  {
    "service_request": "2022-919629",
    "request_type": "Trash/Recycling",
    "request_reason": "Missed Trash Pick-Up",
    "date_created": "2022-09-14T16:23:08.000",
    "date_modified": "2022-09-14T16:23:09.000",
    "request_status": "Pending",
    "responsible_agency": "Department of Sanitation",
    "final_address": "5650 Orleans Ave",
    "address_councildis": "A",
    "status": "Assigned to Contractor",
    "contractor": "Metro Disposal",
    "rowid": "919629",
    "final_x": "3670611.94043",
    "final_y": "544987.195407",
    "longitude": "-90.10199400398078",
    "latitude": "29.992852021101907",
    "geocoded_column": {
      "latitude": "29.992852021101907",
      "longitude": "-90.10199400398078"
    }
  },
  {
    "service_request": "2022-919628",
    "request_type": "Abandoned Vehicles",
    "request_reason": "Abandoned/Junk Vehicles",
    "date_created": "2022-09-14T16:21:54.000",
    "date_modified": "2022-09-14T16:21:55.000",
    "request_status": "Pending",
    "responsible_agency": "Department of Public Works",
    "final_address": "4910 Banks St",
    "address_councildis": "A",
    "status": "Pending",
    "rowid": "919628",
    "final_x": "3667626.85697",
    "final_y": "539365.54529",
    "longitude": "-90.11161272284218",
    "latitude": "29.97748225760335",
    "geocoded_column": {
      "latitude": "29.97748225760335",
      "longitude": "-90.11161272284218"
    }
  },
  {
    "service_request": "2022-919627",
    "request_type": "Trash/Recycling",
    "request_reason": "Missed Trash Pick-Up",
    "date_created": "2022-09-14T16:21:41.000",
    "date_modified": "2022-09-14T16:21:42.000",
    "request_status": "Pending",
    "responsible_agency": "Department of Sanitation",
    "final_address": "Walmsley Ave & Vincennes Pl, New Orleans, Louisiana, 70125",
    "address_councildis": "B",
    "status": "Assigned to Contractor",
    "contractor": "Richards Disposal",
    "rowid": "919627",
    "final_x": "3668533.7",
    "final_y": "530471.18",
    "longitude": "-90.10904874446699",
    "latitude": "29.952999090226328",
    "geocoded_column": {
      "latitude": "29.952999090226328",
      "longitude": "-90.10904874446699"
    }
  },
  {
    "service_request": "2022-919626",
    "request_type": "Trash/Recycling",
    "request_reason": "Start Trash Service",
    "date_created": "2022-09-14T16:21:17.000",
    "date_modified": "2022-09-14T16:21:18.000",
    "request_status": "Pending",
    "responsible_agency": "Department of Sanitation",
    "final_address": "1131 Rev. John Raphael, Jr. Way",
    "address_councildis": "B",
    "status": "Assigned to Contractor",
    "contractor": "Richards Disposal",
    "rowid": "919626",
    "final_x": "3677189.66222",
    "final_y": "528053.884031",
    "longitude": "-90.08180036750734",
    "latitude": "29.9460951889288",
    "geocoded_column": {
      "latitude": "29.9460951889288",
      "longitude": "-90.08180036750734"
    }
  },
  {
    "service_request": "2022-919625",
    "request_type": "Roads/Drainage",
    "request_reason": "Pothole",
    "date_created": "2022-09-14T16:20:55.000",
    "date_modified": "2022-09-14T16:20:56.000",
    "request_status": "Pending",
    "responsible_agency": "Department of Public Works",
    "final_address": "4009 Piedmont Dr",
    "address_councildis": "D",
    "status": "Pending",
    "rowid": "919625",
    "final_x": "3685343.89173",
    "final_y": "547324.926929",
    "longitude": "-90.05537611415619",
    "latitude": "29.99883641701346",
    "geocoded_column": {
      "latitude": "29.99883641701346",
      "longitude": "-90.05537611415619"
    }
  },
  {
    "service_request": "2022-919624",
    "request_type": "Trash/Recycling",
    "request_reason": "Order Trash Cart",
    "date_created": "2022-09-14T16:20:27.000",
    "date_modified": "2022-09-14T16:20:27.000",
    "request_status": "Pending",
    "responsible_agency": "Department of Sanitation",
    "final_address": "2335 Canal St",
    "address_councildis": "B",
    "status": "Assigned to Contractor",
    "contractor": "Richards Disposal",
    "rowid": "919624",
    "final_x": "3676562.00929",
    "final_y": "534372.790405",
    "longitude": "-90.08356447911187",
    "latitude": "29.96348890175138",
    "geocoded_column": {
      "latitude": "29.96348890175138",
      "longitude": "-90.08356447911187"
    }
  },
  {
    "service_request": "2022-919623",
    "request_type": "Traffic Signals/Signs/Striping/Streetlights",
    "request_reason": "Street Light Outage/Malfunction",
    "date_created": "2022-09-14T16:20:12.000",
    "date_modified": "2022-09-14T16:20:12.000",
    "request_status": "Pending",
    "responsible_agency": "Department of Public Works",
    "final_address": "344 Camp St",
    "address_councildis": "B",
    "status": "Pending",
    "contractor": "Legacy Professional Services",
    "rowid": "919623",
    "final_x": "3681226.95074",
    "final_y": "529538.247873",
    "longitude": "-90.06900155988403",
    "latitude": "29.95005482152158",
    "geocoded_column": {
      "latitude": "29.95005482152158",
      "longitude": "-90.06900155988403"
    }
  },
  {
    "service_request": "2022-919622",
    "request_type": "Traffic Signals/Signs/Striping/Streetlights",
    "request_reason": "Street Light Outage/Malfunction",
    "date_created": "2022-09-14T16:17:07.000",
    "date_modified": "2022-09-14T16:17:08.000",
    "request_status": "Pending",
    "responsible_agency": "Department of Public Works",
    "final_address": "520 General Pershing St",
    "address_councildis": "B",
    "status": "Pending",
    "contractor": "Legacy Professional Services",
    "rowid": "919622",
    "final_x": "3671518.29767",
    "final_y": "517693.78911",
    "longitude": "-90.10005891343239",
    "latitude": "29.91777737433963",
    "geocoded_column": {
      "latitude": "29.91777737433963",
      "longitude": "-90.10005891343239"
    }
  },
  {
    "service_request": "2022-919621",
    "request_type": "Trash/Recycling",
    "request_reason": "Missed Trash Pick-Up",
    "date_created": "2022-09-14T16:16:57.000",
    "date_modified": "2022-09-14T16:16:58.000",
    "request_status": "Pending",
    "responsible_agency": "Department of Sanitation",
    "final_address": "3610 Martin Luther King Jr Blvd, New Orleans, Louisiana, 70125",
    "status": "Assigned to Contractor",
    "rowid": "919621",
    "longitude": "0.0",
    "latitude": "0.0",
    "geocoded_column": {
      "latitude": "0.0",
      "longitude": "0.0"
    }
  },
  {
    "service_request": "2022-919620",
    "request_type": "Trash/Recycling",
    "request_reason": "Order Trash Cart",
    "date_created": "2022-09-14T16:16:01.000",
    "date_modified": "2022-09-14T16:16:02.000",
    "request_status": "Pending",
    "responsible_agency": "Department of Sanitation",
    "final_address": "1227 L B Landry Ave, New Orleans, Louisiana, 70114",
    "status": "Assigned to Contractor",
    "rowid": "919620",
    "longitude": "0.0",
    "latitude": "0.0",
    "geocoded_column": {
      "latitude": "0.0",
      "longitude": "0.0"
    }
  },
  {
    "service_request": "2022-919619",
    "request_type": "Trash/Recycling",
    "request_reason": "Illegal Dumping",
    "date_created": "2022-09-14T16:15:53.000",
    "date_modified": "2022-09-14T16:15:54.000",
    "request_status": "Pending",
    "responsible_agency": "Department of Sanitation",
    "final_address": "THAYER ST & ALIX ST",
    "address_councildis": "C",
    "status": "Pending",
    "rowid": "919619",
    "final_x": "3689543.1",
    "final_y": "530267.48",
    "longitude": "-90.04271773531465",
    "latitude": "29.951805026464882",
    "geocoded_column": {
      "latitude": "29.951805026464882",
      "longitude": "-90.04271773531465"
    }
  },
  {
    "service_request": "2022-919618",
    "request_type": "Trash/Recycling",
    "request_reason": "Missed Trash Pick-Up",
    "date_created": "2022-09-14T16:14:40.000",
    "date_modified": "2022-09-14T16:14:41.000",
    "request_status": "Pending",
    "responsible_agency": "Department of Sanitation",
    "final_address": "1811 Laharpe St",
    "address_councildis": "D",
    "status": "Assigned to Contractor",
    "contractor": "Metro Disposal",
    "rowid": "919618",
    "final_x": "3681308.59957",
    "final_y": "538018.292809",
    "longitude": "-90.06844818408219",
    "latitude": "29.973369573046497",
    "geocoded_column": {
      "latitude": "29.973369573046497",
      "longitude": "-90.06844818408219"
    }
  },
  {
    "service_request": "2022-919617",
    "request_type": "Trash/Recycling",
    "request_reason": "Missed Trash Pick-Up",
    "date_created": "2022-09-14T16:13:18.000",
    "date_modified": "2022-09-14T16:13:19.000",
    "request_status": "Pending",
    "responsible_agency": "Department of Sanitation",
    "final_address": "3142 Trafalgar St",
    "address_councildis": "A",
    "status": "Assigned to Contractor",
    "contractor": "Metro Disposal",
    "rowid": "919617",
    "final_x": "3678411.4811",
    "final_y": "543119.901005",
    "longitude": "-90.07742128506443",
    "latitude": "29.987484847581683",
    "geocoded_column": {
      "latitude": "29.987484847581683",
      "longitude": "-90.07742128506443"
    }
  },
  {
    "service_request": "2022-919616",
    "request_type": "Trash/Recycling",
    "request_reason": "Missed Trash Pick-Up",
    "date_created": "2022-09-14T16:12:00.000",
    "date_modified": "2022-09-14T16:12:01.000",
    "request_status": "Pending",
    "responsible_agency": "Department of Sanitation",
    "final_address": "800 BLK Touro St",
    "address_councildis": "C",
    "status": "Assigned to Contractor",
    "contractor": "Metro Disposal",
    "rowid": "919616",
    "final_x": "3684304.80688",
    "final_y": "535342.517685",
    "longitude": "-90.0590795371169",
    "latitude": "29.96592083496315",
    "geocoded_column": {
      "latitude": "29.96592083496315",
      "longitude": "-90.0590795371169"
    }
  },
  {
    "service_request": "2022-919615",
    "request_type": "Trash/Recycling",
    "request_reason": "Repair Trash Cart",
    "date_created": "2022-09-14T16:11:49.000",
    "date_modified": "2022-09-14T16:11:50.000",
    "request_status": "Pending",
    "responsible_agency": "Department of Sanitation",
    "final_address": "4330 Cleveland Ave",
    "address_councildis": "A",
    "status": "Assigned to Contractor",
    "contractor": "Richards Disposal",
    "rowid": "919615",
    "final_x": "3669816.60615",
    "final_y": "538741.965513",
    "longitude": "-90.10471785781581",
    "latitude": "29.975703244218103",
    "geocoded_column": {
      "latitude": "29.975703244218103",
      "longitude": "-90.10471785781581"
    }
  },
  {
    "service_request": "2022-919614",
    "request_type": "Trash/Recycling",
    "request_reason": "Missed Trash Pick-Up",
    "date_created": "2022-09-14T16:11:16.000",
    "date_modified": "2022-09-14T16:11:17.000",
    "request_status": "Pending",
    "responsible_agency": "Department of Sanitation",
    "final_address": "2331 Adams St",
    "address_councildis": "A",
    "status": "Assigned to Contractor",
    "contractor": "Richards Disposal",
    "rowid": "919614",
    "final_x": "3665903.76493",
    "final_y": "530434.990274",
    "longitude": "-90.11735417016658",
    "latitude": "29.95297658331077",
    "geocoded_column": {
      "latitude": "29.95297658331077",
      "longitude": "-90.11735417016658"
    }
  },
  {
    "service_request": "2022-919613",
    "request_type": "Trash/Recycling",
    "request_reason": "Request a Large Item Pick Up",
    "date_created": "2022-09-14T16:08:13.000",
    "date_modified": "2022-09-14T16:08:14.000",
    "request_status": "Pending",
    "responsible_agency": "Department of Sanitation",
    "final_address": "7801 Jahncke Rd",
    "address_councildis": "E",
    "status": "Assigned to Contractor",
    "contractor": "Metro Disposal",
    "rowid": "919613",
    "final_x": "3713823.77368",
    "final_y": "568844.480357",
    "longitude": "-89.96459676950148",
    "latitude": "30.057102513223278",
    "geocoded_column": {
      "latitude": "30.057102513223278",
      "longitude": "-89.96459676950148"
    }
  },
  {
    "service_request": "2022-919612",
    "request_type": "Trash/Recycling",
    "request_reason": "Request a Large Item Pick Up",
    "date_created": "2022-09-14T16:06:50.000",
    "date_modified": "2022-09-14T16:06:51.000",
    "request_status": "Pending",
    "responsible_agency": "Department of Sanitation",
    "final_address": "1208 Sumner St",
    "address_councildis": "C",
    "status": "Assigned to Contractor",
    "contractor": "Richards Disposal",
    "rowid": "919612",
    "final_x": "3691124.45065",
    "final_y": "526945.524222",
    "longitude": "-90.03784319275364",
    "latitude": "29.942621720712612",
    "geocoded_column": {
      "latitude": "29.942621720712612",
      "longitude": "-90.03784319275364"
    }
  },
  {
    "service_request": "2022-919611",
    "request_type": "Traffic Signals/Signs/Striping/Streetlights",
    "request_reason": "Street Light Knocked Down/Leaning",
    "date_created": "2022-09-14T16:01:11.000",
    "date_modified": "2022-09-14T16:01:12.000",
    "request_status": "Pending",
    "responsible_agency": "Department of Public Works",
    "final_address": "344 Camp St",
    "address_councildis": "B",
    "status": "Pending",
    "contractor": "Legacy Professional Services",
    "rowid": "919611",
    "final_x": "3681226.95074",
    "final_y": "529538.247873",
    "longitude": "-90.06900155988403",
    "latitude": "29.95005482152158",
    "geocoded_column": {
      "latitude": "29.95005482152158",
      "longitude": "-90.06900155988403"
    }
  },
  {
    "service_request": "2022-919610",
    "request_type": "Trash/Recycling",
    "request_reason": "Missed Trash Pick-Up",
    "date_created": "2022-09-14T16:01:04.000",
    "date_modified": "2022-09-14T16:01:05.000",
    "request_status": "Pending",
    "responsible_agency": "Department of Sanitation",
    "final_address": "157 Middle Park Pl, New Orleans, Louisiana, 70124",
    "address_councildis": "A",
    "status": "Assigned to Contractor",
    "contractor": "Metro Disposal",
    "rowid": "919610",
    "final_x": "3670058.41134",
    "final_y": "544687.922703",
    "longitude": "-90.10375265320876",
    "latitude": "29.99204546840609",
    "geocoded_column": {
      "latitude": "29.99204546840609",
      "longitude": "-90.10375265320876"
    }
  },
  {
    "service_request": "2022-919609",
    "request_type": "Trash/Recycling",
    "request_reason": "Request a Large Item Pick Up",
    "date_created": "2022-09-14T16:00:35.000",
    "date_modified": "2022-09-14T16:00:35.000",
    "request_status": "Pending",
    "responsible_agency": "Department of Sanitation",
    "final_address": "424 S Lopez St",
    "address_councildis": "B",
    "status": "Assigned to Contractor",
    "contractor": "Richards Disposal",
    "rowid": "919609",
    "final_x": "3673019.31739",
    "final_y": "535045.506246",
    "longitude": "-90.09472897777275",
    "latitude": "29.965444416381725",
    "geocoded_column": {
      "latitude": "29.965444416381725",
      "longitude": "-90.09472897777275"
    }
  },
  {
    "service_request": "2022-919608",
    "request_type": "Trash/Recycling",
    "request_reason": "Missed Trash Pick-Up",
    "date_created": "2022-09-14T16:00:27.000",
    "date_modified": "2022-09-14T16:00:27.000",
    "request_status": "Pending",
    "responsible_agency": "Department of Sanitation",
    "final_address": "2643 De Soto St",
    "address_councildis": "A",
    "status": "Assigned to Contractor",
    "contractor": "Metro Disposal",
    "rowid": "919608",
    "final_x": "3678003.83298",
    "final_y": "539315.813066",
    "longitude": "-90.07884045596954",
    "latitude": "29.977037204098274",
    "geocoded_column": {
      "latitude": "29.977037204098274",
      "longitude": "-90.07884045596954"
    }
  },
  {
    "service_request": "2022-919607",
    "request_type": "Roads/Drainage",
    "request_reason": "Damaged Sidewalk",
    "date_created": "2022-09-14T15:58:49.000",
    "date_modified": "2022-09-14T15:58:49.000",
    "request_status": "Pending",
    "responsible_agency": "Department of Public Works",
    "final_address": "344 Camp St",
    "address_councildis": "B",
    "status": "Pending",
    "rowid": "919607",
    "final_x": "3681226.95074",
    "final_y": "529538.247873",
    "longitude": "-90.06900155988403",
    "latitude": "29.95005482152158",
    "geocoded_column": {
      "latitude": "29.95005482152158",
      "longitude": "-90.06900155988403"
    }
  },
  {
    "service_request": "2022-919606",
    "request_type": "Traffic Signals/Signs/Striping/Streetlights",
    "request_reason": "Street Light Outage/Malfunction",
    "date_created": "2022-09-14T15:58:13.000",
    "date_modified": "2022-09-14T15:58:14.000",
    "request_status": "Pending",
    "responsible_agency": "Department of Public Works",
    "final_address": "6900 Edgefield Dr",
    "address_councildis": "E",
    "status": "Pending",
    "contractor": "Legacy Professional Services",
    "rowid": "919606",
    "final_x": "3719216.80876",
    "final_y": "568413.605221",
    "longitude": "-89.94756683869356",
    "latitude": "30.055739549275785",
    "geocoded_column": {
      "latitude": "30.055739549275785",
      "longitude": "-89.94756683869356"
    }
  },
  {
    "service_request": "2022-919605",
    "request_type": "Trash/Recycling",
    "request_reason": "Missed Trash Pick-Up",
    "date_created": "2022-09-14T15:57:43.000",
    "date_modified": "2022-09-14T15:57:44.000",
    "request_status": "Pending",
    "responsible_agency": "Department of Sanitation",
    "final_address": "1234 Kerlerec St",
    "address_councildis": "C",
    "status": "Assigned to Contractor",
    "contractor": "Metro Disposal",
    "rowid": "919605",
    "final_x": "3682570.18671",
    "final_y": "535998.182087",
    "longitude": "-90.06453448204348",
    "latitude": "29.96777661362958",
    "geocoded_column": {
      "latitude": "29.96777661362958",
      "longitude": "-90.06453448204348"
    }
  },