[
  {
    "service_request": "2025-1248182",
    "request_type": "Trash/Recycling",
    "request_reason": "Request a Large Item Pick Up",
    "date_created": "2025-12-29T23:03:12.000",
    "date_modified": "2025-12-29T23:03:14.000",
    "request_status": "Pending",
    "responsible_agency": "Department of Sanitation",
    "final_address": "4750 Knight Dr",
    "address_councildis": "E",
    "status": "Assigned to Contractor",
    "contractor": "Waste Pro",
    "rowid": "1248182",
    "final_x": "3708054.22692",
    "final_y": "555615.101081",
    "longitude": "-89.98332599307837",
    "latitude": "30.020915210999327",
    "geocoded_column": {
      "latitude": "30.020915210999327",
      "longitude": "-89.98332599307837"
    }
  },
  {
    "service_request": "2025-1248181",
    "request_type": "Trash/Recycling",
    "request_reason": "Request a Large Item Pick Up",
    "date_created": "2025-12-29T22:09:41.000",
    "date_modified": "2025-12-29T22:09:43.000",
    "request_status": "Pending",
    "responsible_agency": "Department of Sanitation",
    "final_address": "2317 Joliet St",
    "address_councildis": "A",
    "status": "Assigned to Contractor",
    "contractor": "IV Waste",
    "rowid": "1248181",
    "final_x": "3663630.50631",
    "final_y": "532270.701379",
    "longitude": "-90.12447100241607",
    "latitude": "29.958090330608787",
    "geocoded_column": {
      "latitude": "29.958090330608787",
      "longitude": "-90.12447100241607"
    }
  },
  {
    "service_request": "2025-1248180",
    "request_type": "Trash/Recycling",
    "request_reason": "Request a Large Item Pick Up",
    "date_created": "2025-12-29T21:37:43.000",
    "date_modified": "2025-12-29T21:37:46.000",
    "request_status": "Pending",
    "responsible_agency": "Department of Sanitation",
    "final_address": "0 BLK Blanc Pl",
    "address_councildis": "B",
    "status": "Assigned to Contractor",
    "contractor": "IV Waste",
    "rowid": "1248180",
    "final_x": "3667951.08401",
    "final_y": "520874.262829",
    "longitude": "-90.11121159835395",
    "latitude": "29.926627762655404",
    "geocoded_column": {
      "latitude": "29.926627762655404",
      "longitude": "-90.11121159835395"
    }
  },
  {
    "service_request": "2025-1248179",
    "request_type": "Abandoned Vehicles",
    "request_reason": "Abandoned/Junk Vehicles",
    "date_created": "2025-12-29T20:58:56.000",
    "date_modified": "2025-12-29T20:59:04.000",
    "request_status": "Pending",
    "responsible_agency": "Department of Public Works",
    "final_address": "529 N Hennessey St, New Orleans, Louisiana, 70119",
    "address_councildis": "A",
    "status": "Pending",
    "rowid": "1248179",
    "final_x": "3671318.54644",
    "final_y": "540375.987339",
    "longitude": "-90.09991874828722",
    "latitude": "29.980151882484684",
    "geocoded_column": {
      "latitude": "29.980151882484684",
      "longitude": "-90.09991874828722"
    }
  },
  {
    "service_request": "2025-1248178",
    "request_type": "Trash/Recycling",
    "request_reason": "Request a Large Item Pick Up",
    "date_created": "2025-12-29T20:49:57.000",
    "date_modified": "2025-12-29T20:49:59.000",
    "request_status": "Pending",
    "responsible_agency": "Department of Sanitation",
    "final_address": "7151 Deanne St",
    "address_councildis": "D",
    "status": "Assigned to Contractor",
    "contractor": "Waste Pro",
    "rowid": "1248178",
    "final_x": "3695565.78608",
    "final_y": "556945.731226",
    "longitude": "-90.02273757130185",
    "latitude": "30.024972597709244",
    "geocoded_column": {
      "latitude": "30.024972597709244",
      "longitude": "-90.02273757130185"
    }
  },
  {
    "service_request": "2025-1248177",
    "request_type": "Trash/Recycling",
    "request_reason": "Request a Large Item Pick Up",
    "date_created": "2025-12-29T19:56:22.000",
    "date_modified": "2025-12-29T19:56:23.000",
    "request_status": "Pending",
    "responsible_agency": "Department of Sanitation",
    "final_address": "9830 Morrison Rd",
    "address_councildis": "E",
    "status": "Assigned to Contractor",
    "contractor": "Waste Pro",
    "rowid": "1248177",
    "final_x": "3707910.13188",
    "final_y": "562926.344224",
    "longitude": "-89.98350914893025",
    "latitude": "30.041022921529713",
    "geocoded_column": {
      "latitude": "30.041022921529713",
      "longitude": "-89.98350914893025"
    }
  },
  {
    "service_request": "2025-1248176",
    "request_type": "Christmas Tree Recycle Pick Up",
    "request_reason": "Christmas Tree Recycle Pick Up",
    "date_created": "2025-12-29T19:34:25.000",
    "date_modified": "2025-12-29T19:34:26.000",
    "request_status": "Pending",
    "responsible_agency": "Office of Resilience and Sustainability",
    "final_address": "617 N Alexander St",
    "address_councildis": "A",
    "status": "Pending",
    "contractor": "Glass Half Full",
    "rowid": "1248176",
    "final_x": "3671144.62843",
    "final_y": "540756.663371",
    "longitude": "-90.10045511912718",
    "latitude": "29.981203758463064",
    "geocoded_column": {
      "latitude": "29.981203758463064",
      "longitude": "-90.10045511912718"
    }
  },
  {
    "service_request": "2025-1248175",
    "request_type": "Trash/Recycling",
    "request_reason": "Request a Large Item Pick Up",
    "date_created": "2025-12-29T19:33:33.000",
    "date_modified": "2025-12-29T19:33:34.000",
    "request_status": "Pending",
    "responsible_agency": "Department of Sanitation",
    "final_address": "2604 Calhoun St",
    "address_councildis": "A",
    "status": "Assigned to Contractor",
    "contractor": "IV Waste",
    "rowid": "1248175",
    "final_x": "3666303.09639",
    "final_y": "526461.24947",
    "longitude": "-90.11622652950933",
    "latitude": "29.94203842345606",
    "geocoded_column": {
      "latitude": "29.94203842345606",
      "longitude": "-90.11622652950933"
    }
  },
  {
    "service_request": "2025-1248174",
    "request_type": "Trash/Recycling",
    "request_reason": "Request a Large Item Pick Up",
    "date_created": "2025-12-29T19:21:27.000",
    "date_modified": "2025-12-29T19:21:29.000",
    "request_status": "Pending",
    "responsible_agency": "Department of Sanitation",
    "final_address": "8840 Palm St",
    "address_councildis": "A",
    "status": "Assigned to Contractor",
    "contractor": "IV Waste",
    "rowid": "1248174",
    "final_x": "3665637.28416",
    "final_y": "536542.894279",
    "longitude": "-90.11799104348515",
    "latitude": "29.969779086961044",
    "geocoded_column": {
      "latitude": "29.969779086961044",
      "longitude": "-90.11799104348515"
    }
  },
  {
    "service_request": "2025-1248173",
    "request_type": "General Services",
    "request_reason": "General Service Request",
    "date_created": "2025-12-29T19:15:32.000",
    "date_modified": "2025-12-29T19:15:34.000",
    "request_status": "Pending",
    "responsible_agency": "Orleans Parish Communication District",
    "final_address": "3420 Fourth St",
    "address_councildis": "B",
    "status": "Pending",
    "rowid": "1248173",
    "final_x": "3672545.15675",
    "final_y": "528141.462079",
    "longitude": "-90.09646170647575",
    "latitude": "29.946474670925983",
    "geocoded_column": {
      "latitude": "29.946474670925983",
      "longitude": "-90.09646170647575"
    }
  },
  {
    "service_request": "2025-1248172",
    "request_type": "Trash/Recycling",
    "request_reason": "Request a Large Item Pick Up",
    "date_created": "2025-12-29T18:45:59.000",
    "date_modified": "2025-12-29T18:46:01.000",
    "request_status": "Pending",
    "responsible_agency": "Department of Sanitation",
    "final_address": "10911 Guildford Rd",
    "address_councildis": "E",
    "status": "Assigned to Contractor",
    "contractor": "Waste Pro",
    "rowid": "1248172",
    "final_x": "3711385.91768",
    "final_y": "564035.096545",
    "longitude": "-89.97248295085919",
    "latitude": "30.043958502612004",
    "geocoded_column": {
      "latitude": "30.043958502612004",
      "longitude": "-89.97248295085919"
    }
  },
  {
    "service_request": "2025-1248171",
    "request_type": "Trash/Recycling",
    "request_reason": "Replace Trash Cart",
    "date_created": "2025-12-29T18:38:13.000",
    "date_modified": "2025-12-29T18:38:15.000",
    "request_status": "Pending",
    "responsible_agency": "Department of Sanitation",
    "final_address": "7191 Queensway Dr",
    "address_councildis": "E",
    "status": "Assigned to Contractor",
    "contractor": "Waste Pro",
    "rowid": "1248171",
    "final_x": "3718776.74316",
    "final_y": "570077.507687",
    "longitude": "-89.94889424304824",
    "latitude": "30.06032921603417",
    "geocoded_column": {
      "latitude": "30.06032921603417",
      "longitude": "-89.94889424304824"
    }
  },
  {
    "service_request": "2025-1248170",
    "request_type": "Trash/Recycling",
    "request_reason": "Request a Large Item Pick Up",
    "date_created": "2025-12-29T18:05:32.000",
    "date_modified": "2025-12-29T18:05:34.000",
    "request_status": "Pending",
    "responsible_agency": "Department of Sanitation",
    "final_address": "5501 Hawthorne Pl",
    "address_councildis": "A",
    "status": "Assigned to Contractor",
    "contractor": "IV Waste",
    "rowid": "1248170",
    "final_x": "3667855.21978",
    "final_y": "544245.276174",
    "longitude": "-90.11072703032696",
    "latitude": "29.99089316534079",
    "geocoded_column": {
      "latitude": "29.99089316534079",
      "longitude": "-90.11072703032696"
    }
  },
  {
    "service_request": "2025-1248169",
    "request_type": "Trash/Recycling",
    "request_reason": "Missed Trash Pick-Up",
    "date_created": "2025-12-29T17:57:32.000",
    "date_modified": "2025-12-29T17:57:40.000",
    "request_status": "Pending",
    "responsible_agency": "Department of Sanitation",
    "final_address": "13232 Willowbrook Dr",
    "address_councildis": "E",
    "status": "Assigned to Contractor",
    "contractor": "Waste Pro",
    "rowid": "1248169",
    "final_x": "3726865.52518",
    "final_y": "564083.493921",
    "longitude": "-89.9235594230937",
    "latitude": "30.04357699285632",
    "geocoded_column": {
      "latitude": "30.04357699285632",
      "longitude": "-89.9235594230937"
    }
  },
  {
    "service_request": "2025-1248168",
    "request_type": "Trash/Recycling",
    "request_reason": "Request a Large Item Pick Up",
    "date_created": "2025-12-29T17:49:56.000",
    "date_modified": "2025-12-29T17:49:57.000",
    "request_status": "Pending",
    "responsible_agency": "Department of Sanitation",
    "final_address": "8005 Lehigh St",
    "address_councildis": "E",
    "status": "Assigned to Contractor",
    "contractor": "Waste Pro",
    "rowid": "1248168",
    "final_x": "3709858.87217",
    "final_y": "566870.965796",
    "longitude": "-89.97720296796288",
    "latitude": "30.051805779269852",
    "geocoded_column": {
      "latitude": "30.051805779269852",
      "longitude": "-89.97720296796288"
    }
  },
  {
    "service_request": "2025-1248167",
    "request_type": "Trash/Recycling",
    "request_reason": "Repair Trash Cart",
    "date_created": "2025-12-29T17:29:54.000",
    "date_modified": "2025-12-29T17:29:56.000",
    "request_status": "Pending",
    "responsible_agency": "Department of Sanitation",
    "final_address": "516 S Pierce St",
    "address_councildis": "B",
    "status": "Assigned to Contractor",
    "contractor": "IV Waste",
    "rowid": "1248167",
    "final_x": "3670434.43131",
    "final_y": "536625.965383",
    "longitude": "-90.10283835478126",
    "latitude": "29.969866726558074",
    "geocoded_column": {
      "latitude": "29.969866726558074",
      "longitude": "-90.10283835478126"
    }
  },
  {
    "service_request": "2025-1248166",
    "request_type": "Trash/Recycling",
    "request_reason": "Request a Large Item Pick Up",
    "date_created": "2025-12-29T17:20:31.000",
    "date_modified": "2025-12-29T17:20:33.000",
    "request_status": "Pending",
    "responsible_agency": "Department of Sanitation",
    "final_address": "4528 Bienville Ave",
    "address_councildis": "A",
    "status": "Assigned to Contractor",
    "contractor": "IV Waste",
    "rowid": "1248166",
    "final_x": "3669961.84302",
    "final_y": "540134.938379",
    "longitude": "-90.10421196638336",
    "latitude": "29.97952916562871",
    "geocoded_column": {
      "latitude": "29.97952916562871",
      "longitude": "-90.10421196638336"
    }
  },
  {
    "service_request": "2025-1248165",
    "request_type": "Trash/Recycling",
    "request_reason": "Order Trash Cart",
    "date_created": "2025-12-29T17:17:07.000",
    "date_modified": "2025-12-29T17:17:09.000",
    "request_status": "Pending",
    "responsible_agency": "Department of Sanitation",
    "final_address": "2718 Palmyra St",
    "address_councildis": "B",
    "status": "Assigned to Contractor",
    "contractor": "IV Waste",
    "rowid": "1248165",
    "final_x": "3674684.07867",
    "final_y": "534566.625285",
    "longitude": "-90.08948814618618",
    "latitude": "29.964078068996255",
    "geocoded_column": {
      "latitude": "29.964078068996255",
      "longitude": "-90.08948814618618"
    }
  },
  {
    "service_request": "2025-1248164",
    "request_type": "Trash/Recycling",
    "request_reason": "Request a Large Item Pick Up",
    "date_created": "2025-12-29T17:15:36.000",
    "date_modified": "2025-12-29T17:15:38.000",
    "request_status": "Pending",
    "responsible_agency": "Department of Sanitation",
    "final_address": "44 Marywood Ct",
    "address_councildis": "E",
    "status": "Assigned to Contractor",
    "contractor": "Waste Pro",
    "rowid": "1248164",
    "final_x": "3712233.94373",
    "final_y": "567025.747748",
    "longitude": "-89.96969035871096",
    "latitude": "30.052153862366005",
    "geocoded_column": {
      "latitude": "30.052153862366005",
      "longitude": "-89.96969035871096"
    }
  },
  {
    "service_request": "2025-1248163",
    "request_type": "Trash/Recycling",
    "request_reason": "Damaged Caused By Contractor",
    "date_created": "2025-12-29T17:09:27.000",
    "date_modified": "2025-12-29T17:09:29.000",
    "request_status": "Pending",
    "responsible_agency": "Department of Sanitation",
    "final_address": "34 Wren St",
    "address_councildis": "D",
    "status": "Assigned to Contractor",
    "contractor": "IV Waste",
    "rowid": "1248163",
    "final_x": "3672367.52839",
    "final_y": "556010.894041",
    "longitude": "-90.09607240046779",
    "latitude": "30.023111311752896",
    "geocoded_column": {
      "latitude": "30.023111311752896",
      "longitude": "-90.09607240046779"
    }
  },
  {
    "service_request": "2025-1248162",
    "request_type": "Trash/Recycling",
    "request_reason": "Replace Recycling Cart",
    "date_created": "2025-12-29T16:50:25.000",
    "date_modified": "2025-12-29T16:50:26.000",
    "request_status": "Pending",
    "responsible_agency": "Department of Sanitation",
    "final_address": "2601 Dumaine St",
    "address_councildis": "D",
    "status": "Pending",
    "rowid": "1248162",
    "final_x": "3677583.62939",
    "final_y": "537249.257672",
    "longitude": "-90.08023897251466",
    "latitude": "29.97136752894056",
    "geocoded_column": {
      "latitude": "29.97136752894056",
      "longitude": "-90.08023897251466"
    }
  },
  {
    "service_request": "2025-1248161",
    "request_type": "Streetlights",
    "request_reason": "Streetlight Outage/Malfunction",
    "date_created": "2025-12-29T16:43:50.000",
    "date_modified": "2025-12-29T16:43:51.000",
    "request_status": "Pending",
    "responsible_agency": "Department of Public Works",
    "final_address": "2427 Marengo St",
    "address_councildis": "B",
    "status": "Pending",
    "rowid": "1248161",
    "final_x": "3671700.23291",
    "final_y": "524017.205436",
    "longitude": "-90.09926968009744",
    "latitude": "29.93515935869871",
    "geocoded_column": {
      "latitude": "29.93515935869871",
      "longitude": "-90.09926968009744"
    }
  },
  {
    "service_request": "2025-1248160",
    "request_type": "Trash/Recycling",
    "request_reason": "Request a Large Item Pick Up",
    "date_created": "2025-12-29T16:43:03.000",
    "date_modified": "2025-12-29T16:43:05.000",
    "request_status": "Pending",
    "responsible_agency": "Department of Sanitation",
    "final_address": "58 Marywood Ct",
    "address_councildis": "E",
    "status": "Assigned to Contractor",
    "contractor": "Waste Pro",
    "rowid": "1248160",
    "final_x": "3712150.29502",
    "final_y": "566972.553124",
    "longitude": "-89.9699567450574",
    "latitude": "30.05201033572378",
    "geocoded_column": {
      "latitude": "30.05201033572378",
      "longitude": "-89.9699567450574"
    }
  },
  {
    "service_request": "2025-1248159",
    "request_type": "Trash/Recycling",
    "request_reason": "Request a Large Item Pick Up",
    "date_created": "2025-12-29T16:42:08.000",
    "date_modified": "2025-12-29T16:42:09.000",
    "request_status": "Pending",
    "responsible_agency": "Department of Sanitation",
    "final_address": "7220 Cranbrook Dr",
    "address_councildis": "E",
    "status": "Assigned to Contractor",
    "contractor": "Waste Pro",
    "rowid": "1248159",
    "final_x": "3713698.3589",
    "final_y": "565913.272739",
    "longitude": "-89.96510381655028",
    "latitude": "30.04904700850115",
    "geocoded_column": {
      "latitude": "30.04904700850115",
      "longitude": "-89.96510381655028"
    }
  },
  {
    "service_request": "2025-1248158",
    "request_type": "Trash/Recycling",
    "request_reason": "Request a Large Item Pick Up",
    "date_created": "2025-12-29T16:41:12.000",
    "date_modified": "2025-12-29T16:41:13.000",
    "request_status": "Pending",
    "responsible_agency": "Department of Sanitation",
    "final_address": "4615 Laine Ave",
    "address_councildis": "E",
    "status": "Assigned to Contractor",
    "contractor": "Waste Pro",
    "rowid": "1248158",
    "final_x": "3705842.64062",
    "final_y": "554581.643352",
    "longitude": "-89.99035218117533",
    "latitude": "30.018145061773644",
    "geocoded_column": {
      "latitude": "30.018145061773644",
      "longitude": "-89.99035218117533"
    }
  },
  {
    "service_request": "2025-1248157",
    "request_type": "Christmas Tree Recycle Pick Up",
    "request_reason": "Christmas Tree Recycle Pick Up",
    "date_created": "2025-12-29T16:36:58.000",
    "date_modified": "2025-12-29T16:37:00.000",
    "request_status": "Pending",
    "responsible_agency": "Office of Resilience and Sustainability",
    "final_address": "2425 Constance St",
    "address_councildis": "B",
    "status": "Pending",
    "contractor": "Glass Half Full",
    "rowid": "1248157",
    "final_x": "3678077.23624",
    "final_y": "521092.902521",
    "longitude": "-90.0792385374855",
    "latitude": "29.926928094413885",
    "geocoded_column": {
      "latitude": "29.926928094413885",
      "longitude": "-90.0792385374855"
    }
  },
  {
    "service_request": "2025-1248156",
    "request_type": "Street and Traffic Signs",
    "request_reason": "Stop Sign Missing or Damaged",
    "date_created": "2025-12-29T16:36:19.000",
    "date_modified": "2025-12-29T16:36:20.000",
    "request_status": "Pending",
    "responsible_agency": "Department of Public Works",
    "final_address": "CAMP ST & MILAN ST",
    "address_councildis": "B",
    "status": "Pending",
    "rowid": "1248156",
    "final_x": "3671768.9",
    "final_y": "519228.98",
    "longitude": "-90.0992157079703",
    "latitude": "29.921991242266316",
    "geocoded_column": {
      "latitude": "29.921991242266316",
      "longitude": "-90.0992157079703"
    }
  },
  {
    "service_request": "2025-1248155",
    "request_type": "Trash/Recycling",
    "request_reason": "Order Second Trash Cart",
    "date_created": "2025-12-29T16:32:23.000",
    "date_modified": "2025-12-29T16:32:26.000",
    "request_status": "Pending",
    "responsible_agency": "Department of Sanitation",
    "final_address": "3 Admiralty Ct",
    "address_councildis": "C",
    "status": "Assigned to Contractor",
    "contractor": "Richards Disposal",
    "rowid": "1248155",
    "final_x": "3703840.19044",
    "final_y": "522665.774778",
    "longitude": "-89.9978544354956",
    "latitude": "29.930452483501654",
    "geocoded_column": {
      "latitude": "29.930452483501654",
      "longitude": "-89.9978544354956"
    }
  },
  {
    "service_request": "2025-1248154",
    "request_type": "Trash/Recycling",
    "request_reason": "Request a Large Item Pick Up",
    "date_created": "2025-12-29T16:30:53.000",
    "date_modified": "2025-12-29T16:30:54.000",
    "request_status": "Pending",
    "responsible_agency": "Department of Sanitation",
    "final_address": "2634 Mexico St",
    "address_councildis": "D",
    "status": "Assigned to Contractor",
    "contractor": "IV Waste",
    "rowid": "1248154",
    "final_x": "3686636.543",
    "final_y": "556355.872282",
    "longitude": "-90.05097334417246",
    "latitude": "30.023628505747553",
    "geocoded_column": {
      "latitude": "30.023628505747553",
      "longitude": "-90.05097334417246"
    }
  },
  {
    "service_request": "2025-1248153",
    "request_type": "Christmas Tree Recycle Pick Up",
    "request_reason": "Christmas Tree Recycle Pick Up",
    "date_created": "2025-12-29T16:27:27.000",
    "date_modified": "2025-12-29T16:27:28.000",
    "request_status": "Pending",
    "responsible_agency": "Office of Resilience and Sustainability",
    "final_address": "834 Hidalgo St",
    "address_councildis": "A",
    "status": "Pending",
    "contractor": "Glass Half Full",
    "rowid": "1248153",
    "final_x": "3669062.37658",
    "final_y": "544001.760206",
    "longitude": "-90.10692213273462",
    "latitude": "29.990188108314793",
    "geocoded_column": {
      "latitude": "29.990188108314793",
      "longitude": "-90.10692213273462"
    }
  },
  {
    "service_request": "2025-1248152",
    "request_type": "Trash/Recycling",
    "request_reason": "Missed Trash Pick-Up",
    "date_created": "2025-12-29T16:23:12.000",
    "date_modified": "2025-12-29T16:23:14.000",
    "request_status": "Pending",
    "responsible_agency": "Department of Sanitation",
    "final_address": "7722 Alabama St",
    "address_councildis": "D",
    "status": "Assigned to Contractor",
    "contractor": "Waste Pro",
    "rowid": "1248152",
    "final_x": "3694755.19421",
    "final_y": "558892.14166",
    "longitude": "-90.02522868647165",
    "latitude": "30.0303499544198",
    "geocoded_column": {
      "latitude": "30.0303499544198",
      "longitude": "-90.02522868647165"
    }
  },
  {
    "service_request": "2025-1248151",
    "request_type": "Trash/Recycling",
    "request_reason": "Request a Large Item Pick Up",
    "date_created": "2025-12-29T16:22:02.000",
    "date_modified": "2025-12-29T16:22:05.000",
    "request_status": "Pending",
    "responsible_agency": "Department of Sanitation",
    "final_address": "4837 Virgilian St",
    "address_councildis": "D",
    "status": "Assigned to Contractor",
    "contractor": "Waste Pro",
    "rowid": "1248151",
    "final_x": "3697505.53367",
    "final_y": "554332.309208",
    "longitude": "-90.01670320289696",
    "latitude": "30.01772553231827",
    "geocoded_column": {
      "latitude": "30.01772553231827",
      "longitude": "-90.01670320289696"
    }
  },
  {
    "service_request": "2025-1248150",
    "request_type": "Street and Traffic Signs",
    "request_reason": "New Disabled Parking Sign Request ",
    "date_created": "2025-12-29T16:15:22.000",
    "date_modified": "2025-12-29T16:15:27.000",
    "case_close_date": "2025-12-29T10:15:27.000",
    "request_status": "Closed",
    "responsible_agency": "Department of Public Works",
    "final_address": "710 Jena St",
    "address_councildis": "B",
    "status": "Resolved",
    "rowid": "1248150",
    "final_x": "3670679.96641",
    "final_y": "518106.139638",
    "longitude": "-90.10269108938643",
    "latitude": "29.918935991529953",
    "geocoded_column": {
      "latitude": "29.918935991529953",
      "longitude": "-90.10269108938643"
    }
  },
  {
    "service_request": "2025-1248149",
    "request_type": "Property Maintenance",
    "request_reason": "Property Maintenance",
    "date_created": "2025-12-29T16:12:36.000",
    "date_modified": "2025-12-29T16:12:38.000",
    "request_status": "Pending",
    "responsible_agency": "Department of Code Enforcement",
    "final_address": "7930 Spruce St",
    "address_councildis": "A",
    "status": "Pending",
    "rowid": "1248149",
    "final_x": "3664197.98176",
    "final_y": "530079.002241",
    "longitude": "-90.12275218286182",
    "latitude": "29.95204739564371",
    "geocoded_column": {
      "latitude": "29.95204739564371",
      "longitude": "-90.12275218286182"
    }
  },
  {
    "service_request": "2025-1248148",
    "request_type": "Trash/Recycling",
    "request_reason": "Request a Large Item Pick Up",
    "date_created": "2025-12-29T16:10:42.000",
    "date_modified": "2025-12-29T16:10:44.000",
    "request_status": "Pending",
    "responsible_agency": "Department of Sanitation",
    "final_address": "7740 Sandpiper Dr",
    "address_councildis": "E",
    "status": "Assigned to Contractor",
    "contractor": "Waste Pro",
    "rowid": "1248148",
    "final_x": "3715549.07538",
    "final_y": "570067.254311",
    "longitude": "-89.95909704445374",
    "latitude": "30.060407856630988",
    "geocoded_column": {
      "latitude": "30.060407856630988",
      "longitude": "-89.95909704445374"
    }
  },
  {
    "service_request": "2025-1248147",
    "request_type": "Trash/Recycling",
    "request_reason": "Request a Large Item Pick Up",
    "date_created": "2025-12-29T16:10:19.000",
    "date_modified": "2025-12-29T16:10:22.000",
    "request_status": "Pending",
    "responsible_agency": "Department of Sanitation",
    "final_address": "8901 Middleboro Rd",
    "address_councildis": "E",
    "status": "Assigned to Contractor",
    "contractor": "Waste Pro",
    "rowid": "1248147",
    "final_x": "3706096.46507",
    "final_y": "560860.240414",
    "longitude": "-89.98931750866801",
    "latitude": "30.035400573927166",
    "geocoded_column": {
      "latitude": "30.035400573927166",
      "longitude": "-89.98931750866801"
    }
  },
  {
    "service_request": "2025-1248146",
    "request_type": "Streetlights",
    "request_reason": "Streetlight Outage/Malfunction",
    "date_created": "2025-12-29T16:07:10.000",
    "date_modified": "2025-12-29T16:07:11.000",
    "request_status": "Pending",
    "responsible_agency": "Department of Public Works",
    "final_address": "3601 S Saratoga St A",
    "address_councildis": "B",
    "status": "Pending",
    "rowid": "1248146",
    "final_x": "3672854.17908",
    "final_y": "522982.496443",
    "longitude": "-90.09566195271618",
    "latitude": "29.932280020794774",
    "geocoded_column": {
      "latitude": "29.932280020794774",
      "longitude": "-90.09566195271618"
    }
  },
  {
    "service_request": "2025-1248145",
    "request_type": "Trash/Recycling",
    "request_reason": "Request a Large Item Pick Up",
    "date_created": "2025-12-29T16:06:12.000",
    "date_modified": "2025-12-29T16:06:13.000",
    "request_status": "Pending",
    "responsible_agency": "Department of Sanitation",
    "final_address": "2624 Magazine St",
    "address_councildis": "B",
    "status": "Assigned to Contractor",
    "contractor": "IV Waste",
    "rowid": "1248145",
    "final_x": "3677399.59458",
    "final_y": "520992.422585",
    "longitude": "-90.08138114026806",
    "latitude": "29.926672183154054",
    "geocoded_column": {
      "latitude": "29.926672183154054",
      "longitude": "-90.08138114026806"
    }
  },
  {
    "service_request": "2025-1248144",
    "request_type": "Trash/Recycling",
    "request_reason": "Illegal Dumping",
    "date_created": "2025-12-29T16:05:18.000",
    "date_modified": "2025-12-29T16:05:20.000",
    "request_status": "Pending",
    "responsible_agency": "Department of Sanitation",
    "final_address": "15520 Dwyer Blvd",
    "address_councildis": "E",
    "status": "Pending",
    "rowid": "1248144",
    "final_x": "3730985.17587",
    "final_y": "563708.999265",
    "longitude": "-89.91055447174456",
    "latitude": "30.04240728018116",
    "geocoded_column": {
      "latitude": "30.04240728018116",
      "longitude": "-89.91055447174456"
    }
  },
  {
    "service_request": "2025-1248143",
    "request_type": "Trash/Recycling",
    "request_reason": "Request a Large Item Pick Up",
    "date_created": "2025-12-29T16:04:04.000",
    "date_modified": "2025-12-29T16:04:06.000",
    "request_status": "Pending",
    "responsible_agency": "Department of Sanitation",
    "final_address": "7609 Lady Gray St",
    "address_councildis": "E",
    "status": "Assigned to Contractor",
    "contractor": "Waste Pro",
    "rowid": "1248143",
    "final_x": "3710059.76805",
    "final_y": "565225.590242",
    "longitude": "-89.9766295797748",
    "latitude": "30.04727512148317",
    "geocoded_column": {
      "latitude": "30.04727512148317",
      "longitude": "-89.9766295797748"
    }
  },
  {
    "service_request": "2025-1248142",
    "request_type": "Trash/Recycling",
    "request_reason": "Request a Large Item Pick Up",
    "date_created": "2025-12-29T16:02:58.000",
    "date_modified": "2025-12-29T16:03:00.000",
    "request_status": "Pending",
    "responsible_agency": "Department of Sanitation",
    "final_address": "4635 Lancelot Dr",
    "address_councildis": "E",
    "status": "Assigned to Contractor",
    "contractor": "Waste Pro",
    "rowid": "1248142",
    "final_x": "3707600.34123",
    "final_y": "554716.860568",
    "longitude": "-89.98479353046511",
    "latitude": "30.018460094190825",
    "geocoded_column": {
      "latitude": "30.018460094190825",
      "longitude": "-89.98479353046511"
    }
  },
  {
    "service_request": "2025-1248141",
    "request_type": "Trash/Recycling",
    "request_reason": "Request a Large Item Pick Up",
    "date_created": "2025-12-29T16:02:48.000",
    "date_modified": "2025-12-29T16:02:49.000",
    "request_status": "Pending",
    "responsible_agency": "Department of Sanitation",
    "final_address": "7153 Bunker Hill Rd",
    "address_councildis": "E",
    "status": "Assigned to Contractor",
    "contractor": "Waste Pro",
    "rowid": "1248141",
    "final_x": "3705661.63249",
    "final_y": "561021.870366",
    "longitude": "-89.99068565718676",
    "latitude": "30.035859009657194",
    "geocoded_column": {
      "latitude": "30.035859009657194",
      "longitude": "-89.99068565718676"
    }
  },
  {
    "service_request": "2025-1248140",
    "request_type": "Trash/Recycling",
    "request_reason": "Request a Large Item Pick Up",
    "date_created": "2025-12-29T16:02:27.000",
    "date_modified": "2025-12-29T16:02:28.000",
    "request_status": "Pending",
    "responsible_agency": "Department of Sanitation",
    "final_address": "15520 Dwyer Blvd",
    "address_councildis": "E",
    "status": "Assigned to Contractor",
    "contractor": "Waste Pro",
    "rowid": "1248140",
    "final_x": "3730985.17587",
    "final_y": "563708.999265",
    "longitude": "-89.91055447174456",
    "latitude": "30.04240728018116",
    "geocoded_column": {
      "latitude": "30.04240728018116",
      "longitude": "-89.91055447174456"
    }
  },
  {
    "service_request": "2025-1248139",
    "request_type": "Trash/Recycling",
    "request_reason": "Request a Large Item Pick Up",
    "date_created": "2025-12-29T16:02:05.000",
    "date_modified": "2025-12-29T16:02:07.000",
    "request_status": "Pending",
    "responsible_agency": "Department of Sanitation",
    "final_address": "4215 N Villere St",
    "address_councildis": "D",
    "status": "Assigned to Contractor",
    "contractor": "IV Waste",
    "rowid": "1248139",
    "final_x": "3692820.45814",
    "final_y": "536272.071623",
    "longitude": "-90.03215414557606",
    "latitude": "29.96821364011136",
    "geocoded_column": {
      "latitude": "29.96821364011136",
      "longitude": "-90.03215414557606"
    }
  },
  {
    "service_request": "2025-1248138",
    "request_type": "Mosquito, Termite & Rodent Control",
    "request_reason": "Mosquito Complaint",
    "date_created": "2025-12-29T15:55:04.000",
    "date_modified": "2025-12-29T15:55:06.000",
    "request_status": "Pending",
    "responsible_agency": "Mosquito, Termite & Rodent Control Board",
    "final_address": "1733 N Dupre St",
    "address_councildis": "D",
    "status": "Pending",
    "rowid": "1248138",
    "final_x": "3679091.45083",
    "final_y": "541428.690316",
    "longitude": "-90.07533214539751",
    "latitude": "29.982814097723026",
    "geocoded_column": {
      "latitude": "29.982814097723026",
      "longitude": "-90.07533214539751"
    }
  },
  {
    "service_request": "2025-1248137",
    "request_type": "Trash/Recycling",
    "request_reason": "Order Recycling Cart",
    "date_created": "2025-12-29T15:52:27.000",
    "date_modified": "2025-12-29T15:52:30.000",
    "request_status": "Pending",
    "responsible_agency": "Department of Sanitation",
    "final_address": "211 Finland Pl",
    "address_councildis": "C",
    "status": "Pending",
    "rowid": "1248137",
    "final_x": "3706600.69431",
    "final_y": "520703.525561",
    "longitude": "-89.98921268401787",
    "latitude": "29.924968230142504",
    "geocoded_column": {
      "latitude": "29.924968230142504",
      "longitude": "-89.98921268401787"
    }
  },
  {
    "service_request": "2025-1248136",
    "request_type": "Trash/Recycling",
    "request_reason": "Request a Large Item Pick Up",
    "date_created": "2025-12-29T15:50:13.000",
    "date_modified": "2025-12-29T15:50:14.000",
    "request_status": "Pending",
    "responsible_agency": "Department of Sanitation",
    "final_address": "9403 Dinkins St",
    "address_councildis": "E",
    "status": "Assigned to Contractor",
    "contractor": "Waste Pro",
    "rowid": "1248136",
    "final_x": "3705989.96062",
    "final_y": "564218.895329",
    "longitude": "-89.98952960182079",
    "latitude": "30.044638980650763",
    "geocoded_column": {
      "latitude": "30.044638980650763",
      "longitude": "-89.98952960182079"
    }
  },
  {
    "service_request": "2025-1248135",
    "request_type": "Streetlights",
    "request_reason": "Streetlight Outage/Malfunction",
    "date_created": "2025-12-29T15:49:12.000",
    "date_modified": "2025-12-29T15:49:15.000",
    "request_status": "Pending",
    "responsible_agency": "Department of Public Works",
    "final_address": "6 Shepard Ct",
    "address_councildis": "C",
    "status": "Pending",
    "rowid": "1248135",
    "final_x": "3692519.11113",
    "final_y": "524424.446972",
    "longitude": "-90.03353023442467",
    "latitude": "29.9356461905722",
    "geocoded_column": {
      "latitude": "29.9356461905722",
      "longitude": "-90.03353023442467"
    }
  },
  {
    "service_request": "2025-1248134",
    "request_type": "Trash/Recycling",
    "request_reason": "Request a Large Item Pick Up",
    "date_created": "2025-12-29T15:47:21.000",
    "date_modified": "2025-12-29T15:47:22.000",
    "request_status": "Pending",
    "responsible_agency": "Department of Sanitation",
    "final_address": "211 Finland Pl",
    "address_councildis": "C",
    "status": "Assigned to Contractor",
    "contractor": "Richards Disposal",
    "rowid": "1248134",
    "final_x": "3706600.69431",
    "final_y": "520703.525561",
    "longitude": "-89.98921268401787",
    "latitude": "29.924968230142504",
    "geocoded_column": {
      "latitude": "29.924968230142504",
      "longitude": "-89.98921268401787"
    }
  },
  {
    "service_request": "2025-1248133",
    "request_type": "Trash/Recycling",
    "request_reason": "Repair Trash Cart",
    "date_created": "2025-12-29T15:46:00.000",
    "date_modified": "2025-12-29T15:46:02.000",
    "request_status": "Pending",
    "responsible_agency": "Department of Sanitation",
    "final_address": "55 Audubon Blvd",
    "address_councildis": "A",
    "status": "Assigned to Contractor",
    "contractor": "IV Waste",
    "rowid": "1248133",
    "final_x": "3665708.192",
    "final_y": "527355.292927",
    "longitude": "-90.11807484064059",
    "latitude": "29.944514117416634",
    "geocoded_column": {
      "latitude": "29.944514117416634",
      "longitude": "-90.11807484064059"
    }
  },
  {
    "service_request": "2025-1248132",
    "request_type": "Trash/Recycling",
    "request_reason": "Request a Large Item Pick Up",
    "date_created": "2025-12-29T15:45:51.000",
    "date_modified": "2025-12-29T15:45:53.000",
    "request_status": "Pending",
    "responsible_agency": "Department of Sanitation",
    "final_address": "2632 Upperline St",
    "address_councildis": "B",
    "status": "Assigned to Contractor",
    "contractor": "IV Waste",
    "rowid": "1248132",
    "final_x": "3669146.10881",
    "final_y": "524532.23302",
    "longitude": "-90.10731566820421",
    "latitude": "29.936650909196725",
    "geocoded_column": {
      "latitude": "29.936650909196725",
      "longitude": "-90.10731566820421"
    }
  },
  {
    "service_request": "2025-1248131",
    "request_type": "Trash/Recycling",
    "request_reason": "Repair Trash Cart",
    "date_created": "2025-12-29T15:45:50.000",
    "date_modified": "2025-12-29T15:45:51.000",
    "request_status": "Pending",
    "responsible_agency": "Department of Sanitation",
    "final_address": "7811 Briarwood Dr",
    "address_councildis": "E",
    "status": "Assigned to Contractor",
    "contractor": "Waste Pro",
    "rowid": "1248131",
    "final_x": "3716890.32312",
    "final_y": "571764.488168",
    "longitude": "-89.9547929169615",
    "latitude": "30.065030245476027",
    "geocoded_column": {
      "latitude": "30.065030245476027",
      "longitude": "-89.9547929169615"
    }
  },
  {
    "service_request": "2025-1248130",
    "request_type": "Trash/Recycling",
    "request_reason": "Order Recycling Cart",
    "date_created": "2025-12-29T15:45:41.000",
    "date_modified": "2025-12-29T15:45:43.000",
    "request_status": "Pending",
    "responsible_agency": "Department of Sanitation",
    "final_address": "3401 Caesar Dr",
    "address_councildis": "C",
    "status": "Pending",
    "rowid": "1248130",
    "final_x": "3696679.62205",
    "final_y": "524059.505532",
    "longitude": "-90.02040872378224",
    "latitude": "29.934512299893",
    "geocoded_column": {
      "latitude": "29.934512299893",
      "longitude": "-90.02040872378224"
    }
  },
  {
    "service_request": "2025-1248129",
    "request_type": "Christmas Tree Recycle Pick Up",
    "request_reason": "Christmas Tree Recycle Pick Up",
    "date_created": "2025-12-29T15:43:35.000",
    "date_modified": "2025-12-29T15:43:39.000",
    "request_status": "Pending",
    "responsible_agency": "Office of Resilience and Sustainability",
    "final_address": "4219 Dumaine St",
    "address_councildis": "A",
    "status": "Pending",
    "contractor": "Glass Half Full",
    "rowid": "1248129",
    "final_x": "3672278.91937",
    "final_y": "541266.74638",
    "longitude": "-90.09685512131438",
    "latitude": "29.982572705406657",
    "geocoded_column": {
      "latitude": "29.982572705406657",
      "longitude": "-90.09685512131438"
    }
  },
  {
    "service_request": "2025-1248128",
    "request_type": "Trash/Recycling",
    "request_reason": "Order Second Trash Cart",
    "date_created": "2025-12-29T15:43:21.000",
    "date_modified": "2025-12-29T15:43:24.000",
    "request_status": "Pending",
    "responsible_agency": "Department of Sanitation",
    "final_address": "6819 Louisville St",
    "address_councildis": "A",
    "status": "Assigned to Contractor",
    "contractor": "IV Waste",
    "rowid": "1248128",
    "final_x": "3668349.10868",
    "final_y": "552942.023639",
    "longitude": "-90.10887339030455",
    "latitude": "30.014791700748273",
    "geocoded_column": {
      "latitude": "30.014791700748273",
      "longitude": "-90.10887339030455"
    }
  },
  {
    "service_request": "2025-1248127",
    "request_type": "Healthy Homes",
    "request_reason": "Healthy Homes",
    "date_created": "2025-12-29T15:40:59.000",
    "date_modified": "2025-12-29T15:41:01.000",
    "request_status": "Pending",
    "responsible_agency": "Department of Code Enforcement",
    "final_address": "4709 Shalimar Dr",
    "address_councildis": "D",
    "status": "Pending",
    "rowid": "1248127",
    "final_x": "3697262.1393",
    "final_y": "554040.54588",
    "longitude": "-90.01748281625945",
    "latitude": "30.016930981136976",
    "geocoded_column": {
      "latitude": "30.016930981136976",
      "longitude": "-90.01748281625945"
    }
  },
  {
    "service_request": "2025-1248126",
    "request_type": "Streetlights",
    "request_reason": "Streetlight Outage/Malfunction",
    "date_created": "2025-12-29T15:39:39.000",
    "date_modified": "2025-12-29T15:39:41.000",
    "request_status": "Pending",
    "responsible_agency": "Department of Public Works",
    "final_address": "3901 Coliseum St",
    "address_councildis": "B",
    "status": "Pending",
    "rowid": "1248126",
    "final_x": "3672800.42113",
    "final_y": "520042.70668",
    "longitude": "-90.09593188416397",
    "latitude": "29.924198141358563",
    "geocoded_column": {
      "latitude": "29.924198141358563",
      "longitude": "-90.09593188416397"
    }
  },
  {
    "service_request": "2025-1248125",
    "request_type": "Trash/Recycling",
    "request_reason": "Request a Large Item Pick Up",
    "date_created": "2025-12-29T15:36:57.000",
    "date_modified": "2025-12-29T15:36:59.000",
    "request_status": "Pending",
    "responsible_agency": "Department of Sanitation",
    "final_address": "124 N Rendon St",
    "address_councildis": "B",
    "status": "Assigned to Contractor",
    "contractor": "IV Waste",
    "rowid": "1248125",
    "final_x": "3673791.61992",
    "final_y": "536647.592647",
    "longitude": "-90.09223527822155",
    "latitude": "29.96982663595867",
    "geocoded_column": {
      "latitude": "29.96982663595867",
      "longitude": "-90.09223527822155"
    }
  },
  {
    "service_request": "2025-1248124",
    "request_type": "Christmas Tree Recycle Pick Up",
    "request_reason": "Christmas Tree Recycle Pick Up",
    "date_created": "2025-12-29T15:25:38.000",
    "date_modified": "2025-12-29T15:25:40.000",
    "request_status": "Pending",
    "responsible_agency": "Office of Resilience and Sustainability",
    "final_address": "5908 Laurel St",
    "address_councildis": "A",
    "status": "Pending",
    "contractor": "Glass Half Full",
    "rowid": "1248124",
    "final_x": "3664907.14586",
    "final_y": "518052.942454",
    "longitude": "-90.12091475658815",
    "latitude": "29.918958935428456",
    "geocoded_column": {
      "latitude": "29.918958935428456",
      "longitude": "-90.12091475658815"
    }
  },
  {
    "service_request": "2025-1248123",
    "request_type": "Trash/Recycling",
    "request_reason": "Order Recycling Cart",
    "date_created": "2025-12-29T15:25:28.000",
    "date_modified": "2025-12-29T15:25:30.000",
    "request_status": "Pending",
    "responsible_agency": "Department of Sanitation",
    "final_address": "5525 Coliseum St",
    "address_councildis": "A",
    "status": "Pending",
    "rowid": "1248123",
    "final_x": "3666462.42573",
    "final_y": "519975.197624",
    "longitude": "-90.1159410569248",
    "latitude": "29.924199191465636",
    "geocoded_column": {
      "latitude": "29.924199191465636",
      "longitude": "-90.1159410569248"
    }
  },
  {
    "service_request": "2025-1248122",
    "request_type": "Christmas Tree Recycle Pick Up",
    "request_reason": "Christmas Tree Recycle Pick Up",
    "date_created": "2025-12-29T15:22:48.000",
    "date_modified": "2025-12-29T15:22:50.000",
    "request_status": "Pending",
    "responsible_agency": "Office of Resilience and Sustainability",
    "final_address": "5822 Patton St",
    "address_councildis": "A",
    "status": "Pending",
    "contractor": "Glass Half Full",
    "rowid": "1248122",
    "final_x": "3665132.2681",
    "final_y": "518361.396278",
    "longitude": "-90.12019385065521",
    "latitude": "29.919800535355538",
    "geocoded_column": {
      "latitude": "29.919800535355538",
      "longitude": "-90.12019385065521"
    }
  },
  {
    "service_request": "2025-1248106",
    "request_type": "Drainage",
    "request_reason": "Ditch and Culvert Maintenance",
    "date_created": "2025-12-29T15:20:39.000",
    "date_modified": "2025-12-29T15:56:52.000",
    "request_status": "Pending",
    "responsible_agency": "Department of Public Works",
    "final_address": "1822 Hillary Street, New Orleans, Louisiana 70118",
    "address_councildis": "A",
    "status": "Pending",
    "rowid": "1248106",
    "final_x": "3664823.36935",
    "final_y": "528899.043776",
    "longitude": "-90.12081691944965",
    "latitude": "29.9487847090675",
    "geocoded_column": {
      "latitude": "29.9487847090675",
      "longitude": "-90.12081691944965"
    }
  },
  {
    "service_request": "2025-1248090",
    "request_type": "Drainage",
    "request_reason": "Ditch and Culvert Maintenance",
    "date_created": "2025-12-29T15:20:12.000",
    "date_modified": "2025-12-29T15:57:07.000",
    "request_status": "Pending",
    "responsible_agency": "Department of Public Works",
    "final_address": "2031 Farragut Street, New Orleans, Louisiana 70114",
    "address_councildis": "C",
    "status": "Pending",
    "rowid": "1248090",
    "final_x": "3692148.94051",
    "final_y": "523731.896315",
    "longitude": "-90.03472364173533",
    "latitude": "29.933753452866497",
    "geocoded_column": {
      "latitude": "29.933753452866497",
      "longitude": "-90.03472364173533"
    }
  },
  {
    "service_request": "2025-1248089",
    "request_type": "Trash/Recycling",
    "request_reason": "Missed Trash Pick-Up",
    "date_created": "2025-12-29T15:19:24.000",
    "date_modified": "2025-12-29T15:21:42.000",
    "request_status": "Pending",
    "responsible_agency": "Department of Sanitation",
    "final_address": "1829 Lizardi St",
    "address_councildis": "E",
    "status": "Assigned to Contractor",
    "contractor": "Waste Pro",
    "rowid": "1248089",
    "final_x": "3697387.68899",
    "final_y": "536993.943496",
    "longitude": "-90.01770454326271",
    "latitude": "29.97005513099693",
    "geocoded_column": {
      "latitude": "29.97005513099693",
      "longitude": "-90.01770454326271"
    }
  },
  {
    "service_request": "2025-1248088",
    "request_type": "Trash/Recycling",
    "request_reason": "Request a Large Item Pick Up",
    "date_created": "2025-12-29T15:19:06.000",
    "date_modified": "2025-12-29T15:19:09.000",
    "request_status": "Pending",
    "responsible_agency": "Department of Sanitation",
    "final_address": "3713 St Claude Ave",
    "address_councildis": "C",
    "status": "Assigned to Contractor",
    "contractor": "IV Waste",
    "rowid": "1248088",
    "final_x": "3691106.16982",
    "final_y": "535589.452038",
    "longitude": "-90.03759229849675",
    "latitude": "29.96639009229955",
    "geocoded_column": {
      "latitude": "29.96639009229955",
      "longitude": "-90.03759229849675"
    }
  },
  {
    "service_request": "2025-1248087",
    "request_type": "Trash/Recycling",
    "request_reason": "Request a Large Item Pick Up",
    "date_created": "2025-12-29T15:18:41.000",
    "date_modified": "2025-12-29T15:18:43.000",
    "request_status": "Pending",
    "responsible_agency": "Department of Sanitation",
    "final_address": "3325 Kansas St",
    "address_councildis": "C",
    "status": "Assigned to Contractor",
    "contractor": "Richards Disposal",
    "rowid": "1248087",
    "final_x": "3694294.59894",
    "final_y": "520277.803832",
    "longitude": "-90.02807414720398",
    "latitude": "29.924188834367307",
    "geocoded_column": {
      "latitude": "29.924188834367307",
      "longitude": "-90.02807414720398"
    }
  },
  {
    "service_request": "2025-1248086",
    "request_type": "Trash/Recycling",
    "request_reason": "Request a Large Item Pick Up",
    "date_created": "2025-12-29T15:18:05.000",
    "date_modified": "2025-12-29T15:18:06.000",
    "request_status": "Pending",
    "responsible_agency": "Department of Sanitation",
    "final_address": "4122 Cleveland Ave",
    "address_councildis": "A",
    "status": "Assigned to Contractor",
    "contractor": "IV Waste",
    "rowid": "1248086",
    "final_x": "3670615.50587",
    "final_y": "538125.373513",
    "longitude": "-90.10221562578894",
    "latitude": "29.97398424633949",
    "geocoded_column": {
      "latitude": "29.97398424633949",
      "longitude": "-90.10221562578894"
    }
  },
  {
    "service_request": "2025-1248085",
    "request_type": "Trash/Recycling",
    "request_reason": "Request a Large Item Pick Up",
    "date_created": "2025-12-29T15:16:52.000",
    "date_modified": "2025-12-29T15:16:53.000",
    "request_status": "Pending",
    "responsible_agency": "Department of Sanitation",
    "final_address": "1333 Atlantic Ave",
    "address_councildis": "C",
    "status": "Assigned to Contractor",
    "contractor": "Richards Disposal",
    "rowid": "1248085",
    "final_x": "3688597.21283",
    "final_y": "526461.739902",
    "longitude": "-90.04583940992691",
    "latitude": "29.941369802574414",
    "geocoded_column": {
      "latitude": "29.941369802574414",
      "longitude": "-90.04583940992691"
    }
  },
  {
    "service_request": "2025-1248084",
    "request_type": "Trash/Recycling",
    "request_reason": "Request a Large Item Pick Up",
    "date_created": "2025-12-29T15:15:27.000",
    "date_modified": "2025-12-29T15:15:29.000",
    "request_status": "Pending",
    "responsible_agency": "Department of Sanitation",
    "final_address": "910 City Park Ave",
    "address_councildis": "A",
    "status": "Assigned to Contractor",
    "contractor": "IV Waste",
    "rowid": "1248084",
    "final_x": "3671974.38433",
    "final_y": "541578.168076",
    "longitude": "-90.0978063902259",
    "latitude": "29.983438041059625",
    "geocoded_column": {
      "latitude": "29.983438041059625",
      "longitude": "-90.0978063902259"
    }
  },
  {
    "service_request": "2025-1248083",
    "request_type": "Trash/Recycling",
    "request_reason": "Return Recycling Cart",
    "date_created": "2025-12-29T15:11:44.000",
    "date_modified": "2025-12-29T15:12:42.000",
    "request_status": "Pending",
    "responsible_agency": "Department of Sanitation",
    "final_address": "47 Yellowstone Dr",
    "address_councildis": "C",
    "status": "Pending",
    "rowid": "1248083",
    "final_x": "3700204.9864",
    "final_y": "517142.738677",
    "longitude": "-90.00953157889631",
    "latitude": "29.915382027346656",
    "geocoded_column": {
      "latitude": "29.915382027346656",
      "longitude": "-90.00953157889631"
    }
  },
  {
    "service_request": "2025-1248082",
    "request_type": "Trash/Recycling",
    "request_reason": "Order Second Trash Cart",
    "date_created": "2025-12-29T15:09:34.000",
    "date_modified": "2025-12-29T15:09:36.000",
    "request_status": "Pending",
    "responsible_agency": "Department of Sanitation",
    "final_address": "1715 N Robertson St",
    "address_councildis": "C",
    "status": "Assigned to Contractor",
    "contractor": "IV Waste",
    "rowid": "1248082",
    "final_x": "3683157.15746",
    "final_y": "537663.098184",
    "longitude": "-90.06262250554904",
    "latitude": "29.972336671943353",
    "geocoded_column": {
      "latitude": "29.972336671943353",
      "longitude": "-90.06262250554904"
    }
  },
  {
    "service_request": "2025-1248081",
    "request_type": "Trash/Recycling",
    "request_reason": "Request a Large Item Pick Up",
    "date_created": "2025-12-29T15:08:50.000",
    "date_modified": "2025-12-29T15:08:51.000",
    "request_status": "Pending",
    "responsible_agency": "Department of Sanitation",
    "final_address": "930 City Park Ave",
    "address_councildis": "A",
    "status": "Assigned to Contractor",
    "contractor": "IV Waste",
    "rowid": "1248081",
    "final_x": "3672145.381",
    "final_y": "541551.58222",
    "longitude": "-90.09726719779063",
    "latitude": "29.98335986811547",
    "geocoded_column": {
      "latitude": "29.98335986811547",
      "longitude": "-90.09726719779063"
    }
  },
  {
    "service_request": "2025-1248080",
    "request_type": "Trash/Recycling",
    "request_reason": "Order Trash Cart",
    "date_created": "2025-12-29T15:08:25.000",
    "date_modified": "2025-12-29T15:08:27.000",
    "request_status": "Pending",
    "responsible_agency": "Department of Sanitation",
    "final_address": "1715 N Robertson St",
    "address_councildis": "C",
    "status": "Assigned to Contractor",
    "contractor": "IV Waste",
    "rowid": "1248080",
    "final_x": "3683157.15746",
    "final_y": "537663.098184",
    "longitude": "-90.06262250554904",
    "latitude": "29.972336671943353",
    "geocoded_column": {
      "latitude": "29.972336671943353",
      "longitude": "-90.06262250554904"
    }
  },
  {
    "service_request": "2025-1248079",
    "request_type": "Trash/Recycling",
    "request_reason": "Request a Large Item Pick Up",
    "date_created": "2025-12-29T15:08:10.000",
    "date_modified": "2025-12-29T15:08:13.000",
    "request_status": "Pending",
    "responsible_agency": "Department of Sanitation",
    "final_address": "1735 Pressburg Dr",
    "address_councildis": "D",
    "status": "Assigned to Contractor",
    "contractor": "IV Waste",
    "rowid": "1248079",
    "final_x": "3679924.32994",
    "final_y": "554245.007",
    "longitude": "-90.07225597870263",
    "latitude": "30.018029238409476",
    "geocoded_column": {
      "latitude": "30.018029238409476",
      "longitude": "-90.07225597870263"
    }
  },
  {
    "service_request": "2025-1248078",
    "request_type": "Trash/Recycling",
    "request_reason": "Request a Large Item Pick Up",
    "date_created": "2025-12-29T15:06:42.000",
    "date_modified": "2025-12-29T15:06:44.000",
    "request_status": "Pending",
    "responsible_agency": "Department of Sanitation",
    "final_address": "6379 General Haig St",
    "address_councildis": "A",
    "status": "Assigned to Contractor",
    "contractor": "IV Waste",
    "rowid": "1248078",
    "final_x": "3670834.57479",
    "final_y": "549805.872212",
    "longitude": "-90.1011270534231",
    "latitude": "30.00609512537852",
    "geocoded_column": {
      "latitude": "30.00609512537852",
      "longitude": "-90.1011270534231"
    }
  },
  {
    "service_request": "2025-1248077",
    "request_type": "Safety & Permits",
    "request_reason": "Zoning Enforcement",
    "date_created": "2025-12-29T15:05:35.000",
    "date_modified": "2025-12-29T15:09:51.000",
    "request_status": "Pending",
    "responsible_agency": "Department of Public Works",
    "final_address": "3406 Gentilly Blvd",
    "address_councildis": "D",
    "status": "Pending",
    "rowid": "1248077",
    "final_x": "3685159.75209",
    "final_y": "548375.438738",
    "longitude": "-90.05592081604571",
    "latitude": "30.00173059181488",
    "geocoded_column": {
      "latitude": "30.00173059181488",
      "longitude": "-90.05592081604571"
    }
  },
  {
    "service_request": "2025-1248076",
    "request_type": "Abandoned Vehicles",
    "request_reason": "Abandoned/Junk Vehicles",
    "date_created": "2025-12-29T15:04:13.000",
    "date_modified": "2025-12-29T15:04:15.000",
    "request_status": "Pending",
    "responsible_agency": "Department of Public Works",
    "final_address": "1233 Ursulines Ave",
    "address_councildis": "C",
    "status": "Pending",
    "rowid": "1248076",
    "final_x": "3681754.21634",
    "final_y": "534991.015814",
    "longitude": "-90.06714648496964",
    "latitude": "29.96503207114525",
    "geocoded_column": {
      "latitude": "29.96503207114525",
      "longitude": "-90.06714648496964"
    }
  },
  {
    "service_request": "2025-1248075",
    "request_type": "Trash/Recycling",
    "request_reason": "Repair Trash Cart",
    "date_created": "2025-12-29T15:03:57.000",
    "date_modified": "2025-12-29T15:03:59.000",
    "request_status": "Pending",
    "responsible_agency": "Department of Sanitation",
    "final_address": "3400 Bienville Ave",
    "address_councildis": "B",
    "status": "Assigned to Contractor",
    "contractor": "IV Waste",
    "rowid": "1248075",
    "final_x": "3673517.07854",
    "final_y": "537403.287944",
    "longitude": "-90.09307647494279",
    "latitude": "29.971912715918478",
    "geocoded_column": {
      "latitude": "29.971912715918478",
      "longitude": "-90.09307647494279"
    }
  },
  {
    "service_request": "2025-1248074",
    "request_type": "Christmas Tree Recycle Pick Up",
    "request_reason": "Christmas Tree Recycle Pick Up",
    "date_created": "2025-12-29T14:54:46.000",
    "date_modified": "2025-12-29T14:54:48.000",
    "request_status": "Pending",
    "responsible_agency": "Office of Resilience and Sustainability",
    "final_address": "2763 Frankfort St",
    "address_councildis": "D",
    "status": "Pending",
    "contractor": "Glass Half Full",
    "rowid": "1248074",
    "final_x": "3687527.32124",
    "final_y": "557260.703707",
    "longitude": "-90.04812660452048",
    "latitude": "30.026089013459366",
    "geocoded_column": {
      "latitude": "30.026089013459366",
      "longitude": "-90.04812660452048"
    }
  },
  {
    "service_request": "2025-1248073",
    "request_type": "Trash/Recycling",
    "request_reason": "Request a Large Item Pick Up",
    "date_created": "2025-12-29T14:53:54.000",
    "date_modified": "2025-12-29T14:53:55.000",
    "request_status": "Pending",
    "responsible_agency": "Department of Sanitation",
    "final_address": "2220 Painters St",
    "address_councildis": "D",
    "status": "Assigned to Contractor",
    "contractor": "IV Waste",
    "rowid": "1248073",
    "final_x": "3687190.73538",
    "final_y": "540734.212747",
    "longitude": "-90.0497751521324",
    "latitude": "29.980657543117136",
    "geocoded_column": {
      "latitude": "29.980657543117136",
      "longitude": "-90.0497751521324"
    }
  },
  {
    "service_request": "2025-1248072",
    "request_type": "Trash/Recycling",
    "request_reason": "Replace Recycling Cart",
    "date_created": "2025-12-29T14:53:10.000",
    "date_modified": "2025-12-29T14:53:11.000",
    "request_status": "Pending",
    "responsible_agency": "Department of Sanitation",
    "final_address": "1933 Pauger St",
    "address_councildis": "C",
    "status": "Pending",
    "rowid": "1248072",
    "final_x": "3683856.25289",
    "final_y": "536849.608456",
    "longitude": "-90.06044318449332",
    "latitude": "29.970078521551184",
    "geocoded_column": {
      "latitude": "29.970078521551184",
      "longitude": "-90.06044318449332"
    }
  },
  {
    "service_request": "2025-1248071",
    "request_type": "Trash/Recycling",
    "request_reason": "Order Trash Cart",
    "date_created": "2025-12-29T14:50:22.000",
    "date_modified": "2025-12-29T14:50:24.000",
    "request_status": "Pending",
    "responsible_agency": "Department of Sanitation",
    "final_address": "1252 Southlawn Blvd",
    "address_councildis": "C",
    "status": "Assigned to Contractor",
    "contractor": "Richards Disposal",
    "rowid": "1248071",
    "final_x": "3695235.22038",
    "final_y": "526793.782782",
    "longitude": "-90.02487007144022",
    "latitude": "29.942076049423783",
    "geocoded_column": {
      "latitude": "29.942076049423783",
      "longitude": "-90.02487007144022"
    }
  },
  {
    "service_request": "2025-1248070",
    "request_type": "Trash/Recycling",
    "request_reason": "Request a Large Item Pick Up",
    "date_created": "2025-12-29T14:49:13.000",
    "date_modified": "2025-12-29T14:53:29.000",
    "request_status": "Pending",
    "responsible_agency": "Department of Sanitation",
    "final_address": "4761 Major Dr",
    "address_councildis": "E",
    "status": "Assigned to Contractor",
    "contractor": "Waste Pro",
    "rowid": "1248070",
    "final_x": "3718270.64716",
    "final_y": "557079.148314",
    "longitude": "-89.9509896485109",
    "latitude": "30.024605833142168",
    "geocoded_column": {
      "latitude": "30.024605833142168",
      "longitude": "-89.9509896485109"
    }
  },
  {
    "service_request": "2025-1248069",
    "request_type": "Roads and Streets",
    "request_reason": "Abandoned Service Cut",
    "date_created": "2025-12-29T14:49:10.000",
    "date_modified": "2025-12-29T14:49:11.000",
    "request_status": "Pending",
    "responsible_agency": "Department of Public Works",
    "final_address": "4809 Kendall Dr",
    "address_councildis": "D",
    "status": "Pending",
    "rowid": "1248069",
    "final_x": "3690464.92073",
    "final_y": "550909.751637",
    "longitude": "-90.03907086529638",
    "latitude": "30.00853533301004",
    "geocoded_column": {
      "latitude": "30.00853533301004",
      "longitude": "-90.03907086529638"
    }
  },
  {
    "service_request": "2025-1248068",
    "request_type": "Trash/Recycling",
    "request_reason": "Request a Large Item Pick Up",
    "date_created": "2025-12-29T14:48:03.000",
    "date_modified": "2025-12-29T14:48:05.000",
    "request_status": "Pending",
    "responsible_agency": "Department of Sanitation",
    "final_address": "442 Huntlee Dr",
    "address_councildis": "C",
    "status": "Assigned to Contractor",
    "contractor": "Richards Disposal",
    "rowid": "1248068",
    "final_x": "3701892.75876",
    "final_y": "521751.24121",
    "longitude": "-90.00403563008376",
    "latitude": "29.928000099815463",
    "geocoded_column": {
      "latitude": "29.928000099815463",
      "longitude": "-90.00403563008376"
    }
  },
  {
    "service_request": "2025-1248067",
    "request_type": "Trash/Recycling",
    "request_reason": "Request a Large Item Pick Up",
    "date_created": "2025-12-29T14:46:30.000",
    "date_modified": "2025-12-29T14:46:32.000",
    "request_status": "Pending",
    "responsible_agency": "Department of Sanitation",
    "final_address": "4877 Cardenas Dr",
    "address_councildis": "E",
    "status": "Assigned to Contractor",
    "contractor": "Waste Pro",
    "rowid": "1248067",
    "final_x": "3713678.60088",
    "final_y": "557105.752602",
    "longitude": "-89.96549856401236",
    "latitude": "30.024830510035788",
    "geocoded_column": {
      "latitude": "30.024830510035788",
      "longitude": "-89.96549856401236"
    }
  },
  {
    "service_request": "2025-1248066",
    "request_type": "Trash/Recycling",
    "request_reason": "Return Trash Cart",
    "date_created": "2025-12-29T14:45:48.000",
    "date_modified": "2025-12-29T14:45:49.000",
    "request_status": "Pending",
    "responsible_agency": "Department of Sanitation",
    "final_address": "1549 N Galvez St",
    "address_councildis": "D",
    "status": "Assigned to Contractor",
    "contractor": "IV Waste",
    "rowid": "1248066",
    "final_x": "3680572.48111",
    "final_y": "538644.526857",
    "longitude": "-90.07075120374877",
    "latitude": "29.975113823280072",
    "geocoded_column": {
      "latitude": "29.975113823280072",
      "longitude": "-90.07075120374877"
    }
  },
  {
    "service_request": "2025-1248065",
    "request_type": "Trash/Recycling",
    "request_reason": "Order Recycling Cart",
    "date_created": "2025-12-29T14:42:10.000",
    "date_modified": "2025-12-29T14:42:12.000",
    "request_status": "Pending",
    "responsible_agency": "Department of Sanitation",
    "final_address": "1140 Deslonde St",
    "address_councildis": "E",
    "status": "Pending",
    "rowid": "1248065",
    "final_x": "3695434.24803",
    "final_y": "534694.135302",
    "longitude": "-90.02395667158133",
    "latitude": "29.963793003103792",
    "geocoded_column": {
      "latitude": "29.963793003103792",
      "longitude": "-90.02395667158133"
    }
  },
  {
    "service_request": "2025-1248064",
    "request_type": "Trash/Recycling",
    "request_reason": "Request a Large Item Pick Up",
    "date_created": "2025-12-29T14:40:37.000",
    "date_modified": "2025-12-29T14:40:38.000",
    "request_status": "Pending",
    "responsible_agency": "Department of Sanitation",
    "final_address": "7720 Shaw Ave",
    "address_councildis": "E",
    "status": "Assigned to Contractor",
    "contractor": "Waste Pro",
    "rowid": "1248064",
    "final_x": "3707000.23729",
    "final_y": "564517.056481",
    "longitude": "-89.98632560997274",
    "latitude": "30.04542618821065",
    "geocoded_column": {
      "latitude": "30.04542618821065",
      "longitude": "-89.98632560997274"
    }
  },
  {
    "service_request": "2025-1248063",
    "request_type": "Trash/Recycling",
    "request_reason": "Request a Large Item Pick Up",
    "date_created": "2025-12-29T14:38:43.000",
    "date_modified": "2025-12-29T14:38:45.000",
    "request_status": "Pending",
    "responsible_agency": "Department of Sanitation",
    "final_address": "4438 Cerise Ave",
    "address_councildis": "E",
    "status": "Assigned to Contractor",
    "contractor": "Waste Pro",
    "rowid": "1248063",
    "final_x": "3708700.44772",
    "final_y": "554041.804504",
    "longitude": "-89.98134279603082",
    "latitude": "30.01656830620188",
    "geocoded_column": {
      "latitude": "30.01656830620188",
      "longitude": "-89.98134279603082"
    }
  },
  {
    "service_request": "2025-1248062",
    "request_type": "Trash/Recycling",
    "request_reason": "Request a Large Item Pick Up",
    "date_created": "2025-12-29T14:34:28.000",
    "date_modified": "2025-12-29T14:34:30.000",
    "request_status": "Pending",
    "responsible_agency": "Department of Sanitation",
    "final_address": "7831 Sail St",
    "address_councildis": "E",
    "status": "Assigned to Contractor",
    "contractor": "Waste Pro",
    "rowid": "1248062",
    "final_x": "3720089.65695",
    "final_y": "574081.918314",
    "longitude": "-89.94459081871601",
    "latitude": "30.071295979379556",
    "geocoded_column": {
      "latitude": "30.071295979379556",
      "longitude": "-89.94459081871601"
    }
  },
  {
    "service_request": "2025-1248061",
    "request_type": "Healthy Homes",
    "request_reason": "Healthy Homes",
    "date_created": "2025-12-29T14:29:11.000",
    "date_modified": "2025-12-29T14:43:20.000",
    "case_close_date": "2025-12-29T08:43:20.000",
    "request_status": "Closed",
    "responsible_agency": "Department of Code Enforcement",
    "final_address": "3201 Memorial Park Dr Apt 270",
    "address_councildis": "C",
    "status": "Referred to Code Enforcement",
    "rowid": "1248061",
    "final_x": "3695756.49488",
    "final_y": "518355.540662",
    "longitude": "-90.02352883933804",
    "latitude": "29.918857390833907",
    "geocoded_column": {
      "latitude": "29.918857390833907",
      "longitude": "-90.02352883933804"
    }
  },
  {
    "service_request": "2025-1248060",
    "request_type": "Trash/Recycling",
    "request_reason": "Request a Large Item Pick Up",
    "date_created": "2025-12-29T14:28:50.000",
    "date_modified": "2025-12-29T14:31:17.000",
    "request_status": "Pending",
    "responsible_agency": "Department of Sanitation",
    "final_address": "6101 Campus Blvd",
    "address_councildis": "D",
    "status": "Assigned to Contractor",
    "contractor": "IV Waste",
    "rowid": "1248060",
    "final_x": "3688653.59926",
    "final_y": "555735.645465",
    "longitude": "-90.04462191541428",
    "latitude": "30.0218608894368",
    "geocoded_column": {
      "latitude": "30.0218608894368",
      "longitude": "-90.04462191541428"
    }
  },
  {
    "service_request": "2025-1248059",
    "request_type": "Trash/Recycling",
    "request_reason": "Request a Large Item Pick Up",
    "date_created": "2025-12-29T14:27:17.000",
    "date_modified": "2025-12-29T14:27:19.000",
    "request_status": "Pending",
    "responsible_agency": "Department of Sanitation",
    "final_address": "4924 Copernicus St",
    "address_councildis": "C",
    "status": "Assigned to Contractor",
    "contractor": "Richards Disposal",
    "rowid": "1248059",
    "final_x": "3702250.41796",
    "final_y": "522701.175738",
    "longitude": "-90.0028717714998",
    "latitude": "29.930600676170442",
    "geocoded_column": {
      "latitude": "29.930600676170442",
      "longitude": "-90.0028717714998"
    }
  },
  {
    "service_request": "2025-1248058",
    "request_type": "Trash/Recycling",
    "request_reason": "Order Recycling Cart",
    "date_created": "2025-12-29T14:26:04.000",
    "date_modified": "2025-12-29T14:26:05.000",
    "request_status": "Pending",
    "responsible_agency": "Department of Sanitation",
    "final_address": "2233 Constance St",
    "address_councildis": "B",
    "status": "Pending",
    "rowid": "1248058",
    "final_x": "3678827.69403",
    "final_y": "521629.516217",
    "longitude": "-90.0768509647597",
    "latitude": "29.928381000875575",
    "geocoded_column": {
      "latitude": "29.928381000875575",
      "longitude": "-90.0768509647597"
    }
  },
  {
    "service_request": "2025-1248057",
    "request_type": "Trash/Recycling",
    "request_reason": "Dead Animal Pick Up",
    "date_created": "2025-12-29T14:20:40.000",
    "date_modified": "2025-12-29T14:21:21.000",
    "request_status": "Pending",
    "responsible_agency": "Department of Sanitation",
    "final_address": "3211 Napoleon Ave",
    "address_councildis": "B",
    "status": "Assigned to Contractor",
    "contractor": "IV Waste",
    "rowid": "1248057",
    "final_x": "3670369.43271",
    "final_y": "526722.749502",
    "longitude": "-90.10337933877751",
    "latitude": "29.942638072180902",
    "geocoded_column": {
      "latitude": "29.942638072180902",
      "longitude": "-90.10337933877751"
    }
  },
  {
    "service_request": "2025-1248056",
    "request_type": "Trash/Recycling",
    "request_reason": "Request a Large Item Pick Up",
    "date_created": "2025-12-29T14:20:17.000",
    "date_modified": "2025-12-29T14:20:18.000",
    "request_status": "Pending",
    "responsible_agency": "Department of Sanitation",
    "final_address": "1715 Jackson Ave",
    "address_councildis": "B",
    "status": "Assigned to Contractor",
    "contractor": "IV Waste",
    "rowid": "1248056",
    "final_x": "3677339.36584",
    "final_y": "524138.917692",
    "longitude": "-90.08146274867951",
    "latitude": "29.93532582672987",
    "geocoded_column": {
      "latitude": "29.93532582672987",
      "longitude": "-90.08146274867951"
    }
  },
  {
    "service_request": "2025-1248055",
    "request_type": "Trash/Recycling",
    "request_reason": "Request a Large Item Pick Up",
    "date_created": "2025-12-29T14:18:27.000",
    "date_modified": "2025-12-29T14:18:28.000",
    "request_status": "Pending",
    "responsible_agency": "Department of Sanitation",
    "final_address": "634 Gallier St",
    "address_councildis": "C",
    "status": "Assigned to Contractor",
    "contractor": "IV Waste",
    "rowid": "1248055",
    "final_x": "3690037.61814",
    "final_y": "534060.739781",
    "longitude": "-90.04102120468166",
    "latitude": "29.96221985016788",
    "geocoded_column": {
      "latitude": "29.96221985016788",
      "longitude": "-90.04102120468166"
    }
  },
  {
    "service_request": "2025-1248054",
    "request_type": "Streetlights",
    "request_reason": "Streetlight Outage/Malfunction",
    "date_created": "2025-12-29T14:15:26.000",
    "date_modified": "2025-12-29T14:18:23.000",
    "request_status": "Pending",
    "responsible_agency": "Department of Public Works",
    "final_address": "1 N Broad St",
    "address_councildis": "A",
    "status": "Pending",
    "rowid": "1248054",
    "final_x": "3678430.02754",
    "final_y": "539455.01825",
    "longitude": "-90.07748957752331",
    "latitude": "29.97740713333724",
    "geocoded_column": {
      "latitude": "29.97740713333724",
      "longitude": "-90.07748957752331"
    }
  },
  {
    "service_request": "2025-1248053",
    "request_type": "Christmas Tree Recycle Pick Up",
    "request_reason": "Christmas Tree Recycle Pick Up",
    "date_created": "2025-12-29T14:12:35.000",
    "date_modified": "2025-12-29T14:12:37.000",
    "request_status": "Pending",
    "responsible_agency": "Office of Resilience and Sustainability",
    "final_address": "2708 Coliseum St",
    "address_councildis": "B",
    "status": "Pending",
    "contractor": "Glass Half Full",
    "rowid": "1248053",
    "final_x": "3676695.54907",
    "final_y": "521775.55833",
    "longitude": "-90.08357665876918",
    "latitude": "29.928846685040018",
    "geocoded_column": {
      "latitude": "29.928846685040018",
      "longitude": "-90.08357665876918"
    }
  },
  {
    "service_request": "2025-1248052",
    "request_type": "Trash/Recycling",
    "request_reason": "Request a Large Item Pick Up",
    "date_created": "2025-12-29T14:10:49.000",
    "date_modified": "2025-12-29T14:10:51.000",
    "request_status": "Pending",
    "responsible_agency": "Department of Sanitation",
    "final_address": "7940 Pebble Dr",
    "address_councildis": "E",
    "status": "Assigned to Contractor",
    "contractor": "Waste Pro",
    "rowid": "1248052",
    "final_x": "3714323.18008",
    "final_y": "569929.520038",
    "longitude": "-89.96297721778893",
    "latitude": "30.06006951325848",
    "geocoded_column": {
      "latitude": "30.06006951325848",
      "longitude": "-89.96297721778893"
    }
  },
  {
    "service_request": "2025-1248051",
    "request_type": "Christmas Tree Recycle Pick Up",
    "request_reason": "Christmas Tree Recycle Pick Up",
    "date_created": "2025-12-29T14:09:44.000",
    "date_modified": "2025-12-29T14:09:46.000",
    "request_status": "Pending",
    "responsible_agency": "Office of Resilience and Sustainability",
    "final_address": "1124 Spain St",
    "address_councildis": "C",
    "status": "Pending",
    "contractor": "Glass Half Full",
    "rowid": "1248051",
    "final_x": "3686081.11599",
    "final_y": "536680.317767",
    "longitude": "-90.05342282791628",
    "latitude": "29.96954488437082",
    "geocoded_column": {
      "latitude": "29.96954488437082",
      "longitude": "-90.05342282791628"
    }
  },
  {
    "service_request": "2025-1248050",
    "request_type": "Parks & Parkways",
    "request_reason": "Request Tree Service (Right of Way/Public Property)",
    "date_created": "2025-12-29T14:05:32.000",
    "date_modified": "2025-12-29T14:05:35.000",
    "request_status": "Pending",
    "responsible_agency": "Department of Parks & Parkway",
    "final_address": "4120 Leonidas St",
    "address_councildis": "A",
    "status": "Pending",
    "rowid": "1248050",
    "final_x": "3667708.2553",
    "final_y": "537378.109576",
    "longitude": "-90.11142257585475",
    "latitude": "29.97201508907432",
    "geocoded_column": {
      "latitude": "29.97201508907432",
      "longitude": "-90.11142257585475"
    }
  },
  {
    "service_request": "2025-1248049",
    "request_type": "Traffic Signals",
    "request_reason": "Traffic Signal Malfunctioning or Damaged",
    "date_created": "2025-12-29T14:01:51.000",
    "date_modified": "2025-12-29T14:01:59.000",
    "request_status": "Pending",
    "responsible_agency": "Department of Public Works",
    "final_address": "6000 Bullard Ave",
    "address_councildis": "E",
    "status": "Pending",
    "rowid": "1248049",
    "final_x": "3714876.25311",
    "final_y": "563881.658913",
    "longitude": "-89.96145788051206",
    "latitude": "30.043422170200817",
    "geocoded_column": {
      "latitude": "30.043422170200817",
      "longitude": "-89.96145788051206"
    }
  },
  {
    "service_request": "2025-1248048",
    "request_type": "Trash/Recycling",
    "request_reason": "Request a Large Item Pick Up",
    "date_created": "2025-12-29T14:00:54.000",
    "date_modified": "2025-12-29T14:00:56.000",
    "request_status": "Pending",
    "responsible_agency": "Department of Sanitation",
    "final_address": "4752 Pecan St",
    "address_councildis": "E",
    "status": "Assigned to Contractor",
    "contractor": "Waste Pro",
    "rowid": "1248048",
    "final_x": "3701723.19953",
    "final_y": "554360.126232",
    "longitude": "-90.00337609630766",
    "latitude": "30.017668088281557",
    "geocoded_column": {
      "latitude": "30.017668088281557",
      "longitude": "-90.00337609630766"
    }
  },
  {
    "service_request": "2025-1248047",
    "request_type": "New Orleans Recreation Development Commission (NORDC)",
    "request_reason": "Facilities and Parks Maintenance/Clean Up",
    "date_created": "2025-12-29T13:59:55.000",
    "date_modified": "2025-12-29T13:59:58.000",
    "request_status": "Pending",
    "responsible_agency": "New Orleans Recreation Development Commission",
    "final_address": "3301 Royal St",
    "address_councildis": "C",
    "status": "Pending",
    "rowid": "1248047",
    "final_x": "3689507.60585",
    "final_y": "534299.647045",
    "longitude": "-90.04268640237082",
    "latitude": "29.962893187662416",
    "geocoded_column": {
      "latitude": "29.962893187662416",
      "longitude": "-90.04268640237082"
    }
  },
  {
    "service_request": "2025-1248046",
    "request_type": "Trash/Recycling",
    "request_reason": "Request a Large Item Pick Up",
    "date_created": "2025-12-29T13:58:25.000",
    "date_modified": "2025-12-29T13:58:27.000",
    "request_status": "Pending",
    "responsible_agency": "Department of Sanitation",
    "final_address": "3109 Rabbits St",
    "address_councildis": "D",
    "status": "Assigned to Contractor",
    "contractor": "IV Waste",
    "rowid": "1248046",
    "final_x": "3688395.06799",
    "final_y": "544485.650703",
    "longitude": "-90.04583822051646",
    "latitude": "29.990935508647766",
    "geocoded_column": {
      "latitude": "29.990935508647766",
      "longitude": "-90.04583822051646"
    }
  },
  {
    "service_request": "2025-1248045",
    "request_type": "Trash/Recycling",
    "request_reason": "Repair Trash Cart",
    "date_created": "2025-12-29T13:57:12.000",
    "date_modified": "2025-12-29T13:57:13.000",
    "request_status": "Pending",
    "responsible_agency": "Department of Sanitation",
    "final_address": "4319 Sybil St",
    "address_councildis": "D",
    "status": "Assigned to Contractor",
    "contractor": "IV Waste",
    "rowid": "1248045",
    "final_x": "3679186.11451",
    "final_y": "548282.096146",
    "longitude": "-90.07479539449145",
    "latitude": "30.001655694616016",
    "geocoded_column": {
      "latitude": "30.001655694616016",
      "longitude": "-90.07479539449145"
    }
  },
  {
    "service_request": "2025-1248044",
    "request_type": "Drainage",
    "request_reason": "Catch Basin Frame and Cover Missing or Damaged",
    "date_created": "2025-12-29T13:54:26.000",
    "date_modified": "2025-12-29T13:54:28.000",
    "request_status": "Pending",
    "responsible_agency": "Sewerage & Water Board",
    "final_address": "2200 Dumaine St",
    "address_councildis": "D",
    "status": "Pending",
    "rowid": "1248044",
    "final_x": "3678687.22402",
    "final_y": "536247.258439",
    "longitude": "-90.07678836507824",
    "latitude": "29.968579142499063",
    "geocoded_column": {
      "latitude": "29.968579142499063",
      "longitude": "-90.07678836507824"
    }
  },
  {
    "service_request": "2025-1248043",
    "request_type": "Property Maintenance",
    "request_reason": "Property Maintenance",
    "date_created": "2025-12-29T13:51:30.000",
    "date_modified": "2025-12-29T13:53:50.000",
    "request_status": "Pending",
    "responsible_agency": "Department of Code Enforcement",
    "final_address": "0 BLK Lakeway Ct",
    "address_councildis": "C",
    "status": "Pending",
    "rowid": "1248043",
    "final_x": "3717859.36379",
    "final_y": "514908.572989",
    "longitude": "-89.95389338573779",
    "latitude": "29.908666230516467",
    "geocoded_column": {
      "latitude": "29.908666230516467",
      "longitude": "-89.95389338573779"
    }
  },
  {
    "service_request": "2025-1248042",
    "request_type": "Trash/Recycling",
    "request_reason": "Request a Large Item Pick Up",
    "date_created": "2025-12-29T13:47:37.000",
    "date_modified": "2025-12-29T13:48:32.000",
    "request_status": "Pending",
    "responsible_agency": "Department of Sanitation",
    "final_address": "515 Park Blvd",
    "address_councildis": "C",
    "status": "Assigned to Contractor",
    "contractor": "Richards Disposal",
    "rowid": "1248042",
    "final_x": "3687376.5222",
    "final_y": "525793.636349",
    "longitude": "-90.04971698579234",
    "latitude": "29.93957040176968",
    "geocoded_column": {
      "latitude": "29.93957040176968",
      "longitude": "-90.04971698579234"
    }
  },
  {
    "service_request": "2025-1248041",
    "request_type": "Abandoned Vehicles",
    "request_reason": "Abandoned/Junk Vehicles",
    "date_created": "2025-12-29T13:46:57.000",
    "date_modified": "2025-12-29T13:47:00.000",
    "request_status": "Pending",
    "responsible_agency": "Department of Public Works",
    "final_address": "2806 Ursulines Ave",
    "address_councildis": "A",
    "status": "Pending",
    "rowid": "1248041",
    "final_x": "3677047.19662",
    "final_y": "538495.153801",
    "longitude": "-90.08189013108394",
    "latitude": "29.974809436691864",
    "geocoded_column": {
      "latitude": "29.974809436691864",
      "longitude": "-90.08189013108394"
    }
  },
  {
    "service_request": "2025-1248040",
    "request_type": "Trash/Recycling",
    "request_reason": "Replace Trash Cart",
    "date_created": "2025-12-29T13:41:51.000",
    "date_modified": "2025-12-29T13:41:52.000",
    "request_status": "Pending",
    "responsible_agency": "Department of Sanitation",
    "final_address": "4030 General Meyer Ave",
    "address_councildis": "C",
    "status": "Assigned to Contractor",
    "contractor": "Richards Disposal",
    "rowid": "1248040",
    "final_x": "3699141.63933",
    "final_y": "524768.113468",
    "longitude": "-90.01261045730328",
    "latitude": "29.936382927776773",
    "geocoded_column": {
      "latitude": "29.936382927776773",
      "longitude": "-90.01261045730328"
    }
  },
  {
    "service_request": "2025-1248039",
    "request_type": "Christmas Tree Recycle Pick Up",
    "request_reason": "Christmas Tree Recycle Pick Up",
    "date_created": "2025-12-29T13:38:59.000",
    "date_modified": "2025-12-29T13:39:01.000",
    "request_status": "Pending",
    "responsible_agency": "Office of Resilience and Sustainability",
    "final_address": "7929 Birch St",
    "address_councildis": "A",
    "status": "Pending",
    "contractor": "Glass Half Full",
    "rowid": "1248039",
    "final_x": "3663334.71578",
    "final_y": "529083.625664",
    "longitude": "-90.12551111409095",
    "latitude": "29.949335480836854",
    "geocoded_column": {
      "latitude": "29.949335480836854",
      "longitude": "-90.12551111409095"
    }
  },
  {
    "service_request": "2025-1248038",
    "request_type": "Property Maintenance",
    "request_reason": "Property Maintenance",
    "date_created": "2025-12-29T13:38:39.000",
    "date_modified": "2025-12-29T14:14:51.000",
    "case_close_date": "2025-12-29T08:14:50.000",
    "request_status": "Closed",
    "responsible_agency": "Department of Code Enforcement",
    "final_address": "1234 Gordon St",
    "address_councildis": "E",
    "status": "Referred to Code Enforcement",
    "rowid": "1248038",
    "final_x": "3699361.94768",
    "final_y": "534031.065733",
    "longitude": "-90.01157761042877",
    "latitude": "29.96184580225768",
    "geocoded_column": {
      "latitude": "29.96184580225768",
      "longitude": "-90.01157761042877"
    }
  },
  {
    "service_request": "2025-1248037",
    "request_type": "Trash/Recycling",
    "request_reason": "Request a Large Item Pick Up",
    "date_created": "2025-12-29T13:38:33.000",
    "date_modified": "2025-12-29T13:38:34.000",
    "request_status": "Pending",
    "responsible_agency": "Department of Sanitation",
    "final_address": "5764 Wildair Dr",
    "address_councildis": "D",
    "status": "Assigned to Contractor",
    "contractor": "IV Waste",
    "rowid": "1248037",
    "final_x": "3681471.94844",
    "final_y": "554468.630616",
    "longitude": "-90.0673582895973",
    "latitude": "30.018597197455822",
    "geocoded_column": {
      "latitude": "30.018597197455822",
      "longitude": "-90.0673582895973"
    }
  },
  {
    "service_request": "2025-1248036",
    "request_type": "Trash/Recycling",
    "request_reason": "Request a Large Item Pick Up",
    "date_created": "2025-12-29T13:34:59.000",
    "date_modified": "2025-12-29T13:35:01.000",
    "request_status": "Pending",
    "responsible_agency": "Department of Sanitation",
    "final_address": "8600 Lake Forest Blvd",
    "address_councildis": "E",
    "status": "Assigned to Contractor",
    "contractor": "Waste Pro",
    "rowid": "1248036",
    "final_x": "3706233.01867",
    "final_y": "557882.382491",
    "longitude": "-89.98899638685525",
    "latitude": "30.027208226926486",
    "geocoded_column": {
      "latitude": "30.027208226926486",
      "longitude": "-89.98899638685525"
    }
  },
  {
    "service_request": "2025-1248035",
    "request_type": "Trash/Recycling",
    "request_reason": "Request a Large Item Pick Up",
    "date_created": "2025-12-29T13:32:34.000",
    "date_modified": "2025-12-29T13:32:36.000",
    "request_status": "Pending",
    "responsible_agency": "Department of Sanitation",
    "final_address": "1418 Eagle St",
    "address_councildis": "A",
    "status": "Assigned to Contractor",
    "contractor": "IV Waste",
    "rowid": "1248035",
    "final_x": "3660696.46035",
    "final_y": "530729.647234",
    "longitude": "-90.13378689774633",
    "latitude": "29.95393771601917",
    "geocoded_column": {
      "latitude": "29.95393771601917",
      "longitude": "-90.13378689774633"
    }
  },
  {
    "service_request": "2025-1248034",
    "request_type": "Trash/Recycling",
    "request_reason": "Request a Large Item Pick Up",
    "date_created": "2025-12-29T13:29:09.000",
    "date_modified": "2025-12-29T13:29:10.000",
    "request_status": "Pending",
    "responsible_agency": "Department of Sanitation",
    "final_address": "6053 Wingate Dr",
    "address_councildis": "D",
    "status": "Assigned to Contractor",
    "contractor": "IV Waste",
    "rowid": "1248034",
    "final_x": "3681235.695",
    "final_y": "555281.286361",
    "longitude": "-90.06807641146867",
    "latitude": "30.020838879038035",
    "geocoded_column": {
      "latitude": "30.020838879038035",
      "longitude": "-90.06807641146867"
    }
  },
  {
    "service_request": "2025-1248033",
    "request_type": "Trash/Recycling",
    "request_reason": "Request a Large Item Pick Up",
    "date_created": "2025-12-29T13:28:09.000",
    "date_modified": "2025-12-29T13:28:10.000",
    "request_status": "Pending",
    "responsible_agency": "Department of Sanitation",
    "final_address": "3140 Mansfield Ave",
    "address_councildis": "C",
    "status": "Assigned to Contractor",
    "contractor": "Richards Disposal",
    "rowid": "1248033",
    "final_x": "3709169.72581",
    "final_y": "518624.667319",
    "longitude": "-89.9811806026726",
    "latitude": "29.919168985453855",
    "geocoded_column": {
      "latitude": "29.919168985453855",
      "longitude": "-89.9811806026726"
    }
  },
  {
    "service_request": "2025-1248032",
    "request_type": "Trash/Recycling",
    "request_reason": "Order Trash Cart",
    "date_created": "2025-12-29T13:27:00.000",
    "date_modified": "2025-12-29T13:27:02.000",
    "request_status": "Pending",
    "responsible_agency": "Department of Sanitation",
    "final_address": "2220 N Prieur St",
    "address_councildis": "D",
    "status": "Assigned to Contractor",
    "contractor": "IV Waste",
    "rowid": "1248032",
    "final_x": "3685024.96495",
    "final_y": "539241.423114",
    "longitude": "-90.0566681198015",
    "latitude": "29.976619426606014",
    "geocoded_column": {
      "latitude": "29.976619426606014",
      "longitude": "-90.0566681198015"
    }
  },
  {
    "service_request": "2025-1248031",
    "request_type": "Christmas Tree Recycle Pick Up",
    "request_reason": "Christmas Tree Recycle Pick Up",
    "date_created": "2025-12-29T13:26:13.000",
    "date_modified": "2025-12-29T13:26:15.000",
    "request_status": "Pending",
    "responsible_agency": "Office of Resilience and Sustainability",
    "final_address": "2357 St Thomas St",
    "address_councildis": "B",
    "status": "Pending",
    "contractor": "Glass Half Full",
    "rowid": "1248031",
    "final_x": "3679235.88066",
    "final_y": "520115.927864",
    "longitude": "-90.07561485439388",
    "latitude": "29.924206813004698",
    "geocoded_column": {
      "latitude": "29.924206813004698",
      "longitude": "-90.07561485439388"
    }
  },
  {
    "service_request": "2025-1248030",
    "request_type": "Trash/Recycling",
    "request_reason": "Order Recycling Cart",
    "date_created": "2025-12-29T13:25:42.000",
    "date_modified": "2025-12-29T13:25:43.000",
    "request_status": "Pending",
    "responsible_agency": "Department of Sanitation",
    "final_address": "2220 N Prieur St",
    "address_councildis": "D",
    "status": "Pending",
    "rowid": "1248030",
    "final_x": "3685024.96495",
    "final_y": "539241.423114",
    "longitude": "-90.0566681198015",
    "latitude": "29.976619426606014",
    "geocoded_column": {
      "latitude": "29.976619426606014",
      "longitude": "-90.0566681198015"
    }
  },
  {
    "service_request": "2025-1248029",
    "request_type": "Trash/Recycling",
    "request_reason": "Order Recycling Cart",
    "date_created": "2025-12-29T13:23:49.000",
    "date_modified": "2025-12-29T13:23:50.000",
    "request_status": "Pending",
    "responsible_agency": "Department of Sanitation",
    "final_address": "3157 Marais St",
    "address_councildis": "C",
    "status": "Pending",
    "rowid": "1248029",
    "final_x": "3689525.22076",
    "final_y": "536331.700935",
    "longitude": "-90.04255849059791",
    "latitude": "29.968480079444443",
    "geocoded_column": {
      "latitude": "29.968480079444443",
      "longitude": "-90.04255849059791"
    }
  },
  {
    "service_request": "2025-1248028",
    "request_type": "Trash/Recycling",
    "request_reason": "Replace Trash Cart",
    "date_created": "2025-12-29T13:21:15.000",
    "date_modified": "2025-12-29T13:21:17.000",
    "request_status": "Pending",
    "responsible_agency": "Department of Sanitation",
    "final_address": "1361 Moss St",
    "address_councildis": "A",
    "status": "Assigned to Contractor",
    "contractor": "IV Waste",
    "rowid": "1248028",
    "final_x": "3674575.60948",
    "final_y": "540707.513739",
    "longitude": "-90.08962019471527",
    "latitude": "29.98096666157201",
    "geocoded_column": {
      "latitude": "29.98096666157201",
      "longitude": "-90.08962019471527"
    }
  },
  {
    "service_request": "2025-1248027",
    "request_type": "Christmas Tree Recycle Pick Up",
    "request_reason": "Christmas Tree Recycle Pick Up",
    "date_created": "2025-12-29T13:19:52.000",
    "date_modified": "2025-12-29T13:19:53.000",
    "request_status": "Pending",
    "responsible_agency": "Office of Resilience and Sustainability",
    "final_address": "7176 E Tamaron Blvd",
    "address_councildis": "E",
    "status": "Pending",
    "contractor": "Glass Half Full",
    "rowid": "1248027",
    "final_x": "3718223.18335",
    "final_y": "569316.042342",
    "longitude": "-89.95067304617027",
    "latitude": "30.05825388131323",
    "geocoded_column": {
      "latitude": "30.05825388131323",
      "longitude": "-89.95067304617027"
    }
  },
  {
    "service_request": "2025-1248026",
    "request_type": "Trash/Recycling",
    "request_reason": "Repair Trash Cart",
    "date_created": "2025-12-29T13:19:04.000",
    "date_modified": "2025-12-29T13:19:05.000",
    "request_status": "Pending",
    "responsible_agency": "Department of Sanitation",
    "final_address": "5911 Congress Dr",
    "address_councildis": "D",
    "status": "Assigned to Contractor",
    "contractor": "IV Waste",
    "rowid": "1248026",
    "final_x": "3691096.17686",
    "final_y": "555714.420505",
    "longitude": "-90.03690478939585",
    "latitude": "30.02172676645501",
    "geocoded_column": {
      "latitude": "30.02172676645501",
      "longitude": "-90.03690478939585"
    }
  },
  {
    "service_request": "2025-1248025",
    "request_type": "Abandoned Vehicles",
    "request_reason": "Abandoned/Junk Vehicles",
    "date_created": "2025-12-29T13:18:47.000",
    "date_modified": "2025-12-29T13:18:48.000",
    "request_status": "Pending",
    "responsible_agency": "Department of Public Works",
    "final_address": "KNIGHT DR & CHEF MENTEUR HWY",
    "address_councildis": "E",
    "status": "Pending",
    "rowid": "1248025",
    "final_x": "3708100.0",
    "final_y": "553478.18",
    "longitude": "-89.98326091967718",
    "latitude": "30.015038023577493",
    "geocoded_column": {
      "latitude": "30.015038023577493",
      "longitude": "-89.98326091967718"
    }
  },
  {
    "service_request": "2025-1248024",
    "request_type": "Trash/Recycling",
    "request_reason": "Order Recycling Cart",
    "date_created": "2025-12-29T13:17:52.000",
    "date_modified": "2025-12-29T14:29:21.000",
    "request_status": "Pending",
    "responsible_agency": "Department of Sanitation",
    "final_address": "1216 Arabella Arabella",
    "address_councildis": "A",
    "status": "Pending",
    "rowid": "1248024",
    "final_x": "3666114.0914",
    "final_y": "520416.304568",
    "longitude": "-90.11702585021969",
    "latitude": "29.925422268146164",
    "geocoded_column": {
      "latitude": "29.925422268146164",
      "longitude": "-90.11702585021969"
    }
  },
  {
    "service_request": "2025-1248023",
    "request_type": "Trash/Recycling",
    "request_reason": "Request a Large Item Pick Up",
    "date_created": "2025-12-29T13:17:31.000",
    "date_modified": "2025-12-29T13:17:32.000",
    "request_status": "Pending",
    "responsible_agency": "Department of Sanitation",
    "final_address": "10920 Guildford Rd",
    "address_councildis": "E",
    "status": "Assigned to Contractor",
    "contractor": "Waste Pro",
    "rowid": "1248023",
    "final_x": "3711517.40606",
    "final_y": "563941.332385",
    "longitude": "-89.97207091423772",
    "latitude": "30.043696394401042",
    "geocoded_column": {
      "latitude": "30.043696394401042",
      "longitude": "-89.97207091423772"
    }
  },
  {
    "service_request": "2025-1248022",
    "request_type": "Abandoned Vehicles",
    "request_reason": "Abandoned/Junk Vehicles",
    "date_created": "2025-12-29T13:16:00.000",
    "date_modified": "2025-12-29T13:16:35.000",
    "request_status": "Pending",
    "responsible_agency": "Department of Public Works",
    "final_address": "4634 Knight Dr",
    "address_councildis": "E",
    "status": "Pending",
    "rowid": "1248022",
    "final_x": "3708133.06699",
    "final_y": "554832.660888",
    "longitude": "-89.98310601613635",
    "latitude": "30.018761250170297",
    "geocoded_column": {
      "latitude": "30.018761250170297",
      "longitude": "-89.98310601613635"
    }
  },
  {
    "service_request": "2025-1248021",
    "request_type": "Trash/Recycling",
    "request_reason": "Order Trash Cart",
    "date_created": "2025-12-29T13:11:14.000",
    "date_modified": "2025-12-29T13:11:16.000",
    "request_status": "Pending",
    "responsible_agency": "Department of Sanitation",
    "final_address": "3424 General Ogden St",
    "address_councildis": "A",
    "status": "Assigned to Contractor",
    "contractor": "IV Waste",
    "rowid": "1248021",
    "final_x": "3665254.43335",
    "final_y": "536238.926151",
    "longitude": "-90.11921029821056",
    "latitude": "29.96895443534541",
    "geocoded_column": {
      "latitude": "29.96895443534541",
      "longitude": "-90.11921029821056"
    }
  },
  {
    "service_request": "2025-1248020",
    "request_type": "Trash/Recycling",
    "request_reason": "Request a Large Item Pick Up",
    "date_created": "2025-12-29T13:10:43.000",
    "date_modified": "2025-12-29T13:10:45.000",
    "request_status": "Pending",
    "responsible_agency": "Department of Sanitation",
    "final_address": "5920 Kensington Blvd",
    "address_councildis": "E",
    "status": "Assigned to Contractor",
    "contractor": "Waste Pro",
    "rowid": "1248020",
    "final_x": "3713106.97515",
    "final_y": "561414.67075",
    "longitude": "-89.96714245045624",
    "latitude": "30.036697070908236",
    "geocoded_column": {
      "latitude": "30.036697070908236",
      "longitude": "-89.96714245045624"
    }
  },
  {
    "service_request": "2025-1248019",
    "request_type": "Trash/Recycling",
    "request_reason": "Request a Large Item Pick Up",
    "date_created": "2025-12-29T13:09:03.000",
    "date_modified": "2025-12-29T13:09:05.000",
    "request_status": "Pending",
    "responsible_agency": "Department of Sanitation",
    "final_address": "4123 Baronne St",
    "address_councildis": "B",
    "status": "Assigned to Contractor",
    "contractor": "IV Waste",
    "rowid": "1248019",
    "final_x": "3671652.25499",
    "final_y": "521719.740282",
    "longitude": "-90.09949924745798",
    "latitude": "29.928843490435337",
    "geocoded_column": {
      "latitude": "29.928843490435337",
      "longitude": "-90.09949924745798"
    }
  },
  {
    "service_request": "2025-1248018",
    "request_type": "Trash/Recycling",
    "request_reason": "Request a Large Item Pick Up",
    "date_created": "2025-12-29T13:07:56.000",
    "date_modified": "2025-12-29T13:07:57.000",
    "request_status": "Pending",
    "responsible_agency": "Department of Sanitation",
    "final_address": "4736 Western St",
    "address_councildis": "D",
    "status": "Assigned to Contractor",
    "contractor": "IV Waste",
    "rowid": "1248018",
    "final_x": "3684077.70594",
    "final_y": "550373.082708",
    "longitude": "-90.05926893714178",
    "latitude": "30.007256515864196",
    "geocoded_column": {
      "latitude": "30.007256515864196",
      "longitude": "-90.05926893714178"
    }
  },
  {
    "service_request": "2025-1248017",
    "request_type": "Trash/Recycling",
    "request_reason": "Request a Large Item Pick Up",
    "date_created": "2025-12-29T13:04:56.000",
    "date_modified": "2025-12-29T13:04:58.000",
    "request_status": "Pending",
    "responsible_agency": "Department of Sanitation",
    "final_address": "714 Topaz St",
    "address_councildis": "D",
    "status": "Assigned to Contractor",
    "contractor": "IV Waste",
    "rowid": "1248017",
    "final_x": "3669815.16257",
    "final_y": "556361.307738",
    "longitude": "-90.1041254617434",
    "latitude": "30.024150357313196",
    "geocoded_column": {
      "latitude": "30.024150357313196",
      "longitude": "-90.1041254617434"
    }
  },