[
  {
    "service_request": "2025-1182418",
    "request_type": "Trash/Recycling",
    "request_reason": "Request a Large Item Pick Up",
    "date_created": "2025-04-08T23:54:50.000",
    "date_modified": "2025-04-08T23:54:52.000",
    "request_status": "Pending",
    "responsible_agency": "Department of Sanitation",
    "final_address": "4822 Nottingham Dr",
    "address_councildis": "E",
    "status": "Assigned to Contractor",
    "contractor": "Waste Pro",
    "rowid": "1182418",
    "final_x": "3716281.04607",
    "final_y": "557266.235803",
    "longitude": "-89.95726927273842",
    "latitude": "30.025186097226108",
    "geocoded_column": {
      "latitude": "30.025186097226108",
      "longitude": "-89.95726927273842"
    }
  },
  {
    "service_request": "2025-1182417",
    "request_type": "Trash/Recycling",
    "request_reason": "Request a Large Item Pick Up",
    "date_created": "2025-04-08T21:16:26.000",
    "date_modified": "2025-04-08T21:16:28.000",
    "request_status": "Pending",
    "responsible_agency": "Department of Sanitation",
    "final_address": "7860 Bass St",
    "address_councildis": "E",
    "status": "Assigned to Contractor",
    "contractor": "Waste Pro",
    "rowid": "1182417",
    "final_x": "3719677.26943",
    "final_y": "574038.786218",
    "longitude": "-89.94589613699573",
    "latitude": "30.071191120617016",
    "geocoded_column": {
      "latitude": "30.071191120617016",
      "longitude": "-89.94589613699573"
    }
  },
  {
    "service_request": "2025-1182416",
    "request_type": "Streetlights",
    "request_reason": "New Streetlight Request",
    "date_created": "2025-04-08T21:08:59.000",
    "date_modified": "2025-04-08T21:09:01.000",
    "request_status": "Pending",
    "responsible_agency": "Department of Public Works",
    "final_address": "4115 N Claiborne Ave",
    "address_councildis": "D",
    "status": "Pending",
    "contractor": "Legacy Professional Services",
    "rowid": "1182416",
    "final_x": "3692712.00777",
    "final_y": "537098.887048",
    "longitude": "-90.03246699117517",
    "latitude": "29.97049047567443",
    "geocoded_column": {
      "latitude": "29.97049047567443",
      "longitude": "-90.03246699117517"
    }
  },
  {
    "service_request": "2025-1182415",
    "request_type": "Trash/Recycling",
    "request_reason": "Request a Large Item Pick Up",
    "date_created": "2025-04-08T21:05:47.000",
    "date_modified": "2025-04-08T21:05:50.000",
    "request_status": "Pending",
    "responsible_agency": "Department of Sanitation",
    "final_address": "6160 Milne Blvd",
    "address_councildis": "A",
    "status": "Assigned to Contractor",
    "contractor": "IV Waste",
    "rowid": "1182415",
    "final_x": "3667039.1289",
    "final_y": "548677.470611",
    "longitude": "-90.11315578980899",
    "latitude": "30.00310409388845",
    "geocoded_column": {
      "latitude": "30.00310409388845",
      "longitude": "-90.11315578980899"
    }
  },
  {
    "service_request": "2025-1182414",
    "request_type": "Trash/Recycling",
    "request_reason": "Request a Large Item Pick Up",
    "date_created": "2025-04-08T21:00:14.000",
    "date_modified": "2025-04-08T21:00:17.000",
    "request_status": "Pending",
    "responsible_agency": "Department of Sanitation",
    "final_address": "4842 Gabriel Dr",
    "address_councildis": "E",
    "status": "Assigned to Contractor",
    "contractor": "Waste Pro",
    "rowid": "1182414",
    "final_x": "3708759.61144",
    "final_y": "556382.21609",
    "longitude": "-89.98106859726059",
    "latitude": "30.023001607871134",
    "geocoded_column": {
      "latitude": "30.023001607871134",
      "longitude": "-89.98106859726059"
    }
  },
  {
    "service_request": "2025-1182413",
    "request_type": "Abandoned Vehicles",
    "request_reason": "Abandoned/Junk Vehicles",
    "date_created": "2025-04-08T20:17:04.000",
    "date_modified": "2025-04-08T20:17:06.000",
    "request_status": "Pending",
    "responsible_agency": "Department of Public Works",
    "final_address": "3001 Rabbits St",
    "address_councildis": "D",
    "status": "Pending",
    "rowid": "1182413",
    "final_x": "3688439.34972",
    "final_y": "544022.696462",
    "longitude": "-90.04571477850905",
    "latitude": "29.989661182398144",
    "geocoded_column": {
      "latitude": "29.989661182398144",
      "longitude": "-90.04571477850905"
    }
  },
  {
    "service_request": "2025-1182412",
    "request_type": "Abandoned Vehicles",
    "request_reason": "Abandoned/Junk Vehicles",
    "date_created": "2025-04-08T20:15:10.000",
    "date_modified": "2025-04-08T20:15:11.000",
    "request_status": "Pending",
    "responsible_agency": "Department of Public Works",
    "final_address": "3001 Rabbits St",
    "address_councildis": "D",
    "status": "Pending",
    "rowid": "1182412",
    "final_x": "3688439.34972",
    "final_y": "544022.696462",
    "longitude": "-90.04571477850905",
    "latitude": "29.989661182398144",
    "geocoded_column": {
      "latitude": "29.989661182398144",
      "longitude": "-90.04571477850905"
    }
  },
  {
    "service_request": "2025-1182411",
    "request_type": "Abandoned Vehicles",
    "request_reason": "Abandoned/Junk Vehicles",
    "date_created": "2025-04-08T20:13:56.000",
    "date_modified": "2025-04-08T20:13:58.000",
    "request_status": "Pending",
    "responsible_agency": "Department of Public Works",
    "final_address": "2749 Abundance St",
    "address_councildis": "D",
    "status": "Pending",
    "rowid": "1182411",
    "final_x": "3688559.09289",
    "final_y": "544031.652942",
    "longitude": "-90.04533622628152",
    "latitude": "29.989682109056417",
    "geocoded_column": {
      "latitude": "29.989682109056417",
      "longitude": "-90.04533622628152"
    }
  },
  {
    "service_request": "2025-1182410",
    "request_type": "Abandoned Vehicles",
    "request_reason": "Abandoned/Junk Vehicles",
    "date_created": "2025-04-08T20:12:27.000",
    "date_modified": "2025-04-08T20:12:29.000",
    "request_status": "Pending",
    "responsible_agency": "Department of Public Works",
    "final_address": "2749 Abundance St",
    "address_councildis": "D",
    "status": "Pending",
    "rowid": "1182410",
    "final_x": "3688559.09289",
    "final_y": "544031.652942",
    "longitude": "-90.04533622628152",
    "latitude": "29.989682109056417",
    "geocoded_column": {
      "latitude": "29.989682109056417",
      "longitude": "-90.04533622628152"
    }
  },
  {
    "service_request": "2025-1182409",
    "request_type": "Trash/Recycling",
    "request_reason": "Replace Trash Cart",
    "date_created": "2025-04-08T20:05:19.000",
    "date_modified": "2025-04-08T20:05:21.000",
    "request_status": "Pending",
    "responsible_agency": "Department of Sanitation",
    "final_address": "802 Henry Clay Ave",
    "address_councildis": "A",
    "status": "Assigned to Contractor",
    "contractor": "IV Waste",
    "rowid": "1182409",
    "final_x": "3663755.33261",
    "final_y": "519649.212088",
    "longitude": "-90.12449729744243",
    "latitude": "29.923381640178146",
    "geocoded_column": {
      "latitude": "29.923381640178146",
      "longitude": "-90.12449729744243"
    }
  },
  {
    "service_request": "2025-1182408",
    "request_type": "Trash/Recycling",
    "request_reason": "Request a Large Item Pick Up",
    "date_created": "2025-04-08T19:54:48.000",
    "date_modified": "2025-04-08T19:54:50.000",
    "request_status": "Pending",
    "responsible_agency": "Department of Sanitation",
    "final_address": "2722 Bay St",
    "address_councildis": "D",
    "status": "Assigned to Contractor",
    "contractor": "IV Waste",
    "rowid": "1182408",
    "final_x": "3688122.75657",
    "final_y": "545228.865871",
    "longitude": "-90.04667202347721",
    "latitude": "29.99298749383546",
    "geocoded_column": {
      "latitude": "29.99298749383546",
      "longitude": "-90.04667202347721"
    }
  },
  {
    "service_request": "2025-1182407",
    "request_type": "Trash/Recycling",
    "request_reason": "Request a Large Item Pick Up",
    "date_created": "2025-04-08T19:09:32.000",
    "date_modified": "2025-04-08T19:09:34.000",
    "request_status": "Pending",
    "responsible_agency": "Department of Sanitation",
    "final_address": "4921 Lennox Blvd",
    "address_councildis": "C",
    "status": "Assigned to Contractor",
    "contractor": "Richards Disposal",
    "rowid": "1182407",
    "final_x": "3700601.16605",
    "final_y": "512173.992497",
    "longitude": "-90.00846243285214",
    "latitude": "29.901707065138208",
    "geocoded_column": {
      "latitude": "29.901707065138208",
      "longitude": "-90.00846243285214"
    }
  },
  {
    "service_request": "2025-1182406",
    "request_type": "Trash/Recycling",
    "request_reason": "Request a Large Item Pick Up",
    "date_created": "2025-04-08T18:48:04.000",
    "date_modified": "2025-04-08T18:48:06.000",
    "request_status": "Pending",
    "responsible_agency": "Department of Sanitation",
    "final_address": "11341 N Parkwood Ct",
    "address_councildis": "E",
    "status": "Assigned to Contractor",
    "contractor": "Waste Pro",
    "rowid": "1182406",
    "final_x": "3716932.57445",
    "final_y": "559625.744285",
    "longitude": "-89.95512089138047",
    "latitude": "30.031652271027017",
    "geocoded_column": {
      "latitude": "30.031652271027017",
      "longitude": "-89.95512089138047"
    }
  },
  {
    "service_request": "2025-1182405",
    "request_type": "Trash/Recycling",
    "request_reason": "Request a Large Item Pick Up",
    "date_created": "2025-04-08T18:45:19.000",
    "date_modified": "2025-04-08T18:45:21.000",
    "request_status": "Pending",
    "responsible_agency": "Department of Sanitation",
    "final_address": "254 Hillary St",
    "address_councildis": "A",
    "status": "Assigned to Contractor",
    "contractor": "IV Waste",
    "rowid": "1182405",
    "final_x": "3661053.46624",
    "final_y": "524756.941436",
    "longitude": "-90.13285719965295",
    "latitude": "29.93750439724881",
    "geocoded_column": {
      "latitude": "29.93750439724881",
      "longitude": "-90.13285719965295"
    }
  },
  {
    "service_request": "2025-1182404",
    "request_type": "Property Maintenance",
    "request_reason": "Property Maintenance",
    "date_created": "2025-04-08T18:42:55.000",
    "date_modified": "2025-04-08T18:42:57.000",
    "request_status": "Pending",
    "responsible_agency": "Department of Code Enforcement",
    "final_address": "5714 Vicksburg St",
    "address_councildis": "A",
    "status": "Pending",
    "rowid": "1182404",
    "final_x": "3668664.2299",
    "final_y": "545525.046032",
    "longitude": "-90.10812832836237",
    "latitude": "29.994388333011024",
    "geocoded_column": {
      "latitude": "29.994388333011024",
      "longitude": "-90.10812832836237"
    }
  },
  {
    "service_request": "2025-1182403",
    "request_type": "Trash/Recycling",
    "request_reason": "Replace Recycling Cart",
    "date_created": "2025-04-08T18:20:07.000",
    "date_modified": "2025-04-08T18:20:08.000",
    "request_status": "Pending",
    "responsible_agency": "Department of Sanitation",
    "final_address": "1911 Holiday Dr",
    "address_councildis": "C",
    "status": "Pending",
    "rowid": "1182403",
    "final_x": "3698842.58807",
    "final_y": "523905.711996",
    "longitude": "-90.01358592539326",
    "latitude": "29.93402109690619",
    "geocoded_column": {
      "latitude": "29.93402109690619",
      "longitude": "-90.01358592539326"
    }
  },
  {
    "service_request": "2025-1182402",
    "request_type": "Alley Ways",
    "request_reason": "Alley Way Regrading",
    "date_created": "2025-04-08T18:19:19.000",
    "date_modified": "2025-04-08T18:19:21.000",
    "request_status": "Pending",
    "responsible_agency": "Department of Public Works",
    "final_address": "5868 Catina St",
    "address_councildis": "A",
    "status": "Pending",
    "rowid": "1182402",
    "final_x": "3666690.69012",
    "final_y": "546950.861905",
    "longitude": "-90.11431459298038",
    "latitude": "29.99836671361283",
    "geocoded_column": {
      "latitude": "29.99836671361283",
      "longitude": "-90.11431459298038"
    }
  },
  {
    "service_request": "2025-1182401",
    "request_type": "Trash/Recycling",
    "request_reason": "Request a Large Item Pick Up",
    "date_created": "2025-04-08T18:16:36.000",
    "date_modified": "2025-04-08T18:16:39.000",
    "request_status": "Pending",
    "responsible_agency": "Department of Sanitation",
    "final_address": "4613 Loyola Ave",
    "address_councildis": "B",
    "status": "Assigned to Contractor",
    "contractor": "IV Waste",
    "rowid": "1182401",
    "final_x": "3669761.56935",
    "final_y": "522945.965691",
    "longitude": "-90.10542629279875",
    "latitude": "29.932271062421673",
    "geocoded_column": {
      "latitude": "29.932271062421673",
      "longitude": "-90.10542629279875"
    }
  },
  {
    "service_request": "2025-1182400",
    "request_type": "Trash/Recycling",
    "request_reason": "Replace Recycling Cart",
    "date_created": "2025-04-08T18:06:28.000",
    "date_modified": "2025-04-08T18:06:30.000",
    "request_status": "Pending",
    "responsible_agency": "Department of Sanitation",
    "final_address": "1413 Arts St",
    "address_councildis": "C",
    "status": "Pending",
    "rowid": "1182400",
    "final_x": "3687144.05583",
    "final_y": "537704.1346",
    "longitude": "-90.0500297703778",
    "latitude": "29.97232733273385",
    "geocoded_column": {
      "latitude": "29.97232733273385",
      "longitude": "-90.0500297703778"
    }
  },
  {
    "service_request": "2025-1182399",
    "request_type": "Property Maintenance",
    "request_reason": "Property Maintenance",
    "date_created": "2025-04-08T18:06:08.000",
    "date_modified": "2025-04-08T18:06:10.000",
    "request_status": "Pending",
    "responsible_agency": "Department of Code Enforcement",
    "final_address": "2523 General Ogden St",
    "address_councildis": "A",
    "status": "Pending",
    "rowid": "1182399",
    "final_x": "3663163.60679",
    "final_y": "533837.597061",
    "longitude": "-90.12589321009868",
    "latitude": "29.962412319072588",
    "geocoded_column": {
      "latitude": "29.962412319072588",
      "longitude": "-90.12589321009868"
    }
  },
  {
    "service_request": "2025-1182398",
    "request_type": "Utility Poles",
    "request_reason": "Wires Sagging/Hanging Low",
    "date_created": "2025-04-08T18:04:23.000",
    "date_modified": "2025-04-08T18:04:26.000",
    "request_status": "Pending",
    "responsible_agency": "Utility Company Collective",
    "final_address": "820 Polk St",
    "address_councildis": "A",
    "status": "Pending",
    "rowid": "1182398",
    "final_x": "3669360.4985",
    "final_y": "547118.750353",
    "longitude": "-90.10587497017468",
    "latitude": "29.99874997987799",
    "geocoded_column": {
      "latitude": "29.99874997987799",
      "longitude": "-90.10587497017468"
    }
  },
  {
    "service_request": "2025-1182397",
    "request_type": "Alley Ways",
    "request_reason": "Alley Way Regrading",
    "date_created": "2025-04-08T18:03:55.000",
    "date_modified": "2025-04-08T18:03:58.000",
    "request_status": "Pending",
    "responsible_agency": "Department of Public Works",
    "final_address": "5868 Catina St",
    "address_councildis": "A",
    "status": "Pending",
    "rowid": "1182397",
    "final_x": "3666690.69012",
    "final_y": "546950.861905",
    "longitude": "-90.11431459298038",
    "latitude": "29.99836671361283",
    "geocoded_column": {
      "latitude": "29.99836671361283",
      "longitude": "-90.11431459298038"
    }
  },
  {
    "service_request": "2025-1182396",
    "request_type": "Roads and Streets",
    "request_reason": "Street Subsidence (Sinking)",
    "date_created": "2025-04-08T18:02:06.000",
    "date_modified": "2025-04-08T18:02:08.000",
    "request_status": "Pending",
    "responsible_agency": "Department of Public Works",
    "final_address": "2523 General Ogden St",
    "address_councildis": "A",
    "status": "Pending",
    "rowid": "1182396",
    "final_x": "3663163.60679",
    "final_y": "533837.597061",
    "longitude": "-90.12589321009868",
    "latitude": "29.962412319072588",
    "geocoded_column": {
      "latitude": "29.962412319072588",
      "longitude": "-90.12589321009868"
    }
  },
  {
    "service_request": "2025-1182395",
    "request_type": "Trash/Recycling",
    "request_reason": "Order Recycling Cart",
    "date_created": "2025-04-08T17:53:57.000",
    "date_modified": "2025-04-08T17:53:59.000",
    "request_status": "Pending",
    "responsible_agency": "Department of Sanitation",
    "final_address": "5316 S Liberty St",
    "address_councildis": "B",
    "status": "Pending",
    "rowid": "1182395",
    "final_x": "3667924.18945",
    "final_y": "523165.961979",
    "longitude": "-90.11121933911954",
    "latitude": "29.93292999448721",
    "geocoded_column": {
      "latitude": "29.93292999448721",
      "longitude": "-90.11121933911954"
    }
  },
  {
    "service_request": "2025-1182394",
    "request_type": "Trash/Recycling",
    "request_reason": "Replace Trash Cart",
    "date_created": "2025-04-08T17:24:24.000",
    "date_modified": "2025-04-08T17:24:26.000",
    "request_status": "Pending",
    "responsible_agency": "Department of Sanitation",
    "final_address": "3010 Bienville Ave",
    "address_councildis": "B",
    "status": "Assigned to Contractor",
    "contractor": "IV Waste",
    "rowid": "1182394",
    "final_x": "3674696.94651",
    "final_y": "536516.938439",
    "longitude": "-90.0893806478862",
    "latitude": "29.969440387249954",
    "geocoded_column": {
      "latitude": "29.969440387249954",
      "longitude": "-90.0893806478862"
    }
  },
  {
    "service_request": "2025-1182393",
    "request_type": "Streetlights",
    "request_reason": "Streetlight Outage/Malfunction",
    "date_created": "2025-04-08T17:20:20.000",
    "date_modified": "2025-04-08T17:20:22.000",
    "request_status": "Pending",
    "responsible_agency": "Department of Public Works",
    "final_address": "6778 Argonne Blvd",
    "address_councildis": "A",
    "status": "Pending",
    "contractor": "Legacy Professional Services",
    "rowid": "1182393",
    "final_x": "3670583.14017",
    "final_y": "552476.515286",
    "longitude": "-90.10183071847241",
    "latitude": "30.013445885746936",
    "geocoded_column": {
      "latitude": "30.013445885746936",
      "longitude": "-90.10183071847241"
    }
  },
  {
    "service_request": "2025-1182392",
    "request_type": "Property Maintenance",
    "request_reason": "Property Maintenance",
    "date_created": "2025-04-08T17:12:56.000",
    "date_modified": "2025-04-08T17:12:58.000",
    "request_status": "Pending",
    "responsible_agency": "Department of Code Enforcement",
    "final_address": "7340 Bullard Ave",
    "address_councildis": "E",
    "status": "Pending",
    "rowid": "1182392",
    "final_x": "3713896.64152",
    "final_y": "566206.732643",
    "longitude": "-89.96446605045972",
    "latitude": "30.04984739213936",
    "geocoded_column": {
      "latitude": "30.04984739213936",
      "longitude": "-89.96446605045972"
    }
  },
  {
    "service_request": "2025-1182391",
    "request_type": "Drainage",
    "request_reason": "Catch Basin Damaged",
    "date_created": "2025-04-08T17:05:36.000",
    "date_modified": "2025-04-08T17:05:39.000",
    "request_status": "Pending",
    "responsible_agency": "Sewerage & Water Board ",
    "final_address": "7863 Sun St",
    "address_councildis": "E",
    "status": "Pending",
    "rowid": "1182391",
    "final_x": "3720269.36402",
    "final_y": "574631.944555",
    "longitude": "-89.94400163382392",
    "latitude": "30.07280232865221",
    "geocoded_column": {
      "latitude": "30.07280232865221",
      "longitude": "-89.94400163382392"
    }
  },
  {
    "service_request": "2025-1182390",
    "request_type": "Trash/Recycling",
    "request_reason": "MIssed Recycling Pick-Up",
    "date_created": "2025-04-08T17:04:03.000",
    "date_modified": "2025-04-08T20:31:32.000",
    "case_close_date": "2025-04-08T15:31:31.000",
    "request_status": "Closed",
    "responsible_agency": "Department of Sanitation",
    "final_address": "6112 Todd Pl",
    "address_councildis": "E",
    "status": "Invalid Request",
    "contractor": "Waste Pro",
    "contractor_action": "Invalid Request",
    "rowid": "1182390",
    "final_x": "3699440.80426",
    "final_y": "532646.273476",
    "longitude": "-90.011379046051",
    "latitude": "29.958035615330015",
    "geocoded_column": {
      "latitude": "29.958035615330015",
      "longitude": "-90.011379046051"
    }
  },
  {
    "service_request": "2025-1182389",
    "request_type": "Trash/Recycling",
    "request_reason": "Request a Large Item Pick Up",
    "date_created": "2025-04-08T16:55:26.000",
    "date_modified": "2025-04-08T16:55:28.000",
    "request_status": "Pending",
    "responsible_agency": "Department of Sanitation",
    "final_address": "5409 Zeno Pl",
    "address_councildis": "E",
    "status": "Assigned to Contractor",
    "contractor": "Waste Pro",
    "rowid": "1182389",
    "final_x": "3718266.92057",
    "final_y": "561799.330015",
    "longitude": "-89.95082146825258",
    "latitude": "30.037584555659418",
    "geocoded_column": {
      "latitude": "30.037584555659418",
      "longitude": "-89.95082146825258"
    }
  },
  {
    "service_request": "2025-1182388",
    "request_type": "Trash/Recycling",
    "request_reason": "Order Trash Cart",
    "date_created": "2025-04-08T16:54:53.000",
    "date_modified": "2025-04-08T16:54:59.000",
    "request_status": "Pending",
    "responsible_agency": "Department of Sanitation",
    "final_address": "7150 Bundy Rd",
    "address_councildis": "E",
    "status": "Assigned to Contractor",
    "contractor": "Waste Pro",
    "rowid": "1182388",
    "final_x": "3706574.69668",
    "final_y": "561469.457951",
    "longitude": "-89.98778362059947",
    "latitude": "30.037060249381778",
    "geocoded_column": {
      "latitude": "30.037060249381778",
      "longitude": "-89.98778362059947"
    }
  },
  {
    "service_request": "2025-1182387",
    "request_type": "Trash/Recycling",
    "request_reason": "Missed Trash Pick-Up",
    "date_created": "2025-04-08T16:53:52.000",
    "date_modified": "2025-04-08T16:53:54.000",
    "request_status": "Pending",
    "responsible_agency": "Department of Sanitation",
    "final_address": "31 Pinewood Ct",
    "address_councildis": "C",
    "status": "Assigned to Contractor",
    "contractor": "Richards Disposal",
    "rowid": "1182387",
    "final_x": "3695793.58704",
    "final_y": "522879.867195",
    "longitude": "-90.02324847974722",
    "latitude": "29.93129658468893",
    "geocoded_column": {
      "latitude": "29.93129658468893",
      "longitude": "-90.02324847974722"
    }
  },
  {
    "service_request": "2025-1182386",
    "request_type": "Abandoned Vehicles",
    "request_reason": "Abandoned/Junk Vehicles",
    "date_created": "2025-04-08T16:51:48.000",
    "date_modified": "2025-04-08T16:51:51.000",
    "request_status": "Pending",
    "responsible_agency": "Department of Public Works",
    "final_address": "1900 BLK Annette St",
    "address_councildis": "D",
    "status": "Pending",
    "rowid": "1182386",
    "final_x": "3682895.57873",
    "final_y": "539282.393008",
    "longitude": "-90.0633919365923",
    "latitude": "29.976797143394595",
    "geocoded_column": {
      "latitude": "29.976797143394595",
      "longitude": "-90.0633919365923"
    }
  },
  {
    "service_request": "2025-1182385",
    "request_type": "Abandoned Vehicles",
    "request_reason": "Abandoned/Junk Vehicles",
    "date_created": "2025-04-08T16:46:36.000",
    "date_modified": "2025-04-08T16:46:38.000",
    "request_status": "Pending",
    "responsible_agency": "Department of Public Works",
    "final_address": "400 BLK S White St",
    "address_councildis": "B",
    "status": "Pending",
    "rowid": "1182385",
    "final_x": "3674024.65519",
    "final_y": "534333.540701",
    "longitude": "-90.09157852714952",
    "latitude": "29.963456830997767",
    "geocoded_column": {
      "latitude": "29.963456830997767",
      "longitude": "-90.09157852714952"
    }
  },
  {
    "service_request": "2025-1182384",
    "request_type": "Property Maintenance",
    "request_reason": "Property Maintenance",
    "date_created": "2025-04-08T16:45:08.000",
    "date_modified": "2025-04-08T16:45:10.000",
    "request_status": "Pending",
    "responsible_agency": "Department of Code Enforcement",
    "final_address": "7690 Shorewood Blvd",
    "address_councildis": "E",
    "status": "Pending",
    "rowid": "1182384",
    "final_x": "3719405.08511",
    "final_y": "572959.438953",
    "longitude": "-89.94679787243963",
    "latitude": "30.0682324298829",
    "geocoded_column": {
      "latitude": "30.0682324298829",
      "longitude": "-89.94679787243963"
    }
  },
  {
    "service_request": "2025-1182383",
    "request_type": "Health Related Request",
    "request_reason": "Request Health Records (Immunization, Lead and Health)",
    "date_created": "2025-04-08T16:44:48.000",
    "date_modified": "2025-04-08T16:44:51.000",
    "request_status": "Pending",
    "responsible_agency": "Health Department",
    "final_address": "3232 Loyola Ave",
    "address_councildis": "B",
    "status": "Pending",
    "rowid": "1182383",
    "final_x": "3673761.31227",
    "final_y": "523650.518267",
    "longitude": "-90.09277538220518",
    "latitude": "29.934089890768963",
    "geocoded_column": {
      "latitude": "29.934089890768963",
      "longitude": "-90.09277538220518"
    }
  },
  {
    "service_request": "2025-1182382",
    "request_type": "Trash/Recycling",
    "request_reason": "Request a Large Item Pick Up",
    "date_created": "2025-04-08T16:42:05.000",
    "date_modified": "2025-04-08T16:42:07.000",
    "request_status": "Pending",
    "responsible_agency": "Department of Sanitation",
    "final_address": "617 Dauphine St Unit 7",
    "address_councildis": "C",
    "status": "Assigned to Contractor",
    "contractor": "IV Waste",
    "rowid": "1182382",
    "final_x": "3681778.71951",
    "final_y": "532758.312644",
    "longitude": "-90.06714701818156",
    "latitude": "29.958892156051807",
    "geocoded_column": {
      "latitude": "29.958892156051807",
      "longitude": "-90.06714701818156"
    }
  },
  {
    "service_request": "2025-1182381",
    "request_type": "Trash/Recycling",
    "request_reason": "Request a Large Item Pick Up",
    "date_created": "2025-04-08T16:36:50.000",
    "date_modified": "2025-04-08T16:36:52.000",
    "request_status": "Pending",
    "responsible_agency": "Department of Sanitation",
    "final_address": "4843 Bonita Dr",
    "address_councildis": "E",
    "status": "Assigned to Contractor",
    "contractor": "Waste Pro",
    "rowid": "1182381",
    "final_x": "3704458.93534",
    "final_y": "555951.934233",
    "longitude": "-89.99467355264227",
    "latitude": "30.02195735372149",
    "geocoded_column": {
      "latitude": "30.02195735372149",
      "longitude": "-89.99467355264227"
    }
  },
  {
    "service_request": "2025-1182380",
    "request_type": "Streetlights",
    "request_reason": "Streetlight Outage/Malfunction",
    "date_created": "2025-04-08T16:35:08.000",
    "date_modified": "2025-04-08T16:35:09.000",
    "request_status": "Pending",
    "responsible_agency": "Department of Public Works",
    "final_address": "6030 Berkley Dr",
    "address_councildis": "C",
    "status": "Pending",
    "contractor": "Legacy Professional Services",
    "rowid": "1182380",
    "final_x": "3706499.37886",
    "final_y": "518148.752822",
    "longitude": "-89.98962707281925",
    "latitude": "29.917946761902503",
    "geocoded_column": {
      "latitude": "29.917946761902503",
      "longitude": "-89.98962707281925"
    }
  },
  {
    "service_request": "2025-1182379",
    "request_type": "Traffic Safety",
    "request_reason": "Request for Traffic Calming due to Speeding",
    "date_created": "2025-04-08T16:29:25.000",
    "date_modified": "2025-04-08T16:29:28.000",
    "request_status": "Pending",
    "responsible_agency": "Department of Public Works",
    "final_address": "5500 BLK Wickfield Dr",
    "address_councildis": "D",
    "status": "Pending",
    "rowid": "1182379",
    "final_x": "3681107.15022",
    "final_y": "553205.896",
    "longitude": "-90.06855495839079",
    "latitude": "30.015136213952257",
    "geocoded_column": {
      "latitude": "30.015136213952257",
      "longitude": "-90.06855495839079"
    }
  },
  {
    "service_request": "2025-1182378",
    "request_type": "Trash/Recycling",
    "request_reason": "Repair Trash Cart",
    "date_created": "2025-04-08T16:24:21.000",
    "date_modified": "2025-04-08T16:24:23.000",
    "request_status": "Pending",
    "responsible_agency": "Department of Sanitation",
    "final_address": "4542 Dale St",
    "address_councildis": "E",
    "status": "Assigned to Contractor",
    "contractor": "Waste Pro",
    "rowid": "1182378",
    "final_x": "3699446.99882",
    "final_y": "553968.325336",
    "longitude": "-90.01058224448944",
    "latitude": "30.016663231972586",
    "geocoded_column": {
      "latitude": "30.016663231972586",
      "longitude": "-90.01058224448944"
    }
  },
  {
    "service_request": "2025-1182377",
    "request_type": "Trash/Recycling",
    "request_reason": "Missed Trash Pick-Up",
    "date_created": "2025-04-08T16:21:19.000",
    "date_modified": "2025-04-08T16:39:39.000",
    "case_close_date": "2025-04-08T11:39:32.000",
    "request_status": "Closed",
    "responsible_agency": "Department of Sanitation",
    "final_address": "9706 W Wheaton Cir",
    "address_councildis": "E",
    "status": "Invalid Request",
    "contractor": "Waste Pro",
    "contractor_action": "Invalid",
    "rowid": "1182377",
    "final_x": "3708555.56824",
    "final_y": "562082.603807",
    "longitude": "-89.98150082269372",
    "latitude": "30.038682048877615",
    "geocoded_column": {
      "latitude": "30.038682048877615",
      "longitude": "-89.98150082269372"
    }
  },
  {
    "service_request": "2025-1182376",
    "request_type": "Trash/Recycling",
    "request_reason": "Illegal Dumping",
    "date_created": "2025-04-08T16:16:47.000",
    "date_modified": "2025-04-08T16:16:49.000",
    "request_status": "Pending",
    "responsible_agency": "Department of Sanitation",
    "final_address": "7863 Bass St",
    "address_councildis": "E",
    "status": "Pending",
    "rowid": "1182376",
    "final_x": "3719727.30674",
    "final_y": "574120.383914",
    "longitude": "-89.94573483205258",
    "latitude": "30.07141381377974",
    "geocoded_column": {
      "latitude": "30.07141381377974",
      "longitude": "-89.94573483205258"
    }
  },
  {
    "service_request": "2025-1182375",
    "request_type": "Trash/Recycling",
    "request_reason": "Request a Large Item Pick Up",
    "date_created": "2025-04-08T16:13:58.000",
    "date_modified": "2025-04-08T16:13:59.000",
    "request_status": "Pending",
    "responsible_agency": "Department of Sanitation",
    "final_address": "8250 Colony Ct",
    "address_councildis": "E",
    "status": "Assigned to Contractor",
    "contractor": "Waste Pro",
    "rowid": "1182375",
    "final_x": "3703305.26615",
    "final_y": "560344.246365",
    "longitude": "-89.9981571066835",
    "latitude": "30.034071517636935",
    "geocoded_column": {
      "latitude": "30.034071517636935",
      "longitude": "-89.9981571066835"
    }
  },
  {
    "service_request": "2025-1182374",
    "request_type": "Trash/Recycling",
    "request_reason": "Illegal Dumping",
    "date_created": "2025-04-08T16:12:55.000",
    "date_modified": "2025-04-08T16:12:57.000",
    "request_status": "Pending",
    "responsible_agency": "Department of Sanitation",
    "final_address": "7800 Venice Blvd",
    "address_councildis": "E",
    "status": "Pending",
    "rowid": "1182374",
    "final_x": "3720888.59244",
    "final_y": "574502.355243",
    "longitude": "-89.94204903268081",
    "latitude": "30.07242535409901",
    "geocoded_column": {
      "latitude": "30.07242535409901",
      "longitude": "-89.94204903268081"
    }
  },
  {
    "service_request": "2025-1182373",
    "request_type": "Streetlights",
    "request_reason": "Streetlight Outage/Malfunction",
    "date_created": "2025-04-08T16:01:28.000",
    "date_modified": "2025-04-08T16:01:30.000",
    "request_status": "Pending",
    "responsible_agency": "Department of Public Works",
    "final_address": "2222 Constance St",
    "address_councildis": "B",
    "status": "Pending",
    "contractor": "Legacy Professional Services",
    "rowid": "1182373",
    "final_x": "3678934.23131",
    "final_y": "521635.209081",
    "longitude": "-90.07651445262637",
    "latitude": "29.928393441669865",
    "geocoded_column": {
      "latitude": "29.928393441669865",
      "longitude": "-90.07651445262637"
    }
  },
  {
    "service_request": "2025-1182372",
    "request_type": "Trash/Recycling",
    "request_reason": "Request a Large Item Pick Up",
    "date_created": "2025-04-08T16:00:42.000",
    "date_modified": "2025-04-08T16:00:45.000",
    "request_status": "Pending",
    "responsible_agency": "Department of Sanitation",
    "final_address": "6021 Craigie Rd",
    "address_councildis": "E",
    "status": "Assigned to Contractor",
    "contractor": "Waste Pro",
    "rowid": "1182372",
    "final_x": "3695410.4177",
    "final_y": "558727.274972",
    "longitude": "-90.02316414090564",
    "latitude": "30.02987605020238",
    "geocoded_column": {
      "latitude": "30.02987605020238",
      "longitude": "-90.02316414090564"
    }
  },
  {
    "service_request": "2025-1182371",
    "request_type": "Street and Traffic Signs",
    "request_reason": "Traffic or Parking Sign Damaged or Missing",
    "date_created": "2025-04-08T16:00:23.000",
    "date_modified": "2025-04-08T16:00:25.000",
    "request_status": "Pending",
    "responsible_agency": "Department of Public Works",
    "final_address": "3346 Trafalgar St",
    "address_councildis": "A",
    "status": "Pending",
    "rowid": "1182371",
    "final_x": "3677751.58779",
    "final_y": "543145.697741",
    "longitude": "-90.07950476794628",
    "latitude": "29.987575650887152",
    "geocoded_column": {
      "latitude": "29.987575650887152",
      "longitude": "-90.07950476794628"
    }
  },
  {
    "service_request": "2025-1182370",
    "request_type": "Trash/Recycling",
    "request_reason": "Request a Large Item Pick Up",
    "date_created": "2025-04-08T15:59:42.000",
    "date_modified": "2025-04-08T15:59:44.000",
    "request_status": "Pending",
    "responsible_agency": "Department of Sanitation",
    "final_address": "334 Broadway St",
    "address_councildis": "A",
    "status": "Assigned to Contractor",
    "contractor": "IV Waste",
    "rowid": "1182370",
    "final_x": "3661585.68838",
    "final_y": "522741.624698",
    "longitude": "-90.13124367637386",
    "latitude": "29.931947568263265",
    "geocoded_column": {
      "latitude": "29.931947568263265",
      "longitude": "-90.13124367637386"
    }
  },
  {
    "service_request": "2025-1182369",
    "request_type": "Property Maintenance",
    "request_reason": "Property Maintenance",
    "date_created": "2025-04-08T15:57:11.000",
    "date_modified": "2025-04-08T15:57:14.000",
    "request_status": "Pending",
    "responsible_agency": "Department of Code Enforcement",
    "final_address": "1300 Richland Rd",
    "address_councildis": "C",
    "status": "Pending",
    "rowid": "1182369",
    "final_x": "3698275.4296",
    "final_y": "526291.108286",
    "longitude": "-90.01528978848724",
    "latitude": "29.94059805962883",
    "geocoded_column": {
      "latitude": "29.94059805962883",
      "longitude": "-90.01528978848724"
    }
  },
  {
    "service_request": "2025-1182368",
    "request_type": "Trash/Recycling",
    "request_reason": "Repair Trash Cart",
    "date_created": "2025-04-08T15:55:43.000",
    "date_modified": "2025-04-08T15:55:46.000",
    "request_status": "Pending",
    "responsible_agency": "Department of Sanitation",
    "final_address": "202 S Genois St",
    "address_councildis": "B",
    "status": "Assigned to Contractor",
    "contractor": "IV Waste",
    "rowid": "1182368",
    "final_x": "3672337.04359",
    "final_y": "536784.457992",
    "longitude": "-90.0968243112573",
    "latitude": "29.97024621022011",
    "geocoded_column": {
      "latitude": "29.97024621022011",
      "longitude": "-90.0968243112573"
    }
  },
  {
    "service_request": "2025-1182367",
    "request_type": "Trash/Recycling",
    "request_reason": "Illegal Dumping",
    "date_created": "2025-04-08T15:54:49.000",
    "date_modified": "2025-04-08T15:54:51.000",
    "request_status": "Pending",
    "responsible_agency": "Department of Sanitation",
    "final_address": "7862 Sail St",
    "address_councildis": "E",
    "status": "Pending",
    "rowid": "1182367",
    "final_x": "3719817.2197",
    "final_y": "574208.503018",
    "longitude": "-89.94544721865788",
    "latitude": "30.07165310988297",
    "geocoded_column": {
      "latitude": "30.07165310988297",
      "longitude": "-89.94544721865788"
    }
  },
  {
    "service_request": "2025-1182366",
    "request_type": "Trash/Recycling",
    "request_reason": "Repair Trash Cart",
    "date_created": "2025-04-08T15:54:35.000",
    "date_modified": "2025-04-08T15:54:37.000",
    "request_status": "Pending",
    "responsible_agency": "Department of Sanitation",
    "final_address": "524 S Scott St",
    "address_councildis": "B",
    "status": "Assigned to Contractor",
    "contractor": "IV Waste",
    "rowid": "1182366",
    "final_x": "3670704.83918",
    "final_y": "536354.468295",
    "longitude": "-90.1019935928703",
    "latitude": "29.969112213298295",
    "geocoded_column": {
      "latitude": "29.969112213298295",
      "longitude": "-90.1019935928703"
    }
  },
  {
    "service_request": "2025-1182365",
    "request_type": "Trash/Recycling",
    "request_reason": "Request a Large Item Pick Up",
    "date_created": "2025-04-08T15:53:32.000",
    "date_modified": "2025-04-08T15:53:34.000",
    "request_status": "Pending",
    "responsible_agency": "Department of Sanitation",
    "final_address": "3100 Blair St",
    "address_councildis": "C",
    "status": "Assigned to Contractor",
    "contractor": "Richards Disposal",
    "rowid": "1182365",
    "final_x": "3709564.77835",
    "final_y": "519424.303607",
    "longitude": "-89.97990382171014",
    "latitude": "29.921354880669544",
    "geocoded_column": {
      "latitude": "29.921354880669544",
      "longitude": "-89.97990382171014"
    }
  },
  {
    "service_request": "2025-1182364",
    "request_type": "Trash/Recycling",
    "request_reason": "Request a Large Item Pick Up",
    "date_created": "2025-04-08T15:50:12.000",
    "date_modified": "2025-04-08T15:50:15.000",
    "request_status": "Pending",
    "responsible_agency": "Department of Sanitation",
    "final_address": "4611 Gabriel Dr",
    "address_councildis": "E",
    "status": "Assigned to Contractor",
    "contractor": "Waste Pro",
    "rowid": "1182364",
    "final_x": "3709036.25329",
    "final_y": "554871.315224",
    "longitude": "-89.98025085441515",
    "latitude": "30.018838239608858",
    "geocoded_column": {
      "latitude": "30.018838239608858",
      "longitude": "-89.98025085441515"
    }
  },
  {
    "service_request": "2025-1182363",
    "request_type": "Roads and Streets",
    "request_reason": "Pothole",
    "date_created": "2025-04-08T15:47:05.000",
    "date_modified": "2025-04-08T15:47:07.000",
    "request_status": "Pending",
    "responsible_agency": "Department of Public Works",
    "final_address": "900 Congress St",
    "address_councildis": "C",
    "status": "Pending",
    "rowid": "1182363",
    "final_x": "3690499.75478",
    "final_y": "534819.343878",
    "longitude": "-90.03953480145398",
    "latitude": "29.964291406544405",
    "geocoded_column": {
      "latitude": "29.964291406544405",
      "longitude": "-90.03953480145398"
    }
  },
  {
    "service_request": "2025-1182362",
    "request_type": "Roads and Streets",
    "request_reason": "Pothole",
    "date_created": "2025-04-08T15:44:58.000",
    "date_modified": "2025-04-08T15:45:00.000",
    "request_status": "Pending",
    "responsible_agency": "Department of Public Works",
    "final_address": "1528 Gallier St",
    "address_councildis": "D",
    "status": "Pending",
    "rowid": "1182362",
    "final_x": "3690849.47574",
    "final_y": "537380.273416",
    "longitude": "-90.03833901616292",
    "latitude": "29.971322199439346",
    "geocoded_column": {
      "latitude": "29.971322199439346",
      "longitude": "-90.03833901616292"
    }
  },
  {
    "service_request": "2025-1182361",
    "request_type": "Trash/Recycling",
    "request_reason": "Request a Large Item Pick Up",
    "date_created": "2025-04-08T15:43:17.000",
    "date_modified": "2025-04-08T15:43:19.000",
    "request_status": "Pending",
    "responsible_agency": "Department of Sanitation",
    "final_address": "123 N Clark St",
    "address_councildis": "B",
    "status": "Assigned to Contractor",
    "contractor": "IV Waste",
    "rowid": "1182361",
    "final_x": "3672989.6251",
    "final_y": "537240.536456",
    "longitude": "-90.09474781610004",
    "latitude": "29.971480892068445",
    "geocoded_column": {
      "latitude": "29.971480892068445",
      "longitude": "-90.09474781610004"
    }
  },
  {
    "service_request": "2025-1182360",
    "request_type": "Roads and Streets",
    "request_reason": "Pothole",
    "date_created": "2025-04-08T15:42:49.000",
    "date_modified": "2025-04-08T15:42:51.000",
    "request_status": "Pending",
    "responsible_agency": "Department of Public Works",
    "final_address": "1736 Congress St",
    "address_councildis": "D",
    "status": "Pending",
    "rowid": "1182360",
    "final_x": "3691305.05161",
    "final_y": "538114.291209",
    "longitude": "-90.03687402036758",
    "latitude": "29.973326323333282",
    "geocoded_column": {
      "latitude": "29.973326323333282",
      "longitude": "-90.03687402036758"
    }
  },
  {
    "service_request": "2025-1182359",
    "request_type": "Traffic Safety",
    "request_reason": "Request for Traffic Calming due to Speeding",
    "date_created": "2025-04-08T15:41:24.000",
    "date_modified": "2025-04-08T15:41:26.000",
    "request_status": "Pending",
    "responsible_agency": "Department of Public Works",
    "final_address": "8400 Lomond Rd",
    "address_councildis": "E",
    "status": "Pending",
    "rowid": "1182359",
    "final_x": "3703563.94839",
    "final_y": "561914.763231",
    "longitude": "-89.99728177498447",
    "latitude": "30.03838153312315",
    "geocoded_column": {
      "latitude": "30.03838153312315",
      "longitude": "-89.99728177498447"
    }
  },
  {
    "service_request": "2025-1182358",
    "request_type": "Trash/Recycling",
    "request_reason": "Request a Large Item Pick Up",
    "date_created": "2025-04-08T15:40:53.000",
    "date_modified": "2025-04-08T15:40:54.000",
    "request_status": "Pending",
    "responsible_agency": "Department of Sanitation",
    "final_address": "2401 Leon C Simon Dr",
    "address_councildis": "D",
    "status": "Assigned to Contractor",
    "contractor": "IV Waste",
    "rowid": "1182358",
    "final_x": "3684798.92277",
    "final_y": "557180.277595",
    "longitude": "-90.05675081966429",
    "latitude": "30.025951734813876",
    "geocoded_column": {
      "latitude": "30.025951734813876",
      "longitude": "-90.05675081966429"
    }
  },
  {
    "service_request": "2025-1182357",
    "request_type": "Trash/Recycling",
    "request_reason": "Illegal Dumping",
    "date_created": "2025-04-08T15:37:48.000",
    "date_modified": "2025-04-08T15:37:49.000",
    "request_status": "Pending",
    "responsible_agency": "Department of Sanitation",
    "final_address": "14900 BLK Curran Rd",
    "address_councildis": "E",
    "status": "Pending",
    "rowid": "1182357",
    "final_x": "3720721.34231",
    "final_y": "574246.945454",
    "longitude": "-89.94258756099329",
    "latitude": "30.07172866818216",
    "geocoded_column": {
      "latitude": "30.07172866818216",
      "longitude": "-89.94258756099329"
    }
  },
  {
    "service_request": "2025-1182356",
    "request_type": "Trash/Recycling",
    "request_reason": "Request a Large Item Pick Up",
    "date_created": "2025-04-08T15:36:24.000",
    "date_modified": "2025-04-08T15:36:26.000",
    "request_status": "Pending",
    "responsible_agency": "Department of Sanitation",
    "final_address": "4701 Warren Dr",
    "address_councildis": "E",
    "status": "Assigned to Contractor",
    "contractor": "Waste Pro",
    "rowid": "1182356",
    "final_x": "3713555.57579",
    "final_y": "556022.471065",
    "longitude": "-89.96592814742367",
    "latitude": "30.021855951178956",
    "geocoded_column": {
      "latitude": "30.021855951178956",
      "longitude": "-89.96592814742367"
    }
  },
  {
    "service_request": "2025-1182355",
    "request_type": "Trash/Recycling",
    "request_reason": "Order Recycling Cart",
    "date_created": "2025-04-08T15:35:39.000",
    "date_modified": "2025-04-08T15:35:40.000",
    "request_status": "Pending",
    "responsible_agency": "Department of Sanitation",
    "final_address": "4013 Iroquois St",
    "address_councildis": "D",
    "status": "Pending",
    "rowid": "1182355",
    "final_x": "3689182.8063",
    "final_y": "547923.73397",
    "longitude": "-90.0432276766384",
    "latitude": "30.000364633020055",
    "geocoded_column": {
      "latitude": "30.000364633020055",
      "longitude": "-90.0432276766384"
    }
  },
  {
    "service_request": "2025-1182354",
    "request_type": "Roads and Streets",
    "request_reason": "Pothole",
    "date_created": "2025-04-08T15:30:39.000",
    "date_modified": "2025-04-08T15:30:41.000",
    "request_status": "Pending",
    "responsible_agency": "Department of Public Works",
    "final_address": "ST THOMAS ST & RICHARD ST",
    "address_councildis": "B",
    "status": "Pending",
    "rowid": "1182354",
    "final_x": "3681533.3",
    "final_y": "522762.78",
    "longitude": "-90.06827046511413",
    "latitude": "29.93141524664468",
    "geocoded_column": {
      "latitude": "29.93141524664468",
      "longitude": "-90.06827046511413"
    }
  },
  {
    "service_request": "2025-1182353",
    "request_type": "Trash/Recycling",
    "request_reason": "Request a Large Item Pick Up",
    "date_created": "2025-04-08T15:30:16.000",
    "date_modified": "2025-04-08T15:30:17.000",
    "request_status": "Pending",
    "responsible_agency": "Department of Sanitation",
    "final_address": "6020 Kensington Blvd",
    "address_councildis": "E",
    "status": "Assigned to Contractor",
    "contractor": "Waste Pro",
    "rowid": "1182353",
    "final_x": "3713502.56408",
    "final_y": "561707.410079",
    "longitude": "-89.96588127903104",
    "latitude": "30.037489011804396",
    "geocoded_column": {
      "latitude": "30.037489011804396",
      "longitude": "-89.96588127903104"
    }
  },
  {
    "service_request": "2025-1182352",
    "request_type": "Trash/Recycling",
    "request_reason": "Repair Recycling Cart",
    "date_created": "2025-04-08T15:29:55.000",
    "date_modified": "2025-04-08T15:29:56.000",
    "request_status": "Pending",
    "responsible_agency": "Department of Sanitation",
    "final_address": "5863 Marcia Ave",
    "address_councildis": "A",
    "status": "Pending",
    "rowid": "1182352",
    "final_x": "3664879.04589",
    "final_y": "546819.179089",
    "longitude": "-90.12004200074693",
    "latitude": "29.99805750177402",
    "geocoded_column": {
      "latitude": "29.99805750177402",
      "longitude": "-90.12004200074693"
    }
  },
  {
    "service_request": "2025-1182351",
    "request_type": "Trash/Recycling",
    "request_reason": "Order Recycling Cart",
    "date_created": "2025-04-08T15:29:24.000",
    "date_modified": "2025-04-08T15:29:25.000",
    "request_status": "Pending",
    "responsible_agency": "Department of Sanitation",
    "final_address": "7709 Hickman St",
    "address_councildis": "E",
    "status": "Pending",
    "rowid": "1182351",
    "final_x": "3706086.26865",
    "final_y": "563572.810336",
    "longitude": "-89.98924917839862",
    "latitude": "30.042859397730165",
    "geocoded_column": {
      "latitude": "30.042859397730165",
      "longitude": "-89.98924917839862"
    }
  },
  {
    "service_request": "2025-1182350",
    "request_type": "Trash/Recycling",
    "request_reason": "Missed Trash Pick-Up",
    "date_created": "2025-04-08T15:29:08.000",
    "date_modified": "2025-04-08T15:56:53.000",
    "case_close_date": "2025-04-08T10:56:53.000",
    "request_status": "Closed",
    "responsible_agency": "Department of Sanitation",
    "final_address": "1817 S Dupre St",
    "address_councildis": "B",
    "status": "Invalid Request",
    "contractor": "IV Waste",
    "contractor_action": "Invalid",
    "rowid": "1182350",
    "final_x": "3670427.8393",
    "final_y": "529772.969345",
    "longitude": "-90.10309153889617",
    "latitude": "29.951023456357785",
    "geocoded_column": {
      "latitude": "29.951023456357785",
      "longitude": "-90.10309153889617"
    }
  },
  {
    "service_request": "2025-1182349",
    "request_type": "Trash/Recycling",
    "request_reason": "Order Trash Cart",
    "date_created": "2025-04-08T15:26:55.000",
    "date_modified": "2025-04-08T15:27:08.000",
    "request_status": "Pending",
    "responsible_agency": "Department of Sanitation",
    "final_address": "7709 Hickman St",
    "address_councildis": "E",
    "status": "Assigned to Contractor",
    "contractor": "Waste Pro",
    "rowid": "1182349",
    "final_x": "3706086.26865",
    "final_y": "563572.810336",
    "longitude": "-89.98924917839862",
    "latitude": "30.042859397730165",
    "geocoded_column": {
      "latitude": "30.042859397730165",
      "longitude": "-89.98924917839862"
    }
  },
  {
    "service_request": "2025-1182348",
    "request_type": "Trash/Recycling",
    "request_reason": "Request a Large Item Pick Up",
    "date_created": "2025-04-08T15:24:09.000",
    "date_modified": "2025-04-08T15:24:12.000",
    "request_status": "Pending",
    "responsible_agency": "Department of Sanitation",
    "final_address": "7975 Wales St",
    "address_councildis": "E",
    "status": "Assigned to Contractor",
    "contractor": "Waste Pro",
    "rowid": "1182348",
    "final_x": "3701550.0138",
    "final_y": "562129.180511",
    "longitude": "-90.00363843366422",
    "latitude": "30.039035510992612",
    "geocoded_column": {
      "latitude": "30.039035510992612",
      "longitude": "-90.00363843366422"
    }
  },
  {
    "service_request": "2025-1182347",
    "request_type": "Trash/Recycling",
    "request_reason": "Request a Large Item Pick Up",
    "date_created": "2025-04-08T15:23:34.000",
    "date_modified": "2025-04-08T15:23:37.000",
    "request_status": "Pending",
    "responsible_agency": "Department of Sanitation",
    "final_address": "4225 America St",
    "address_councildis": "E",
    "status": "Assigned to Contractor",
    "contractor": "Waste Pro",
    "rowid": "1182347",
    "final_x": "3700043.55639",
    "final_y": "552259.733782",
    "longitude": "-90.00875979222477",
    "latitude": "30.011946303525345",
    "geocoded_column": {
      "latitude": "30.011946303525345",
      "longitude": "-90.00875979222477"
    }
  },
  {
    "service_request": "2025-1182346",
    "request_type": "Trash/Recycling",
    "request_reason": "Request a Large Item Pick Up",
    "date_created": "2025-04-08T15:19:59.000",
    "date_modified": "2025-04-08T15:20:01.000",
    "request_status": "Pending",
    "responsible_agency": "Department of Sanitation",
    "final_address": "4808 Crowder Blvd",
    "address_councildis": "E",
    "status": "Assigned to Contractor",
    "contractor": "Waste Pro",
    "rowid": "1182346",
    "final_x": "3706294.75575",
    "final_y": "556030.437593",
    "longitude": "-89.98886996843993",
    "latitude": "30.02211410715172",
    "geocoded_column": {
      "latitude": "30.02211410715172",
      "longitude": "-89.98886996843993"
    }
  },
  {
    "service_request": "2025-1182345",
    "request_type": "Trash/Recycling",
    "request_reason": "Order Trash Cart",
    "date_created": "2025-04-08T15:18:33.000",
    "date_modified": "2025-04-08T15:18:36.000",
    "request_status": "Pending",
    "responsible_agency": "Department of Sanitation",
    "final_address": "3319 S Liberty St Apt A",
    "address_councildis": "B",
    "status": "Assigned to Contractor",
    "contractor": "IV Waste",
    "rowid": "1182345",
    "final_x": "3673407.4939",
    "final_y": "523954.138748",
    "longitude": "-90.09388200729595",
    "latitude": "29.934935276868703",
    "geocoded_column": {
      "latitude": "29.934935276868703",
      "longitude": "-90.09388200729595"
    }
  },
  {
    "service_request": "2025-1182344",
    "request_type": "Trash/Recycling",
    "request_reason": "Request a Large Item Pick Up",
    "date_created": "2025-04-08T15:16:51.000",
    "date_modified": "2025-04-08T15:16:53.000",
    "request_status": "Pending",
    "responsible_agency": "Department of Sanitation",
    "final_address": "1612 N Lopez St",
    "address_councildis": "A",
    "status": "Assigned to Contractor",
    "contractor": "IV Waste",
    "rowid": "1182344",
    "final_x": "3676638.55003",
    "final_y": "540658.027915",
    "longitude": "-90.08310620862764",
    "latitude": "29.980768862536685",
    "geocoded_column": {
      "latitude": "29.980768862536685",
      "longitude": "-90.08310620862764"
    }
  },
  {
    "service_request": "2025-1182343",
    "request_type": "Trash/Recycling",
    "request_reason": "Repair Trash Cart",
    "date_created": "2025-04-08T15:14:41.000",
    "date_modified": "2025-04-08T15:14:43.000",
    "request_status": "Pending",
    "responsible_agency": "Department of Sanitation",
    "final_address": "7604 Zimple St",
    "address_councildis": "A",
    "status": "Assigned to Contractor",
    "contractor": "IV Waste",
    "rowid": "1182343",
    "final_x": "3662996.55335",
    "final_y": "526915.582142",
    "longitude": "-90.12665093821458",
    "latitude": "29.94338385299006",
    "geocoded_column": {
      "latitude": "29.94338385299006",
      "longitude": "-90.12665093821458"
    }
  },
  {
    "service_request": "2025-1182342",
    "request_type": "Trash/Recycling",
    "request_reason": "Repair Trash Cart",
    "date_created": "2025-04-08T15:13:40.000",
    "date_modified": "2025-04-08T15:13:43.000",
    "request_status": "Pending",
    "responsible_agency": "Department of Sanitation",
    "final_address": "7602 Zimple St",
    "address_councildis": "A",
    "status": "Assigned to Contractor",
    "contractor": "IV Waste",
    "rowid": "1182342",
    "final_x": "3663009.63117",
    "final_y": "526902.859838",
    "longitude": "-90.12661007100039",
    "latitude": "29.943348492019815",
    "geocoded_column": {
      "latitude": "29.943348492019815",
      "longitude": "-90.12661007100039"
    }
  },
  {
    "service_request": "2025-1182341",
    "request_type": "Trash/Recycling",
    "request_reason": "Dead Animal Pick Up",
    "date_created": "2025-04-08T15:12:48.000",
    "date_modified": "2025-04-08T15:12:50.000",
    "request_status": "Pending",
    "responsible_agency": "Department of Sanitation",
    "final_address": "6700 Lamb Rd",
    "address_councildis": "D",
    "status": "Assigned to Contractor",
    "contractor": "Waste Pro",
    "rowid": "1182341",
    "final_x": "3697902.7848",
    "final_y": "556220.878234",
    "longitude": "-90.01537941711165",
    "latitude": "30.02290582301074",
    "geocoded_column": {
      "latitude": "30.02290582301074",
      "longitude": "-90.01537941711165"
    }
  },
  {
    "service_request": "2025-1182340",
    "request_type": "Trash/Recycling",
    "request_reason": "Request a Large Item Pick Up",
    "date_created": "2025-04-08T15:12:16.000",
    "date_modified": "2025-04-08T15:12:19.000",
    "request_status": "Pending",
    "responsible_agency": "Department of Sanitation",
    "final_address": "6219 Eads St",
    "address_councildis": "D",
    "status": "Assigned to Contractor",
    "contractor": "IV Waste",
    "rowid": "1182340",
    "final_x": "3686748.84745",
    "final_y": "556197.832858",
    "longitude": "-90.05062407591991",
    "latitude": "30.023190499690656",
    "geocoded_column": {
      "latitude": "30.023190499690656",
      "longitude": "-90.05062407591991"
    }
  },
  {
    "service_request": "2025-1182339",
    "request_type": "Trash/Recycling",
    "request_reason": "Request a Large Item Pick Up",
    "date_created": "2025-04-08T15:09:36.000",
    "date_modified": "2025-04-08T15:09:39.000",
    "request_status": "Pending",
    "responsible_agency": "Department of Sanitation",
    "final_address": "3733 General Taylor St",
    "address_councildis": "B",
    "status": "Assigned to Contractor",
    "contractor": "IV Waste",
    "rowid": "1182339",
    "final_x": "3670928.47604",
    "final_y": "528504.993728",
    "longitude": "-90.10155381437009",
    "latitude": "29.947522149969863",
    "geocoded_column": {
      "latitude": "29.947522149969863",
      "longitude": "-90.10155381437009"
    }
  },
  {
    "service_request": "2025-1182338",
    "request_type": "Trash/Recycling",
    "request_reason": "Request a Large Item Pick Up",
    "date_created": "2025-04-08T15:08:26.000",
    "date_modified": "2025-04-08T15:08:28.000",
    "request_status": "Pending",
    "responsible_agency": "Department of Sanitation",
    "final_address": "4025 N Rocheblave St",
    "address_councildis": "D",
    "status": "Assigned to Contractor",
    "contractor": "IV Waste",
    "rowid": "1182338",
    "final_x": "3693188.78275",
    "final_y": "540203.176011",
    "longitude": "-90.03084984867186",
    "latitude": "29.979011271572197",
    "geocoded_column": {
      "latitude": "29.979011271572197",
      "longitude": "-90.03084984867186"
    }
  },
  {
    "service_request": "2025-1182337",
    "request_type": "Trash/Recycling",
    "request_reason": "Request a Large Item Pick Up",
    "date_created": "2025-04-08T15:06:32.000",
    "date_modified": "2025-04-08T15:06:34.000",
    "request_status": "Pending",
    "responsible_agency": "Department of Sanitation",
    "final_address": "4307 Perlita St",
    "address_councildis": "D",
    "status": "Assigned to Contractor",
    "contractor": "IV Waste",
    "rowid": "1182337",
    "final_x": "3678914.89704",
    "final_y": "548155.845586",
    "longitude": "-90.07565657564197",
    "latitude": "30.001316738651425",
    "geocoded_column": {
      "latitude": "30.001316738651425",
      "longitude": "-90.07565657564197"
    }
  },
  {
    "service_request": "2025-1182336",
    "request_type": "Trash/Recycling",
    "request_reason": "Request a Large Item Pick Up",
    "date_created": "2025-04-08T15:06:18.000",
    "date_modified": "2025-04-08T15:06:20.000",
    "request_status": "Pending",
    "responsible_agency": "Department of Sanitation",
    "final_address": "107 Sharon Dr",
    "address_councildis": "A",
    "status": "Assigned to Contractor",
    "contractor": "IV Waste",
    "rowid": "1182336",
    "final_x": "3665764.35252",
    "final_y": "546950.650321",
    "longitude": "-90.11724090946142",
    "latitude": "29.99839319702899",
    "geocoded_column": {
      "latitude": "29.99839319702899",
      "longitude": "-90.11724090946142"
    }
  },
  {
    "service_request": "2025-1182335",
    "request_type": "Trash/Recycling",
    "request_reason": "Repair Recycling Cart",
    "date_created": "2025-04-08T15:05:20.000",
    "date_modified": "2025-04-08T15:05:22.000",
    "request_status": "Pending",
    "responsible_agency": "Department of Sanitation",
    "final_address": "2413 S Robertson St",
    "address_councildis": "B",
    "status": "Pending",
    "rowid": "1182335",
    "final_x": "3674830.78657",
    "final_y": "526192.82803",
    "longitude": "-90.08931195043175",
    "latitude": "29.941048530558167",
    "geocoded_column": {
      "latitude": "29.941048530558167",
      "longitude": "-90.08931195043175"
    }
  },
  {
    "service_request": "2025-1182334",
    "request_type": "Trash/Recycling",
    "request_reason": "Request a Large Item Pick Up",
    "date_created": "2025-04-08T14:56:21.000",
    "date_modified": "2025-04-08T14:56:23.000",
    "request_status": "Pending",
    "responsible_agency": "Department of Sanitation",
    "final_address": "714 Cadiz St",
    "address_councildis": "B",
    "status": "Assigned to Contractor",
    "contractor": "IV Waste",
    "rowid": "1182334",
    "final_x": "3670329.79828",
    "final_y": "518108.207926",
    "longitude": "-90.10379632220355",
    "latitude": "29.918952015110982",
    "geocoded_column": {
      "latitude": "29.918952015110982",
      "longitude": "-90.10379632220355"
    }
  },
  {
    "service_request": "2025-1182333",
    "request_type": "Roads and Streets",
    "request_reason": "Pothole",
    "date_created": "2025-04-08T14:52:54.000",
    "date_modified": "2025-04-08T14:52:56.000",
    "request_status": "Pending",
    "responsible_agency": "Department of Public Works",
    "final_address": "1511 N Dupre St",
    "address_councildis": "A",
    "status": "Pending",
    "rowid": "1182333",
    "final_x": "3677265.62696",
    "final_y": "540075.637899",
    "longitude": "-90.0811457244018",
    "latitude": "29.97914866288087",
    "geocoded_column": {
      "latitude": "29.97914866288087",
      "longitude": "-90.0811457244018"
    }
  },
  {
    "service_request": "2025-1182332",
    "request_type": "Roads and Streets",
    "request_reason": "Pothole",
    "date_created": "2025-04-08T14:52:05.000",
    "date_modified": "2025-04-08T14:52:06.000",
    "request_status": "Pending",
    "responsible_agency": "Department of Public Works",
    "final_address": "2100 Franklin Ave",
    "address_councildis": "D",
    "status": "Pending",
    "rowid": "1182332",
    "final_x": "3687548.79586",
    "final_y": "540254.409739",
    "longitude": "-90.04866123418694",
    "latitude": "29.979327221026214",
    "geocoded_column": {
      "latitude": "29.979327221026214",
      "longitude": "-90.04866123418694"
    }
  },
  {
    "service_request": "2025-1182331",
    "request_type": "Abandoned Vehicles",
    "request_reason": "Abandoned/Junk Vehicles",
    "date_created": "2025-04-08T14:48:30.000",
    "date_modified": "2025-04-08T14:48:32.000",
    "request_status": "Pending",
    "responsible_agency": "Department of Public Works",
    "final_address": "1918 Lapeyrouse St",
    "address_councildis": "D",
    "status": "Pending",
    "rowid": "1182331",
    "final_x": "3681138.55855",
    "final_y": "538465.209609",
    "longitude": "-90.06896963373336",
    "latitude": "29.974603599810543",
    "geocoded_column": {
      "latitude": "29.974603599810543",
      "longitude": "-90.06896963373336"
    }
  },
  {
    "service_request": "2025-1182330",
    "request_type": "Trash/Recycling",
    "request_reason": "Order Trash Cart",
    "date_created": "2025-04-08T14:47:20.000",
    "date_modified": "2025-04-08T14:47:22.000",
    "request_status": "Pending",
    "responsible_agency": "Department of Sanitation",
    "final_address": "4962 Kendall Dr",
    "address_councildis": "D",
    "status": "Assigned to Contractor",
    "contractor": "IV Waste",
    "rowid": "1182330",
    "final_x": "3690157.54723",
    "final_y": "551884.485206",
    "longitude": "-90.04000719433144",
    "latitude": "30.01122503396527",
    "geocoded_column": {
      "latitude": "30.01122503396527",
      "longitude": "-90.04000719433144"
    }
  },
  {
    "service_request": "2025-1182329",
    "request_type": "Abandoned Vehicles",
    "request_reason": "Abandoned/Junk Vehicles",
    "date_created": "2025-04-08T14:46:36.000",
    "date_modified": "2025-04-08T14:46:38.000",
    "request_status": "Pending",
    "responsible_agency": "Department of Public Works",
    "final_address": "1918 Lapeyrouse St",
    "address_councildis": "D",
    "status": "Pending",
    "rowid": "1182329",
    "final_x": "3681138.55855",
    "final_y": "538465.209609",
    "longitude": "-90.06896963373336",
    "latitude": "29.974603599810543",
    "geocoded_column": {
      "latitude": "29.974603599810543",
      "longitude": "-90.06896963373336"
    }
  },
  {
    "service_request": "2025-1182328",
    "request_type": "Property Maintenance",
    "request_reason": "Property Maintenance",
    "date_created": "2025-04-08T14:46:08.000",
    "date_modified": "2025-04-08T14:46:10.000",
    "request_status": "Pending",
    "responsible_agency": "Department of Code Enforcement",
    "final_address": "3003 Danneel St",
    "address_councildis": "B",
    "status": "Pending",
    "rowid": "1182328",
    "final_x": "3674401.7323",
    "final_y": "523288.668411",
    "longitude": "-90.0907659848979",
    "latitude": "29.93307584064539",
    "geocoded_column": {
      "latitude": "29.93307584064539",
      "longitude": "-90.0907659848979"
    }
  },
  {
    "service_request": "2025-1182327",
    "request_type": "Property Maintenance",
    "request_reason": "Property Maintenance",
    "date_created": "2025-04-08T14:43:11.000",
    "date_modified": "2025-04-08T14:43:13.000",
    "request_status": "Pending",
    "responsible_agency": "Department of Code Enforcement",
    "final_address": "2012 Seventh St",
    "address_councildis": "B",
    "status": "Pending",
    "rowid": "1182327",
    "final_x": "3674360.35649",
    "final_y": "523373.689147",
    "longitude": "-90.09089369532842",
    "latitude": "29.933310853726567",
    "geocoded_column": {
      "latitude": "29.933310853726567",
      "longitude": "-90.09089369532842"
    }
  },
  {
    "service_request": "2025-1182326",
    "request_type": "Trash/Recycling",
    "request_reason": "MIssed Recycling Pick-Up",
    "date_created": "2025-04-08T14:40:24.000",
    "date_modified": "2025-04-08T20:31:27.000",
    "case_close_date": "2025-04-08T15:31:26.000",
    "request_status": "Closed",
    "responsible_agency": "Department of Sanitation",
    "final_address": "12970 Chanelle Ct",
    "address_councildis": "E",
    "status": "Invalid Request",
    "contractor": "Waste Pro",
    "contractor_action": "Invalid Request",
    "rowid": "1182326",
    "final_x": "3717190.9532",
    "final_y": "567724.617956",
    "longitude": "-89.95399633127306",
    "latitude": "30.053912329621085",
    "geocoded_column": {
      "latitude": "30.053912329621085",
      "longitude": "-89.95399633127306"
    }
  },
  {
    "service_request": "2025-1182325",
    "request_type": "Trash/Recycling",
    "request_reason": "Request a Large Item Pick Up",
    "date_created": "2025-04-08T14:37:07.000",
    "date_modified": "2025-04-08T14:37:09.000",
    "request_status": "Pending",
    "responsible_agency": "Department of Sanitation",
    "final_address": "6121 Dorothea St",
    "address_councildis": "D",
    "status": "Assigned to Contractor",
    "contractor": "Waste Pro",
    "rowid": "1182325",
    "final_x": "3696138.69917",
    "final_y": "557498.598811",
    "longitude": "-90.02090725772818",
    "latitude": "30.02647474268597",
    "geocoded_column": {
      "latitude": "30.02647474268597",
      "longitude": "-90.02090725772818"
    }
  },
  {
    "service_request": "2025-1182324",
    "request_type": "Trash/Recycling",
    "request_reason": "Request a Large Item Pick Up",
    "date_created": "2025-04-08T14:36:18.000",
    "date_modified": "2025-04-08T14:36:20.000",
    "request_status": "Pending",
    "responsible_agency": "Department of Sanitation",
    "final_address": "6120 Dorothea St",
    "address_councildis": "D",
    "status": "Assigned to Contractor",
    "contractor": "Waste Pro",
    "rowid": "1182324",
    "final_x": "3696204.32278",
    "final_y": "557338.353435",
    "longitude": "-90.0207056962139",
    "latitude": "30.02603206203318",
    "geocoded_column": {
      "latitude": "30.02603206203318",
      "longitude": "-90.0207056962139"
    }
  },
  {
    "service_request": "2025-1182323",
    "request_type": "Roads and Streets",
    "request_reason": "Street Subsidence (Sinking)",
    "date_created": "2025-04-08T14:35:43.000",
    "date_modified": "2025-04-08T14:35:45.000",
    "request_status": "Pending",
    "responsible_agency": "Department of Public Works",
    "final_address": "NASHVILLE AVE & CUCULLU ST",
    "address_councildis": "A",
    "status": "Pending",
    "rowid": "1182323",
    "final_x": "3667363.6",
    "final_y": "525858.18",
    "longitude": "-90.11289856041329",
    "latitude": "29.94034916002391",
    "geocoded_column": {
      "latitude": "29.94034916002391",
      "longitude": "-90.11289856041329"
    }
  },
  {
    "service_request": "2025-1182322",
    "request_type": "Trash/Recycling",
    "request_reason": "Request a Large Item Pick Up",
    "date_created": "2025-04-08T14:34:37.000",
    "date_modified": "2025-04-08T14:34:39.000",
    "request_status": "Pending",
    "responsible_agency": "Department of Sanitation",
    "final_address": "1109 Eleonore St",
    "address_councildis": "A",
    "status": "Assigned to Contractor",
    "contractor": "IV Waste",
    "rowid": "1182322",
    "final_x": "3665506.22061",
    "final_y": "520133.279928",
    "longitude": "-90.11895418546763",
    "latitude": "29.924661767853244",
    "geocoded_column": {
      "latitude": "29.924661767853244",
      "longitude": "-90.11895418546763"
    }
  },
  {
    "service_request": "2025-1182321",
    "request_type": "Streetlights",
    "request_reason": "Streetlight Outage/Malfunction",
    "date_created": "2025-04-08T14:33:48.000",
    "date_modified": "2025-04-08T14:33:50.000",
    "request_status": "Pending",
    "responsible_agency": "Department of Public Works",
    "final_address": "423 Bellaire Dr",
    "address_councildis": "A",
    "status": "Pending",
    "contractor": "Legacy Professional Services",
    "rowid": "1182321",
    "final_x": "3664031.68013",
    "final_y": "542461.470413",
    "longitude": "-90.12286425448572",
    "latitude": "29.986099925698962",
    "geocoded_column": {
      "latitude": "29.986099925698962",
      "longitude": "-90.12286425448572"
    }
  },
  {
    "service_request": "2025-1182320",
    "request_type": "Trash/Recycling",
    "request_reason": "Request a Large Item Pick Up",
    "date_created": "2025-04-08T14:25:25.000",
    "date_modified": "2025-04-08T14:25:27.000",
    "request_status": "Pending",
    "responsible_agency": "Department of Sanitation",
    "final_address": "7222 Willow St",
    "address_councildis": "A",
    "status": "Assigned to Contractor",
    "contractor": "IV Waste",
    "rowid": "1182320",
    "final_x": "3664369.91674",
    "final_y": "527169.024063",
    "longitude": "-90.12230640128837",
    "latitude": "29.94404089744508",
    "geocoded_column": {
      "latitude": "29.94404089744508",
      "longitude": "-90.12230640128837"
    }
  },
  {
    "service_request": "2025-1182319",
    "request_type": "Abandoned Vehicles",
    "request_reason": "Abandoned/Junk Vehicles",
    "date_created": "2025-04-08T14:25:11.000",
    "date_modified": "2025-04-08T14:28:18.000",
    "request_status": "Pending",
    "responsible_agency": "Department of Public Works",
    "final_address": "1815 Henriette Delille St",
    "address_councildis": "C",
    "status": "Pending",
    "rowid": "1182319",
    "final_x": "3683747.25967",
    "final_y": "536256.760711",
    "longitude": "-90.0608081883752",
    "latitude": "29.968451724356484",
    "geocoded_column": {
      "latitude": "29.968451724356484",
      "longitude": "-90.0608081883752"
    }
  },
  {
    "service_request": "2025-1182318",
    "request_type": "Trash/Recycling",
    "request_reason": "Repair Trash Cart",
    "date_created": "2025-04-08T14:15:49.000",
    "date_modified": "2025-04-08T14:15:51.000",
    "request_status": "Pending",
    "responsible_agency": "Department of Sanitation",
    "final_address": "7 Cypress Grove Ct",
    "address_councildis": "C",
    "status": "Assigned to Contractor",
    "contractor": "Richards Disposal",
    "rowid": "1182318",
    "final_x": "3704775.66308",
    "final_y": "512220.755441",
    "longitude": "-89.99528635701827",
    "latitude": "29.901702267897317",
    "geocoded_column": {
      "latitude": "29.901702267897317",
      "longitude": "-89.99528635701827"
    }
  },
  {
    "service_request": "2025-1182317",
    "request_type": "Abandoned Vehicles",
    "request_reason": "Abandoned/Junk Vehicles",
    "date_created": "2025-04-08T14:11:40.000",
    "date_modified": "2025-04-08T14:11:42.000",
    "request_status": "Pending",
    "responsible_agency": "Department of Public Works",
    "final_address": "311 Diana St",
    "address_councildis": "C",
    "status": "Pending",
    "rowid": "1182317",
    "final_x": "3686332.20713",
    "final_y": "527476.340095",
    "longitude": "-90.05295466052385",
    "latitude": "29.94422939486491",
    "geocoded_column": {
      "latitude": "29.94422939486491",
      "longitude": "-90.05295466052385"
    }
  },
  {
    "service_request": "2025-1182316",
    "request_type": "Trash/Recycling",
    "request_reason": "Order Recycling Cart",
    "date_created": "2025-04-08T14:10:18.000",
    "date_modified": "2025-04-08T14:10:21.000",
    "request_status": "Pending",
    "responsible_agency": "Department of Sanitation",
    "final_address": "4226 General Meyer Ave",
    "address_councildis": "C",
    "status": "Pending",
    "rowid": "1182316",
    "final_x": "3699794.67447",
    "final_y": "524445.255676",
    "longitude": "-90.010560582099",
    "latitude": "29.93547446802684",
    "geocoded_column": {
      "latitude": "29.93547446802684",
      "longitude": "-90.010560582099"
    }
  },
  {
    "service_request": "2025-1182315",
    "request_type": "Graffiti Removal",
    "request_reason": "Graffiti Removal",
    "date_created": "2025-04-08T14:04:26.000",
    "date_modified": "2025-04-08T14:04:28.000",
    "request_status": "Pending",
    "responsible_agency": "Department of Code Enforcement",
    "final_address": "1935 Conti St",
    "address_councildis": "B",
    "status": "Pending",
    "rowid": "1182315",
    "final_x": "3678306.68469",
    "final_y": "534369.432453",
    "longitude": "-90.0780550958343",
    "latitude": "29.963427229398352",
    "geocoded_column": {
      "latitude": "29.963427229398352",
      "longitude": "-90.0780550958343"
    }
  },
  {
    "service_request": "2025-1182314",
    "request_type": "Abandoned Vehicles",
    "request_reason": "Abandoned/Junk Vehicles",
    "date_created": "2025-04-08T13:56:56.000",
    "date_modified": "2025-04-08T13:56:57.000",
    "request_status": "Pending",
    "responsible_agency": "Department of Public Works",
    "final_address": "1000 BLK N White St",
    "address_councildis": "A",
    "status": "Pending",
    "rowid": "1182314",
    "final_x": "3677033.17608",
    "final_y": "538291.270974",
    "longitude": "-90.08194144378629",
    "latitude": "29.974249249849745",
    "geocoded_column": {
      "latitude": "29.974249249849745",
      "longitude": "-90.08194144378629"
    }
  },
  {
    "service_request": "2025-1182313",
    "request_type": "Trash/Recycling",
    "request_reason": "Request a Large Item Pick Up",
    "date_created": "2025-04-08T13:54:25.000",
    "date_modified": "2025-04-08T13:54:27.000",
    "request_status": "Pending",
    "responsible_agency": "Department of Sanitation",
    "final_address": "7427 Pitt St",
    "address_councildis": "A",
    "status": "Assigned to Contractor",
    "contractor": "IV Waste",
    "rowid": "1182313",
    "final_x": "3661193.14042",
    "final_y": "523574.383099",
    "longitude": "-90.13245536356102",
    "latitude": "29.93424871007761",
    "geocoded_column": {
      "latitude": "29.93424871007761",
      "longitude": "-90.13245536356102"
    }
  },
  {
    "service_request": "2025-1182312",
    "request_type": "Trash/Recycling",
    "request_reason": "Replace Trash Cart",
    "date_created": "2025-04-08T13:52:37.000",
    "date_modified": "2025-04-08T13:52:39.000",
    "request_status": "Pending",
    "responsible_agency": "Department of Sanitation",
    "final_address": "4200 Orleans Ave",
    "address_councildis": "A",
    "status": "Assigned to Contractor",
    "contractor": "IV Waste",
    "rowid": "1182312",
    "final_x": "3671941.71259",
    "final_y": "540563.523147",
    "longitude": "-90.09794413733962",
    "latitude": "29.98064908278904",
    "geocoded_column": {
      "latitude": "29.98064908278904",
      "longitude": "-90.09794413733962"
    }
  },
  {
    "service_request": "2025-1182311",
    "request_type": "Trash/Recycling",
    "request_reason": "Repair Recycling Cart",
    "date_created": "2025-04-08T13:51:39.000",
    "date_modified": "2025-04-08T13:51:41.000",
    "request_status": "Pending",
    "responsible_agency": "Department of Sanitation",
    "final_address": "872 Topaz St",
    "address_councildis": "D",
    "status": "Pending",
    "rowid": "1182311",
    "final_x": "3670834.82055",
    "final_y": "556653.33513",
    "longitude": "-90.10089359946791",
    "latitude": "30.024923211704326",
    "geocoded_column": {
      "latitude": "30.024923211704326",
      "longitude": "-90.10089359946791"
    }
  },
  {
    "service_request": "2025-1182310",
    "request_type": "Abandoned Vehicles",
    "request_reason": "Abandoned/Junk Vehicles",
    "date_created": "2025-04-08T13:51:22.000",
    "date_modified": "2025-04-08T13:53:41.000",
    "request_status": "Pending",
    "responsible_agency": "Department of Public Works",
    "final_address": "2760 St Ann St",
    "address_councildis": "A",
    "status": "Pending",
    "rowid": "1182310",
    "final_x": "3676472.59048",
    "final_y": "537507.198408",
    "longitude": "-90.08373891049798",
    "latitude": "29.972110140475028",
    "geocoded_column": {
      "latitude": "29.972110140475028",
      "longitude": "-90.08373891049798"
    }
  },
  {
    "service_request": "2025-1182309",
    "request_type": "Abandoned Vehicles",
    "request_reason": "Abandoned/Junk Vehicles",
    "date_created": "2025-04-08T13:49:05.000",
    "date_modified": "2025-04-08T14:13:52.000",
    "request_status": "Pending",
    "responsible_agency": "Department of Public Works",
    "final_address": "2514 Willow St",
    "address_councildis": "B",
    "status": "Pending",
    "rowid": "1182309",
    "final_x": "3674077.07003",
    "final_y": "526774.913022",
    "longitude": "-90.09167166070456",
    "latitude": "29.942671552470475",
    "geocoded_column": {
      "latitude": "29.942671552470475",
      "longitude": "-90.09167166070456"
    }
  },
  {
    "service_request": "2025-1182308",
    "request_type": "Trash/Recycling",
    "request_reason": "Repair Trash Cart",
    "date_created": "2025-04-08T13:48:09.000",
    "date_modified": "2025-04-08T13:48:12.000",
    "request_status": "Pending",
    "responsible_agency": "Department of Sanitation",
    "final_address": "4721 Friar Tuck Dr",
    "address_councildis": "E",
    "status": "Assigned to Contractor",
    "contractor": "Waste Pro",
    "rowid": "1182308",
    "final_x": "3717846.20825",
    "final_y": "556823.773594",
    "longitude": "-89.95234051145073",
    "latitude": "30.023917727068156",
    "geocoded_column": {
      "latitude": "30.023917727068156",
      "longitude": "-89.95234051145073"
    }
  },
  {
    "service_request": "2025-1182307",
    "request_type": "Roads and Streets",
    "request_reason": "Street Subsidence (Sinking)",
    "date_created": "2025-04-08T13:47:49.000",
    "date_modified": "2025-04-08T13:47:51.000",
    "request_status": "Pending",
    "responsible_agency": "Department of Public Works",
    "final_address": "6231 Wainwright Dr",
    "address_councildis": "D",
    "status": "Pending",
    "rowid": "1182307",
    "final_x": "3681400.76751",
    "final_y": "556000.111897",
    "longitude": "-90.06752974006322",
    "latitude": "30.022810373021912",
    "geocoded_column": {
      "latitude": "30.022810373021912",
      "longitude": "-90.06752974006322"
    }
  },
  {
    "service_request": "2025-1182306",
    "request_type": "Trash/Recycling",
    "request_reason": "Request a Large Item Pick Up",
    "date_created": "2025-04-08T13:35:55.000",
    "date_modified": "2025-04-08T13:35:57.000",
    "request_status": "Pending",
    "responsible_agency": "Department of Sanitation",
    "final_address": "3422 Cleveland Ave",
    "address_councildis": "B",
    "status": "Assigned to Contractor",
    "contractor": "IV Waste",
    "rowid": "1182306",
    "final_x": "3672676.11451",
    "final_y": "536554.886599",
    "longitude": "-90.09576131754595",
    "latitude": "29.96960490095709",
    "geocoded_column": {
      "latitude": "29.96960490095709",
      "longitude": "-90.09576131754595"
    }
  },
  {
    "service_request": "2025-1182305",
    "request_type": "Trash/Recycling",
    "request_reason": "Request a Large Item Pick Up",
    "date_created": "2025-04-08T13:30:37.000",
    "date_modified": "2025-04-08T19:03:51.000",
    "case_close_date": "2025-04-08T14:03:51.000",
    "request_status": "Closed",
    "responsible_agency": "Department of Sanitation",
    "final_address": "5400 Marais St",
    "address_councildis": "E",
    "status": "Duplicate Request",
    "contractor": "Waste Pro",
    "contractor_action": "Duplicate",
    "rowid": "1182305",
    "final_x": "3697298.87056",
    "final_y": "534271.250053",
    "longitude": "-90.01808373713915",
    "latitude": "29.962571499162493",
    "geocoded_column": {
      "latitude": "29.962571499162493",
      "longitude": "-90.01808373713915"
    }
  },
  {
    "service_request": "2025-1182304",
    "request_type": "Trash/Recycling",
    "request_reason": "Request a Large Item Pick Up",
    "date_created": "2025-04-08T13:29:59.000",
    "date_modified": "2025-04-08T13:30:01.000",
    "request_status": "Pending",
    "responsible_agency": "Department of Sanitation",
    "final_address": "3422 Cleveland Ave",
    "address_councildis": "B",
    "status": "Assigned to Contractor",
    "contractor": "IV Waste",
    "rowid": "1182304",
    "final_x": "3672676.11451",
    "final_y": "536554.886599",
    "longitude": "-90.09576131754595",
    "latitude": "29.96960490095709",
    "geocoded_column": {
      "latitude": "29.96960490095709",
      "longitude": "-90.09576131754595"
    }
  },
  {
    "service_request": "2025-1182303",
    "request_type": "Trash/Recycling",
    "request_reason": "Request a Large Item Pick Up",
    "date_created": "2025-04-08T13:28:13.000",
    "date_modified": "2025-04-08T13:28:15.000",
    "request_status": "Pending",
    "responsible_agency": "Department of Sanitation",
    "final_address": "5231 Wickfield Dr",
    "address_councildis": "D",
    "status": "Assigned to Contractor",
    "contractor": "IV Waste",
    "rowid": "1182303",
    "final_x": "3681364.4966",
    "final_y": "551826.45551",
    "longitude": "-90.0677900026785",
    "latitude": "30.01133543954822",
    "geocoded_column": {
      "latitude": "30.01133543954822",
      "longitude": "-90.0677900026785"
    }
  },
  {
    "service_request": "2025-1182302",
    "request_type": "Trash/Recycling",
    "request_reason": "Request a Large Item Pick Up",
    "date_created": "2025-04-08T13:25:54.000",
    "date_modified": "2025-04-08T13:25:57.000",
    "request_status": "Pending",
    "responsible_agency": "Department of Sanitation",
    "final_address": "4734 Lynhuber Dr",
    "address_councildis": "D",
    "status": "Assigned to Contractor",
    "contractor": "Waste Pro",
    "rowid": "1182302",
    "final_x": "3697970.35632",
    "final_y": "554289.905368",
    "longitude": "-90.01523609428249",
    "latitude": "30.017594243689665",
    "geocoded_column": {
      "latitude": "30.017594243689665",
      "longitude": "-90.01523609428249"
    }
  },
  {
    "service_request": "2025-1182301",
    "request_type": "Trash/Recycling",
    "request_reason": "Return Recycling Cart",
    "date_created": "2025-04-08T13:22:09.000",
    "date_modified": "2025-04-08T13:22:11.000",
    "request_status": "Pending",
    "responsible_agency": "Department of Sanitation",
    "final_address": "2325 St Claude Ave",
    "address_councildis": "C",
    "status": "Pending",
    "rowid": "1182301",
    "final_x": "3685991.52252",
    "final_y": "536492.133959",
    "longitude": "-90.05371240794236",
    "latitude": "29.969030195882564",
    "geocoded_column": {
      "latitude": "29.969030195882564",
      "longitude": "-90.05371240794236"
    }
  },
  {
    "service_request": "2025-1182300",
    "request_type": "Trash/Recycling",
    "request_reason": "Repair Trash Cart",
    "date_created": "2025-04-08T13:19:59.000",
    "date_modified": "2025-04-08T13:20:01.000",
    "request_status": "Pending",
    "responsible_agency": "Department of Sanitation",
    "final_address": "2422 Monroe St",
    "address_councildis": "A",
    "status": "Assigned to Contractor",
    "contractor": "IV Waste",
    "rowid": "1182300",
    "final_x": "3663438.33722",
    "final_y": "533216.245764",
    "longitude": "-90.12504633690708",
    "latitude": "29.960695842833577",
    "geocoded_column": {
      "latitude": "29.960695842833577",
      "longitude": "-90.12504633690708"
    }
  },
  {
    "service_request": "2025-1182299",
    "request_type": "Trash/Recycling",
    "request_reason": "Request a Large Item Pick Up",
    "date_created": "2025-04-08T13:11:53.000",
    "date_modified": "2025-04-08T13:11:55.000",
    "request_status": "Pending",
    "responsible_agency": "Department of Sanitation",
    "final_address": "4610 Lennox Blvd",
    "address_councildis": "C",
    "status": "Assigned to Contractor",
    "contractor": "Richards Disposal",
    "rowid": "1182299",
    "final_x": "3700851.62321",
    "final_y": "513751.210866",
    "longitude": "-90.007614420725",
    "latitude": "29.906035919005962",
    "geocoded_column": {
      "latitude": "29.906035919005962",
      "longitude": "-90.007614420725"
    }
  },
  {
    "service_request": "2025-1182298",
    "request_type": "Trash/Recycling",
    "request_reason": "Request a Large Item Pick Up",
    "date_created": "2025-04-08T13:08:58.000",
    "date_modified": "2025-04-08T13:09:00.000",
    "request_status": "Pending",
    "responsible_agency": "Department of Sanitation",
    "final_address": "1929 S Rendon St",
    "address_councildis": "B",
    "status": "Assigned to Contractor",
    "contractor": "IV Waste",
    "rowid": "1182298",
    "final_x": "3669162.27732",
    "final_y": "530058.051329",
    "longitude": "-90.10707792762084",
    "latitude": "29.951844639783978",
    "geocoded_column": {
      "latitude": "29.951844639783978",
      "longitude": "-90.10707792762084"
    }
  },
  {
    "service_request": "2025-1182297",
    "request_type": "Trash/Recycling",
    "request_reason": "Request a Large Item Pick Up",
    "date_created": "2025-04-08T13:08:18.000",
    "date_modified": "2025-04-08T13:08:20.000",
    "request_status": "Pending",
    "responsible_agency": "Department of Sanitation",
    "final_address": "5411 Edenboro Rd",
    "address_councildis": "E",
    "status": "Assigned to Contractor",
    "contractor": "Waste Pro",
    "rowid": "1182297",
    "final_x": "3708380.44875",
    "final_y": "557795.508443",
    "longitude": "-89.98221399886887",
    "latitude": "30.02689990750971",
    "geocoded_column": {
      "latitude": "30.02689990750971",
      "longitude": "-89.98221399886887"
    }
  },
  {
    "service_request": "2025-1182296",
    "request_type": "Trash/Recycling",
    "request_reason": "Request a Large Item Pick Up",
    "date_created": "2025-04-08T13:07:27.000",
    "date_modified": "2025-04-08T13:07:29.000",
    "request_status": "Pending",
    "responsible_agency": "Department of Sanitation",
    "final_address": "5387 Charlotte Dr",
    "address_councildis": "D",
    "status": "Assigned to Contractor",
    "contractor": "IV Waste",
    "rowid": "1182296",
    "final_x": "3680166.8516",
    "final_y": "552305.825366",
    "longitude": "-90.07155717280224",
    "latitude": "30.012689850365504",
    "geocoded_column": {
      "latitude": "30.012689850365504",
      "longitude": "-90.07155717280224"
    }
  },
  {
    "service_request": "2025-1182295",
    "request_type": "Abandoned Vehicles",
    "request_reason": "Abandoned/Junk Vehicles",
    "date_created": "2025-04-08T13:05:15.000",
    "date_modified": "2025-04-08T13:05:17.000",
    "request_status": "Pending",
    "responsible_agency": "Department of Public Works",
    "final_address": "1900 Bartholomew St",
    "address_councildis": "D",
    "status": "Pending",
    "rowid": "1182295",
    "final_x": "3692502.82595",
    "final_y": "538358.425481",
    "longitude": "-90.0330824706568",
    "latitude": "29.973960287593517",
    "geocoded_column": {
      "latitude": "29.973960287593517",
      "longitude": "-90.0330824706568"
    }
  },
  {
    "service_request": "2025-1182294",
    "request_type": "Roads and Streets",
    "request_reason": "Pothole",
    "date_created": "2025-04-08T13:04:14.000",
    "date_modified": "2025-04-08T13:04:15.000",
    "request_status": "Pending",
    "responsible_agency": "Department of Public Works",
    "final_address": "3414 Monroe St",
    "address_councildis": "A",
    "status": "Pending",
    "rowid": "1182294",
    "final_x": "3665752.47181",
    "final_y": "535750.500871",
    "longitude": "-90.11765381863592",
    "latitude": "29.967596907713936",
    "geocoded_column": {
      "latitude": "29.967596907713936",
      "longitude": "-90.11765381863592"
    }
  },
  {
    "service_request": "2025-1182293",
    "request_type": "Trash/Recycling",
    "request_reason": "Repair Trash Cart",
    "date_created": "2025-04-08T12:59:26.000",
    "date_modified": "2025-04-08T12:59:28.000",
    "request_status": "Pending",
    "responsible_agency": "Department of Sanitation",
    "final_address": "1441 Eleonore St",
    "address_councildis": "A",
    "status": "Assigned to Contractor",
    "contractor": "IV Waste",
    "rowid": "1182293",
    "final_x": "3665781.33408",
    "final_y": "521342.836601",
    "longitude": "-90.11804524522694",
    "latitude": "29.927979647159326",
    "geocoded_column": {
      "latitude": "29.927979647159326",
      "longitude": "-90.11804524522694"
    }
  },
  {
    "service_request": "2025-1182292",
    "request_type": "Trash/Recycling",
    "request_reason": "Repair Trash Cart",
    "date_created": "2025-04-08T12:57:08.000",
    "date_modified": "2025-04-08T12:57:10.000",
    "request_status": "Pending",
    "responsible_agency": "Department of Sanitation",
    "final_address": "6748 Pontchartrain Blvd",
    "address_councildis": "A",
    "status": "Assigned to Contractor",
    "contractor": "IV Waste",
    "rowid": "1182292",
    "final_x": "3666332.46132",
    "final_y": "553044.067031",
    "longitude": "-90.11524161942717",
    "latitude": "30.015131385306784",
    "geocoded_column": {
      "latitude": "30.015131385306784",
      "longitude": "-90.11524161942717"
    }
  },
  {
    "service_request": "2025-1182291",
    "request_type": "Property Maintenance",
    "request_reason": "Property Maintenance",
    "date_created": "2025-04-08T12:56:20.000",
    "date_modified": "2025-04-08T12:56:22.000",
    "request_status": "Pending",
    "responsible_agency": "Department of Code Enforcement",
    "final_address": "2423 Elmwood Park Dr",
    "address_councildis": "C",
    "status": "Pending",
    "rowid": "1182291",
    "final_x": "3691761.50153",
    "final_y": "521128.753529",
    "longitude": "-90.03603980543329",
    "latitude": "29.92660775891264",
    "geocoded_column": {
      "latitude": "29.92660775891264",
      "longitude": "-90.03603980543329"
    }
  },
  {
    "service_request": "2025-1182290",
    "request_type": "Roads and Streets",
    "request_reason": "Curb Damage",
    "date_created": "2025-04-08T12:55:29.000",
    "date_modified": "2025-04-08T12:55:31.000",
    "request_status": "Pending",
    "responsible_agency": "Department of Public Works",
    "final_address": "2808 Constance St",
    "address_councildis": "B",
    "status": "Pending",
    "rowid": "1182290",
    "final_x": "3677206.86242",
    "final_y": "520451.181496",
    "longitude": "-90.0820082020566",
    "latitude": "29.9251897346837",
    "geocoded_column": {
      "latitude": "29.9251897346837",
      "longitude": "-90.0820082020566"
    }
  },
  {
    "service_request": "2025-1182289",
    "request_type": "Parks & Parkways",
    "request_reason": "Park Maintenance/Clean Up",
    "date_created": "2025-04-08T12:55:25.000",
    "date_modified": "2025-04-08T12:55:27.000",
    "request_status": "Pending",
    "responsible_agency": "Department of Parks & Parkway",
    "final_address": "711 Napoleon Ave",
    "address_councildis": "B",
    "status": "Pending",
    "rowid": "1182289",
    "final_x": "3671209.89953",
    "final_y": "518176.69343",
    "longitude": "-90.10101596511953",
    "latitude": "29.91911433157816",
    "geocoded_column": {
      "latitude": "29.91911433157816",
      "longitude": "-90.10101596511953"
    }
  },
  {
    "service_request": "2025-1182288",
    "request_type": "Traffic Signals",
    "request_reason": "Traffic Signal Malfunctioning or Damaged",
    "date_created": "2025-04-08T12:49:32.000",
    "date_modified": "2025-04-08T12:49:33.000",
    "request_status": "Pending",
    "responsible_agency": "Department of Public Works",
    "final_address": "SIMON BOLIVAR AVE & JACKSON AVE",
    "address_councildis": "B",
    "status": "Pending",
    "rowid": "1182288",
    "final_x": "3676268.4",
    "final_y": "525468.48",
    "longitude": "-90.08479805655436",
    "latitude": "29.93901381672783",
    "geocoded_column": {
      "latitude": "29.93901381672783",
      "longitude": "-90.08479805655436"
    }
  },
  {
    "service_request": "2025-1182287",
    "request_type": "Trash/Recycling",
    "request_reason": "Replace Trash Cart",
    "date_created": "2025-04-08T12:48:36.000",
    "date_modified": "2025-04-08T12:48:39.000",
    "request_status": "Pending",
    "responsible_agency": "Department of Sanitation",
    "final_address": "4129 Ulloa St",
    "address_councildis": "A",
    "status": "Assigned to Contractor",
    "contractor": "IV Waste",
    "rowid": "1182287",
    "final_x": "3669334.80551",
    "final_y": "536774.051976",
    "longitude": "-90.10630607933703",
    "latitude": "29.97030633909687",
    "geocoded_column": {
      "latitude": "29.97030633909687",
      "longitude": "-90.10630607933703"
    }
  },
  {
    "service_request": "2025-1182286",
    "request_type": "Trash/Recycling",
    "request_reason": "Request a Large Item Pick Up",
    "date_created": "2025-04-08T12:47:24.000",
    "date_modified": "2025-04-08T12:47:26.000",
    "request_status": "Pending",
    "responsible_agency": "Department of Sanitation",
    "final_address": "4900 Redwood St",
    "address_councildis": "E",
    "status": "Assigned to Contractor",
    "contractor": "Waste Pro",
    "rowid": "1182286",
    "final_x": "3712319.63998",
    "final_y": "557099.366042",
    "longitude": "-89.9697928518631",
    "latitude": "30.024857485147546",
    "geocoded_column": {
      "latitude": "30.024857485147546",
      "longitude": "-89.9697928518631"
    }
  },
  {
    "service_request": "2025-1182285",
    "request_type": "Safety & Permits",
    "request_reason": "Licenses & Permits",
    "date_created": "2025-04-08T12:45:35.000",
    "date_modified": "2025-04-08T15:01:35.000",
    "case_close_date": "2025-04-08T10:01:34.000",
    "request_status": "Closed",
    "responsible_agency": "Safety and Permits",
    "final_address": "4432 Allen St",
    "address_councildis": "D",
    "status": "Resolved",
    "rowid": "1182285",
    "final_x": "3681695.29237",
    "final_y": "548921.781075",
    "longitude": "-90.06684631783132",
    "latitude": "30.003338581200897",
    "geocoded_column": {
      "latitude": "30.003338581200897",
      "longitude": "-90.06684631783132"
    }
  },
  {
    "service_request": "2025-1182284",
    "request_type": "Drainage",
    "request_reason": "Street Flooding",
    "date_created": "2025-04-08T12:44:51.000",
    "date_modified": "2025-04-08T12:44:53.000",
    "request_status": "Pending",
    "responsible_agency": "Sewerage & Water Board ",
    "final_address": "2200 BLK Easter Ln",
    "address_councildis": "C",
    "status": "Pending",
    "rowid": "1182284",
    "final_x": "3699220.44798",
    "final_y": "522866.259173",
    "longitude": "-90.01243087249908",
    "latitude": "29.931150988762163",
    "geocoded_column": {
      "latitude": "29.931150988762163",
      "longitude": "-90.01243087249908"
    }
  },
  {
    "service_request": "2025-1182283",
    "request_type": "Trash/Recycling",
    "request_reason": "Request a Large Item Pick Up",
    "date_created": "2025-04-08T12:43:24.000",
    "date_modified": "2025-04-08T12:43:27.000",
    "request_status": "Pending",
    "responsible_agency": "Department of Sanitation",
    "final_address": "6151 Eastover Dr",
    "address_councildis": "E",
    "status": "Assigned to Contractor",
    "contractor": "Waste Pro",
    "rowid": "1182283",
    "final_x": "3717973.75717",
    "final_y": "564754.295778",
    "longitude": "-89.95163531784956",
    "latitude": "30.04571923083842",
    "geocoded_column": {
      "latitude": "30.04571923083842",
      "longitude": "-89.95163531784956"
    }
  },
  {
    "service_request": "2025-1182282",
    "request_type": "Streetlights",
    "request_reason": "Streetlight Outage/Malfunction",
    "date_created": "2025-04-08T12:42:19.000",
    "date_modified": "2025-04-08T12:42:21.000",
    "request_status": "Pending",
    "responsible_agency": "Department of Public Works",
    "final_address": "1800 Mardi Gras Blvd",
    "address_councildis": "C",
    "status": "Pending",
    "contractor": "Legacy Professional Services",
    "rowid": "1182282",
    "final_x": "3690720.46934",
    "final_y": "525357.596797",
    "longitude": "-90.03917527513138",
    "latitude": "29.938268014813808",
    "geocoded_column": {
      "latitude": "29.938268014813808",
      "longitude": "-90.03917527513138"
    }
  },
  {
    "service_request": "2025-1182281",
    "request_type": "Trash/Recycling",
    "request_reason": "Request a Large Item Pick Up",
    "date_created": "2025-04-08T12:41:19.000",
    "date_modified": "2025-04-08T12:41:21.000",
    "request_status": "Pending",
    "responsible_agency": "Department of Sanitation",
    "final_address": "1713 Pauline St",
    "address_councildis": "D",
    "status": "Assigned to Contractor",
    "contractor": "IV Waste",
    "rowid": "1182281",
    "final_x": "3691838.49571",
    "final_y": "537815.9938",
    "longitude": "-90.0351999744667",
    "latitude": "29.97248950454055",
    "geocoded_column": {
      "latitude": "29.97248950454055",
      "longitude": "-90.0351999744667"
    }
  },