[
  {
    "service_request": "2026-1280957",
    "request_type": "Roads and Streets",
    "request_reason": "Street Subsidence (Sinking)",
    "date_created": "2026-05-12T23:53:58.000",
    "date_modified": "2026-05-12T23:53:59.000",
    "request_status": "Pending",
    "responsible_agency": "Sewerage & Water Board",
    "final_address": "5339 Cameron Blvd",
    "address_councildis": "D",
    "status": "Pending",
    "rowid": "1280957",
    "final_x": "3682651.81832",
    "final_y": "552656.511382",
    "longitude": "-90.06369377453055",
    "latitude": "30.01357863436615",
    "geocoded_column": {
      "latitude": "30.01357863436615",
      "longitude": "-90.06369377453055"
    }
  },
  {
    "service_request": "2026-1280956",
    "request_type": "Streetlights",
    "request_reason": "Streetlight Outage/Malfunction",
    "date_created": "2026-05-12T23:53:42.000",
    "date_modified": "2026-05-12T23:53:44.000",
    "request_status": "Pending",
    "responsible_agency": "Department of Public Works",
    "final_address": "2810 Mansfield Ave",
    "address_councildis": "C",
    "status": "Pending",
    "rowid": "1280956",
    "final_x": "3709260.97278",
    "final_y": "519544.928759",
    "longitude": "-89.98085829894822",
    "latitude": "29.921696421103096",
    "geocoded_column": {
      "latitude": "29.921696421103096",
      "longitude": "-89.98085829894822"
    }
  },
  {
    "service_request": "2026-1280955",
    "request_type": "Abandoned Vehicles",
    "request_reason": "Abandoned/Junk Vehicles",
    "date_created": "2026-05-12T23:25:25.000",
    "date_modified": "2026-05-12T23:25:30.000",
    "request_status": "Pending",
    "responsible_agency": "Department of Public Works",
    "final_address": "2352 Allen Toussaint Blvd",
    "address_councildis": "D",
    "status": "Pending",
    "rowid": "1280955",
    "final_x": "3684691.98933",
    "final_y": "555726.044121",
    "longitude": "-90.05713989440225",
    "latitude": "30.021956406124993",
    "geocoded_column": {
      "latitude": "30.021956406124993",
      "longitude": "-90.05713989440225"
    }
  },
  {
    "service_request": "2026-1280954",
    "request_type": "Streetlights",
    "request_reason": "Streetlight Outage/Malfunction",
    "date_created": "2026-05-12T22:34:21.000",
    "date_modified": "2026-05-12T22:34:22.000",
    "request_status": "Pending",
    "responsible_agency": "Department of Public Works",
    "final_address": "2925 Robert St",
    "address_councildis": "B",
    "status": "Pending",
    "rowid": "1280954",
    "final_x": "3668983.09524",
    "final_y": "526234.729662",
    "longitude": "-90.10777282265109",
    "latitude": "29.941337020766696",
    "geocoded_column": {
      "latitude": "29.941337020766696",
      "longitude": "-90.10777282265109"
    }
  },
  {
    "service_request": "2026-1280953",
    "request_type": "Tree Service",
    "request_reason": "Dead or Dying Tree",
    "date_created": "2026-05-12T22:32:32.000",
    "date_modified": "2026-05-12T22:32:35.000",
    "request_status": "Pending",
    "responsible_agency": "Department of Parks & Parkways",
    "final_address": "2925 Robert St",
    "address_councildis": "B",
    "status": "Pending",
    "rowid": "1280953",
    "final_x": "3668983.09524",
    "final_y": "526234.729662",
    "longitude": "-90.10777282265109",
    "latitude": "29.941337020766696",
    "geocoded_column": {
      "latitude": "29.941337020766696",
      "longitude": "-90.10777282265109"
    }
  },
  {
    "service_request": "2026-1280952",
    "request_type": "Streetlights",
    "request_reason": "Streetlight Outage/Malfunction",
    "date_created": "2026-05-12T22:17:51.000",
    "date_modified": "2026-05-12T22:17:52.000",
    "request_status": "Pending",
    "responsible_agency": "Department of Public Works",
    "final_address": "2711 Joseph St",
    "address_councildis": "A",
    "status": "Pending",
    "rowid": "1280952",
    "final_x": "3667739.70535",
    "final_y": "525842.226749",
    "longitude": "-90.11171166829712",
    "latitude": "29.9402942734575",
    "geocoded_column": {
      "latitude": "29.9402942734575",
      "longitude": "-90.11171166829712"
    }
  },
  {
    "service_request": "2026-1280951",
    "request_type": "Streetlights",
    "request_reason": "Streetlight Outage/Malfunction",
    "date_created": "2026-05-12T22:15:57.000",
    "date_modified": "2026-05-12T22:15:59.000",
    "request_status": "Pending",
    "responsible_agency": "Department of Public Works",
    "final_address": "2711 Joseph St",
    "address_councildis": "A",
    "status": "Pending",
    "rowid": "1280951",
    "final_x": "3667739.70535",
    "final_y": "525842.226749",
    "longitude": "-90.11171166829712",
    "latitude": "29.9402942734575",
    "geocoded_column": {
      "latitude": "29.9402942734575",
      "longitude": "-90.11171166829712"
    }
  },
  {
    "service_request": "2026-1280950",
    "request_type": "Streetlights",
    "request_reason": "Streetlight Outage/Malfunction",
    "date_created": "2026-05-12T22:10:14.000",
    "date_modified": "2026-05-12T22:10:16.000",
    "request_status": "Pending",
    "responsible_agency": "Department of Public Works",
    "final_address": "55 Winners Cir",
    "address_councildis": "E",
    "status": "Pending",
    "rowid": "1280950",
    "final_x": "3715942.45752",
    "final_y": "570299.851495",
    "longitude": "-89.95784476675227",
    "latitude": "30.061034424210863",
    "geocoded_column": {
      "latitude": "30.061034424210863",
      "longitude": "-89.95784476675227"
    }
  },
  {
    "service_request": "2026-1280949",
    "request_type": "Trash/Recycling",
    "request_reason": "Request a Large Item Pick Up",
    "date_created": "2026-05-12T21:49:22.000",
    "date_modified": "2026-05-12T21:49:25.000",
    "request_status": "Pending",
    "responsible_agency": "Department of Sanitation",
    "final_address": "4842 Gabriel Dr",
    "address_councildis": "E",
    "status": "Assigned to Contractor",
    "contractor": "Waste Pro",
    "rowid": "1280949",
    "final_x": "3708759.61144",
    "final_y": "556382.21609",
    "longitude": "-89.98106859726059",
    "latitude": "30.023001607871134",
    "geocoded_column": {
      "latitude": "30.023001607871134",
      "longitude": "-89.98106859726059"
    }
  },
  {
    "service_request": "2026-1280948",
    "request_type": "Trash/Recycling",
    "request_reason": "Request a Large Item Pick Up",
    "date_created": "2026-05-12T21:35:49.000",
    "date_modified": "2026-05-12T21:35:51.000",
    "request_status": "Pending",
    "responsible_agency": "Department of Sanitation",
    "final_address": "2544 Port St",
    "address_councildis": "D",
    "status": "Assigned to Contractor",
    "contractor": "IV Waste",
    "rowid": "1280948",
    "final_x": "3688818.02851",
    "final_y": "541999.986828",
    "longitude": "-90.04459050115047",
    "latitude": "29.98408774832422",
    "geocoded_column": {
      "latitude": "29.98408774832422",
      "longitude": "-90.04459050115047"
    }
  },
  {
    "service_request": "2026-1280947",
    "request_type": "Streetlights",
    "request_reason": "Streetlight Outage/Malfunction",
    "date_created": "2026-05-12T21:16:56.000",
    "date_modified": "2026-05-12T21:16:58.000",
    "request_status": "Pending",
    "responsible_agency": "Department of Public Works",
    "final_address": "6615 Argonne Blvd",
    "address_councildis": "A",
    "status": "Pending",
    "rowid": "1280947",
    "final_x": "3670604.76263",
    "final_y": "551357.605205",
    "longitude": "-90.10180039819696",
    "latitude": "30.010368639035526",
    "geocoded_column": {
      "latitude": "30.010368639035526",
      "longitude": "-90.10180039819696"
    }
  },
  {
    "service_request": "2026-1280946",
    "request_type": "Trash/Recycling",
    "request_reason": "Request a Large Item Pick Up",
    "date_created": "2026-05-12T21:09:44.000",
    "date_modified": "2026-05-12T21:09:45.000",
    "request_status": "Pending",
    "responsible_agency": "Department of Sanitation",
    "final_address": "815 Antonine St",
    "address_councildis": "B",
    "status": "Assigned to Contractor",
    "contractor": "IV Waste",
    "rowid": "1280946",
    "final_x": "3674212.25326",
    "final_y": "518328.240374",
    "longitude": "-90.09153386967364",
    "latitude": "29.919441910319126",
    "geocoded_column": {
      "latitude": "29.919441910319126",
      "longitude": "-90.09153386967364"
    }
  },
  {
    "service_request": "2026-1280945",
    "request_type": "Streetlights",
    "request_reason": "Streetlight Outage/Malfunction",
    "date_created": "2026-05-12T21:09:38.000",
    "date_modified": "2026-05-12T21:09:40.000",
    "request_status": "Pending",
    "responsible_agency": "Department of Public Works",
    "final_address": "2800 Mansfield Ave",
    "address_councildis": "C",
    "status": "Pending",
    "rowid": "1280945",
    "final_x": "3709267.03985",
    "final_y": "519603.32556",
    "longitude": "-89.98083697221183",
    "latitude": "29.921856794918607",
    "geocoded_column": {
      "latitude": "29.921856794918607",
      "longitude": "-89.98083697221183"
    }
  },
  {
    "service_request": "2026-1280944",
    "request_type": "Streetlights",
    "request_reason": "Streetlight Outage/Malfunction",
    "date_created": "2026-05-12T21:08:16.000",
    "date_modified": "2026-05-12T21:08:17.000",
    "request_status": "Pending",
    "responsible_agency": "Department of Public Works",
    "final_address": "2800 Mansfield Ave",
    "address_councildis": "C",
    "status": "Pending",
    "rowid": "1280944",
    "final_x": "3709267.03985",
    "final_y": "519603.32556",
    "longitude": "-89.98083697221183",
    "latitude": "29.921856794918607",
    "geocoded_column": {
      "latitude": "29.921856794918607",
      "longitude": "-89.98083697221183"
    }
  },
  {
    "service_request": "2026-1280943",
    "request_type": "Streetlights",
    "request_reason": "Streetlight Outage/Malfunction",
    "date_created": "2026-05-12T21:07:00.000",
    "date_modified": "2026-05-12T21:07:03.000",
    "request_status": "Pending",
    "responsible_agency": "Department of Public Works",
    "final_address": "2800 Mansfield Ave",
    "address_councildis": "C",
    "status": "Pending",
    "rowid": "1280943",
    "final_x": "3709267.03985",
    "final_y": "519603.32556",
    "longitude": "-89.98083697221183",
    "latitude": "29.921856794918607",
    "geocoded_column": {
      "latitude": "29.921856794918607",
      "longitude": "-89.98083697221183"
    }
  },
  {
    "service_request": "2026-1280942",
    "request_type": "Mosquito, Termite & Rodent Control",
    "request_reason": "Termite Complaint",
    "date_created": "2026-05-12T20:47:10.000",
    "date_modified": "2026-05-12T20:47:12.000",
    "request_status": "Pending",
    "responsible_agency": "Mosquito, Termite & Rodent Control Board",
    "final_address": "4882 Redwood St",
    "address_councildis": "E",
    "status": "Pending",
    "rowid": "1280942",
    "final_x": "3712326.33778",
    "final_y": "557029.15625",
    "longitude": "-89.96977432817411",
    "latitude": "30.024664216759444",
    "geocoded_column": {
      "latitude": "30.024664216759444",
      "longitude": "-89.96977432817411"
    }
  },
  {
    "service_request": "2026-1280941",
    "request_type": "Trash/Recycling",
    "request_reason": "Replace Trash Cart",
    "date_created": "2026-05-12T20:46:13.000",
    "date_modified": "2026-05-12T20:46:15.000",
    "request_status": "Pending",
    "responsible_agency": "Department of Sanitation",
    "final_address": "1935 Napoleon Ave",
    "address_councildis": "B",
    "status": "Assigned to Contractor",
    "contractor": "IV Waste",
    "rowid": "1280941",
    "final_x": "3670801.73646",
    "final_y": "522235.180922",
    "longitude": "-90.10216668530292",
    "latitude": "29.930285941979566",
    "geocoded_column": {
      "latitude": "29.930285941979566",
      "longitude": "-90.10216668530292"
    }
  },
  {
    "service_request": "2026-1280940",
    "request_type": "Trash/Recycling",
    "request_reason": "Order Recycling Cart",
    "date_created": "2026-05-12T20:42:40.000",
    "date_modified": "2026-05-12T20:42:41.000",
    "request_status": "Pending",
    "responsible_agency": "Department of Sanitation",
    "final_address": "6235 Annunciation St",
    "address_councildis": "A",
    "status": "Pending",
    "rowid": "1280940",
    "final_x": "3663005.22989",
    "final_y": "518401.926582",
    "longitude": "-90.12690655512317",
    "latitude": "29.919973731605122",
    "geocoded_column": {
      "latitude": "29.919973731605122",
      "longitude": "-90.12690655512317"
    }
  },
  {
    "service_request": "2026-1280939",
    "request_type": "Abandoned Vehicles",
    "request_reason": "Abandoned/Junk Vehicles",
    "date_created": "2026-05-12T20:39:04.000",
    "date_modified": "2026-05-12T20:39:06.000",
    "request_status": "Pending",
    "responsible_agency": "Department of Public Works",
    "final_address": "1464 Camp St",
    "address_councildis": "B",
    "status": "Pending",
    "rowid": "1280939",
    "final_x": "3679884.45096",
    "final_y": "524057.939772",
    "longitude": "-90.07343072288685",
    "latitude": "29.9350264616448",
    "geocoded_column": {
      "latitude": "29.9350264616448",
      "longitude": "-90.07343072288685"
    }
  },
  {
    "service_request": "2026-1280938",
    "request_type": "Trash/Recycling",
    "request_reason": "Damaged Caused By Contractor",
    "date_created": "2026-05-12T20:24:31.000",
    "date_modified": "2026-05-12T20:24:33.000",
    "request_status": "Pending",
    "responsible_agency": "Department of Sanitation",
    "final_address": "2124 Pine St",
    "address_councildis": "A",
    "status": "Assigned to Contractor",
    "contractor": "IV Waste",
    "rowid": "1280938",
    "final_x": "3665752.69978",
    "final_y": "529540.485377",
    "longitude": "-90.11786113034742",
    "latitude": "29.950521392505987",
    "geocoded_column": {
      "latitude": "29.950521392505987",
      "longitude": "-90.11786113034742"
    }
  },
  {
    "service_request": "2026-1280937",
    "request_type": "Abandoned Vehicles",
    "request_reason": "Abandoned/Junk Vehicles",
    "date_created": "2026-05-12T20:20:39.000",
    "date_modified": "2026-05-12T20:20:40.000",
    "request_status": "Pending",
    "responsible_agency": "Department of Public Works",
    "final_address": "4736 De Montluzin St",
    "address_councildis": "D",
    "status": "Pending",
    "rowid": "1280937",
    "final_x": "3687081.32438",
    "final_y": "550559.3853",
    "longitude": "-90.04977309951882",
    "latitude": "30.007676607354803",
    "geocoded_column": {
      "latitude": "30.007676607354803",
      "longitude": "-90.04977309951882"
    }
  },
  {
    "service_request": "2026-1280936",
    "request_type": "Trash/Recycling",
    "request_reason": "Order Recycling Cart",
    "date_created": "2026-05-12T20:19:38.000",
    "date_modified": "2026-05-12T20:19:39.000",
    "request_status": "Pending",
    "responsible_agency": "Department of Sanitation",
    "final_address": "6508 General Haig St",
    "address_councildis": "A",
    "status": "Pending",
    "rowid": "1280936",
    "final_x": "3670748.89262",
    "final_y": "550632.766868",
    "longitude": "-90.10136965767869",
    "latitude": "30.008371328570256",
    "geocoded_column": {
      "latitude": "30.008371328570256",
      "longitude": "-90.10136965767869"
    }
  },
  {
    "service_request": "2026-1280935",
    "request_type": "Utility Poles",
    "request_reason": "Utility Pole Down",
    "date_created": "2026-05-12T20:18:38.000",
    "date_modified": "2026-05-12T20:18:40.000",
    "request_status": "Pending",
    "responsible_agency": "Utility Company Collective",
    "final_address": "ROUSSELIN DR & BRUXELLES ST & ST BERNARD AVE",
    "address_councildis": "D",
    "status": "Pending",
    "rowid": "1280935",
    "final_x": "3680401.1",
    "final_y": "541344.38",
    "longitude": "-90.07119854727983",
    "latitude": "29.982542673053608",
    "geocoded_column": {
      "latitude": "29.982542673053608",
      "longitude": "-90.07119854727983"
    }
  },
  {
    "service_request": "2026-1280934",
    "request_type": "Trash/Recycling",
    "request_reason": "Request a Large Item Pick Up",
    "date_created": "2026-05-12T20:11:33.000",
    "date_modified": "2026-05-12T20:11:35.000",
    "request_status": "Pending",
    "responsible_agency": "Department of Sanitation",
    "final_address": "1238 Fern St",
    "address_councildis": "A",
    "status": "Assigned to Contractor",
    "contractor": "IV Waste",
    "rowid": "1280934",
    "final_x": "3662697.58163",
    "final_y": "528084.919935",
    "longitude": "-90.12755602307341",
    "latitude": "29.946607811891823",
    "geocoded_column": {
      "latitude": "29.946607811891823",
      "longitude": "-90.12755602307341"
    }
  },
  {
    "service_request": "2026-1280933",
    "request_type": "Road Striping",
    "request_reason": "Lane Striping or other Pavement Markings",
    "date_created": "2026-05-12T20:09:39.000",
    "date_modified": "2026-05-12T20:09:40.000",
    "request_status": "Pending",
    "responsible_agency": "Department of Public Works",
    "final_address": "3001 Orleans Ave",
    "address_councildis": "A",
    "status": "Pending",
    "rowid": "1280933",
    "final_x": "3675790.84264",
    "final_y": "537839.007305",
    "longitude": "-90.08588057699302",
    "latitude": "29.973042927303297",
    "geocoded_column": {
      "latitude": "29.973042927303297",
      "longitude": "-90.08588057699302"
    }
  },
  {
    "service_request": "2026-1280932",
    "request_type": "Trash/Recycling",
    "request_reason": "Request a Large Item Pick Up",
    "date_created": "2026-05-12T20:08:26.000",
    "date_modified": "2026-05-12T20:08:28.000",
    "request_status": "Pending",
    "responsible_agency": "Department of Sanitation",
    "final_address": "4822 Nottingham Dr",
    "address_councildis": "E",
    "status": "Assigned to Contractor",
    "contractor": "Waste Pro",
    "rowid": "1280932",
    "final_x": "3716281.04607",
    "final_y": "557266.235803",
    "longitude": "-89.95726927273842",
    "latitude": "30.025186097226108",
    "geocoded_column": {
      "latitude": "30.025186097226108",
      "longitude": "-89.95726927273842"
    }
  },
  {
    "service_request": "2026-1280931",
    "request_type": "Drainage",
    "request_reason": "Catch Basin Not Draining",
    "date_created": "2026-05-12T20:02:20.000",
    "date_modified": "2026-05-12T20:02:22.000",
    "request_status": "Pending",
    "responsible_agency": "Sewerage & Water Board",
    "final_address": "ELYSIAN FIELDS AVE & SENATE ST",
    "address_councildis": "D",
    "status": "Pending",
    "rowid": "1280931",
    "final_x": "3684044.1",
    "final_y": "547718.08",
    "longitude": "-90.05946835817413",
    "latitude": "29.9999572433033",
    "geocoded_column": {
      "latitude": "29.9999572433033",
      "longitude": "-90.05946835817413"
    }
  },
  {
    "service_request": "2026-1280930",
    "request_type": "Healthy Homes",
    "request_reason": "Healthy Homes",
    "date_created": "2026-05-12T19:52:18.000",
    "date_modified": "2026-05-12T19:52:20.000",
    "request_status": "Pending",
    "responsible_agency": "Department of Code Enforcement",
    "final_address": "4428 Maple Leaf Dr",
    "address_councildis": "C",
    "status": "Pending",
    "rowid": "1280930",
    "final_x": "3706876.30334",
    "final_y": "515363.388788",
    "longitude": "-89.98854052269043",
    "latitude": "29.910275814813343",
    "geocoded_column": {
      "latitude": "29.910275814813343",
      "longitude": "-89.98854052269043"
    }
  },
  {
    "service_request": "2026-1280929",
    "request_type": "General Services",
    "request_reason": "General Service Request",
    "date_created": "2026-05-12T19:50:58.000",
    "date_modified": "2026-05-12T19:51:00.000",
    "request_status": "Pending",
    "responsible_agency": "Orleans Parish Communication District",
    "final_address": "6000 Cameron Blvd",
    "address_councildis": "D",
    "status": "Pending",
    "rowid": "1280929",
    "final_x": "3682335.17973",
    "final_y": "554725.952984",
    "longitude": "-90.0646217917031",
    "latitude": "30.019278487322882",
    "geocoded_column": {
      "latitude": "30.019278487322882",
      "longitude": "-90.0646217917031"
    }
  },
  {
    "service_request": "2026-1280928",
    "request_type": "Trash/Recycling",
    "request_reason": "Replace Trash Cart",
    "date_created": "2026-05-12T19:47:25.000",
    "date_modified": "2026-05-12T19:47:26.000",
    "request_status": "Pending",
    "responsible_agency": "Department of Sanitation",
    "final_address": "8232 Pritchard Pl",
    "address_councildis": "A",
    "status": "Assigned to Contractor",
    "contractor": "IV Waste",
    "rowid": "1280928",
    "final_x": "3665537.68468",
    "final_y": "533307.62234",
    "longitude": "-90.11841392175349",
    "latitude": "29.960886060514607",
    "geocoded_column": {
      "latitude": "29.960886060514607",
      "longitude": "-90.11841392175349"
    }
  },
  {
    "service_request": "2026-1280927",
    "request_type": "Trash/Recycling",
    "request_reason": "MIssed Recycling Pick-Up",
    "date_created": "2026-05-12T19:45:22.000",
    "date_modified": "2026-05-12T19:45:23.000",
    "request_status": "Pending",
    "responsible_agency": "Department of Sanitation",
    "final_address": "7713 Redfish St",
    "address_councildis": "E",
    "status": "Assigned to Contractor",
    "contractor": "Waste Pro",
    "rowid": "1280927",
    "final_x": "3698778.14557",
    "final_y": "560533.836702",
    "longitude": "-90.01245639422453",
    "latitude": "30.03473708801126",
    "geocoded_column": {
      "latitude": "30.03473708801126",
      "longitude": "-90.01245639422453"
    }
  },
  {
    "service_request": "2026-1280926",
    "request_type": "Streetlights",
    "request_reason": "Streetlight Outage/Malfunction",
    "date_created": "2026-05-12T19:45:00.000",
    "date_modified": "2026-05-12T19:45:02.000",
    "request_status": "Pending",
    "responsible_agency": "Department of Public Works",
    "final_address": "7431 Spruce St",
    "address_councildis": "A",
    "status": "Pending",
    "rowid": "1280926",
    "final_x": "3665083.13588",
    "final_y": "529382.918465",
    "longitude": "-90.1199805438177",
    "latitude": "29.950107647106048",
    "geocoded_column": {
      "latitude": "29.950107647106048",
      "longitude": "-90.1199805438177"
    }
  },
  {
    "service_request": "2026-1280925",
    "request_type": "Trash/Recycling",
    "request_reason": "Request a Large Item Pick Up",
    "date_created": "2026-05-12T19:44:06.000",
    "date_modified": "2026-05-12T19:44:08.000",
    "request_status": "Pending",
    "responsible_agency": "Department of Sanitation",
    "final_address": "19 Glacier Ct",
    "address_councildis": "C",
    "status": "Assigned to Contractor",
    "contractor": "Richards Disposal",
    "rowid": "1280925",
    "final_x": "3699923.02148",
    "final_y": "516003.485748",
    "longitude": "-90.01046307367973",
    "latitude": "29.912258422920562",
    "geocoded_column": {
      "latitude": "29.912258422920562",
      "longitude": "-90.01046307367973"
    }
  },
  {
    "service_request": "2026-1280924",
    "request_type": "Street and Traffic Signs",
    "request_reason": "Crosswalk Signage Damaged or Missing",
    "date_created": "2026-05-12T19:34:20.000",
    "date_modified": "2026-05-12T19:34:22.000",
    "request_status": "Pending",
    "responsible_agency": "Department of Public Works",
    "final_address": "444 N Broad St",
    "address_councildis": "B",
    "status": "Pending",
    "rowid": "1280924",
    "final_x": "3676282.39867",
    "final_y": "536181.056519",
    "longitude": "-90.08438521875135",
    "latitude": "29.968469403625093",
    "geocoded_column": {
      "latitude": "29.968469403625093",
      "longitude": "-90.08438521875135"
    }
  },
  {
    "service_request": "2026-1280923",
    "request_type": "Trash/Recycling",
    "request_reason": "Order Recycling Cart",
    "date_created": "2026-05-12T19:12:28.000",
    "date_modified": "2026-05-12T19:12:31.000",
    "request_status": "Pending",
    "responsible_agency": "Department of Sanitation",
    "final_address": "4756 Mandeville St",
    "address_councildis": "D",
    "status": "Pending",
    "rowid": "1280923",
    "final_x": "3684605.25148",
    "final_y": "550516.585172",
    "longitude": "-90.05759722900386",
    "latitude": "30.007634956198665",
    "geocoded_column": {
      "latitude": "30.007634956198665",
      "longitude": "-90.05759722900386"
    }
  },
  {
    "service_request": "2026-1280922",
    "request_type": "Trash/Recycling",
    "request_reason": "Request a Large Item Pick Up",
    "date_created": "2026-05-12T19:09:57.000",
    "date_modified": "2026-05-12T19:09:58.000",
    "request_status": "Pending",
    "responsible_agency": "Department of Sanitation",
    "final_address": "2306 Wirth Pl Apt D1",
    "address_councildis": "A",
    "status": "Assigned to Contractor",
    "contractor": "IV Waste",
    "rowid": "1280922",
    "final_x": "3667058.74983",
    "final_y": "524603.694652",
    "longitude": "-90.1139031746878",
    "latitude": "29.93690865240419",
    "geocoded_column": {
      "latitude": "29.93690865240419",
      "longitude": "-90.1139031746878"
    }
  },
  {
    "service_request": "2026-1280921",
    "request_type": "Property Maintenance",
    "request_reason": "Property Maintenance",
    "date_created": "2026-05-12T19:00:51.000",
    "date_modified": "2026-05-12T19:00:53.000",
    "request_status": "Pending",
    "responsible_agency": "Department of Code Enforcement",
    "final_address": "3521 Mansfield Ave",
    "address_councildis": "C",
    "status": "Pending",
    "rowid": "1280921",
    "final_x": "3708987.85611",
    "final_y": "517794.19167",
    "longitude": "-89.98178558721116",
    "latitude": "29.916891367299314",
    "geocoded_column": {
      "latitude": "29.916891367299314",
      "longitude": "-89.98178558721116"
    }
  },
  {
    "service_request": "2026-1280920",
    "request_type": "Property Maintenance",
    "request_reason": "Property Maintenance",
    "date_created": "2026-05-12T18:58:28.000",
    "date_modified": "2026-05-12T18:58:30.000",
    "request_status": "Pending",
    "responsible_agency": "Department of Code Enforcement",
    "final_address": "3510 Mansfield Ave",
    "address_councildis": "C",
    "status": "Pending",
    "rowid": "1280920",
    "final_x": "3709091.50174",
    "final_y": "517850.857398",
    "longitude": "-89.98145633103823",
    "latitude": "29.917043816337202",
    "geocoded_column": {
      "latitude": "29.917043816337202",
      "longitude": "-89.98145633103823"
    }
  },
  {
    "service_request": "2026-1280919",
    "request_type": "Trash/Recycling",
    "request_reason": "Replace Trash Cart",
    "date_created": "2026-05-12T18:56:38.000",
    "date_modified": "2026-05-12T18:56:40.000",
    "request_status": "Pending",
    "responsible_agency": "Department of Sanitation",
    "final_address": "4716 Raymond Joseph Dr",
    "address_councildis": "E",
    "status": "Assigned to Contractor",
    "contractor": "Waste Pro",
    "rowid": "1280919",
    "final_x": "3703651.12068",
    "final_y": "555131.960281",
    "longitude": "-89.99725623140382",
    "latitude": "30.019728665973123",
    "geocoded_column": {
      "latitude": "30.019728665973123",
      "longitude": "-89.99725623140382"
    }
  },
  {
    "service_request": "2026-1280918",
    "request_type": "Trash/Recycling",
    "request_reason": "Request a Large Item Pick Up",
    "date_created": "2026-05-12T18:41:14.000",
    "date_modified": "2026-05-12T18:41:15.000",
    "request_status": "Pending",
    "responsible_agency": "Department of Sanitation",
    "final_address": "5720 Waterford Blvd",
    "address_councildis": "E",
    "status": "Assigned to Contractor",
    "contractor": "Waste Pro",
    "rowid": "1280918",
    "final_x": "3713939.32216",
    "final_y": "560666.53987",
    "longitude": "-89.96454032957996",
    "latitude": "30.034612697033477",
    "geocoded_column": {
      "latitude": "30.034612697033477",
      "longitude": "-89.96454032957996"
    }
  },
  {
    "service_request": "2026-1280917",
    "request_type": "Trash/Recycling",
    "request_reason": "Order Second Trash Cart",
    "date_created": "2026-05-12T18:40:30.000",
    "date_modified": "2026-05-12T18:40:32.000",
    "request_status": "Pending",
    "responsible_agency": "Department of Sanitation",
    "final_address": "7825 Woodbine Dr",
    "address_councildis": "E",
    "status": "Assigned to Contractor",
    "contractor": "Waste Pro",
    "rowid": "1280917",
    "final_x": "3701807.20324",
    "final_y": "561999.355423",
    "longitude": "-90.00283041139325",
    "latitude": "30.038670333882962",
    "geocoded_column": {
      "latitude": "30.038670333882962",
      "longitude": "-90.00283041139325"
    }
  },
  {
    "service_request": "2026-1280916",
    "request_type": "Trash/Recycling",
    "request_reason": "Missed Trash Pick-Up",
    "date_created": "2026-05-12T18:36:23.000",
    "date_modified": "2026-05-12T18:36:26.000",
    "request_status": "Pending",
    "responsible_agency": "Department of Sanitation",
    "final_address": "10220 Deerfield Dr",
    "address_councildis": "E",
    "status": "Assigned to Contractor",
    "contractor": "Waste Pro",
    "rowid": "1280916",
    "final_x": "3709990.47512",
    "final_y": "563389.776288",
    "longitude": "-89.97691726561213",
    "latitude": "30.042229625686183",
    "geocoded_column": {
      "latitude": "30.042229625686183",
      "longitude": "-89.97691726561213"
    }
  },
  {
    "service_request": "2026-1280915",
    "request_type": "Roads and Streets",
    "request_reason": "Pothole",
    "date_created": "2026-05-12T18:27:20.000",
    "date_modified": "2026-05-12T18:27:21.000",
    "request_status": "Pending",
    "responsible_agency": "Department of Public Works",
    "final_address": "2300 Bartholomew St",
    "address_councildis": "D",
    "status": "Pending",
    "rowid": "1280915",
    "final_x": "3692888.81424",
    "final_y": "539879.793098",
    "longitude": "-90.03180886184332",
    "latitude": "29.978131456508645",
    "geocoded_column": {
      "latitude": "29.978131456508645",
      "longitude": "-90.03180886184332"
    }
  },
  {
    "service_request": "2026-1280914",
    "request_type": "Property Maintenance",
    "request_reason": "Property Maintenance",
    "date_created": "2026-05-12T18:22:42.000",
    "date_modified": "2026-05-12T18:22:43.000",
    "request_status": "Pending",
    "responsible_agency": "Department of Code Enforcement",
    "final_address": "2300 Bartholomew St",
    "address_councildis": "D",
    "status": "Pending",
    "rowid": "1280914",
    "final_x": "3692888.81424",
    "final_y": "539879.793098",
    "longitude": "-90.03180886184332",
    "latitude": "29.978131456508645",
    "geocoded_column": {
      "latitude": "29.978131456508645",
      "longitude": "-90.03180886184332"
    }
  },
  {
    "service_request": "2026-1280913",
    "request_type": "Trash/Recycling",
    "request_reason": "Order Second Trash Cart",
    "date_created": "2026-05-12T18:20:35.000",
    "date_modified": "2026-05-12T18:20:36.000",
    "request_status": "Pending",
    "responsible_agency": "Department of Sanitation",
    "final_address": "2608 Dryades St",
    "address_councildis": "B",
    "status": "Assigned to Contractor",
    "contractor": "IV Waste",
    "rowid": "1280913",
    "final_x": "3675767.09486",
    "final_y": "523699.165947",
    "longitude": "-90.08644152350601",
    "latitude": "29.93416379216697",
    "geocoded_column": {
      "latitude": "29.93416379216697",
      "longitude": "-90.08644152350601"
    }
  },
  {
    "service_request": "2026-1280912",
    "request_type": "Property Maintenance",
    "request_reason": "Property Maintenance",
    "date_created": "2026-05-12T18:15:23.000",
    "date_modified": "2026-05-12T18:15:25.000",
    "request_status": "Pending",
    "responsible_agency": "Department of Code Enforcement",
    "final_address": "2335 Bartholomew St",
    "address_councildis": "D",
    "status": "Pending",
    "rowid": "1280912",
    "final_x": "3693045.49872",
    "final_y": "540104.959371",
    "longitude": "-90.03130591763905",
    "latitude": "29.978745688607003",
    "geocoded_column": {
      "latitude": "29.978745688607003",
      "longitude": "-90.03130591763905"
    }
  },
  {
    "service_request": "2026-1280911",
    "request_type": "General Services",
    "request_reason": "General Service Request",
    "date_created": "2026-05-12T18:12:44.000",
    "date_modified": "2026-05-12T18:12:45.000",
    "request_status": "Pending",
    "responsible_agency": "Orleans Parish Communication District",
    "final_address": "7732 Vanderkloot Ave",
    "address_councildis": "E",
    "status": "Pending",
    "rowid": "1280911",
    "final_x": "3705613.38167",
    "final_y": "563510.02416",
    "longitude": "-89.99074600619149",
    "latitude": "30.042702004352662",
    "geocoded_column": {
      "latitude": "30.042702004352662",
      "longitude": "-89.99074600619149"
    }
  },
  {
    "service_request": "2026-1280910",
    "request_type": "Utility Poles",
    "request_reason": "Wires Sagging/Hanging Low",
    "date_created": "2026-05-12T18:10:50.000",
    "date_modified": "2026-05-12T18:10:53.000",
    "request_status": "Pending",
    "responsible_agency": "Utility Company Collective",
    "final_address": "436 Fairway Dr",
    "address_councildis": "A",
    "status": "Pending",
    "rowid": "1280910",
    "final_x": "3664188.0704",
    "final_y": "542583.169293",
    "longitude": "-90.12236621415789",
    "latitude": "29.9864300129331",
    "geocoded_column": {
      "latitude": "29.9864300129331",
      "longitude": "-90.12236621415789"
    }
  },
  {
    "service_request": "2026-1280909",
    "request_type": "Trash/Recycling",
    "request_reason": "Repair Recycling Cart",
    "date_created": "2026-05-12T18:03:52.000",
    "date_modified": "2026-05-12T18:03:55.000",
    "request_status": "Pending",
    "responsible_agency": "Department of Sanitation",
    "final_address": "2833 Chestnut St",
    "address_councildis": "B",
    "status": "Pending",
    "rowid": "1280909",
    "final_x": "3676372.01499",
    "final_y": "521309.684537",
    "longitude": "-90.08461401815946",
    "latitude": "29.92757538232393",
    "geocoded_column": {
      "latitude": "29.92757538232393",
      "longitude": "-90.08461401815946"
    }
  },
  {
    "service_request": "2026-1280908",
    "request_type": "Trash/Recycling",
    "request_reason": "Request a Large Item Pick Up",
    "date_created": "2026-05-12T17:58:45.000",
    "date_modified": "2026-05-12T17:58:47.000",
    "request_status": "Pending",
    "responsible_agency": "Department of Sanitation",
    "final_address": "3512 Robert St",
    "address_councildis": "B",
    "status": "Assigned to Contractor",
    "contractor": "IV Waste",
    "rowid": "1280908",
    "final_x": "3668904.48814",
    "final_y": "527746.705343",
    "longitude": "-90.10796995214906",
    "latitude": "29.94549677537386",
    "geocoded_column": {
      "latitude": "29.94549677537386",
      "longitude": "-90.10796995214906"
    }
  },
  {
    "service_request": "2026-1280907",
    "request_type": "Trash/Recycling",
    "request_reason": "Repair Recycling Cart",
    "date_created": "2026-05-12T17:40:17.000",
    "date_modified": "2026-05-12T17:40:19.000",
    "request_status": "Pending",
    "responsible_agency": "Department of Sanitation",
    "final_address": "7909 Belfast St",
    "address_councildis": "A",
    "status": "Pending",
    "rowid": "1280907",
    "final_x": "3666126.17268",
    "final_y": "531935.584451",
    "longitude": "-90.11660158789124",
    "latitude": "29.957096235987667",
    "geocoded_column": {
      "latitude": "29.957096235987667",
      "longitude": "-90.11660158789124"
    }
  },
  {
    "service_request": "2026-1280906",
    "request_type": "Trash/Recycling",
    "request_reason": "Request a Large Item Pick Up",
    "date_created": "2026-05-12T17:34:25.000",
    "date_modified": "2026-05-12T17:34:28.000",
    "request_status": "Pending",
    "responsible_agency": "Department of Sanitation",
    "final_address": "7531 Briarwood Dr",
    "address_councildis": "E",
    "status": "Assigned to Contractor",
    "contractor": "Waste Pro",
    "rowid": "1280906",
    "final_x": "3717864.12607",
    "final_y": "570523.259367",
    "longitude": "-89.95176196545522",
    "latitude": "30.06158513468893",
    "geocoded_column": {
      "latitude": "30.06158513468893",
      "longitude": "-89.95176196545522"
    }
  },
  {
    "service_request": "2026-1280905",
    "request_type": "Abandoned Vehicles",
    "request_reason": "Abandoned/Junk Vehicles",
    "date_created": "2026-05-12T17:30:30.000",
    "date_modified": "2026-05-12T17:30:32.000",
    "request_status": "Pending",
    "responsible_agency": "Department of Public Works",
    "final_address": "6000 Providence Pl",
    "address_councildis": "D",
    "status": "Pending",
    "rowid": "1280905",
    "final_x": "3688085.30153",
    "final_y": "555513.371033",
    "longitude": "-90.04642547221573",
    "latitude": "30.021267279615767",
    "geocoded_column": {
      "latitude": "30.021267279615767",
      "longitude": "-90.04642547221573"
    }
  },
  {
    "service_request": "2026-1280904",
    "request_type": "Tree Service",
    "request_reason": "Tree Trim",
    "date_created": "2026-05-12T17:29:23.000",
    "date_modified": "2026-05-12T17:29:24.000",
    "request_status": "Pending",
    "responsible_agency": "Department of Parks & Parkways",
    "final_address": "6142 Pratt Dr",
    "address_councildis": "D",
    "status": "Pending",
    "rowid": "1280904",
    "final_x": "3680037.29595",
    "final_y": "555310.512217",
    "longitude": "-90.07186198589349",
    "latitude": "30.020955570773527",
    "geocoded_column": {
      "latitude": "30.020955570773527",
      "longitude": "-90.07186198589349"
    }
  },
  {
    "service_request": "2026-1280903",
    "request_type": "Trash/Recycling",
    "request_reason": "Request a Large Item Pick Up",
    "date_created": "2026-05-12T17:28:12.000",
    "date_modified": "2026-05-12T17:28:13.000",
    "request_status": "Pending",
    "responsible_agency": "Department of Sanitation",
    "final_address": "614 Esplanade Ave",
    "address_councildis": "C",
    "status": "Assigned to Contractor",
    "contractor": "IV Waste",
    "rowid": "1280903",
    "final_x": "3684193.25231",
    "final_y": "534226.798277",
    "longitude": "-90.05947099322388",
    "latitude": "29.962856401929088",
    "geocoded_column": {
      "latitude": "29.962856401929088",
      "longitude": "-90.05947099322388"
    }
  },
  {
    "service_request": "2026-1280902",
    "request_type": "Trash/Recycling",
    "request_reason": "Replace Trash Cart",
    "date_created": "2026-05-12T17:15:51.000",
    "date_modified": "2026-05-12T17:15:55.000",
    "request_status": "Pending",
    "responsible_agency": "Department of Sanitation",
    "final_address": "311 40Th St",
    "address_councildis": "A",
    "status": "Assigned to Contractor",
    "contractor": "IV Waste",
    "rowid": "1280902",
    "final_x": "3665303.34317",
    "final_y": "553406.151127",
    "longitude": "-90.11848103128145",
    "latitude": "30.01615703090527",
    "geocoded_column": {
      "latitude": "30.01615703090527",
      "longitude": "-90.11848103128145"
    }
  },
  {
    "service_request": "2026-1280901",
    "request_type": "Trash/Recycling",
    "request_reason": "Replace Trash Cart",
    "date_created": "2026-05-12T17:13:49.000",
    "date_modified": "2026-05-12T17:13:50.000",
    "request_status": "Pending",
    "responsible_agency": "Department of Sanitation",
    "final_address": "3421 Hollygrove St",
    "address_councildis": "A",
    "status": "Assigned to Contractor",
    "contractor": "IV Waste",
    "rowid": "1280901",
    "final_x": "3665029.14932",
    "final_y": "536408.163591",
    "longitude": "-90.1199161031598",
    "latitude": "29.969426344072126",
    "geocoded_column": {
      "latitude": "29.969426344072126",
      "longitude": "-90.1199161031598"
    }
  },
  {
    "service_request": "2026-1280900",
    "request_type": "Trash/Recycling",
    "request_reason": "Request a Large Item Pick Up",
    "date_created": "2026-05-12T17:12:47.000",
    "date_modified": "2026-05-12T17:12:59.000",
    "request_status": "Pending",
    "responsible_agency": "Department of Sanitation",
    "final_address": "11617 N Adams Ct",
    "address_councildis": "E",
    "status": "Assigned to Contractor",
    "contractor": "Waste Pro",
    "rowid": "1280900",
    "final_x": "3718515.32229",
    "final_y": "557586.488219",
    "longitude": "-89.95019717589831",
    "latitude": "30.02599269626746",
    "geocoded_column": {
      "latitude": "30.02599269626746",
      "longitude": "-89.95019717589831"
    }
  },
  {
    "service_request": "2026-1280899",
    "request_type": "Trash/Recycling",
    "request_reason": "Request a Large Item Pick Up",
    "date_created": "2026-05-12T17:02:44.000",
    "date_modified": "2026-05-12T17:02:45.000",
    "request_status": "Pending",
    "responsible_agency": "Department of Sanitation",
    "final_address": "619 N Rendon St",
    "address_councildis": "A",
    "status": "Assigned to Contractor",
    "contractor": "IV Waste",
    "rowid": "1280899",
    "final_x": "3674740.50632",
    "final_y": "538034.612105",
    "longitude": "-90.08919104102772",
    "latitude": "29.973612173868023",
    "geocoded_column": {
      "latitude": "29.973612173868023",
      "longitude": "-90.08919104102772"
    }
  },
  {
    "service_request": "2026-1280898",
    "request_type": "Trash/Recycling",
    "request_reason": "Missed Trash Pick-Up",
    "date_created": "2026-05-12T16:55:23.000",
    "date_modified": "2026-05-12T17:31:21.000",
    "case_close_date": "2026-05-12T12:31:20.000",
    "request_status": "Closed",
    "responsible_agency": "Department of Sanitation",
    "final_address": "4146 St Peter St",
    "address_councildis": "A",
    "status": "Invalid Request",
    "contractor": "IV Waste",
    "contractor_action": "Invalid Request",
    "rowid": "1280898",
    "final_x": "3672134.95489",
    "final_y": "540202.007307",
    "longitude": "-90.0973461091735",
    "latitude": "29.97964930735143",
    "geocoded_column": {
      "latitude": "29.97964930735143",
      "longitude": "-90.0973461091735"
    }
  },
  {
    "service_request": "2026-1280897",
    "request_type": "Trash/Recycling",
    "request_reason": "Missed Trash Pick-Up",
    "date_created": "2026-05-12T16:53:41.000",
    "date_modified": "2026-05-12T16:53:43.000",
    "request_status": "Pending",
    "responsible_agency": "Department of Sanitation",
    "final_address": "11031 Roger Dr Apt C",
    "address_councildis": "E",
    "status": "Assigned to Contractor",
    "contractor": "Waste Pro",
    "rowid": "1280897",
    "final_x": "3712264.52907",
    "final_y": "563660.283425",
    "longitude": "-89.96972027701011",
    "latitude": "30.042899196611117",
    "geocoded_column": {
      "latitude": "30.042899196611117",
      "longitude": "-89.96972027701011"
    }
  },
  {
    "service_request": "2026-1280896",
    "request_type": "Utility Poles",
    "request_reason": "Wires Sagging/Hanging Low",
    "date_created": "2026-05-12T16:51:02.000",
    "date_modified": "2026-05-12T16:51:04.000",
    "request_status": "Pending",
    "responsible_agency": "Utility Company Collective",
    "final_address": "1018 General Taylor St",
    "address_councildis": "B",
    "status": "Pending",
    "rowid": "1280896",
    "final_x": "3672943.54516",
    "final_y": "519540.115511",
    "longitude": "-90.09549722966045",
    "latitude": "29.922811925865616",
    "geocoded_column": {
      "latitude": "29.922811925865616",
      "longitude": "-90.09549722966045"
    }
  },
  {
    "service_request": "2026-1280895",
    "request_type": "Trash/Recycling",
    "request_reason": "Request a Large Item Pick Up",
    "date_created": "2026-05-12T16:45:15.000",
    "date_modified": "2026-05-12T16:45:16.000",
    "request_status": "Pending",
    "responsible_agency": "Department of Sanitation",
    "final_address": "2700 N Prieur St",
    "address_councildis": "D",
    "status": "Assigned to Contractor",
    "contractor": "IV Waste",
    "rowid": "1280895",
    "final_x": "3688217.80431",
    "final_y": "539347.66465",
    "longitude": "-90.0465804080954",
    "latitude": "29.97681335149831",
    "geocoded_column": {
      "latitude": "29.97681335149831",
      "longitude": "-90.0465804080954"
    }
  },
  {
    "service_request": "2026-1280894",
    "request_type": "Drainage",
    "request_reason": "Catch Basin Not Draining",
    "date_created": "2026-05-12T16:44:23.000",
    "date_modified": "2026-05-12T16:44:25.000",
    "request_status": "Pending",
    "responsible_agency": "Sewerage & Water Board",
    "final_address": "631 Webster St",
    "address_councildis": "A",
    "status": "Pending",
    "rowid": "1280894",
    "final_x": "3664008.59066",
    "final_y": "519020.482551",
    "longitude": "-90.12371880463478",
    "latitude": "29.92164548142177",
    "geocoded_column": {
      "latitude": "29.92164548142177",
      "longitude": "-90.12371880463478"
    }
  },
  {
    "service_request": "2026-1280893",
    "request_type": "Abandoned Vehicles",
    "request_reason": "Abandoned/Junk Vehicles",
    "date_created": "2026-05-12T16:41:24.000",
    "date_modified": "2026-05-12T16:41:27.000",
    "request_status": "Pending",
    "responsible_agency": "Department of Public Works",
    "final_address": "5506 Cameron Blvd",
    "address_councildis": "D",
    "status": "Pending",
    "rowid": "1280893",
    "final_x": "3682427.43599",
    "final_y": "553005.759575",
    "longitude": "-90.06439048515433",
    "latitude": "30.014545774240172",
    "geocoded_column": {
      "latitude": "30.014545774240172",
      "longitude": "-90.06439048515433"
    }
  },
  {
    "service_request": "2026-1280892",
    "request_type": "Mosquito, Termite & Rodent Control",
    "request_reason": "Non-Rodent Complaint (Possums & Snakes)",
    "date_created": "2026-05-12T16:38:24.000",
    "date_modified": "2026-05-12T16:38:26.000",
    "request_status": "Pending",
    "responsible_agency": "Mosquito, Termite & Rodent Control Board",
    "final_address": "137 N Rendon St",
    "address_councildis": "B",
    "status": "Pending",
    "rowid": "1280892",
    "final_x": "3673774.27867",
    "final_y": "536771.837",
    "longitude": "-90.09228579382145",
    "latitude": "29.970168782348548",
    "geocoded_column": {
      "latitude": "29.970168782348548",
      "longitude": "-90.09228579382145"
    }
  },
  {
    "service_request": "2026-1280891",
    "request_type": "Trash/Recycling",
    "request_reason": "Request a Large Item Pick Up",
    "date_created": "2026-05-12T16:37:32.000",
    "date_modified": "2026-05-12T16:37:35.000",
    "request_status": "Pending",
    "responsible_agency": "Department of Sanitation",
    "final_address": "13901 Dwyer Blvd",
    "address_councildis": "E",
    "status": "Assigned to Contractor",
    "contractor": "Waste Pro",
    "rowid": "1280891",
    "final_x": "3727628.21497",
    "final_y": "562708.615008",
    "longitude": "-89.9212025833452",
    "latitude": "30.039770824421726",
    "geocoded_column": {
      "latitude": "30.039770824421726",
      "longitude": "-89.9212025833452"
    }
  },
  {
    "service_request": "2026-1280890",
    "request_type": "Property Maintenance",
    "request_reason": "Property Maintenance",
    "date_created": "2026-05-12T16:36:51.000",
    "date_modified": "2026-05-12T16:36:53.000",
    "request_status": "Pending",
    "responsible_agency": "Department of Code Enforcement",
    "final_address": "532 Washington Ave",
    "address_councildis": "B",
    "status": "Pending",
    "rowid": "1280890",
    "final_x": "3678031.04674",
    "final_y": "519267.643831",
    "longitude": "-90.07944739728362",
    "latitude": "29.92191061563066",
    "geocoded_column": {
      "latitude": "29.92191061563066",
      "longitude": "-90.07944739728362"
    }
  },
  {
    "service_request": "2026-1280889",
    "request_type": "Trash/Recycling",
    "request_reason": "Return Trash Cart",
    "date_created": "2026-05-12T16:35:21.000",
    "date_modified": "2026-05-12T16:35:22.000",
    "request_status": "Pending",
    "responsible_agency": "Department of Sanitation",
    "final_address": "4164 Bienville Ave",
    "address_councildis": "A",
    "status": "Assigned to Contractor",
    "contractor": "IV Waste",
    "rowid": "1280889",
    "final_x": "3671125.56327",
    "final_y": "539219.61761",
    "longitude": "-90.10056756545903",
    "latitude": "29.976977968919776",
    "geocoded_column": {
      "latitude": "29.976977968919776",
      "longitude": "-90.10056756545903"
    }
  },
  {
    "service_request": "2026-1280888",
    "request_type": "Property Maintenance",
    "request_reason": "Property Maintenance",
    "date_created": "2026-05-12T16:34:46.000",
    "date_modified": "2026-05-12T16:34:47.000",
    "request_status": "Pending",
    "responsible_agency": "Department of Code Enforcement",
    "final_address": "4300 St Anthony Ave",
    "address_councildis": "D",
    "status": "Pending",
    "rowid": "1280888",
    "final_x": "3682410.59708",
    "final_y": "548389.114898",
    "longitude": "-90.06460519444556",
    "latitude": "30.001852181733472",
    "geocoded_column": {
      "latitude": "30.001852181733472",
      "longitude": "-90.06460519444556"
    }
  },
  {
    "service_request": "2026-1280887",
    "request_type": "Trash/Recycling",
    "request_reason": "Order Trash Cart",
    "date_created": "2026-05-12T16:32:23.000",
    "date_modified": "2026-05-12T16:32:25.000",
    "request_status": "Pending",
    "responsible_agency": "Department of Sanitation",
    "final_address": "3109 Broadway St",
    "address_councildis": "B",
    "status": "Assigned to Contractor",
    "contractor": "IV Waste",
    "rowid": "1280887",
    "final_x": "3667995.98164",
    "final_y": "532207.057731",
    "longitude": "-90.11068814318504",
    "latitude": "29.95778797144863",
    "geocoded_column": {
      "latitude": "29.95778797144863",
      "longitude": "-90.11068814318504"
    }
  },
  {
    "service_request": "2026-1280886",
    "request_type": "Mosquito, Termite & Rodent Control",
    "request_reason": "Non-Rodent Complaint (Possums & Snakes)",
    "date_created": "2026-05-12T16:30:25.000",
    "date_modified": "2026-05-12T16:30:28.000",
    "request_status": "Pending",
    "responsible_agency": "Mosquito, Termite & Rodent Control Board",
    "final_address": "137 N Rendon St",
    "address_councildis": "B",
    "status": "Pending",
    "rowid": "1280886",
    "final_x": "3673774.27867",
    "final_y": "536771.837",
    "longitude": "-90.09228579382145",
    "latitude": "29.970168782348548",
    "geocoded_column": {
      "latitude": "29.970168782348548",
      "longitude": "-90.09228579382145"
    }
  },
  {
    "service_request": "2026-1280885",
    "request_type": "Trash/Recycling",
    "request_reason": "Request a Large Item Pick Up",
    "date_created": "2026-05-12T16:29:56.000",
    "date_modified": "2026-05-12T16:29:57.000",
    "request_status": "Pending",
    "responsible_agency": "Department of Sanitation",
    "final_address": "5141 Chamberlain Dr",
    "address_councildis": "D",
    "status": "Assigned to Contractor",
    "contractor": "IV Waste",
    "rowid": "1280885",
    "final_x": "3679645.49519",
    "final_y": "551269.805077",
    "longitude": "-90.0732403687615",
    "latitude": "30.009856943336686",
    "geocoded_column": {
      "latitude": "30.009856943336686",
      "longitude": "-90.0732403687615"
    }
  },
  {
    "service_request": "2026-1280884",
    "request_type": "Abandoned Vehicles",
    "request_reason": "Abandoned/Junk Vehicles",
    "date_created": "2026-05-12T16:26:25.000",
    "date_modified": "2026-05-12T16:26:29.000",
    "request_status": "Pending",
    "responsible_agency": "Department of Public Works",
    "final_address": "1200 BLK Saint Andrew St",
    "address_councildis": "B",
    "status": "Pending",
    "rowid": "1280884",
    "final_x": "3679153.74205",
    "final_y": "523012.049892",
    "longitude": "-90.07577380335337",
    "latitude": "29.93217268042737",
    "geocoded_column": {
      "latitude": "29.93217268042737",
      "longitude": "-90.07577380335337"
    }
  },
  {
    "service_request": "2026-1280883",
    "request_type": "Roads and Streets",
    "request_reason": "Road Shoulder Damage",
    "date_created": "2026-05-12T16:18:31.000",
    "date_modified": "2026-05-12T16:18:32.000",
    "request_status": "Pending",
    "responsible_agency": "Department of Public Works",
    "final_address": "7948 Edgelake Ct",
    "address_councildis": "E",
    "status": "Pending",
    "rowid": "1280883",
    "final_x": "3703030.11678",
    "final_y": "562325.804511",
    "longitude": "-89.99895368426877",
    "latitude": "30.03952883946492",
    "geocoded_column": {
      "latitude": "30.03952883946492",
      "longitude": "-89.99895368426877"
    }
  },
  {
    "service_request": "2026-1280882",
    "request_type": "Property Maintenance",
    "request_reason": "Property Maintenance",
    "date_created": "2026-05-12T16:18:17.000",
    "date_modified": "2026-05-12T16:18:20.000",
    "request_status": "Pending",
    "responsible_agency": "Department of Code Enforcement",
    "final_address": "4300 St Anthony Ave",
    "address_councildis": "D",
    "status": "Pending",
    "rowid": "1280882",
    "final_x": "3682410.59708",
    "final_y": "548389.114898",
    "longitude": "-90.06460519444556",
    "latitude": "30.001852181733472",
    "geocoded_column": {
      "latitude": "30.001852181733472",
      "longitude": "-90.06460519444556"
    }
  },
  {
    "service_request": "2026-1280881",
    "request_type": "Drainage",
    "request_reason": "Ditch and Culvert Maintenance",
    "date_created": "2026-05-12T16:13:53.000",
    "date_modified": "2026-05-12T16:13:55.000",
    "request_status": "Pending",
    "responsible_agency": "Department of Public Works",
    "final_address": "810 N Roman St",
    "address_councildis": "C",
    "status": "Pending",
    "rowid": "1280881",
    "final_x": "3679510.10639",
    "final_y": "535410.437062",
    "longitude": "-90.07421869819328",
    "latitude": "29.966253331797397",
    "geocoded_column": {
      "latitude": "29.966253331797397",
      "longitude": "-90.07421869819328"
    }
  },
  {
    "service_request": "2026-1280880",
    "request_type": "Trash/Recycling",
    "request_reason": "Request a Large Item Pick Up",
    "date_created": "2026-05-12T16:12:43.000",
    "date_modified": "2026-05-12T16:12:45.000",
    "request_status": "Pending",
    "responsible_agency": "Department of Sanitation",
    "final_address": "8010 Flounder St",
    "address_councildis": "E",
    "status": "Assigned to Contractor",
    "contractor": "Waste Pro",
    "rowid": "1280880",
    "final_x": "3699601.66877",
    "final_y": "561593.727135",
    "longitude": "-90.0098152668133",
    "latitude": "30.037625246665094",
    "geocoded_column": {
      "latitude": "30.037625246665094",
      "longitude": "-90.0098152668133"
    }
  },
  {
    "service_request": "2026-1280879",
    "request_type": "Property Maintenance",
    "request_reason": "Property Maintenance",
    "date_created": "2026-05-12T16:11:50.000",
    "date_modified": "2026-05-12T16:11:54.000",
    "request_status": "Pending",
    "responsible_agency": "Department of Code Enforcement",
    "final_address": "1933 Mandolin St",
    "address_councildis": "D",
    "status": "Pending",
    "rowid": "1280879",
    "final_x": "3682326.55772",
    "final_y": "548428.593106",
    "longitude": "-90.06486930292932",
    "latitude": "30.00196329099273",
    "geocoded_column": {
      "latitude": "30.00196329099273",
      "longitude": "-90.06486930292932"
    }
  },
  {
    "service_request": "2026-1280878",
    "request_type": "Street and Traffic Signs",
    "request_reason": "Traffic Signal Malfunctioning or Damaged",
    "date_created": "2026-05-12T16:10:12.000",
    "date_modified": "2026-05-12T16:10:14.000",
    "request_status": "Pending",
    "responsible_agency": "Department of Public Works",
    "final_address": "7916 Walmsley Ave",
    "address_councildis": "A",
    "status": "Pending",
    "rowid": "1280878",
    "final_x": "3666243.41281",
    "final_y": "532176.781827",
    "longitude": "-90.1162232884155",
    "latitude": "29.957756026149912",
    "geocoded_column": {
      "latitude": "29.957756026149912",
      "longitude": "-90.1162232884155"
    }
  },
  {
    "service_request": "2026-1280877",
    "request_type": "Abandoned Vehicles",
    "request_reason": "Abandoned/Junk Vehicles",
    "date_created": "2026-05-12T16:09:44.000",
    "date_modified": "2026-05-12T16:09:45.000",
    "request_status": "Pending",
    "responsible_agency": "Department of Public Works",
    "final_address": "813 N Roman St",
    "address_councildis": "C",
    "status": "Pending",
    "rowid": "1280877",
    "final_x": "3679463.08341",
    "final_y": "535444.669574",
    "longitude": "-90.07436600804044",
    "latitude": "29.96634888021928",
    "geocoded_column": {
      "latitude": "29.96634888021928",
      "longitude": "-90.07436600804044"
    }
  },
  {
    "service_request": "2026-1280876",
    "request_type": "Roads and Streets",
    "request_reason": "Street Subsidence (Sinking)",
    "date_created": "2026-05-12T16:08:23.000",
    "date_modified": "2026-05-12T16:08:25.000",
    "request_status": "Pending",
    "responsible_agency": "Sewerage & Water Board",
    "final_address": "S CARROLLTON AVE & SYCAMORE ST",
    "address_councildis": "A",
    "status": "Pending",
    "rowid": "1280876",
    "final_x": "3664417.6",
    "final_y": "530889.78",
    "longitude": "-90.12203166532024",
    "latitude": "29.954270389833674",
    "geocoded_column": {
      "latitude": "29.954270389833674",
      "longitude": "-90.12203166532024"
    }
  },
  {
    "service_request": "2026-1280875",
    "request_type": "Trash/Recycling",
    "request_reason": "Repair Recycling Cart",
    "date_created": "2026-05-12T16:08:07.000",
    "date_modified": "2026-05-12T16:08:08.000",
    "request_status": "Pending",
    "responsible_agency": "Department of Sanitation",
    "final_address": "7500 General Haig St",
    "address_councildis": "D",
    "status": "Pending",
    "rowid": "1280875",
    "final_x": "3671039.14836",
    "final_y": "556293.20137",
    "longitude": "-90.1002602010508",
    "latitude": "30.023926928628885",
    "geocoded_column": {
      "latitude": "30.023926928628885",
      "longitude": "-90.1002602010508"
    }
  },
  {
    "service_request": "2026-1280874",
    "request_type": "Parks & Grass Service",
    "request_reason": "Park Maintenance/Clean Up",
    "date_created": "2026-05-12T16:07:47.000",
    "date_modified": "2026-05-12T16:22:18.000",
    "case_close_date": "2026-05-12T11:22:17.000",
    "request_status": "Closed",
    "responsible_agency": "Department of Parks & Parkways",
    "final_address": "810 N Roman St",
    "address_councildis": "C",
    "status": "Referred to Property Owner",
    "rowid": "1280874",
    "final_x": "3679510.10639",
    "final_y": "535410.437062",
    "longitude": "-90.07421869819328",
    "latitude": "29.966253331797397",
    "geocoded_column": {
      "latitude": "29.966253331797397",
      "longitude": "-90.07421869819328"
    }
  },
  {
    "service_request": "2026-1280873",
    "request_type": "Trash/Recycling",
    "request_reason": "Request a Large Item Pick Up",
    "date_created": "2026-05-12T16:04:57.000",
    "date_modified": "2026-05-12T16:04:59.000",
    "request_status": "Pending",
    "responsible_agency": "Department of Sanitation",
    "final_address": "6200 Eastover Dr",
    "address_councildis": "E",
    "status": "Assigned to Contractor",
    "contractor": "Waste Pro",
    "rowid": "1280873",
    "final_x": "3717498.93983",
    "final_y": "564868.848546",
    "longitude": "-89.95313159758682",
    "latitude": "30.046049938574868",
    "geocoded_column": {
      "latitude": "30.046049938574868",
      "longitude": "-89.95313159758682"
    }
  },
  {
    "service_request": "2026-1280872",
    "request_type": "Utility Poles",
    "request_reason": "Wires Sagging/Hanging Low",
    "date_created": "2026-05-12T15:58:56.000",
    "date_modified": "2026-05-12T15:59:03.000",
    "request_status": "Pending",
    "responsible_agency": "Utility Company Collective",
    "final_address": "435 Fairway Dr",
    "address_councildis": "A",
    "status": "Pending",
    "rowid": "1280872",
    "final_x": "3664355.15258",
    "final_y": "542571.825805",
    "longitude": "-90.12183884170813",
    "latitude": "29.98639396580439",
    "geocoded_column": {
      "latitude": "29.98639396580439",
      "longitude": "-90.12183884170813"
    }
  },
  {
    "service_request": "2026-1280871",
    "request_type": "Trash/Recycling",
    "request_reason": "Request a Large Item Pick Up",
    "date_created": "2026-05-12T15:58:21.000",
    "date_modified": "2026-05-12T15:58:23.000",
    "request_status": "Pending",
    "responsible_agency": "Department of Sanitation",
    "final_address": "1245 Casa Calvo St",
    "address_councildis": "C",
    "status": "Assigned to Contractor",
    "contractor": "Richards Disposal",
    "rowid": "1280871",
    "final_x": "3692025.1887",
    "final_y": "526311.84275",
    "longitude": "-90.03502203337548",
    "latitude": "29.940851281218045",
    "geocoded_column": {
      "latitude": "29.940851281218045",
      "longitude": "-90.03502203337548"
    }
  },
  {
    "service_request": "2026-1280870",
    "request_type": "Trash/Recycling",
    "request_reason": "Order Recycling Cart",
    "date_created": "2026-05-12T15:53:39.000",
    "date_modified": "2026-05-12T15:53:41.000",
    "request_status": "Pending",
    "responsible_agency": "Department of Sanitation",
    "final_address": "3127 N Claiborne Ave",
    "address_councildis": "D",
    "status": "Pending",
    "rowid": "1280870",
    "final_x": "3689686.2998",
    "final_y": "537850.244745",
    "longitude": "-90.04199575068743",
    "latitude": "29.972650550257526",
    "geocoded_column": {
      "latitude": "29.972650550257526",
      "longitude": "-90.04199575068743"
    }
  },
  {
    "service_request": "2026-1280869",
    "request_type": "Abandoned Vehicles",
    "request_reason": "Abandoned/Junk Vehicles",
    "date_created": "2026-05-12T15:50:49.000",
    "date_modified": "2026-05-12T15:52:01.000",
    "request_status": "Pending",
    "responsible_agency": "Department of Public Works",
    "final_address": "2134 Bartholomew St",
    "address_councildis": "D",
    "status": "Pending",
    "rowid": "1280869",
    "final_x": "3692767.25737",
    "final_y": "539359.571594",
    "longitude": "-90.03221143718164",
    "latitude": "29.9767048291774",
    "geocoded_column": {
      "latitude": "29.9767048291774",
      "longitude": "-90.03221143718164"
    }
  },
  {
    "service_request": "2026-1280868",
    "request_type": "Property Maintenance",
    "request_reason": "Property Maintenance",
    "date_created": "2026-05-12T15:48:33.000",
    "date_modified": "2026-05-12T15:48:36.000",
    "request_status": "Pending",
    "responsible_agency": "Department of Code Enforcement",
    "final_address": "4619 Western St",
    "address_councildis": "D",
    "status": "Pending",
    "rowid": "1280868",
    "final_x": "3684226.09461",
    "final_y": "549592.340691",
    "longitude": "-90.05882757222102",
    "latitude": "30.005105220275663",
    "geocoded_column": {
      "latitude": "30.005105220275663",
      "longitude": "-90.05882757222102"
    }
  },
  {
    "service_request": "2026-1280867",
    "request_type": "Trash/Recycling",
    "request_reason": "Request a Large Item Pick Up",
    "date_created": "2026-05-12T15:48:14.000",
    "date_modified": "2026-05-12T16:45:33.000",
    "case_close_date": "2026-05-12T11:45:32.000",
    "request_status": "Closed",
    "responsible_agency": "Department of Sanitation",
    "final_address": "4851 Friar Tuck Dr",
    "address_councildis": "E",
    "status": "Duplicate Request",
    "contractor": "Waste Pro",
    "contractor_action": "Duplicate",
    "rowid": "1280867",
    "final_x": "3717769.04671",
    "final_y": "557581.736731",
    "longitude": "-89.95255546331352",
    "latitude": "30.02600437972448",
    "geocoded_column": {
      "latitude": "30.02600437972448",
      "longitude": "-89.95255546331352"
    }
  },
  {
    "service_request": "2026-1280866",
    "request_type": "Trash/Recycling",
    "request_reason": "Order Trash Cart",
    "date_created": "2026-05-12T15:46:46.000",
    "date_modified": "2026-05-12T15:46:48.000",
    "request_status": "Pending",
    "responsible_agency": "Department of Sanitation",
    "final_address": "638 Seguin St",
    "address_councildis": "C",
    "status": "Assigned to Contractor",
    "contractor": "Richards Disposal",
    "rowid": "1280866",
    "final_x": "3686888.66351",
    "final_y": "529436.816833",
    "longitude": "-90.05112851003524",
    "latitude": "29.94960292968739",
    "geocoded_column": {
      "latitude": "29.94960292968739",
      "longitude": "-90.05112851003524"
    }
  },
  {
    "service_request": "2026-1280865",
    "request_type": "Trash/Recycling",
    "request_reason": "Start Trash Service",
    "date_created": "2026-05-12T15:45:56.000",
    "date_modified": "2026-05-12T15:45:58.000",
    "request_status": "Pending",
    "responsible_agency": "Department of Sanitation",
    "final_address": "3109 Broadway St",
    "address_councildis": "B",
    "status": "Assigned to Contractor",
    "contractor": "IV Waste",
    "rowid": "1280865",
    "final_x": "3667995.98164",
    "final_y": "532207.057731",
    "longitude": "-90.11068814318504",
    "latitude": "29.95778797144863",
    "geocoded_column": {
      "latitude": "29.95778797144863",
      "longitude": "-90.11068814318504"
    }
  },
  {
    "service_request": "2026-1280864",
    "request_type": "Trash/Recycling",
    "request_reason": "Order Second Trash Cart",
    "date_created": "2026-05-12T15:43:55.000",
    "date_modified": "2026-05-12T15:43:56.000",
    "request_status": "Pending",
    "responsible_agency": "Department of Sanitation",
    "final_address": "4608 Wilson Ave",
    "address_councildis": "E",
    "status": "Assigned to Contractor",
    "contractor": "Waste Pro",
    "rowid": "1280864",
    "final_x": "3703024.74993",
    "final_y": "554168.868568",
    "longitude": "-89.9992707729986",
    "latitude": "30.01710060040338",
    "geocoded_column": {
      "latitude": "30.01710060040338",
      "longitude": "-89.9992707729986"
    }
  },
  {
    "service_request": "2026-1280863",
    "request_type": "Property Maintenance",
    "request_reason": "Property Maintenance",
    "date_created": "2026-05-12T15:43:10.000",
    "date_modified": "2026-05-12T15:43:15.000",
    "request_status": "Pending",
    "responsible_agency": "Department of Code Enforcement",
    "final_address": "3716 Buchanan St",
    "address_councildis": "D",
    "status": "Pending",
    "rowid": "1280863",
    "final_x": "3677353.89262",
    "final_y": "545855.916304",
    "longitude": "-90.0806673631031",
    "latitude": "29.995039763448787",
    "geocoded_column": {
      "latitude": "29.995039763448787",
      "longitude": "-90.0806673631031"
    }
  },
  {
    "service_request": "2026-1280862",
    "request_type": "Healthy Homes",
    "request_reason": "Healthy Homes",
    "date_created": "2026-05-12T15:42:18.000",
    "date_modified": "2026-05-12T15:43:10.000",
    "request_status": "Pending",
    "responsible_agency": "Department of Code Enforcement",
    "final_address": "2016 Simon Bolivar Ave",
    "address_councildis": "B",
    "status": "Pending",
    "rowid": "1280862",
    "final_x": "3676725.78549",
    "final_y": "525779.983357",
    "longitude": "-90.08334330686334",
    "latitude": "29.939856636776053",
    "geocoded_column": {
      "latitude": "29.939856636776053",
      "longitude": "-90.08334330686334"
    }
  },
  {
    "service_request": "2026-1280861",
    "request_type": "Property Maintenance",
    "request_reason": "Property Maintenance",
    "date_created": "2026-05-12T15:40:18.000",
    "date_modified": "2026-05-12T15:40:20.000",
    "request_status": "Pending",
    "responsible_agency": "Department of Code Enforcement",
    "final_address": "2100 St Andrew St Apt C",
    "address_councildis": "B",
    "status": "Pending",
    "rowid": "1280861",
    "final_x": "3676911.47618",
    "final_y": "525644.594237",
    "longitude": "-90.08276171911753",
    "latitude": "29.93947879000222",
    "geocoded_column": {
      "latitude": "29.93947879000222",
      "longitude": "-90.08276171911753"
    }
  },
  {
    "service_request": "2026-1280860",
    "request_type": "Roads and Streets",
    "request_reason": "Debris in Driving Lanes",
    "date_created": "2026-05-12T15:39:15.000",
    "date_modified": "2026-05-12T15:39:18.000",
    "request_status": "Pending",
    "responsible_agency": "Department of Public Works",
    "final_address": "4871 Lennox Blvd",
    "address_councildis": "C",
    "status": "Pending",
    "rowid": "1280860",
    "final_x": "3700611.49943",
    "final_y": "512423.367793",
    "longitude": "-90.00842072149607",
    "latitude": "29.902392434840337",
    "geocoded_column": {
      "latitude": "29.902392434840337",
      "longitude": "-90.00842072149607"
    }
  },
  {
    "service_request": "2026-1280859",
    "request_type": "Property Maintenance",
    "request_reason": "Property Maintenance",
    "date_created": "2026-05-12T15:37:51.000",
    "date_modified": "2026-05-12T15:37:53.000",
    "request_status": "Pending",
    "responsible_agency": "Department of Code Enforcement",
    "final_address": "2100 St Andrew St Apt A",
    "address_councildis": "B",
    "status": "Pending",
    "rowid": "1280859",
    "final_x": "3676972.43733",
    "final_y": "525668.049853",
    "longitude": "-90.08256844818295",
    "latitude": "29.939541455642104",
    "geocoded_column": {
      "latitude": "29.939541455642104",
      "longitude": "-90.08256844818295"
    }
  },
  {
    "service_request": "2026-1280858",
    "request_type": "Trash/Recycling",
    "request_reason": "Order Recycling Cart",
    "date_created": "2026-05-12T15:34:56.000",
    "date_modified": "2026-05-12T15:34:57.000",
    "request_status": "Pending",
    "responsible_agency": "Department of Sanitation",
    "final_address": "1409 Elizardi Blvd",
    "address_councildis": "C",
    "status": "Pending",
    "rowid": "1280858",
    "final_x": "3694656.1496",
    "final_y": "525995.608957",
    "longitude": "-90.02672704957475",
    "latitude": "29.939899516201827",
    "geocoded_column": {
      "latitude": "29.939899516201827",
      "longitude": "-90.02672704957475"
    }
  },
  {
    "service_request": "2026-1280857",
    "request_type": "Trash/Recycling",
    "request_reason": "Repair Trash Cart",
    "date_created": "2026-05-12T15:33:14.000",
    "date_modified": "2026-05-12T15:33:17.000",
    "request_status": "Pending",
    "responsible_agency": "Department of Sanitation",
    "final_address": "924 N Broad St",
    "address_councildis": "C",
    "status": "Assigned to Contractor",
    "contractor": "IV Waste",
    "rowid": "1280857",
    "final_x": "3677333.5453",
    "final_y": "537652.857928",
    "longitude": "-90.08101484334563",
    "latitude": "29.97248480934436",
    "geocoded_column": {
      "latitude": "29.97248480934436",
      "longitude": "-90.08101484334563"
    }
  },
  {
    "service_request": "2026-1280856",
    "request_type": "Drainage",
    "request_reason": "Catch Basin Not Draining",
    "date_created": "2026-05-12T15:32:27.000",
    "date_modified": "2026-05-12T15:32:28.000",
    "request_status": "Pending",
    "responsible_agency": "Sewerage & Water Board",
    "final_address": "1607 Marigny St",
    "address_councildis": "D",
    "status": "Pending",
    "rowid": "1280856",
    "final_x": "3685302.02044",
    "final_y": "538254.868425",
    "longitude": "-90.05582783347826",
    "latitude": "29.973898255766148",
    "geocoded_column": {
      "latitude": "29.973898255766148",
      "longitude": "-90.05582783347826"
    }
  },
  {
    "service_request": "2026-1280855",
    "request_type": "Trash/Recycling",
    "request_reason": "Request a Large Item Pick Up",
    "date_created": "2026-05-12T15:27:34.000",
    "date_modified": "2026-05-12T15:27:36.000",
    "request_status": "Pending",
    "responsible_agency": "Department of Sanitation",
    "final_address": "6408 Music St",
    "address_councildis": "D",
    "status": "Assigned to Contractor",
    "contractor": "IV Waste",
    "rowid": "1280855",
    "final_x": "3685165.60053",
    "final_y": "556747.441626",
    "longitude": "-90.05560741869428",
    "latitude": "30.02475035868542",
    "geocoded_column": {
      "latitude": "30.02475035868542",
      "longitude": "-90.05560741869428"
    }
  },
  {
    "service_request": "2026-1280854",
    "request_type": "Trash/Recycling",
    "request_reason": "Request a Large Item Pick Up",
    "date_created": "2026-05-12T15:26:08.000",
    "date_modified": "2026-05-12T16:44:54.000",
    "case_close_date": "2026-05-12T11:44:54.000",
    "request_status": "Closed",
    "responsible_agency": "Department of Sanitation",
    "final_address": "13049 Cherbourg St",
    "address_councildis": "E",
    "status": "Duplicate Request",
    "contractor": "Waste Pro",
    "contractor_action": "Duplicate",
    "rowid": "1280854",
    "final_x": "3724121.02425",
    "final_y": "561095.608478",
    "longitude": "-89.93234855600697",
    "latitude": "30.035454098333595",
    "geocoded_column": {
      "latitude": "30.035454098333595",
      "longitude": "-89.93234855600697"
    }
  },
  {
    "service_request": "2026-1280853",
    "request_type": "Trash/Recycling",
    "request_reason": "Repair Recycling Cart",
    "date_created": "2026-05-12T15:25:32.000",
    "date_modified": "2026-05-12T15:25:33.000",
    "request_status": "Pending",
    "responsible_agency": "Department of Sanitation",
    "final_address": "818 Bordeaux St",
    "address_councildis": "B",
    "status": "Pending",
    "rowid": "1280853",
    "final_x": "3669564.27969",
    "final_y": "518429.819446",
    "longitude": "-90.10620180454744",
    "latitude": "29.919858909799583",
    "geocoded_column": {
      "latitude": "29.919858909799583",
      "longitude": "-90.10620180454744"
    }
  },
  {
    "service_request": "2026-1280852",
    "request_type": "Streetlights",
    "request_reason": "Streetlight Outage/Malfunction",
    "date_created": "2026-05-12T15:22:24.000",
    "date_modified": "2026-05-12T15:22:25.000",
    "request_status": "Pending",
    "responsible_agency": "Department of Public Works",
    "final_address": "5909 West End Blvd",
    "address_councildis": "A",
    "status": "Pending",
    "rowid": "1280852",
    "final_x": "3666502.10292",
    "final_y": "547177.730449",
    "longitude": "-90.11490272082729",
    "latitude": "29.998996039350793",
    "geocoded_column": {
      "latitude": "29.998996039350793",
      "longitude": "-90.11490272082729"
    }
  },
  {
    "service_request": "2026-1280851",
    "request_type": "Trash/Recycling",
    "request_reason": "Request a Large Item Pick Up",
    "date_created": "2026-05-12T15:21:58.000",
    "date_modified": "2026-05-12T15:22:02.000",
    "request_status": "Pending",
    "responsible_agency": "Department of Sanitation",
    "final_address": "824 Spain St",
    "address_councildis": "C",
    "status": "Assigned to Contractor",
    "contractor": "IV Waste",
    "rowid": "1280851",
    "final_x": "3686175.71305",
    "final_y": "535527.933318",
    "longitude": "-90.05316474271156",
    "latitude": "29.966373322228268",
    "geocoded_column": {
      "latitude": "29.966373322228268",
      "longitude": "-90.05316474271156"
    }
  },
  {
    "service_request": "2026-1280850",
    "request_type": "Trash/Recycling",
    "request_reason": "Illegal Dumping",
    "date_created": "2026-05-12T15:16:33.000",
    "date_modified": "2026-05-12T15:16:35.000",
    "request_status": "Pending",
    "responsible_agency": "Department of Sanitation",
    "final_address": "5400 BLK N Roman St",
    "address_councildis": "E",
    "status": "Pending",
    "rowid": "1280850",
    "final_x": "3698146.97506",
    "final_y": "536516.901491",
    "longitude": "-90.01532398460682",
    "latitude": "29.968719443412212",
    "geocoded_column": {
      "latitude": "29.968719443412212",
      "longitude": "-90.01532398460682"
    }
  },
  {
    "service_request": "2026-1280849",
    "request_type": "Tree Service",
    "request_reason": "Blocking Stop Sign or Traffic Signal",
    "date_created": "2026-05-12T15:14:45.000",
    "date_modified": "2026-05-12T15:14:46.000",
    "request_status": "Pending",
    "responsible_agency": "Department of Parks & Parkways",
    "final_address": "S DERBIGNY ST & GENERAL PERSHING ST",
    "address_councildis": "B",
    "status": "Pending",
    "rowid": "1280849",
    "final_x": "3670710.9",
    "final_y": "526289.88",
    "longitude": "-90.10231592683255",
    "latitude": "29.941437738891455",
    "geocoded_column": {
      "latitude": "29.941437738891455",
      "longitude": "-90.10231592683255"
    }
  },
  {
    "service_request": "2026-1280848",
    "request_type": "Trash/Recycling",
    "request_reason": "Repair Recycling Cart",
    "date_created": "2026-05-12T15:13:56.000",
    "date_modified": "2026-05-12T15:13:58.000",
    "request_status": "Pending",
    "responsible_agency": "Department of Sanitation",
    "final_address": "8231 Aberdeen Rd",
    "address_councildis": "E",
    "status": "Pending",
    "rowid": "1280848",
    "final_x": "3703041.6049",
    "final_y": "561537.958303",
    "longitude": "-89.99894637384645",
    "latitude": "30.037362203610794",
    "geocoded_column": {
      "latitude": "30.037362203610794",
      "longitude": "-89.99894637384645"
    }
  },
  {
    "service_request": "2026-1280847",
    "request_type": "Trash/Recycling",
    "request_reason": "Repair Trash Cart",
    "date_created": "2026-05-12T15:11:36.000",
    "date_modified": "2026-05-12T15:11:38.000",
    "request_status": "Pending",
    "responsible_agency": "Department of Sanitation",
    "final_address": "8231 Aberdeen Rd",
    "address_councildis": "E",
    "status": "Assigned to Contractor",
    "contractor": "Waste Pro",
    "rowid": "1280847",
    "final_x": "3703041.6049",
    "final_y": "561537.958303",
    "longitude": "-89.99894637384645",
    "latitude": "30.037362203610794",
    "geocoded_column": {
      "latitude": "30.037362203610794",
      "longitude": "-89.99894637384645"
    }
  },
  {
    "service_request": "2026-1280846",
    "request_type": "Trash/Recycling",
    "request_reason": "Repair Trash Cart",
    "date_created": "2026-05-12T15:10:02.000",
    "date_modified": "2026-05-12T15:10:04.000",
    "request_status": "Pending",
    "responsible_agency": "Department of Sanitation",
    "final_address": "3519 Republic St",
    "address_councildis": "D",
    "status": "Assigned to Contractor",
    "contractor": "IV Waste",
    "rowid": "1280846",
    "final_x": "3680519.45103",
    "final_y": "545372.028944",
    "longitude": "-90.07068455482127",
    "latitude": "29.99361370809165",
    "geocoded_column": {
      "latitude": "29.99361370809165",
      "longitude": "-90.07068455482127"
    }
  },
  {
    "service_request": "2026-1280845",
    "request_type": "Streetlights",
    "request_reason": "Streetlight Outage/Malfunction",
    "date_created": "2026-05-12T15:10:02.000",
    "date_modified": "2026-05-12T15:10:38.000",
    "request_status": "Pending",
    "responsible_agency": "Department of Public Works",
    "final_address": "1401 Montegut St",
    "address_councildis": "C",
    "status": "Pending",
    "rowid": "1280845",
    "final_x": "3688832.07292",
    "final_y": "537469.4978",
    "longitude": "-90.04470707046484",
    "latitude": "29.97163007322997",
    "geocoded_column": {
      "latitude": "29.97163007322997",
      "longitude": "-90.04470707046484"
    }
  },
  {
    "service_request": "2026-1280844",
    "request_type": "Trash/Recycling",
    "request_reason": "Request a Large Item Pick Up",
    "date_created": "2026-05-12T15:09:39.000",
    "date_modified": "2026-05-12T15:09:41.000",
    "request_status": "Pending",
    "responsible_agency": "Department of Sanitation",
    "final_address": "2200 Broadway St",
    "address_councildis": "A",
    "status": "Assigned to Contractor",
    "contractor": "IV Waste",
    "rowid": "1280844",
    "final_x": "3666121.59629",
    "final_y": "529495.560897",
    "longitude": "-90.11669784765591",
    "latitude": "29.950387099772076",
    "geocoded_column": {
      "latitude": "29.950387099772076",
      "longitude": "-90.11669784765591"
    }
  },
  {
    "service_request": "2026-1280843",
    "request_type": "Trash/Recycling",
    "request_reason": "Replace Trash Cart",
    "date_created": "2026-05-12T15:01:57.000",
    "date_modified": "2026-05-12T15:01:59.000",
    "request_status": "Pending",
    "responsible_agency": "Department of Sanitation",
    "final_address": "919 Homer St",
    "address_councildis": "C",
    "status": "Assigned to Contractor",
    "contractor": "Richards Disposal",
    "rowid": "1280843",
    "final_x": "3688307.72361",
    "final_y": "528276.659584",
    "longitude": "-90.04668903902505",
    "latitude": "29.946369154705565",
    "geocoded_column": {
      "latitude": "29.946369154705565",
      "longitude": "-90.04668903902505"
    }
  },
  {
    "service_request": "2026-1280842",
    "request_type": "Tree Service",
    "request_reason": "Tree Trim",
    "date_created": "2026-05-12T14:59:57.000",
    "date_modified": "2026-05-12T14:59:58.000",
    "request_status": "Pending",
    "responsible_agency": "Department of Parks & Parkways",
    "final_address": "7411 Eastmore Rd",
    "address_councildis": "E",
    "status": "Pending",
    "rowid": "1280842",
    "final_x": "3700513.24381",
    "final_y": "559908.452061",
    "longitude": "-90.00699613744649",
    "latitude": "30.032962412174463",
    "geocoded_column": {
      "latitude": "30.032962412174463",
      "longitude": "-90.00699613744649"
    }
  },
  {
    "service_request": "2026-1280841",
    "request_type": "Trash/Recycling",
    "request_reason": "Request a Large Item Pick Up",
    "date_created": "2026-05-12T14:58:00.000",
    "date_modified": "2026-05-12T14:58:01.000",
    "request_status": "Pending",
    "responsible_agency": "Department of Sanitation",
    "final_address": "5700 BLK Louis Prima Dr E",
    "address_councildis": "E",
    "status": "Assigned to Contractor",
    "contractor": "Waste Pro",
    "rowid": "1280841",
    "final_x": "3715946.24392",
    "final_y": "562521.350139",
    "longitude": "-89.95812789178447",
    "latitude": "30.039646604647086",
    "geocoded_column": {
      "latitude": "30.039646604647086",
      "longitude": "-89.95812789178447"
    }
  },
  {
    "service_request": "2026-1280840",
    "request_type": "Trash/Recycling",
    "request_reason": "Request a Large Item Pick Up",
    "date_created": "2026-05-12T14:55:11.000",
    "date_modified": "2026-05-12T14:55:12.000",
    "request_status": "Pending",
    "responsible_agency": "Department of Sanitation",
    "final_address": "1819 Audubon St",
    "address_councildis": "A",
    "status": "Assigned to Contractor",
    "contractor": "IV Waste",
    "rowid": "1280840",
    "final_x": "3665735.00839",
    "final_y": "528236.248384",
    "longitude": "-90.1179606708989",
    "latitude": "29.946935678800724",
    "geocoded_column": {
      "latitude": "29.946935678800724",
      "longitude": "-90.1179606708989"
    }
  },
  {
    "service_request": "2026-1280839",
    "request_type": "Abandoned Vehicles",
    "request_reason": "Abandoned/Junk Vehicles",
    "date_created": "2026-05-12T14:53:16.000",
    "date_modified": "2026-05-12T14:53:17.000",
    "request_status": "Pending",
    "responsible_agency": "Department of Public Works",
    "final_address": "426 S Gayoso St",
    "address_councildis": "B",
    "status": "Pending",
    "rowid": "1280839",
    "final_x": "3673489.21934",
    "final_y": "534677.84007",
    "longitude": "-90.09325761175919",
    "latitude": "29.964419482870234",
    "geocoded_column": {
      "latitude": "29.964419482870234",
      "longitude": "-90.09325761175919"
    }
  },
  {
    "service_request": "2026-1280838",
    "request_type": "Trash/Recycling",
    "request_reason": "Request a Large Item Pick Up",
    "date_created": "2026-05-12T14:49:14.000",
    "date_modified": "2026-05-12T14:50:58.000",
    "request_status": "Pending",
    "responsible_agency": "Department of Sanitation",
    "final_address": "4851 Friar Tuck Dr",
    "address_councildis": "E",
    "status": "Assigned to Contractor",
    "contractor": "Waste Pro",
    "rowid": "1280838",
    "final_x": "3717769.04671",
    "final_y": "557581.736731",
    "longitude": "-89.95255546331352",
    "latitude": "30.02600437972448",
    "geocoded_column": {
      "latitude": "30.02600437972448",
      "longitude": "-89.95255546331352"
    }
  },
  {
    "service_request": "2026-1280837",
    "request_type": "Property Maintenance",
    "request_reason": "Property Maintenance",
    "date_created": "2026-05-12T14:48:43.000",
    "date_modified": "2026-05-12T14:53:31.000",
    "case_close_date": "2026-05-12T09:53:30.000",
    "request_status": "Closed",
    "responsible_agency": "Department of Code Enforcement",
    "final_address": "3716 Buchanan St",
    "address_councildis": "D",
    "status": "Referred to Code Enforcement",
    "rowid": "1280837",
    "final_x": "3677353.89262",
    "final_y": "545855.916304",
    "longitude": "-90.0806673631031",
    "latitude": "29.995039763448787",
    "geocoded_column": {
      "latitude": "29.995039763448787",
      "longitude": "-90.0806673631031"
    }
  },
  {
    "service_request": "2026-1280836",
    "request_type": "Trash/Recycling",
    "request_reason": "Request a Large Item Pick Up",
    "date_created": "2026-05-12T14:44:41.000",
    "date_modified": "2026-05-12T14:44:43.000",
    "request_status": "Pending",
    "responsible_agency": "Department of Sanitation",
    "final_address": "2200 Laharpe St",
    "address_councildis": "D",
    "status": "Assigned to Contractor",
    "contractor": "IV Waste",
    "rowid": "1280836",
    "final_x": "3680223.23215",
    "final_y": "538764.963977",
    "longitude": "-90.07185003509076",
    "latitude": "29.97545556063277",
    "geocoded_column": {
      "latitude": "29.97545556063277",
      "longitude": "-90.07185003509076"
    }
  },
  {
    "service_request": "2026-1280835",
    "request_type": "Property Maintenance",
    "request_reason": "Property Maintenance",
    "date_created": "2026-05-12T14:44:34.000",
    "date_modified": "2026-05-12T14:55:46.000",
    "case_close_date": "2026-05-12T09:55:45.000",
    "request_status": "Closed",
    "responsible_agency": "Department of Code Enforcement",
    "final_address": "3716 Buchanan St",
    "address_councildis": "D",
    "status": "Referred to Code Enforcement",
    "rowid": "1280835",
    "final_x": "3677353.89262",
    "final_y": "545855.916304",
    "longitude": "-90.0806673631031",
    "latitude": "29.995039763448787",
    "geocoded_column": {
      "latitude": "29.995039763448787",
      "longitude": "-90.0806673631031"
    }
  },
  {
    "service_request": "2026-1280834",
    "request_type": "Trash/Recycling",
    "request_reason": "Request a Large Item Pick Up",
    "date_created": "2026-05-12T14:41:56.000",
    "date_modified": "2026-05-12T14:41:58.000",
    "request_status": "Pending",
    "responsible_agency": "Department of Sanitation",
    "final_address": "6054 Wildair Dr",
    "address_councildis": "D",
    "status": "Assigned to Contractor",
    "contractor": "IV Waste",
    "rowid": "1280834",
    "final_x": "3681407.29768",
    "final_y": "555290.029465",
    "longitude": "-90.06753389215568",
    "latitude": "30.020857708066565",
    "geocoded_column": {
      "latitude": "30.020857708066565",
      "longitude": "-90.06753389215568"
    }
  },
  {
    "service_request": "2026-1280833",
    "request_type": "Trash/Recycling",
    "request_reason": "Request a Large Item Pick Up",
    "date_created": "2026-05-12T14:36:06.000",
    "date_modified": "2026-05-12T14:36:07.000",
    "request_status": "Pending",
    "responsible_agency": "Department of Sanitation",
    "final_address": "7432 Ligustrum Dr",
    "address_councildis": "E",
    "status": "Assigned to Contractor",
    "contractor": "Waste Pro",
    "rowid": "1280833",
    "final_x": "3701629.38455",
    "final_y": "560645.170974",
    "longitude": "-90.00344203315537",
    "latitude": "30.034952531323203",
    "geocoded_column": {
      "latitude": "30.034952531323203",
      "longitude": "-90.00344203315537"
    }
  },
  {
    "service_request": "2026-1280832",
    "request_type": "Trash/Recycling",
    "request_reason": "Request a Large Item Pick Up",
    "date_created": "2026-05-12T14:33:41.000",
    "date_modified": "2026-05-12T14:33:42.000",
    "request_status": "Pending",
    "responsible_agency": "Department of Sanitation",
    "final_address": "7701 Doyle Ct",
    "address_councildis": "E",
    "status": "Assigned to Contractor",
    "contractor": "Waste Pro",
    "rowid": "1280832",
    "final_x": "3700510.43908",
    "final_y": "560934.506462",
    "longitude": "-90.00696746800898",
    "latitude": "30.035783752689582",
    "geocoded_column": {
      "latitude": "30.035783752689582",
      "longitude": "-90.00696746800898"
    }
  },
  {
    "service_request": "2026-1280831",
    "request_type": "Property Maintenance",
    "request_reason": "Property Maintenance",
    "date_created": "2026-05-12T14:33:15.000",
    "date_modified": "2026-05-12T14:33:17.000",
    "request_status": "Pending",
    "responsible_agency": "Department of Code Enforcement",
    "final_address": "7926 Forshey St",
    "address_councildis": "B",
    "status": "Pending",
    "rowid": "1280831",
    "final_x": "3667405.34618",
    "final_y": "533511.985028",
    "longitude": "-90.11250930426858",
    "latitude": "29.961393407964486",
    "geocoded_column": {
      "latitude": "29.961393407964486",
      "longitude": "-90.11250930426858"
    }
  },
  {
    "service_request": "2026-1280830",
    "request_type": "Trash/Recycling",
    "request_reason": "Request a Large Item Pick Up",
    "date_created": "2026-05-12T14:25:18.000",
    "date_modified": "2026-05-12T14:25:19.000",
    "request_status": "Pending",
    "responsible_agency": "Department of Sanitation",
    "final_address": "6315 Royal St",
    "address_councildis": "E",
    "status": "Assigned to Contractor",
    "contractor": "Waste Pro",
    "rowid": "1280830",
    "final_x": "3699721.321",
    "final_y": "531600.588803",
    "longitude": "-90.01053137752484",
    "latitude": "29.955151452056885",
    "geocoded_column": {
      "latitude": "29.955151452056885",
      "longitude": "-90.01053137752484"
    }
  },
  {
    "service_request": "2026-1280829",
    "request_type": "Trash/Recycling",
    "request_reason": "Return Trash Cart",
    "date_created": "2026-05-12T14:24:16.000",
    "date_modified": "2026-05-12T14:24:18.000",
    "request_status": "Pending",
    "responsible_agency": "Department of Sanitation",
    "final_address": "1308 Moss St",
    "address_councildis": "A",
    "status": "Assigned to Contractor",
    "contractor": "IV Waste",
    "rowid": "1280829",
    "final_x": "3675396.91137",
    "final_y": "540446.262347",
    "longitude": "-90.08703512894454",
    "latitude": "29.98022377262534",
    "geocoded_column": {
      "latitude": "29.98022377262534",
      "longitude": "-90.08703512894454"
    }
  },
  {
    "service_request": "2026-1280828",
    "request_type": "Trash/Recycling",
    "request_reason": "Repair Trash Cart",
    "date_created": "2026-05-12T14:20:38.000",
    "date_modified": "2026-05-12T14:20:39.000",
    "request_status": "Pending",
    "responsible_agency": "Department of Sanitation",
    "final_address": "31 Chatham Dr",
    "address_councildis": "D",
    "status": "Assigned to Contractor",
    "contractor": "IV Waste",
    "rowid": "1280828",
    "final_x": "3679929.49928",
    "final_y": "551472.581461",
    "longitude": "-90.07233604725903",
    "latitude": "30.010405914601783",
    "geocoded_column": {
      "latitude": "30.010405914601783",
      "longitude": "-90.07233604725903"
    }
  },
  {
    "service_request": "2026-1280827",
    "request_type": "Trash/Recycling",
    "request_reason": "Request a Large Item Pick Up",
    "date_created": "2026-05-12T14:10:59.000",
    "date_modified": "2026-05-12T14:11:00.000",
    "request_status": "Pending",
    "responsible_agency": "Department of Sanitation",
    "final_address": "826 Leboeuf St",
    "address_councildis": "C",
    "status": "Assigned to Contractor",
    "contractor": "Richards Disposal",
    "rowid": "1280827",
    "final_x": "3689836.30236",
    "final_y": "528410.797312",
    "longitude": "-90.04185802139159",
    "latitude": "29.946690703348548",
    "geocoded_column": {
      "latitude": "29.946690703348548",
      "longitude": "-90.04185802139159"
    }
  },
  {
    "service_request": "2026-1280826",
    "request_type": "Abandoned Vehicles",
    "request_reason": "Abandoned/Junk Vehicles",
    "date_created": "2026-05-12T14:10:38.000",
    "date_modified": "2026-05-12T14:11:10.000",
    "request_status": "Pending",
    "responsible_agency": "Department of Public Works",
    "final_address": "4300 BLK S Tonti St",
    "address_councildis": "B",
    "status": "Inspected",
    "rowid": "1280826",
    "final_x": "3670342.90534",
    "final_y": "528171.965753",
    "longitude": "-90.10341397951568",
    "latitude": "29.946623727702082",
    "geocoded_column": {
      "latitude": "29.946623727702082",
      "longitude": "-90.10341397951568"
    }
  },
  {
    "service_request": "2026-1280825",
    "request_type": "Trash/Recycling",
    "request_reason": "Replace Trash Cart",
    "date_created": "2026-05-12T14:10:02.000",
    "date_modified": "2026-05-12T14:10:04.000",
    "request_status": "Pending",
    "responsible_agency": "Department of Sanitation",
    "final_address": "3936 Kathleen St",
    "address_councildis": "C",
    "status": "Assigned to Contractor",
    "contractor": "Richards Disposal",
    "rowid": "1280825",
    "final_x": "3709877.51557",
    "final_y": "516176.73714",
    "longitude": "-89.97903781759946",
    "latitude": "29.91241504700901",
    "geocoded_column": {
      "latitude": "29.91241504700901",
      "longitude": "-89.97903781759946"
    }
  },
  {
    "service_request": "2026-1280824",
    "request_type": "Trash/Recycling",
    "request_reason": "Request a Large Item Pick Up",
    "date_created": "2026-05-12T14:08:48.000",
    "date_modified": "2026-05-12T14:08:50.000",
    "request_status": "Pending",
    "responsible_agency": "Department of Sanitation",
    "final_address": "5529 Willow St Apt B",
    "address_councildis": "A",
    "status": "Assigned to Contractor",
    "contractor": "IV Waste",
    "rowid": "1280824",
    "final_x": "3667661.58977",
    "final_y": "525460.756221",
    "longitude": "-90.1119711298863",
    "latitude": "29.939247642001956",
    "geocoded_column": {
      "latitude": "29.939247642001956",
      "longitude": "-90.1119711298863"
    }
  },
  {
    "service_request": "2026-1280823",
    "request_type": "Drainage",
    "request_reason": "Catch Basin Not Draining",
    "date_created": "2026-05-12T14:07:32.000",
    "date_modified": "2026-05-12T14:07:34.000",
    "request_status": "Pending",
    "responsible_agency": "Sewerage & Water Board",
    "final_address": "0 BLK Lake Marina Ave",
    "address_councildis": "D",
    "status": "Pending",
    "rowid": "1280823",
    "final_x": "3666703.24038",
    "final_y": "555371.042589",
    "longitude": "-90.11399189061079",
    "latitude": "30.021518904314785",
    "geocoded_column": {
      "latitude": "30.021518904314785",
      "longitude": "-90.11399189061079"
    }
  },
  {
    "service_request": "2026-1280822",
    "request_type": "Trash/Recycling",
    "request_reason": "Request a Large Item Pick Up",
    "date_created": "2026-05-12T14:07:03.000",
    "date_modified": "2026-05-12T14:07:04.000",
    "request_status": "Pending",
    "responsible_agency": "Department of Sanitation",
    "final_address": "4420 Banks St",
    "address_councildis": "A",
    "status": "Assigned to Contractor",
    "contractor": "IV Waste",
    "rowid": "1280822",
    "final_x": "3669061.30951",
    "final_y": "538280.777545",
    "longitude": "-90.10711889019824",
    "latitude": "29.97445737922696",
    "geocoded_column": {
      "latitude": "29.97445737922696",
      "longitude": "-90.10711889019824"
    }
  },
  {
    "service_request": "2026-1280821",
    "request_type": "Trash/Recycling",
    "request_reason": "Request a Large Item Pick Up",
    "date_created": "2026-05-12T14:05:02.000",
    "date_modified": "2026-05-12T14:05:04.000",
    "request_status": "Pending",
    "responsible_agency": "Department of Sanitation",
    "final_address": "2347 Dreux Ave",
    "address_councildis": "D",
    "status": "Assigned to Contractor",
    "contractor": "IV Waste",
    "rowid": "1280821",
    "final_x": "3684978.20476",
    "final_y": "552140.746134",
    "longitude": "-90.05636177920347",
    "latitude": "30.0120893848444",
    "geocoded_column": {
      "latitude": "30.0120893848444",
      "longitude": "-90.05636177920347"
    }
  },
  {
    "service_request": "2026-1280820",
    "request_type": "Trash/Recycling",
    "request_reason": "Illegal Dumping",
    "date_created": "2026-05-12T14:01:38.000",
    "date_modified": "2026-05-12T14:01:40.000",
    "request_status": "Pending",
    "responsible_agency": "Department of Sanitation",
    "final_address": "1434 St Andrew St",
    "address_councildis": "B",
    "status": "Pending",
    "rowid": "1280820",
    "final_x": "3678618.71541",
    "final_y": "523589.703419",
    "longitude": "-90.07744284298361",
    "latitude": "29.93377717299945",
    "geocoded_column": {
      "latitude": "29.93377717299945",
      "longitude": "-90.07744284298361"
    }
  },
  {
    "service_request": "2026-1280819",
    "request_type": "Trash/Recycling",
    "request_reason": "Illegal Dumping",
    "date_created": "2026-05-12T14:01:05.000",
    "date_modified": "2026-05-12T14:01:07.000",
    "request_status": "Pending",
    "responsible_agency": "Department of Sanitation",
    "final_address": "MAYO RD & WALES ST",
    "address_councildis": "E",
    "status": "Pending",
    "rowid": "1280819",
    "final_x": "3700534.14",
    "final_y": "561542.54",
    "longitude": "-90.00687032543836",
    "latitude": "30.037454853848566",
    "geocoded_column": {
      "latitude": "30.037454853848566",
      "longitude": "-90.00687032543836"
    }
  },