[
  {
    "service_request": "2022-879851",
    "request_type": "Trash/Recycling",
    "request_reason": "Request a Large Item Pick Up",
    "date_created": "2022-05-04T01:06:25.000",
    "date_modified": "2022-05-04T01:06:25.000",
    "request_status": "Pending",
    "responsible_agency": "Department of Sanitation",
    "final_address": "3111 Sullen Pl",
    "address_councildis": "C",
    "status": "Assigned to Contractor",
    "contractor": "Richards Disposal",
    "rowid": "879851",
    "final_x": "3707735.68836",
    "final_y": "519289.151735",
    "longitude": "-89.98568241996712",
    "latitude": "29.92104253899222",
    "geocoded_column": {
      "latitude": "29.92104253899222",
      "longitude": "-89.98568241996712"
    }
  },
  {
    "service_request": "2022-879850",
    "request_type": "Traffic Signals/Signs/Striping/Streetlights",
    "request_reason": "Street Light Outage/Malfunction",
    "date_created": "2022-05-04T01:04:06.000",
    "date_modified": "2022-05-04T01:04:07.000",
    "request_status": "Pending",
    "responsible_agency": "Department of Public Works",
    "final_address": "3111 Sullen Pl",
    "address_councildis": "C",
    "status": "Pending",
    "contractor": "Royal Engineering",
    "rowid": "879850",
    "final_x": "3707735.68836",
    "final_y": "519289.151735",
    "longitude": "-89.98568241996712",
    "latitude": "29.92104253899222",
    "geocoded_column": {
      "latitude": "29.92104253899222",
      "longitude": "-89.98568241996712"
    }
  },
  {
    "service_request": "2022-879849",
    "request_type": "Trash/Recycling",
    "request_reason": "Missed Trash Pick-Up",
    "date_created": "2022-05-04T00:04:25.000",
    "date_modified": "2022-05-04T00:04:27.000",
    "request_status": "Pending",
    "responsible_agency": "Department of Sanitation",
    "final_address": "3203 St Ann St",
    "address_councildis": "A",
    "status": "Assigned to Contractor",
    "contractor": "Richards Disposal",
    "rowid": "879849",
    "final_x": "3675160.67445",
    "final_y": "538597.842569",
    "longitude": "-90.08784472390182",
    "latitude": "29.975148314447566",
    "geocoded_column": {
      "latitude": "29.975148314447566",
      "longitude": "-90.08784472390182"
    }
  },
  {
    "service_request": "2022-879848",
    "request_type": "Trash/Recycling",
    "request_reason": "Missed Trash Pick-Up",
    "date_created": "2022-05-03T23:49:04.000",
    "date_modified": "2022-05-03T23:49:05.000",
    "request_status": "Pending",
    "responsible_agency": "Department of Sanitation",
    "final_address": "2603 General Pershing St",
    "address_councildis": "B",
    "status": "Assigned to Contractor",
    "contractor": "Richards Disposal",
    "rowid": "879848",
    "final_x": "3670942.11899",
    "final_y": "524483.136572",
    "longitude": "-90.10164723759432",
    "latitude": "29.936462947707753",
    "geocoded_column": {
      "latitude": "29.936462947707753",
      "longitude": "-90.10164723759432"
    }
  },
  {
    "service_request": "2022-879847",
    "request_type": "Property Maintenance",
    "request_reason": "Property Maintenance",
    "date_created": "2022-05-03T23:13:05.000",
    "date_modified": "2022-05-03T23:13:05.000",
    "request_status": "Pending",
    "responsible_agency": "Department of Code Enforcement",
    "final_address": "732 France St",
    "address_councildis": "C",
    "status": "Pending",
    "rowid": "879847",
    "final_x": "3692047.89014",
    "final_y": "533922.738053",
    "longitude": "-90.03467802600387",
    "latitude": "29.961777899264597",
    "geocoded_column": {
      "latitude": "29.961777899264597",
      "longitude": "-90.03467802600387"
    }
  },
  {
    "service_request": "2022-879846",
    "request_type": "Trash/Recycling",
    "request_reason": "Illegal Dumping",
    "date_created": "2022-05-03T22:55:31.000",
    "date_modified": "2022-05-03T22:55:31.000",
    "request_status": "Pending",
    "responsible_agency": "Department of Sanitation",
    "final_address": "LAKE FOREST BLVD & PARC BRITTANY BLVD",
    "address_councildis": "E",
    "status": "Pending",
    "rowid": "879846",
    "final_x": "3703013.1",
    "final_y": "556785.28",
    "longitude": "-89.99921133030972",
    "latitude": "30.024295099116646",
    "geocoded_column": {
      "latitude": "30.024295099116646",
      "longitude": "-89.99921133030972"
    }
  },
  {
    "service_request": "2022-879845",
    "request_type": "Trash/Recycling",
    "request_reason": "Illegal Dumping",
    "date_created": "2022-05-03T22:41:42.000",
    "date_modified": "2022-05-03T22:41:42.000",
    "request_status": "Pending",
    "responsible_agency": "Department of Sanitation",
    "final_address": "2118 Clara St",
    "address_councildis": "B",
    "status": "Pending",
    "rowid": "879845",
    "final_x": "3675280.62203",
    "final_y": "527149.031423",
    "longitude": "-90.08785892183623",
    "latitude": "29.943664338856795",
    "geocoded_column": {
      "latitude": "29.943664338856795",
      "longitude": "-90.08785892183623"
    }
  },
  {
    "service_request": "2022-879844",
    "request_type": "Property Maintenance",
    "request_reason": "Property Maintenance",
    "date_created": "2022-05-03T22:39:34.000",
    "date_modified": "2022-05-03T22:39:34.000",
    "request_status": "Pending",
    "responsible_agency": "Department of Code Enforcement",
    "final_address": "2118 Clara St",
    "address_councildis": "B",
    "status": "Pending",
    "rowid": "879844",
    "final_x": "3675280.62203",
    "final_y": "527149.031423",
    "longitude": "-90.08785892183623",
    "latitude": "29.943664338856795",
    "geocoded_column": {
      "latitude": "29.943664338856795",
      "longitude": "-90.08785892183623"
    }
  },
  {
    "service_request": "2022-879843",
    "request_type": "Traffic Signals/Signs/Striping/Streetlights",
    "request_reason": "Street Light Outage/Malfunction",
    "date_created": "2022-05-03T22:35:08.000",
    "date_modified": "2022-05-03T22:35:10.000",
    "request_status": "Pending",
    "responsible_agency": "Department of Public Works",
    "final_address": "1741 Poydras St",
    "address_councildis": "B",
    "status": "Pending",
    "contractor": "Royal Engineering",
    "rowid": "879843",
    "final_x": "3677073.11963",
    "final_y": "530804.668802",
    "longitude": "-90.08207349038473",
    "latitude": "29.953662429924364",
    "geocoded_column": {
      "latitude": "29.953662429924364",
      "longitude": "-90.08207349038473"
    }
  },
  {
    "service_request": "2022-879842",
    "request_type": "Traffic Signals/Signs/Striping/Streetlights",
    "request_reason": "Street Light Outage/Malfunction",
    "date_created": "2022-05-03T22:33:05.000",
    "date_modified": "2022-05-03T22:33:07.000",
    "request_status": "Pending",
    "responsible_agency": "Department of Public Works",
    "final_address": "1741 Poydras St",
    "address_councildis": "B",
    "status": "Pending",
    "contractor": "Royal Engineering",
    "rowid": "879842",
    "final_x": "3677073.11963",
    "final_y": "530804.668802",
    "longitude": "-90.08207349038473",
    "latitude": "29.953662429924364",
    "geocoded_column": {
      "latitude": "29.953662429924364",
      "longitude": "-90.08207349038473"
    }
  },
  {
    "service_request": "2022-879841",
    "request_type": "Traffic Signals/Signs/Striping/Streetlights",
    "request_reason": "Street Light Outage/Malfunction",
    "date_created": "2022-05-03T22:31:19.000",
    "date_modified": "2022-05-03T22:31:21.000",
    "request_status": "Pending",
    "responsible_agency": "Department of Public Works",
    "final_address": "1741 Poydras St",
    "address_councildis": "B",
    "status": "Pending",
    "contractor": "Royal Engineering",
    "rowid": "879841",
    "final_x": "3677073.11963",
    "final_y": "530804.668802",
    "longitude": "-90.08207349038473",
    "latitude": "29.953662429924364",
    "geocoded_column": {
      "latitude": "29.953662429924364",
      "longitude": "-90.08207349038473"
    }
  },
  {
    "service_request": "2022-879840",
    "request_type": "Traffic Signals/Signs/Striping/Streetlights",
    "request_reason": "Street Light Outage/Malfunction",
    "date_created": "2022-05-03T21:59:53.000",
    "date_modified": "2022-05-03T21:59:54.000",
    "request_status": "Pending",
    "responsible_agency": "Department of Public Works",
    "final_address": "4832 St Bernard Ave",
    "address_councildis": "D",
    "status": "Pending",
    "contractor": "Royal Engineering",
    "rowid": "879840",
    "final_x": "3676605.95195",
    "final_y": "549970.403924",
    "longitude": "-90.08288819092964",
    "latitude": "30.006375613002916",
    "geocoded_column": {
      "latitude": "30.006375613002916",
      "longitude": "-90.08288819092964"
    }
  },
  {
    "service_request": "2022-879839",
    "request_type": "Traffic Signals/Signs/Striping/Streetlights",
    "request_reason": "Street Light Outage/Malfunction",
    "date_created": "2022-05-03T21:58:28.000",
    "date_modified": "2022-05-03T21:58:30.000",
    "request_status": "Pending",
    "responsible_agency": "Department of Public Works",
    "final_address": "4832 St Bernard Ave",
    "address_councildis": "D",
    "status": "Pending",
    "contractor": "Royal Engineering",
    "rowid": "879839",
    "final_x": "3676605.95195",
    "final_y": "549970.403924",
    "longitude": "-90.08288819092964",
    "latitude": "30.006375613002916",
    "geocoded_column": {
      "latitude": "30.006375613002916",
      "longitude": "-90.08288819092964"
    }
  },
  {
    "service_request": "2022-879838",
    "request_type": "Traffic Signals/Signs/Striping/Streetlights",
    "request_reason": "Street Light Outage/Malfunction",
    "date_created": "2022-05-03T21:55:24.000",
    "date_modified": "2022-05-03T21:55:25.000",
    "request_status": "Pending",
    "responsible_agency": "Department of Public Works",
    "final_address": "4832 St Bernard Ave",
    "address_councildis": "D",
    "status": "Pending",
    "contractor": "Royal Engineering",
    "rowid": "879838",
    "final_x": "3676605.95195",
    "final_y": "549970.403924",
    "longitude": "-90.08288819092964",
    "latitude": "30.006375613002916",
    "geocoded_column": {
      "latitude": "30.006375613002916",
      "longitude": "-90.08288819092964"
    }
  },
  {
    "service_request": "2022-879837",
    "request_type": "Traffic Signals/Signs/Striping/Streetlights",
    "request_reason": "Street Light Outage/Malfunction",
    "date_created": "2022-05-03T21:52:22.000",
    "date_modified": "2022-05-03T21:52:23.000",
    "request_status": "Pending",
    "responsible_agency": "Department of Public Works",
    "final_address": "400 Magazine St",
    "address_councildis": "B",
    "status": "Pending",
    "contractor": "Royal Engineering",
    "rowid": "879837",
    "final_x": "3681601.519",
    "final_y": "529356.062401",
    "longitude": "-90.06782522675178",
    "latitude": "29.949542503126846",
    "geocoded_column": {
      "latitude": "29.949542503126846",
      "longitude": "-90.06782522675178"
    }
  },
  {
    "service_request": "2022-879836",
    "request_type": "Traffic Signals/Signs/Striping/Streetlights",
    "request_reason": "Street Light Outage/Malfunction",
    "date_created": "2022-05-03T21:50:53.000",
    "date_modified": "2022-05-03T21:50:55.000",
    "request_status": "Pending",
    "responsible_agency": "Department of Public Works",
    "final_address": "4832 St Bernard Ave",
    "address_councildis": "D",
    "status": "Pending",
    "contractor": "Royal Engineering",
    "rowid": "879836",
    "final_x": "3676605.95195",
    "final_y": "549970.403924",
    "longitude": "-90.08288819092964",
    "latitude": "30.006375613002916",
    "geocoded_column": {
      "latitude": "30.006375613002916",
      "longitude": "-90.08288819092964"
    }
  },
  {
    "service_request": "2022-879835",
    "request_type": "Traffic Signals/Signs/Striping/Streetlights",
    "request_reason": "Street Light Outage/Malfunction",
    "date_created": "2022-05-03T21:45:33.000",
    "date_modified": "2022-05-03T21:45:35.000",
    "request_status": "Pending",
    "responsible_agency": "Department of Public Works",
    "final_address": "1001 N Carrollton Ave",
    "address_councildis": "A",
    "status": "Pending",
    "contractor": "Royal Engineering",
    "rowid": "879835",
    "final_x": "3673638.40296",
    "final_y": "541214.7083",
    "longitude": "-90.09256296923729",
    "latitude": "29.982389210509208",
    "geocoded_column": {
      "latitude": "29.982389210509208",
      "longitude": "-90.09256296923729"
    }
  },
  {
    "service_request": "2022-879834",
    "request_type": "Trash/Recycling",
    "request_reason": "Replace Trash Cart",
    "date_created": "2022-05-03T21:45:10.000",
    "date_modified": "2022-05-03T21:45:12.000",
    "request_status": "Pending",
    "responsible_agency": "Department of Sanitation",
    "final_address": "5767 W Louis Prima Dr",
    "address_councildis": "E",
    "status": "Assigned to Contractor",
    "contractor": "Metro Disposal",
    "rowid": "879834",
    "final_x": "3715875.65605",
    "final_y": "562252.404511",
    "longitude": "-89.9583611674682",
    "latitude": "30.038909442096223",
    "geocoded_column": {
      "latitude": "30.038909442096223",
      "longitude": "-89.9583611674682"
    }
  },
  {
    "service_request": "2022-879833",
    "request_type": "Traffic Signals/Signs/Striping/Streetlights",
    "request_reason": "Street Light Outage/Malfunction",
    "date_created": "2022-05-03T21:41:45.000",
    "date_modified": "2022-05-03T21:41:47.000",
    "request_status": "Pending",
    "responsible_agency": "Department of Public Works",
    "final_address": "1040 N Carrollton Ave",
    "address_councildis": "A",
    "status": "Pending",
    "contractor": "Royal Engineering",
    "rowid": "879833",
    "final_x": "3673931.34075",
    "final_y": "541242.064268",
    "longitude": "-90.09163679005724",
    "latitude": "29.982455704682287",
    "geocoded_column": {
      "latitude": "29.982455704682287",
      "longitude": "-90.09163679005724"
    }
  },
  {
    "service_request": "2022-879832",
    "request_type": "Traffic Signals/Signs/Striping/Streetlights",
    "request_reason": "Street Light Outage/Malfunction",
    "date_created": "2022-05-03T21:39:51.000",
    "date_modified": "2022-05-03T21:39:52.000",
    "request_status": "Pending",
    "responsible_agency": "Department of Public Works",
    "final_address": "1040 N Carrollton Ave",
    "address_councildis": "A",
    "status": "Pending",
    "contractor": "Royal Engineering",
    "rowid": "879832",
    "final_x": "3673931.34075",
    "final_y": "541242.064268",
    "longitude": "-90.09163679005724",
    "latitude": "29.982455704682287",
    "geocoded_column": {
      "latitude": "29.982455704682287",
      "longitude": "-90.09163679005724"
    }
  },
  {
    "service_request": "2022-879831",
    "request_type": "Trash/Recycling",
    "request_reason": "Missed Trash Pick-Up",
    "date_created": "2022-05-03T21:39:26.000",
    "date_modified": "2022-05-03T21:39:27.000",
    "request_status": "Pending",
    "responsible_agency": "Department of Sanitation",
    "final_address": "3455 Camp St",
    "address_councildis": "B",
    "status": "Assigned to Contractor",
    "contractor": "Richards Disposal",
    "rowid": "879831",
    "final_x": "3674372.18715",
    "final_y": "519806.282872",
    "longitude": "-90.09097845355465",
    "latitude": "29.923501286377128",
    "geocoded_column": {
      "latitude": "29.923501286377128",
      "longitude": "-90.09097845355465"
    }
  },
  {
    "service_request": "2022-879830",
    "request_type": "Traffic Signals/Signs/Striping/Streetlights",
    "request_reason": "Street Light Outage/Malfunction",
    "date_created": "2022-05-03T21:37:13.000",
    "date_modified": "2022-05-03T21:37:14.000",
    "request_status": "Pending",
    "responsible_agency": "Department of Public Works",
    "final_address": "1040 N Carrollton Ave",
    "address_councildis": "A",
    "status": "Pending",
    "contractor": "Royal Engineering",
    "rowid": "879830",
    "final_x": "3673931.34075",
    "final_y": "541242.064268",
    "longitude": "-90.09163679005724",
    "latitude": "29.982455704682287",
    "geocoded_column": {
      "latitude": "29.982455704682287",
      "longitude": "-90.09163679005724"
    }
  },
  {
    "service_request": "2022-879829",
    "request_type": "Traffic Signals/Signs/Striping/Streetlights",
    "request_reason": "Street Light Outage/Malfunction",
    "date_created": "2022-05-03T21:35:29.000",
    "date_modified": "2022-05-03T21:35:31.000",
    "request_status": "Pending",
    "responsible_agency": "Department of Public Works",
    "final_address": "1040 N Carrollton Ave",
    "address_councildis": "A",
    "status": "Pending",
    "contractor": "Royal Engineering",
    "rowid": "879829",
    "final_x": "3673931.34075",
    "final_y": "541242.064268",
    "longitude": "-90.09163679005724",
    "latitude": "29.982455704682287",
    "geocoded_column": {
      "latitude": "29.982455704682287",
      "longitude": "-90.09163679005724"
    }
  },
  {
    "service_request": "2022-879828",
    "request_type": "Traffic Signals/Signs/Striping/Streetlights",
    "request_reason": "Street Light Outage/Malfunction",
    "date_created": "2022-05-03T21:28:39.000",
    "date_modified": "2022-05-03T21:28:40.000",
    "request_status": "Pending",
    "responsible_agency": "Department of Public Works",
    "final_address": "1040 N Carrollton Ave",
    "address_councildis": "A",
    "status": "Pending",
    "contractor": "Royal Engineering",
    "rowid": "879828",
    "final_x": "3673931.34075",
    "final_y": "541242.064268",
    "longitude": "-90.09163679005724",
    "latitude": "29.982455704682287",
    "geocoded_column": {
      "latitude": "29.982455704682287",
      "longitude": "-90.09163679005724"
    }
  },
  {
    "service_request": "2022-879827",
    "request_type": "Health Related Questions",
    "request_reason": "Noise Ordinance Complaint",
    "date_created": "2022-05-03T21:23:32.000",
    "date_modified": "2022-05-03T21:23:32.000",
    "request_status": "Pending",
    "responsible_agency": "Health Department",
    "final_address": "718 Bourbon St, New Orleans, Louisiana, 70116",
    "address_councildis": "C",
    "status": "Pending",
    "rowid": "879827",
    "final_x": "3682364.17781",
    "final_y": "532746.008004",
    "longitude": "-90.06529872053143",
    "latitude": "29.95884052062511",
    "geocoded_column": {
      "latitude": "29.95884052062511",
      "longitude": "-90.06529872053143"
    }
  },
  {
    "service_request": "2022-879826",
    "request_type": "Traffic Signals/Signs/Striping/Streetlights",
    "request_reason": "Street Light Outage/Malfunction",
    "date_created": "2022-05-03T21:21:46.000",
    "date_modified": "2022-05-03T21:21:47.000",
    "request_status": "Pending",
    "responsible_agency": "Department of Public Works",
    "final_address": "1040 N Carrollton Ave",
    "address_councildis": "A",
    "status": "Pending",
    "contractor": "Royal Engineering",
    "rowid": "879826",
    "final_x": "3673931.34075",
    "final_y": "541242.064268",
    "longitude": "-90.09163679005724",
    "latitude": "29.982455704682287",
    "geocoded_column": {
      "latitude": "29.982455704682287",
      "longitude": "-90.09163679005724"
    }
  },
  {
    "service_request": "2022-879825",
    "request_type": "Traffic Signals/Signs/Striping/Streetlights",
    "request_reason": "Street Light Outage/Malfunction",
    "date_created": "2022-05-03T21:20:23.000",
    "date_modified": "2022-05-03T21:20:24.000",
    "request_status": "Pending",
    "responsible_agency": "Department of Public Works",
    "final_address": "8140 Zimple St",
    "address_councildis": "A",
    "status": "Pending",
    "contractor": "Royal Engineering",
    "rowid": "879825",
    "final_x": "3661485.85178",
    "final_y": "528281.0416",
    "longitude": "-90.13137541337191",
    "latitude": "29.947182089602926",
    "geocoded_column": {
      "latitude": "29.947182089602926",
      "longitude": "-90.13137541337191"
    }
  },
  {
    "service_request": "2022-879824",
    "request_type": "Trash/Recycling",
    "request_reason": "Request a Large Item Pick Up",
    "date_created": "2022-05-03T21:19:14.000",
    "date_modified": "2022-05-03T21:19:14.000",
    "request_status": "Pending",
    "responsible_agency": "Department of Sanitation",
    "final_address": "4400 Elba St",
    "address_councildis": "B",
    "status": "Assigned to Contractor",
    "contractor": "Richards Disposal",
    "rowid": "879824",
    "final_x": "3669750.1467",
    "final_y": "530370.129026",
    "longitude": "-90.10521114893392",
    "latitude": "29.95268543907863",
    "geocoded_column": {
      "latitude": "29.95268543907863",
      "longitude": "-90.10521114893392"
    }
  },
  {
    "service_request": "2022-879823",
    "request_type": "Traffic Signals/Signs/Striping/Streetlights",
    "request_reason": "Street Light Outage/Malfunction",
    "date_created": "2022-05-03T21:16:45.000",
    "date_modified": "2022-05-03T21:16:46.000",
    "request_status": "Pending",
    "responsible_agency": "Department of Public Works",
    "final_address": "211 Camp St",
    "address_councildis": "B",
    "status": "Pending",
    "contractor": "Royal Engineering",
    "rowid": "879823",
    "final_x": "3681269.44002",
    "final_y": "530035.687425",
    "longitude": "-90.06885006866273",
    "latitude": "29.95142132341927",
    "geocoded_column": {
      "latitude": "29.95142132341927",
      "longitude": "-90.06885006866273"
    }
  },
  {
    "service_request": "2022-879822",
    "request_type": "Traffic Signals/Signs/Striping/Streetlights",
    "request_reason": "Street Light Outage/Malfunction",
    "date_created": "2022-05-03T21:13:26.000",
    "date_modified": "2022-05-03T21:13:27.000",
    "request_status": "Pending",
    "responsible_agency": "Department of Public Works",
    "final_address": "211 Camp St",
    "address_councildis": "B",
    "status": "Pending",
    "contractor": "Royal Engineering",
    "rowid": "879822",
    "final_x": "3681269.44002",
    "final_y": "530035.687425",
    "longitude": "-90.06885006866273",
    "latitude": "29.95142132341927",
    "geocoded_column": {
      "latitude": "29.95142132341927",
      "longitude": "-90.06885006866273"
    }
  },
  {
    "service_request": "2022-879821",
    "request_type": "Abandoned Vehicles",
    "request_reason": "Abandoned/Junk Vehicles",
    "date_created": "2022-05-03T21:08:36.000",
    "date_modified": "2022-05-03T21:08:36.000",
    "request_status": "Pending",
    "responsible_agency": "Department of Public Works",
    "status": "Pending",
    "rowid": "879821",
    "longitude": "0.0",
    "latitude": "0.0",
    "geocoded_column": {
      "latitude": "0.0",
      "longitude": "0.0"
    }
  },
  {
    "service_request": "2022-879818",
    "request_type": "Trash/Recycling",
    "request_reason": "Missed Trash Pick-Up",
    "date_created": "2022-05-03T20:54:28.000",
    "date_modified": "2022-05-03T20:54:29.000",
    "request_status": "Pending",
    "responsible_agency": "Department of Sanitation",
    "final_address": "1408 Peniston St",
    "address_councildis": "B",
    "status": "Assigned to Contractor",
    "contractor": "Richards Disposal",
    "rowid": "879818",
    "final_x": "3672963.21825",
    "final_y": "520630.58508",
    "longitude": "-90.09539794090338",
    "latitude": "29.925809783318766",
    "geocoded_column": {
      "latitude": "29.925809783318766",
      "longitude": "-90.09539794090338"
    }
  },
  {
    "service_request": "2022-879817",
    "request_type": "Trash/Recycling",
    "request_reason": "Missed Trash Pick-Up",
    "date_created": "2022-05-03T20:47:17.000",
    "date_modified": "2022-05-03T20:47:17.000",
    "request_status": "Pending",
    "responsible_agency": "Department of Sanitation",
    "final_address": "1124 General Taylor St",
    "address_councildis": "B",
    "status": "Assigned to Contractor",
    "contractor": "Richards Disposal",
    "rowid": "879817",
    "final_x": "3672866.27726",
    "final_y": "519903.016184",
    "longitude": "-90.09572876169955",
    "latitude": "29.923812081542685",
    "geocoded_column": {
      "latitude": "29.923812081542685",
      "longitude": "-90.09572876169955"
    }
  },
  {
    "service_request": "2022-879816",
    "request_type": "Health Related Questions",
    "request_reason": "Noise Ordinance Complaint",
    "date_created": "2022-05-03T20:46:56.000",
    "date_modified": "2022-05-03T20:46:56.000",
    "request_status": "Pending",
    "responsible_agency": "Health Department",
    "final_address": "718 Bourbon St, New Orleans, Louisiana, 70116",
    "address_councildis": "C",
    "status": "Pending",
    "rowid": "879816",
    "final_x": "3682364.17781",
    "final_y": "532746.008004",
    "longitude": "-90.06529872053143",
    "latitude": "29.95884052062511",
    "geocoded_column": {
      "latitude": "29.95884052062511",
      "longitude": "-90.06529872053143"
    }
  },
  {
    "service_request": "2022-879815",
    "request_type": "Traffic Signals/Signs/Striping/Streetlights",
    "request_reason": "Street Name Sign Damaged or Missing",
    "date_created": "2022-05-03T20:13:04.000",
    "date_modified": "2022-05-03T20:13:04.000",
    "request_status": "Pending",
    "responsible_agency": "Department of Public Works",
    "final_address": "6132 Franklin Ave",
    "address_councildis": "D",
    "status": "Pending",
    "rowid": "879815",
    "final_x": "3686296.35254",
    "final_y": "555832.849113",
    "longitude": "-90.05206675441306",
    "latitude": "30.022200850078985",
    "geocoded_column": {
      "latitude": "30.022200850078985",
      "longitude": "-90.05206675441306"
    }
  },
  {
    "service_request": "2022-879814",
    "request_type": "Trash/Recycling",
    "request_reason": "Illegal Dumping",
    "date_created": "2022-05-03T19:58:30.000",
    "date_modified": "2022-05-03T19:58:31.000",
    "request_status": "Pending",
    "responsible_agency": "Department of Sanitation",
    "final_address": "2227 Willow St",
    "address_councildis": "B",
    "status": "Pending",
    "rowid": "879814",
    "final_x": "3674614.67233",
    "final_y": "527234.536511",
    "longitude": "-90.08995857539377",
    "latitude": "29.943919336557272",
    "geocoded_column": {
      "latitude": "29.943919336557272",
      "longitude": "-90.08995857539377"
    }
  },
  {
    "service_request": "2022-879813",
    "request_type": "Abandoned Vehicles",
    "request_reason": "Abandoned/Junk Vehicles",
    "date_created": "2022-05-03T19:15:03.000",
    "date_modified": "2022-05-03T19:15:03.000",
    "request_status": "Pending",
    "responsible_agency": "Department of Public Works",
    "final_address": "2523 Prytania St",
    "address_councildis": "B",
    "status": "Pending",
    "rowid": "879813",
    "final_x": "3676800.74817",
    "final_y": "522561.909306",
    "longitude": "-90.08321748380145",
    "latitude": "29.93100573876581",
    "geocoded_column": {
      "latitude": "29.93100573876581",
      "longitude": "-90.08321748380145"
    }
  },
  {
    "service_request": "2022-879812",
    "request_type": "Abandoned Vehicles",
    "request_reason": "Abandoned/Junk Vehicles",
    "date_created": "2022-05-03T19:11:13.000",
    "date_modified": "2022-05-03T19:11:13.000",
    "request_status": "Pending",
    "responsible_agency": "Department of Public Works",
    "final_address": "4000 BLK Saint Ferdinand St",
    "address_councildis": "D",
    "status": "Pending",
    "rowid": "879812",
    "final_x": "3689844.929",
    "final_y": "548402.981394",
    "longitude": "-90.04111892427014",
    "latitude": "30.001661873953523",
    "geocoded_column": {
      "latitude": "30.001661873953523",
      "longitude": "-90.04111892427014"
    }
  },
  {
    "service_request": "2022-879811",
    "request_type": "Trash/Recycling",
    "request_reason": "Missed Trash Pick-Up",
    "date_created": "2022-05-03T19:00:16.000",
    "date_modified": "2022-05-03T19:00:16.000",
    "request_status": "Pending",
    "responsible_agency": "Department of Sanitation",
    "final_address": "700 Block of Jefferson Ave, New Orleans, Louisiana, 70115",
    "status": "Assigned to Contractor",
    "rowid": "879811",
    "longitude": "0.0",
    "latitude": "0.0",
    "geocoded_column": {
      "latitude": "0.0",
      "longitude": "0.0"
    }
  },
  {
    "service_request": "2022-879810",
    "request_type": "Trash/Recycling",
    "request_reason": "Request a Large Item Pick Up",
    "date_created": "2022-05-03T18:59:45.000",
    "date_modified": "2022-05-03T18:59:45.000",
    "request_status": "Pending",
    "responsible_agency": "Department of Sanitation",
    "final_address": "2728 Pauger St",
    "address_councildis": "D",
    "status": "Assigned to Contractor",
    "contractor": "Metro Disposal",
    "rowid": "879810",
    "final_x": "3683555.88265",
    "final_y": "539765.85697",
    "longitude": "-90.06128954113953",
    "latitude": "29.978106361362904",
    "geocoded_column": {
      "latitude": "29.978106361362904",
      "longitude": "-90.06128954113953"
    }
  },
  {
    "service_request": "2022-879809",
    "request_type": "Trash/Recycling",
    "request_reason": "Missed Trash Pick-Up",
    "date_created": "2022-05-03T18:44:38.000",
    "date_modified": "2022-05-03T18:44:39.000",
    "request_status": "Pending",
    "responsible_agency": "Department of Sanitation",
    "final_address": "5200 Atlanta St",
    "address_councildis": "B",
    "status": "Assigned to Contractor",
    "contractor": "Richards Disposal",
    "rowid": "879809",
    "final_x": "3667983.80449",
    "final_y": "520661.062009",
    "longitude": "-90.11111548717626",
    "latitude": "29.92604056837358",
    "geocoded_column": {
      "latitude": "29.92604056837358",
      "longitude": "-90.11111548717626"
    }
  },
  {
    "service_request": "2022-879808",
    "request_type": "Property Maintenance",
    "request_reason": "Property Maintenance",
    "date_created": "2022-05-03T18:38:18.000",
    "date_modified": "2022-05-03T18:38:18.000",
    "request_status": "Pending",
    "responsible_agency": "Department of Code Enforcement",
    "final_address": "1776 Lafreniere St",
    "address_councildis": "D",
    "status": "Pending",
    "rowid": "879808",
    "final_x": "3681118.11381",
    "final_y": "545211.874127",
    "longitude": "-90.06879905520694",
    "latitude": "29.99315518625743",
    "geocoded_column": {
      "latitude": "29.99315518625743",
      "longitude": "-90.06879905520694"
    }
  },
  {
    "service_request": "2022-879807",
    "request_type": "Trash/Recycling",
    "request_reason": "Missed Trash Pick-Up",
    "date_created": "2022-05-03T18:17:49.000",
    "date_modified": "2022-05-03T18:17:50.000",
    "request_status": "Pending",
    "responsible_agency": "Department of Sanitation",
    "final_address": "6923 West End Blvd",
    "address_councildis": "A",
    "status": "Assigned to Contractor",
    "contractor": "Metro Disposal",
    "rowid": "879807",
    "final_x": "3666907.73933",
    "final_y": "553956.939608",
    "longitude": "-90.11339329810102",
    "latitude": "30.0176246355466",
    "geocoded_column": {
      "latitude": "30.0176246355466",
      "longitude": "-90.11339329810102"
    }
  },
  {
    "service_request": "2022-879806",
    "request_type": "Property Maintenance",
    "request_reason": "Property Maintenance",
    "date_created": "2022-05-03T18:17:41.000",
    "date_modified": "2022-05-03T18:17:42.000",
    "request_status": "Pending",
    "responsible_agency": "Department of Code Enforcement",
    "final_address": "6736 General Diaz St",
    "address_councildis": "A",
    "status": "Pending",
    "rowid": "879806",
    "final_x": "3669875.48065",
    "final_y": "552289.640598",
    "longitude": "-90.1040728910948",
    "latitude": "30.01295294011317",
    "geocoded_column": {
      "latitude": "30.01295294011317",
      "longitude": "-90.1040728910948"
    }
  },
  {
    "service_request": "2022-879805",
    "request_type": "Trash/Recycling",
    "request_reason": "Missed Trash Pick-Up",
    "date_created": "2022-05-03T18:17:04.000",
    "date_modified": "2022-05-03T18:17:05.000",
    "request_status": "Pending",
    "responsible_agency": "Department of Sanitation",
    "final_address": "1301 General Taylor St",
    "address_councildis": "B",
    "status": "Assigned to Contractor",
    "contractor": "Richards Disposal",
    "rowid": "879805",
    "final_x": "3672844.37032",
    "final_y": "520291.135864",
    "longitude": "-90.09578468200387",
    "latitude": "29.924879936904606",
    "geocoded_column": {
      "latitude": "29.924879936904606",
      "longitude": "-90.09578468200387"
    }
  },
  {
    "service_request": "2022-879804",
    "request_type": "Property Maintenance",
    "request_reason": "Property Maintenance",
    "date_created": "2022-05-03T18:15:01.000",
    "date_modified": "2022-05-03T18:15:02.000",
    "request_status": "Pending",
    "responsible_agency": "Department of Code Enforcement",
    "final_address": "829 N Rocheblave St",
    "address_councildis": "D",
    "status": "Pending",
    "rowid": "879804",
    "final_x": "3677838.00046",
    "final_y": "536820.659528",
    "longitude": "-90.07945044421399",
    "latitude": "29.970181379144364",
    "geocoded_column": {
      "latitude": "29.970181379144364",
      "longitude": "-90.07945044421399"
    }
  },
  {
    "service_request": "2022-879803",
    "request_type": "Trash/Recycling",
    "request_reason": "Missed Trash Pick-Up",
    "date_created": "2022-05-03T18:14:28.000",
    "date_modified": "2022-05-03T18:14:29.000",
    "request_status": "Pending",
    "responsible_agency": "Department of Sanitation",
    "final_address": "6923 West End Blvd",
    "address_councildis": "A",
    "status": "Assigned to Contractor",
    "contractor": "Metro Disposal",
    "rowid": "879803",
    "final_x": "3666907.73933",
    "final_y": "553956.939608",
    "longitude": "-90.11339329810102",
    "latitude": "30.0176246355466",
    "geocoded_column": {
      "latitude": "30.0176246355466",
      "longitude": "-90.11339329810102"
    }
  },
  {
    "service_request": "2022-879802",
    "request_type": "Safety & Permits",
    "request_reason": "Licenses & Permits",
    "date_created": "2022-05-03T18:14:24.000",
    "date_modified": "2022-05-03T18:14:25.000",
    "request_status": "Pending",
    "responsible_agency": "Safety and Permits",
    "final_address": "829 N Rocheblave St",
    "address_councildis": "D",
    "status": "Pending",
    "rowid": "879802",
    "final_x": "3677838.00046",
    "final_y": "536820.659528",
    "longitude": "-90.07945044421399",
    "latitude": "29.970181379144364",
    "geocoded_column": {
      "latitude": "29.970181379144364",
      "longitude": "-90.07945044421399"
    }
  },
  {
    "service_request": "2022-879801",
    "request_type": "Taxi Issues",
    "request_reason": "Taxi Complaint",
    "date_created": "2022-05-03T18:10:18.000",
    "date_modified": "2022-05-03T18:10:19.000",
    "request_status": "Pending",
    "responsible_agency": "Ground Transportation Bureau",
    "final_address": "1111 Tulane Ave",
    "address_councildis": "B",
    "status": "Pending",
    "rowid": "879801",
    "final_x": "3679544.32066",
    "final_y": "531140.798274",
    "longitude": "-90.07425880913873",
    "latitude": "29.954512240151786",
    "geocoded_column": {
      "latitude": "29.954512240151786",
      "longitude": "-90.07425880913873"
    }
  },
  {
    "service_request": "2022-879800",
    "request_type": "Abandoned Vehicles",
    "request_reason": "Abandoned/Junk Vehicles",
    "date_created": "2022-05-03T17:58:20.000",
    "date_modified": "2022-05-03T17:58:20.000",
    "request_status": "Pending",
    "responsible_agency": "Department of Public Works",
    "final_address": "1100 BLK Verret St",
    "address_councildis": "C",
    "status": "Pending",
    "rowid": "879800",
    "final_x": "3687290.83831",
    "final_y": "527388.557543",
    "longitude": "-90.04993110190219",
    "latitude": "29.943958533758927",
    "geocoded_column": {
      "latitude": "29.943958533758927",
      "longitude": "-90.04993110190219"
    }
  },
  {
    "service_request": "2022-879799",
    "request_type": "Trash/Recycling",
    "request_reason": "Illegal Dumping",
    "date_created": "2022-05-03T17:57:45.000",
    "date_modified": "2022-05-03T17:57:45.000",
    "request_status": "Pending",
    "responsible_agency": "Department of Sanitation",
    "final_address": "2128 St Andrew St",
    "address_councildis": "B",
    "status": "Pending",
    "rowid": "879799",
    "final_x": "3676851.91688",
    "final_y": "525814.340861",
    "longitude": "-90.08294390778713",
    "latitude": "29.939947324561064",
    "geocoded_column": {
      "latitude": "29.939947324561064",
      "longitude": "-90.08294390778713"
    }
  },
  {
    "service_request": "2022-879798",
    "request_type": "Trash/Recycling",
    "request_reason": "Missed Trash Pick-Up",
    "date_created": "2022-05-03T17:56:49.000",
    "date_modified": "2022-05-03T17:56:50.000",
    "request_status": "Pending",
    "responsible_agency": "Department of Sanitation",
    "final_address": "1514 Jefferson Ave",
    "address_councildis": "A",
    "status": "Assigned to Contractor",
    "contractor": "Richards Disposal",
    "rowid": "879798",
    "final_x": "3667123.60666",
    "final_y": "520687.995001",
    "longitude": "-90.11382998562364",
    "latitude": "29.92613982681207",
    "geocoded_column": {
      "latitude": "29.92613982681207",
      "longitude": "-90.11382998562364"
    }
  },
  {
    "service_request": "2022-879797",
    "request_type": "Abandoned Vehicles",
    "request_reason": "Abandoned/Junk Vehicles",
    "date_created": "2022-05-03T17:56:34.000",
    "date_modified": "2022-05-03T17:56:35.000",
    "request_status": "Pending",
    "responsible_agency": "Department of Public Works",
    "final_address": "FOREST PARK LN & TIMBER WOLF LN",
    "address_councildis": "C",
    "status": "Pending",
    "rowid": "879797",
    "final_x": "3704194.0",
    "final_y": "510488.18",
    "longitude": "-89.99718579600228",
    "latitude": "29.896956935610728",
    "geocoded_column": {
      "latitude": "29.896956935610728",
      "longitude": "-89.99718579600228"
    }
  },
  {
    "service_request": "2022-879796",
    "request_type": "Abandoned Vehicles",
    "request_reason": "Abandoned/Junk Vehicles",
    "date_created": "2022-05-03T17:53:47.000",
    "date_modified": "2022-05-03T17:53:48.000",
    "request_status": "Pending",
    "responsible_agency": "Department of Public Works",
    "final_address": "2235 Freret St Apt 1",
    "address_councildis": "B",
    "status": "Pending",
    "rowid": "879796",
    "final_x": "3675365.18805",
    "final_y": "526157.523262",
    "longitude": "-90.08762595708049",
    "latitude": "29.940935489878704",
    "geocoded_column": {
      "latitude": "29.940935489878704",
      "longitude": "-90.08762595708049"
    }
  },
  {
    "service_request": "2022-879795",
    "request_type": "Abandoned Vehicles",
    "request_reason": "Abandoned/Junk Vehicles",
    "date_created": "2022-05-03T17:51:38.000",
    "date_modified": "2022-05-03T17:51:39.000",
    "request_status": "Pending",
    "responsible_agency": "Department of Public Works",
    "final_address": "2232 Freret St",
    "address_councildis": "B",
    "status": "Pending",
    "rowid": "879795",
    "final_x": "3675422.52014",
    "final_y": "526122.855742",
    "longitude": "-90.08744613927",
    "latitude": "29.940838451624007",
    "geocoded_column": {
      "latitude": "29.940838451624007",
      "longitude": "-90.08744613927"
    }
  },
  {
    "service_request": "2022-879793",
    "request_type": "Trash/Recycling",
    "request_reason": "Request a Large Item Pick Up",
    "date_created": "2022-05-03T17:44:21.000",
    "date_modified": "2022-05-03T17:44:21.000",
    "request_status": "Pending",
    "responsible_agency": "Department of Sanitation",
    "final_address": "2107 Peniston St",
    "address_councildis": "B",
    "status": "Assigned to Contractor",
    "contractor": "Richards Disposal",
    "rowid": "879793",
    "final_x": "3672523.07585",
    "final_y": "522962.036859",
    "longitude": "-90.09670791348408",
    "latitude": "29.932233593292192",
    "geocoded_column": {
      "latitude": "29.932233593292192",
      "longitude": "-90.09670791348408"
    }
  },
  {
    "service_request": "2022-879792",
    "request_type": "Trash/Recycling",
    "request_reason": "Request a Large Item Pick Up",
    "date_created": "2022-05-03T17:43:22.000",
    "date_modified": "2022-05-03T17:43:23.000",
    "request_status": "Pending",
    "responsible_agency": "Department of Sanitation",
    "final_address": "7835 Means Ave",
    "address_councildis": "E",
    "status": "Assigned to Contractor",
    "contractor": "Metro Disposal",
    "rowid": "879792",
    "final_x": "3707731.18987",
    "final_y": "565435.449506",
    "longitude": "-89.98398128299525",
    "latitude": "30.047927754268503",
    "geocoded_column": {
      "latitude": "30.047927754268503",
      "longitude": "-89.98398128299525"
    }
  },
  {
    "service_request": "2022-879791",
    "request_type": "Trash/Recycling",
    "request_reason": "Missed Trash Pick-Up",
    "date_created": "2022-05-03T17:25:57.000",
    "date_modified": "2022-05-03T17:25:58.000",
    "request_status": "Pending",
    "responsible_agency": "Department of Sanitation",
    "final_address": "1525 Dufossat St",
    "address_councildis": "B",
    "status": "Assigned to Contractor",
    "contractor": "Richards Disposal",
    "rowid": "879791",
    "final_x": "3668161.69364",
    "final_y": "520678.110521",
    "longitude": "-90.11055336688219",
    "latitude": "29.926082227758133",
    "geocoded_column": {
      "latitude": "29.926082227758133",
      "longitude": "-90.11055336688219"
    }
  },
  {
    "service_request": "2022-879790",
    "request_type": "Property Maintenance",
    "request_reason": "Property Maintenance",
    "date_created": "2022-05-03T17:16:19.000",
    "date_modified": "2022-05-03T17:16:19.000",
    "request_status": "Pending",
    "responsible_agency": "Department of Code Enforcement",
    "final_address": "1569 Athis St",
    "address_councildis": "D",
    "status": "Pending",
    "rowid": "879790",
    "final_x": "3678916.07899",
    "final_y": "553855.734487",
    "longitude": "-90.07545517078597",
    "latitude": "30.0169893528633",
    "geocoded_column": {
      "latitude": "30.0169893528633",
      "longitude": "-90.07545517078597"
    }
  },
  {
    "service_request": "2022-879789",
    "request_type": "Property Maintenance",
    "request_reason": "Property Maintenance",
    "date_created": "2022-05-03T17:07:19.000",
    "date_modified": "2022-05-03T17:07:19.000",
    "request_status": "Pending",
    "responsible_agency": "Department of Code Enforcement",
    "final_address": "821 Belleville St",
    "address_councildis": "C",
    "status": "Pending",
    "rowid": "879789",
    "final_x": "3687760.65897",
    "final_y": "528561.125888",
    "longitude": "-90.04840623786421",
    "latitude": "29.947168219578273",
    "geocoded_column": {
      "latitude": "29.947168219578273",
      "longitude": "-90.04840623786421"
    }
  },
  {
    "service_request": "2022-879788",
    "request_type": "Trash/Recycling",
    "request_reason": "Request a Large Item Pick Up",
    "date_created": "2022-05-03T17:02:53.000",
    "date_modified": "2022-05-03T17:02:54.000",
    "request_status": "Pending",
    "responsible_agency": "Department of Sanitation",
    "final_address": "6025 Pitt St",
    "address_councildis": "A",
    "status": "Assigned to Contractor",
    "contractor": "Richards Disposal",
    "rowid": "879788",
    "final_x": "3665114.32096",
    "final_y": "521335.890169",
    "longitude": "-90.12015109288788",
    "latitude": "29.92797998211723",
    "geocoded_column": {
      "latitude": "29.92797998211723",
      "longitude": "-90.12015109288788"
    }
  },
  {
    "service_request": "2022-879787",
    "request_type": "Trash/Recycling",
    "request_reason": "Replace Trash Cart",
    "date_created": "2022-05-03T17:02:39.000",
    "date_modified": "2022-05-03T17:02:40.000",
    "request_status": "Pending",
    "responsible_agency": "Department of Sanitation",
    "final_address": "320 S Gayoso St",
    "address_councildis": "B",
    "status": "Assigned to Contractor",
    "contractor": "Richards Disposal",
    "rowid": "879787",
    "final_x": "3673776.27054",
    "final_y": "535061.546118",
    "longitude": "-90.09233800150112",
    "latitude": "29.96546600026725",
    "geocoded_column": {
      "latitude": "29.96546600026725",
      "longitude": "-90.09233800150112"
    }
  },
  {
    "service_request": "2022-879786",
    "request_type": "Roads/Drainage",
    "request_reason": "Pothole",
    "date_created": "2022-05-03T16:58:37.000",
    "date_modified": "2022-05-03T16:58:37.000",
    "request_status": "Pending",
    "responsible_agency": "Department of Public Works",
    "final_address": "Desire St & St Claude Ave, New Orleans, Louisiana, 70117",
    "status": "Pending",
    "rowid": "879786",
    "longitude": "0.0",
    "latitude": "0.0",
    "geocoded_column": {
      "latitude": "0.0",
      "longitude": "0.0"
    }
  },
  {
    "service_request": "2022-879785",
    "request_type": "Trash/Recycling",
    "request_reason": "Missed Trash Pick-Up",
    "date_created": "2022-05-03T16:53:58.000",
    "date_modified": "2022-05-03T16:53:59.000",
    "request_status": "Pending",
    "responsible_agency": "Department of Sanitation",
    "final_address": "2100 Camp St, New Orleans, Louisiana, 70130",
    "address_councildis": "B",
    "status": "Assigned to Contractor",
    "contractor": "Richards Disposal",
    "rowid": "879785",
    "final_x": "3678893.94773",
    "final_y": "522516.354106",
    "longitude": "-90.07661111160074",
    "latitude": "29.930817517003458",
    "geocoded_column": {
      "latitude": "29.930817517003458",
      "longitude": "-90.07661111160074"
    }
  },
  {
    "service_request": "2022-879784",
    "request_type": "Trash/Recycling",
    "request_reason": "Request a Large Item Pick Up",
    "date_created": "2022-05-03T16:53:55.000",
    "date_modified": "2022-05-03T16:55:04.000",
    "request_status": "Pending",
    "responsible_agency": "Department of Sanitation",
    "final_address": "New Orleans,LA",
    "address_councildis": "A",
    "status": "Assigned to Contractor",
    "contractor": "Metro Disposal",
    "rowid": "879784",
    "final_x": "3670882.66926",
    "final_y": "554344.570776",
    "longitude": "-90.10082087641597",
    "latitude": "30.018573520025075",
    "geocoded_column": {
      "latitude": "30.018573520025075",
      "longitude": "-90.10082087641597"
    }
  },
  {
    "service_request": "2022-879782",
    "request_type": "Trash/Recycling",
    "request_reason": "Missed Trash Pick-Up",
    "date_created": "2022-05-03T16:52:20.000",
    "date_modified": "2022-05-03T16:52:21.000",
    "request_status": "Pending",
    "responsible_agency": "Department of Sanitation",
    "final_address": "1138 Josephine St, New Orleans, Louisiana, 70130",
    "address_councildis": "B",
    "status": "Assigned to Contractor",
    "contractor": "Richards Disposal",
    "rowid": "879782",
    "final_x": "3678939.07432",
    "final_y": "522549.966266",
    "longitude": "-90.0764674893942",
    "latitude": "29.930908578442235",
    "geocoded_column": {
      "latitude": "29.930908578442235",
      "longitude": "-90.0764674893942"
    }
  },
  {
    "service_request": "2022-879781",
    "request_type": "Trash/Recycling",
    "request_reason": "Request a Large Item Pick Up",
    "date_created": "2022-05-03T16:50:59.000",
    "date_modified": "2022-05-03T16:51:00.000",
    "request_status": "Pending",
    "responsible_agency": "Department of Sanitation",
    "final_address": "7065 Argonne Blvd, New Orleans, Louisiana, 70124",
    "address_councildis": "A",
    "status": "Assigned to Contractor",
    "contractor": "Metro Disposal",
    "rowid": "879781",
    "final_x": "3670882.66926",
    "final_y": "554344.570776",
    "longitude": "-90.10082087641597",
    "latitude": "30.018573520025075",
    "geocoded_column": {
      "latitude": "30.018573520025075",
      "longitude": "-90.10082087641597"
    }
  },
  {
    "service_request": "2022-879780",
    "request_type": "Trash/Recycling",
    "request_reason": "Change Size of Trash Cart",
    "date_created": "2022-05-03T16:45:10.000",
    "date_modified": "2022-05-03T16:45:11.000",
    "request_status": "Pending",
    "responsible_agency": "Department of Sanitation",
    "final_address": "2425 Third St",
    "address_councildis": "B",
    "status": "Assigned to Contractor",
    "contractor": "Richards Disposal",
    "rowid": "879780",
    "final_x": "3674769.43086",
    "final_y": "525475.208125",
    "longitude": "-90.08953025547227",
    "latitude": "29.93907714246573",
    "geocoded_column": {
      "latitude": "29.93907714246573",
      "longitude": "-90.08953025547227"
    }
  },
  {
    "service_request": "2022-879779",
    "request_type": "Abandoned Vehicles",
    "request_reason": "Abandoned/Junk Vehicles",
    "date_created": "2022-05-03T16:43:51.000",
    "date_modified": "2022-05-03T16:43:51.000",
    "request_status": "Pending",
    "responsible_agency": "Department of Public Works",
    "final_address": "FELICITY ST & BARONNE ST",
    "address_councildis": "B",
    "status": "Pending",
    "rowid": "879779",
    "final_x": "3677890.4",
    "final_y": "525168.98",
    "longitude": "-90.07968755352348",
    "latitude": "29.938141593975352",
    "geocoded_column": {
      "latitude": "29.938141593975352",
      "longitude": "-90.07968755352348"
    }
  },
  {
    "service_request": "2022-879778",
    "request_type": "Trash/Recycling",
    "request_reason": "MIssed Recycling Pick-Up",
    "date_created": "2022-05-03T16:41:49.000",
    "date_modified": "2022-05-03T16:41:50.000",
    "request_status": "Pending",
    "responsible_agency": "Department of Sanitation",
    "final_address": "2527 Cleveland Ave",
    "address_councildis": "B",
    "status": "Assigned to Contractor",
    "contractor": "Richards Disposal",
    "rowid": "879778",
    "final_x": "3675734.17345",
    "final_y": "534376.653573",
    "longitude": "-90.08617856593321",
    "latitude": "29.963524325457225",
    "geocoded_column": {
      "latitude": "29.963524325457225",
      "longitude": "-90.08617856593321"
    }
  },
  {
    "service_request": "2022-879777",
    "request_type": "Trash/Recycling",
    "request_reason": "Order Recycling Cart",
    "date_created": "2022-05-03T16:36:08.000",
    "date_modified": "2022-05-03T16:36:08.000",
    "request_status": "Pending",
    "responsible_agency": "Department of Sanitation",
    "final_address": "4207 Fontainebleau Dr",
    "address_councildis": "B",
    "status": "Pending",
    "rowid": "879777",
    "final_x": "3669750.23566",
    "final_y": "529292.706625",
    "longitude": "-90.10524733011454",
    "latitude": "29.949722877987668",
    "geocoded_column": {
      "latitude": "29.949722877987668",
      "longitude": "-90.10524733011454"
    }
  },
  {
    "service_request": "2022-879776",
    "request_type": "Traffic Signals/Signs/Striping/Streetlights",
    "request_reason": "Street Light Outage/Malfunction",
    "date_created": "2022-05-03T16:34:28.000",
    "date_modified": "2022-05-03T16:34:28.000",
    "request_status": "Pending",
    "responsible_agency": "Department of Public Works",
    "final_address": "7400 Dominican St",
    "address_councildis": "A",
    "status": "Pending",
    "contractor": "Royal Engineering",
    "rowid": "879776",
    "final_x": "3662022.54362",
    "final_y": "524461.28582",
    "longitude": "-90.12980754223081",
    "latitude": "29.93666348521478",
    "geocoded_column": {
      "latitude": "29.93666348521478",
      "longitude": "-90.12980754223081"
    }
  },
  {
    "service_request": "2022-879775",
    "request_type": "Trash/Recycling",
    "request_reason": "MIssed Recycling Pick-Up",
    "date_created": "2022-05-03T16:34:00.000",
    "date_modified": "2022-05-03T16:34:01.000",
    "request_status": "Pending",
    "responsible_agency": "Department of Sanitation",
    "final_address": "4207 Fontainebleau Dr",
    "address_councildis": "B",
    "status": "Assigned to Contractor",
    "contractor": "Richards Disposal",
    "rowid": "879775",
    "final_x": "3669750.23566",
    "final_y": "529292.706625",
    "longitude": "-90.10524733011454",
    "latitude": "29.949722877987668",
    "geocoded_column": {
      "latitude": "29.949722877987668",
      "longitude": "-90.10524733011454"
    }
  },
  {
    "service_request": "2022-879774",
    "request_type": "Trash/Recycling",
    "request_reason": "Order Trash Cart",
    "date_created": "2022-05-03T16:32:42.000",
    "date_modified": "2022-05-03T16:32:44.000",
    "request_status": "Pending",
    "responsible_agency": "Department of Sanitation",
    "final_address": "2728 Amelia St",
    "address_councildis": "B",
    "status": "Assigned to Contractor",
    "contractor": "Richards Disposal",
    "rowid": "879774",
    "final_x": "3672108.42299",
    "final_y": "525163.360829",
    "longitude": "-90.09794201067083",
    "latitude": "29.938298819986546",
    "geocoded_column": {
      "latitude": "29.938298819986546",
      "longitude": "-90.09794201067083"
    }
  },
  {
    "service_request": "2022-879773",
    "request_type": "Trash/Recycling",
    "request_reason": "MIssed Recycling Pick-Up",
    "date_created": "2022-05-03T16:30:05.000",
    "date_modified": "2022-05-03T16:30:05.000",
    "request_status": "Pending",
    "responsible_agency": "Department of Sanitation",
    "final_address": "1730 Martin Luther King, Jr. Blvd",
    "address_councildis": "B",
    "status": "Assigned to Contractor",
    "contractor": "Richards Disposal",
    "rowid": "879773",
    "final_x": "3678564.21608",
    "final_y": "525879.784125",
    "longitude": "-90.0775356603131",
    "latitude": "29.940075782347037",
    "geocoded_column": {
      "latitude": "29.940075782347037",
      "longitude": "-90.0775356603131"
    }
  },
  {
    "service_request": "2022-879772",
    "request_type": "Mosquito, Termite & Rodent Control",
    "request_reason": "Non-Rodent Complaint (Mice, Possums, Snakes)",
    "date_created": "2022-05-03T16:29:23.000",
    "date_modified": "2022-05-03T16:29:23.000",
    "request_status": "Pending",
    "responsible_agency": "Mosquito, Termite & Rodent Control Board",
    "final_address": "1247 Foy St",
    "address_councildis": "D",
    "status": "Pending",
    "rowid": "879772",
    "final_x": "3677020.78926",
    "final_y": "546445.387857",
    "longitude": "-90.08169926120956",
    "latitude": "29.99667061187954",
    "geocoded_column": {
      "latitude": "29.99667061187954",
      "longitude": "-90.08169926120956"
    }
  },
  {
    "service_request": "2022-879771",
    "request_type": "Trash/Recycling",
    "request_reason": "Order Trash Cart",
    "date_created": "2022-05-03T16:27:58.000",
    "date_modified": "2022-05-03T16:27:59.000",
    "request_status": "Pending",
    "responsible_agency": "Department of Sanitation",
    "final_address": "4226 S Miro St",
    "address_councildis": "B",
    "status": "Assigned to Contractor",
    "contractor": "Richards Disposal",
    "rowid": "879771",
    "final_x": "3670704.49723",
    "final_y": "527833.369791",
    "longitude": "-90.10228378682744",
    "latitude": "29.945682022307565",
    "geocoded_column": {
      "latitude": "29.945682022307565",
      "longitude": "-90.10228378682744"
    }
  },
  {
    "service_request": "2022-879770",
    "request_type": "Trash/Recycling",
    "request_reason": "Missed Trash Pick-Up",
    "date_created": "2022-05-03T16:24:42.000",
    "date_modified": "2022-05-03T16:24:43.000",
    "request_status": "Pending",
    "responsible_agency": "Department of Sanitation",
    "final_address": "3104 Annunciation St",
    "address_councildis": "B",
    "status": "Assigned to Contractor",
    "contractor": "Richards Disposal",
    "rowid": "879770",
    "final_x": "3676696.43323",
    "final_y": "519220.736503",
    "longitude": "-90.08366182640866",
    "latitude": "29.921821726041063",
    "geocoded_column": {
      "latitude": "29.921821726041063",
      "longitude": "-90.08366182640866"
    }
  },
  {
    "service_request": "2022-879769",
    "request_type": "Trash/Recycling",
    "request_reason": "Repair Trash Cart",
    "date_created": "2022-05-03T16:18:19.000",
    "date_modified": "2022-05-03T16:18:22.000",
    "request_status": "Pending",
    "responsible_agency": "Department of Sanitation",
    "final_address": "4237 Palmyra St",
    "address_councildis": "A",
    "status": "Assigned to Contractor",
    "contractor": "Richards Disposal",
    "rowid": "879769",
    "final_x": "3669884.0859",
    "final_y": "538319.111625",
    "longitude": "-90.1045190593059",
    "latitude": "29.974538548932262",
    "geocoded_column": {
      "latitude": "29.974538548932262",
      "longitude": "-90.1045190593059"
    }
  },
  {
    "service_request": "2022-879768",
    "request_type": "Trash/Recycling",
    "request_reason": "Request a Large Item Pick Up",
    "date_created": "2022-05-03T16:17:34.000",
    "date_modified": "2022-05-03T16:17:35.000",
    "request_status": "Pending",
    "responsible_agency": "Department of Sanitation",
    "final_address": "1625 Bordeaux St",
    "address_councildis": "B",
    "status": "Assigned to Contractor",
    "contractor": "Richards Disposal",
    "rowid": "879768",
    "final_x": "3669436.88167",
    "final_y": "520939.374393",
    "longitude": "-90.10651912679818",
    "latitude": "29.926763140691985",
    "geocoded_column": {
      "latitude": "29.926763140691985",
      "longitude": "-90.10651912679818"
    }
  },
  {
    "service_request": "2022-879767",
    "request_type": "Trash/Recycling",
    "request_reason": "Request a Large Item Pick Up",
    "date_created": "2022-05-03T16:16:09.000",
    "date_modified": "2022-05-03T16:16:09.000",
    "request_status": "Pending",
    "responsible_agency": "Department of Sanitation",
    "final_address": "863 Roosevelt Pl",
    "address_councildis": "A",
    "status": "Assigned to Contractor",
    "contractor": "Richards Disposal",
    "rowid": "879767",
    "final_x": "3673559.48225",
    "final_y": "540136.515531",
    "longitude": "-90.09284910749582",
    "latitude": "29.9794268992803",
    "geocoded_column": {
      "latitude": "29.9794268992803",
      "longitude": "-90.09284910749582"
    }
  },
  {
    "service_request": "2022-879766",
    "request_type": "Trash/Recycling",
    "request_reason": "Order Trash Cart",
    "date_created": "2022-05-03T16:16:06.000",
    "date_modified": "2022-05-03T16:16:06.000",
    "request_status": "Pending",
    "responsible_agency": "Department of Sanitation",
    "final_address": "3104 Annunciation St",
    "address_councildis": "B",
    "status": "Assigned to Contractor",
    "contractor": "Richards Disposal",
    "rowid": "879766",
    "final_x": "3676696.43323",
    "final_y": "519220.736503",
    "longitude": "-90.08366182640866",
    "latitude": "29.921821726041063",
    "geocoded_column": {
      "latitude": "29.921821726041063",
      "longitude": "-90.08366182640866"
    }
  },
  {
    "service_request": "2022-879765",
    "request_type": "Abandoned Vehicles",
    "request_reason": "Abandoned/Junk Vehicles",
    "date_created": "2022-05-03T16:14:05.000",
    "date_modified": "2022-05-03T16:14:05.000",
    "request_status": "Pending",
    "responsible_agency": "Department of Public Works",
    "final_address": "3020 Toledano St, New Orleans, Louisiana, 70125",
    "address_councildis": "B",
    "status": "Pending",
    "rowid": "879765",
    "final_x": "3672289.17787",
    "final_y": "526901.79155",
    "longitude": "-90.09731214552943",
    "latitude": "29.943073578111633",
    "geocoded_column": {
      "latitude": "29.943073578111633",
      "longitude": "-90.09731214552943"
    }
  },
  {
    "service_request": "2022-879764",
    "request_type": "Trash/Recycling",
    "request_reason": "Request a Large Item Pick Up",
    "date_created": "2022-05-03T16:12:57.000",
    "date_modified": "2022-05-03T16:12:58.000",
    "request_status": "Pending",
    "responsible_agency": "Department of Sanitation",
    "final_address": "73 Pinehurst Dr",
    "address_councildis": "C",
    "status": "Assigned to Contractor",
    "contractor": "Richards Disposal",
    "rowid": "879764",
    "final_x": "3714502.64453",
    "final_y": "515797.982132",
    "longitude": "-89.9644540717957",
    "latitude": "29.911222481928352",
    "geocoded_column": {
      "latitude": "29.911222481928352",
      "longitude": "-89.9644540717957"
    }
  },
  {
    "service_request": "2022-879763",
    "request_type": "Health Related Questions",
    "request_reason": "Noise Ordinance Complaint",
    "date_created": "2022-05-03T16:12:54.000",
    "date_modified": "2022-05-03T16:12:54.000",
    "request_status": "Pending",
    "responsible_agency": "Health Department",
    "final_address": "3020 Toledano St, New Orleans, Louisiana, 70125",
    "address_councildis": "B",
    "status": "Pending",
    "rowid": "879763",
    "final_x": "3672289.17787",
    "final_y": "526901.79155",
    "longitude": "-90.09731214552943",
    "latitude": "29.943073578111633",
    "geocoded_column": {
      "latitude": "29.943073578111633",
      "longitude": "-90.09731214552943"
    }
  },
  {
    "service_request": "2022-879762",
    "request_type": "Trash/Recycling",
    "request_reason": "Order Trash Cart",
    "date_created": "2022-05-03T16:12:49.000",
    "date_modified": "2022-05-03T16:12:50.000",
    "request_status": "Pending",
    "responsible_agency": "Department of Sanitation",
    "final_address": "1919 Port St",
    "address_councildis": "D",
    "status": "Assigned to Contractor",
    "contractor": "Metro Disposal",
    "rowid": "879762",
    "final_x": "3688267.91145",
    "final_y": "539588.837002",
    "longitude": "-90.04641359962571",
    "latitude": "29.977474942961035",
    "geocoded_column": {
      "latitude": "29.977474942961035",
      "longitude": "-90.04641359962571"
    }
  },
  {
    "service_request": "2022-879761",
    "request_type": "Trash/Recycling",
    "request_reason": "Replace Recycling Cart",
    "date_created": "2022-05-03T16:11:09.000",
    "date_modified": "2022-05-03T16:11:10.000",
    "request_status": "Pending",
    "responsible_agency": "Department of Sanitation",
    "final_address": "834 Orleans Ave",
    "address_councildis": "C",
    "status": "Pending",
    "rowid": "879761",
    "final_x": "3682119.93",
    "final_y": "532966.598596",
    "longitude": "-90.06606228845192",
    "latitude": "29.95945449945872",
    "geocoded_column": {
      "latitude": "29.95945449945872",
      "longitude": "-90.06606228845192"
    }
  },
  {
    "service_request": "2022-879760",
    "request_type": "Trash/Recycling",
    "request_reason": "Request a Large Item Pick Up",
    "date_created": "2022-05-03T16:05:51.000",
    "date_modified": "2022-05-03T16:05:52.000",
    "request_status": "Pending",
    "responsible_agency": "Department of Sanitation",
    "final_address": "4738 S Liberty St",
    "address_councildis": "B",
    "status": "Assigned to Contractor",
    "contractor": "Richards Disposal",
    "rowid": "879760",
    "final_x": "3669177.2681",
    "final_y": "523161.363067",
    "longitude": "-90.10726360597617",
    "latitude": "29.932880540341202",
    "geocoded_column": {
      "latitude": "29.932880540341202",
      "longitude": "-90.10726360597617"
    }
  },
  {
    "service_request": "2022-879759",
    "request_type": "Trash/Recycling",
    "request_reason": "Missed Trash Pick-Up",
    "date_created": "2022-05-03T16:03:58.000",
    "date_modified": "2022-05-03T16:03:59.000",
    "request_status": "Pending",
    "responsible_agency": "Department of Sanitation",
    "final_address": "2217 First St",
    "address_councildis": "B",
    "status": "Assigned to Contractor",
    "contractor": "Richards Disposal",
    "rowid": "879759",
    "final_x": "3675709.60942",
    "final_y": "525138.436733",
    "longitude": "-90.08657356406614",
    "latitude": "29.9381230360994",
    "geocoded_column": {
      "latitude": "29.9381230360994",
      "longitude": "-90.08657356406614"
    }
  },
  {
    "service_request": "2022-879758",
    "request_type": "Trash/Recycling",
    "request_reason": "Repair Trash Cart",
    "date_created": "2022-05-03T15:59:26.000",
    "date_modified": "2022-05-03T15:59:27.000",
    "request_status": "Pending",
    "responsible_agency": "Department of Sanitation",
    "final_address": "462 Lakeshore Prkwy",
    "address_councildis": "D",
    "status": "Assigned to Contractor",
    "contractor": "Metro Disposal",
    "rowid": "879758",
    "final_x": "3668259.40449",
    "final_y": "557024.030746",
    "longitude": "-90.10901900854981",
    "latitude": "30.026018407370135",
    "geocoded_column": {
      "latitude": "30.026018407370135",
      "longitude": "-90.10901900854981"
    }
  },
  {
    "service_request": "2022-879757",
    "request_type": "Trash/Recycling",
    "request_reason": "MIssed Recycling Pick-Up",
    "date_created": "2022-05-03T15:58:54.000",
    "date_modified": "2022-05-03T15:58:55.000",
    "request_status": "Pending",
    "responsible_agency": "Department of Sanitation",
    "final_address": "2416 Philip St",
    "address_councildis": "B",
    "status": "Assigned to Contractor",
    "contractor": "Richards Disposal",
    "rowid": "879757",
    "final_x": "3675395.84814",
    "final_y": "525922.079357",
    "longitude": "-90.08753723939802",
    "latitude": "29.940287179896675",
    "geocoded_column": {
      "latitude": "29.940287179896675",
      "longitude": "-90.08753723939802"
    }
  },
  {
    "service_request": "2022-879756",
    "request_type": "Traffic Signals/Signs/Striping/Streetlights",
    "request_reason": "Traffic Sign Missing/Damaged",
    "date_created": "2022-05-03T15:57:39.000",
    "date_modified": "2022-05-03T15:58:59.000",
    "request_status": "Pending",
    "responsible_agency": "Department of Public Works",
    "final_address": "1015 Esplanade Ave",
    "address_councildis": "C",
    "status": "Pending",
    "rowid": "879756",
    "final_x": "3683113.34594",
    "final_y": "535212.507718",
    "longitude": "-90.0628466826078",
    "latitude": "29.965599731145804",
    "geocoded_column": {
      "latitude": "29.965599731145804",
      "longitude": "-90.0628466826078"
    }
  },
  {
    "service_request": "2022-879755",
    "request_type": "Parks & Parkways",
    "request_reason": "Request Tree Service (Right of Way/Public Property)",
    "date_created": "2022-05-03T15:56:38.000",
    "date_modified": "2022-05-03T15:56:39.000",
    "request_status": "Pending",
    "responsible_agency": "Department of Parks & Parkway",
    "final_address": "828 Webster St",
    "address_councildis": "A",
    "status": "Pending",
    "rowid": "879755",
    "final_x": "3664167.69293",
    "final_y": "519658.157816",
    "longitude": "-90.12319532687978",
    "latitude": "29.923394269737162",
    "geocoded_column": {
      "latitude": "29.923394269737162",
      "longitude": "-90.12319532687978"
    }
  },
  {
    "service_request": "2022-879754",
    "request_type": "Traffic Signals/Signs/Striping/Streetlights",
    "request_reason": "Street Light Outage/Malfunction",
    "date_created": "2022-05-03T15:56:20.000",
    "date_modified": "2022-05-03T15:56:20.000",
    "request_status": "Pending",
    "responsible_agency": "Department of Public Works",
    "final_address": "107 Berkley Dr",
    "address_councildis": "C",
    "status": "Pending",
    "contractor": "Royal Engineering",
    "rowid": "879754",
    "final_x": "3705850.74705",
    "final_y": "518024.788726",
    "longitude": "-89.99167901264644",
    "latitude": "29.91762680266807",
    "geocoded_column": {
      "latitude": "29.91762680266807",
      "longitude": "-89.99167901264644"
    }
  },
  {
    "service_request": "2022-879753",
    "request_type": "Trash/Recycling",
    "request_reason": "Missed Trash Pick-Up",
    "date_created": "2022-05-03T15:50:37.000",
    "date_modified": "2022-05-03T15:50:37.000",
    "request_status": "Pending",
    "responsible_agency": "Department of Sanitation",
    "final_address": "4308 Fontainebleau Dr",
    "address_councildis": "A",
    "status": "Assigned to Contractor",
    "contractor": "Richards Disposal",
    "rowid": "879753",
    "final_x": "3669345.78151",
    "final_y": "529354.417473",
    "longitude": "-90.10652229438067",
    "latitude": "29.94990447584146",
    "geocoded_column": {
      "latitude": "29.94990447584146",
      "longitude": "-90.10652229438067"
    }
  },
  {
    "service_request": "2022-879752",
    "request_type": "Trash/Recycling",
    "request_reason": "Missed Trash Pick-Up",
    "date_created": "2022-05-03T15:48:13.000",
    "date_modified": "2022-05-03T15:48:14.000",
    "request_status": "Pending",
    "responsible_agency": "Department of Sanitation",
    "final_address": "5330 Danneel St",
    "address_councildis": "B",
    "status": "Assigned to Contractor",
    "contractor": "Richards Disposal",
    "rowid": "879752",
    "final_x": "3667725.96109",
    "final_y": "522172.15993",
    "longitude": "-90.11187857752286",
    "latitude": "29.930203167677515",
    "geocoded_column": {
      "latitude": "29.930203167677515",
      "longitude": "-90.11187857752286"
    }
  },
  {
    "service_request": "2022-879750",
    "request_type": "Safety & Permits",
    "request_reason": "Licenses & Permits",
    "date_created": "2022-05-03T15:42:18.000",
    "date_modified": "2022-05-03T15:42:19.000",
    "request_status": "Pending",
    "responsible_agency": "Safety and Permits",
    "final_address": "1800 Magazine St",
    "address_councildis": "B",
    "status": "Pending",
    "rowid": "879750",
    "final_x": "3679911.73397",
    "final_y": "522898.193083",
    "longitude": "-90.0733848498623",
    "latitude": "29.93183671549341",
    "geocoded_column": {
      "latitude": "29.93183671549341",
      "longitude": "-90.0733848498623"
    }
  },
  {
    "service_request": "2022-879747",
    "request_type": "Abandoned Vehicles",
    "request_reason": "Abandoned/Junk Vehicles",
    "date_created": "2022-05-03T15:20:08.000",
    "date_modified": "2022-05-03T15:20:08.000",
    "request_status": "Pending",
    "responsible_agency": "Department of Public Works",
    "final_address": "7119 Fig St",
    "address_councildis": "B",
    "status": "Pending",
    "rowid": "879747",
    "final_x": "3667821.89261",
    "final_y": "531807.971011",
    "longitude": "-90.1112513086814",
    "latitude": "29.956695720646014",
    "geocoded_column": {
      "latitude": "29.956695720646014",
      "longitude": "-90.1112513086814"
    }
  },
  {
    "service_request": "2022-879746",
    "request_type": "Trash/Recycling",
    "request_reason": "Order Recycling Cart",
    "date_created": "2022-05-03T15:18:05.000",
    "date_modified": "2022-05-03T15:18:06.000",
    "request_status": "Pending",
    "responsible_agency": "Department of Sanitation",
    "final_address": "6315 Brighton Pl",
    "address_councildis": "C",
    "status": "Pending",
    "contractor": "Richards Disposal",
    "rowid": "879746",
    "final_x": "3707581.13937",
    "final_y": "519991.63884",
    "longitude": "-89.98614418647907",
    "latitude": "29.92297913032742",
    "geocoded_column": {
      "latitude": "29.92297913032742",
      "longitude": "-89.98614418647907"
    }
  },
  {
    "service_request": "2022-879745",
    "request_type": "Trash/Recycling",
    "request_reason": "Repair Trash Cart",
    "date_created": "2022-05-03T15:16:54.000",
    "date_modified": "2022-05-03T15:16:55.000",
    "request_status": "Pending",
    "responsible_agency": "Department of Sanitation",
    "final_address": "6315 Brighton Pl",
    "address_councildis": "C",
    "status": "Assigned to Contractor",
    "contractor": "Richards Disposal",
    "rowid": "879745",
    "final_x": "3707581.13937",
    "final_y": "519991.63884",
    "longitude": "-89.98614418647907",
    "latitude": "29.92297913032742",
    "geocoded_column": {
      "latitude": "29.92297913032742",
      "longitude": "-89.98614418647907"
    }
  },
  {
    "service_request": "2022-879744",
    "request_type": "Trash/Recycling",
    "request_reason": "Request a Large Item Pick Up",
    "date_created": "2022-05-03T15:14:27.000",
    "date_modified": "2022-05-03T15:14:28.000",
    "request_status": "Pending",
    "responsible_agency": "Department of Sanitation",
    "final_address": "4729 Carondelet St",
    "address_councildis": "B",
    "status": "Assigned to Contractor",
    "contractor": "Richards Disposal",
    "rowid": "879744",
    "final_x": "3669435.18503",
    "final_y": "521189.971449",
    "longitude": "-90.10651601291735",
    "latitude": "29.927452252703794",
    "geocoded_column": {
      "latitude": "29.927452252703794",
      "longitude": "-90.10651601291735"
    }
  },
  {
    "service_request": "2022-879743",
    "request_type": "Property Maintenance",
    "request_reason": "Property Maintenance",
    "date_created": "2022-05-03T15:11:43.000",
    "date_modified": "2022-05-03T15:11:43.000",
    "request_status": "Pending",
    "responsible_agency": "Department of Code Enforcement",
    "final_address": "2500 General Ogden St",
    "address_councildis": "A",
    "status": "Pending",
    "rowid": "879743",
    "final_x": "3663029.62579",
    "final_y": "533806.887237",
    "longitude": "-90.12631732675305",
    "latitude": "29.962331758486428",
    "geocoded_column": {
      "latitude": "29.962331758486428",
      "longitude": "-90.12631732675305"
    }
  },
  {
    "service_request": "2022-879742",
    "request_type": "Trash/Recycling",
    "request_reason": "Illegal Dumping",
    "date_created": "2022-05-03T15:09:41.000",
    "date_modified": "2022-05-03T15:09:42.000",
    "request_status": "Pending",
    "responsible_agency": "Department of Sanitation",
    "final_address": "8921 Nelson St",
    "address_councildis": "A",
    "status": "Pending",
    "rowid": "879742",
    "final_x": "3662918.6089",
    "final_y": "533895.854405",
    "longitude": "-90.12666494521946",
    "latitude": "29.962579604244247",
    "geocoded_column": {
      "latitude": "29.962579604244247",
      "longitude": "-90.12666494521946"
    }
  },
  {
    "service_request": "2022-879741",
    "request_type": "Trash/Recycling",
    "request_reason": "Order Recycling Cart",
    "date_created": "2022-05-03T15:08:52.000",
    "date_modified": "2022-05-03T15:08:53.000",
    "request_status": "Pending",
    "responsible_agency": "Department of Sanitation",
    "final_address": "1934 Fern St",
    "address_councildis": "A",
    "status": "Pending",
    "rowid": "879741",
    "final_x": "3664341.0905",
    "final_y": "529901.377473",
    "longitude": "-90.12230623824846",
    "latitude": "29.951554826892586",
    "geocoded_column": {
      "latitude": "29.951554826892586",
      "longitude": "-90.12230623824846"
    }
  },
  {
    "service_request": "2022-879740",
    "request_type": "Property Maintenance",
    "request_reason": "Property Maintenance",
    "date_created": "2022-05-03T15:05:31.000",
    "date_modified": "2022-05-03T15:05:32.000",
    "request_status": "Pending",
    "responsible_agency": "Department of Code Enforcement",
    "final_address": "CROWDER BLVD & LAKE FOREST BLVD",
    "address_councildis": "E",
    "status": "Pending",
    "rowid": "879740",
    "final_x": "3705341.2",
    "final_y": "557778.38",
    "longitude": "-89.99181827867378",
    "latitude": "30.026951000024866",
    "geocoded_column": {
      "latitude": "30.026951000024866",
      "longitude": "-89.99181827867378"
    }
  },
  {
    "service_request": "2022-879739",
    "request_type": "Tax and Revenue",
    "request_reason": "Occupational License Tax",
    "date_created": "2022-05-03T15:01:34.000",
    "date_modified": "2022-05-03T15:01:34.000",
    "request_status": "Pending",
    "responsible_agency": "Bureau of Revenue",
    "final_address": "2533 Carondelet St",
    "address_councildis": "B",
    "status": "Pending",
    "rowid": "879739",
    "final_x": "3676241.72987",
    "final_y": "523251.765179",
    "longitude": "-90.0849585042002",
    "latitude": "29.93291937573761",
    "geocoded_column": {
      "latitude": "29.93291937573761",
      "longitude": "-90.0849585042002"
    }
  },
  {
    "service_request": "2022-879738",
    "request_type": "Trash/Recycling",
    "request_reason": "Missed Trash Pick-Up",
    "date_created": "2022-05-03T15:00:37.000",
    "date_modified": "2022-05-03T15:00:39.000",
    "request_status": "Pending",
    "responsible_agency": "Department of Sanitation",
    "final_address": "4014 Danneel St",
    "address_councildis": "B",
    "status": "Assigned to Contractor",
    "contractor": "Richards Disposal",
    "rowid": "879738",
    "final_x": "3672052.98414",
    "final_y": "522373.771962",
    "longitude": "-90.09821196905726",
    "latitude": "29.93062999616357",
    "geocoded_column": {
      "latitude": "29.93062999616357",
      "longitude": "-90.09821196905726"
    }
  },
  {
    "service_request": "2022-879737",
    "request_type": "Abandoned Vehicles",
    "request_reason": "Abandoned/Junk Vehicles",
    "date_created": "2022-05-03T14:53:27.000",
    "date_modified": "2022-05-03T14:53:27.000",
    "request_status": "Pending",
    "responsible_agency": "Department of Public Works",
    "final_address": "1411 Gallier St",
    "address_councildis": "C",
    "status": "Pending",
    "rowid": "879737",
    "final_x": "3690801.26531",
    "final_y": "536851.05972",
    "longitude": "-90.03851015730851",
    "latitude": "29.969868546590565",
    "geocoded_column": {
      "latitude": "29.969868546590565",
      "longitude": "-90.03851015730851"
    }
  },
  {
    "service_request": "2022-879734",
    "request_type": "Abandoned Vehicles",
    "request_reason": "Abandoned/Junk Vehicles",
    "date_created": "2022-05-03T14:48:12.000",
    "date_modified": "2022-05-03T14:48:46.000",
    "request_status": "Pending",
    "responsible_agency": "Department of Public Works",
    "final_address": "3919 Iberville St",
    "address_councildis": "A",
    "status": "Pending",
    "rowid": "879734",
    "final_x": "3671973.58798",
    "final_y": "538328.148297",
    "longitude": "-90.09791958289007",
    "latitude": "29.9745016166884",
    "geocoded_column": {
      "latitude": "29.9745016166884",
      "longitude": "-90.09791958289007"
    }
  },
  {
    "service_request": "2022-879733",
    "request_type": "Trash/Recycling",
    "request_reason": "Request a Large Item Pick Up",
    "date_created": "2022-05-03T14:43:31.000",
    "date_modified": "2022-05-03T14:43:32.000",
    "request_status": "Pending",
    "responsible_agency": "Department of Sanitation",
    "final_address": "2421 Gravier St",
    "address_councildis": "B",
    "status": "Assigned to Contractor",
    "contractor": "Richards Disposal",
    "rowid": "879733",
    "final_x": "3675086.63086",
    "final_y": "532857.15322",
    "longitude": "-90.08827557845171",
    "latitude": "29.959365573784968",
    "geocoded_column": {
      "latitude": "29.959365573784968",
      "longitude": "-90.08827557845171"
    }
  },
  {
    "service_request": "2022-879732",
    "request_type": "Trash/Recycling",
    "request_reason": "Request a Large Item Pick Up",
    "date_created": "2022-05-03T14:42:48.000",
    "date_modified": "2022-05-03T14:42:49.000",
    "request_status": "Pending",
    "responsible_agency": "Department of Sanitation",
    "final_address": "3630 Laurel St",
    "address_councildis": "B",
    "status": "Assigned to Contractor",
    "contractor": "Richards Disposal",
    "rowid": "879732",
    "final_x": "3674178.46792",
    "final_y": "518445.82335",
    "longitude": "-90.09163649124709",
    "latitude": "29.919766232643006",
    "geocoded_column": {
      "latitude": "29.919766232643006",
      "longitude": "-90.09163649124709"
    }
  },
  {
    "service_request": "2022-879731",
    "request_type": "Trash/Recycling",
    "request_reason": "Order Trash Cart",
    "date_created": "2022-05-03T14:37:32.000",
    "date_modified": "2022-05-03T14:39:44.000",
    "request_status": "Pending",
    "responsible_agency": "Department of Sanitation",
    "final_address": "2411 Dumaine St",
    "address_councildis": "D",
    "status": "Assigned to Contractor",
    "contractor": "Richards Disposal",
    "rowid": "879731",
    "final_x": "3678178.08757",
    "final_y": "536791.034824",
    "longitude": "-90.07837743787167",
    "latitude": "29.9700896839904",
    "geocoded_column": {
      "latitude": "29.9700896839904",
      "longitude": "-90.07837743787167"
    }
  },
  {
    "service_request": "2022-879730",
    "request_type": "Trash/Recycling",
    "request_reason": "Request a Large Item Pick Up",
    "date_created": "2022-05-03T14:36:13.000",
    "date_modified": "2022-05-03T14:36:13.000",
    "request_status": "Pending",
    "responsible_agency": "Department of Sanitation",
    "final_address": "1115 Lyons St",
    "address_councildis": "B",
    "status": "Assigned to Contractor",
    "contractor": "Richards Disposal",
    "rowid": "879730",
    "final_x": "3669204.98068",
    "final_y": "519489.652343",
    "longitude": "-90.10730014473744",
    "latitude": "29.922783690562895",
    "geocoded_column": {
      "latitude": "29.922783690562895",
      "longitude": "-90.10730014473744"
    }
  },
  {
    "service_request": "2022-879729",
    "request_type": "Trash/Recycling",
    "request_reason": "Request a Large Item Pick Up",
    "date_created": "2022-05-03T14:29:57.000",
    "date_modified": "2022-05-03T14:29:58.000",
    "request_status": "Pending",
    "responsible_agency": "Department of Sanitation",
    "final_address": "803 Pine St, New Orleans, Louisiana, 70118",
    "address_councildis": "A",
    "status": "Assigned to Contractor",
    "contractor": "Richards Disposal",
    "rowid": "879729",
    "final_x": "3663193.33811",
    "final_y": "525512.342205",
    "longitude": "-90.12607631388748",
    "latitude": "29.939519690828067",
    "geocoded_column": {
      "latitude": "29.939519690828067",
      "longitude": "-90.12607631388748"
    }
  },
  {
    "service_request": "2022-879727",
    "request_type": "Parks & Parkways",
    "request_reason": "Request Tree Service (Right of Way/Public Property)",
    "date_created": "2022-05-03T14:26:04.000",
    "date_modified": "2022-05-03T14:26:04.000",
    "request_status": "Pending",
    "responsible_agency": "Department of Parks & Parkway",
    "final_address": "7605 St Charles Ave",
    "address_councildis": "A",
    "status": "Pending",
    "rowid": "879727",
    "final_x": "3661902.18464",
    "final_y": "525709.446909",
    "longitude": "-90.13014614559043",
    "latitude": "29.94009900851552",
    "geocoded_column": {
      "latitude": "29.94009900851552",
      "longitude": "-90.13014614559043"
    }
  },
  {
    "service_request": "2022-879726",
    "request_type": "Trash/Recycling",
    "request_reason": "Missed Trash Pick-Up",
    "date_created": "2022-05-03T14:25:26.000",
    "date_modified": "2022-05-03T14:25:27.000",
    "request_status": "Pending",
    "responsible_agency": "Department of Sanitation",
    "final_address": "3536 Upperline St A",
    "address_councildis": "B",
    "status": "Assigned to Contractor",
    "contractor": "Richards Disposal",
    "rowid": "879726",
    "final_x": "3669251.04794",
    "final_y": "528005.235455",
    "longitude": "-90.10686701048013",
    "latitude": "29.946197453932704",
    "geocoded_column": {
      "latitude": "29.946197453932704",
      "longitude": "-90.10686701048013"
    }
  },
  {
    "service_request": "2022-879725",
    "request_type": "Parks & Parkways",
    "request_reason": "Request Tree Service (Right of Way/Public Property)",
    "date_created": "2022-05-03T14:24:08.000",
    "date_modified": "2022-05-03T14:24:10.000",
    "request_status": "Pending",
    "responsible_agency": "Department of Parks & Parkway",
    "final_address": "516 S Tonti St",
    "address_councildis": "B",
    "status": "Pending",
    "rowid": "879725",
    "final_x": "3675474.85678",
    "final_y": "532950.162372",
    "longitude": "-90.08704645740725",
    "latitude": "29.959609712795167",
    "geocoded_column": {
      "latitude": "29.959609712795167",
      "longitude": "-90.08704645740725"
    }
  },
  {
    "service_request": "2022-879723",
    "request_type": "Property Maintenance",
    "request_reason": "Property Maintenance",
    "date_created": "2022-05-03T14:22:58.000",
    "date_modified": "2022-05-03T14:22:58.000",
    "request_status": "Pending",
    "responsible_agency": "Department of Code Enforcement",
    "final_address": "809 N Roman St",
    "address_councildis": "D",
    "status": "Pending",
    "rowid": "879723",
    "final_x": "3679436.92789",
    "final_y": "535412.950086",
    "longitude": "-90.07444970724991",
    "latitude": "29.966262452626818",
    "geocoded_column": {
      "latitude": "29.966262452626818",
      "longitude": "-90.07444970724991"
    }
  },
  {
    "service_request": "2022-879722",
    "request_type": "Property Maintenance",
    "request_reason": "Property Maintenance",
    "date_created": "2022-05-03T14:20:56.000",
    "date_modified": "2022-05-03T14:20:56.000",
    "request_status": "Pending",
    "responsible_agency": "Department of Code Enforcement",
    "final_address": "1900 St Ann St",
    "address_councildis": "D",
    "status": "Pending",
    "rowid": "879722",
    "final_x": "3679362.3133",
    "final_y": "535317.63431",
    "longitude": "-90.07468864505087",
    "latitude": "29.966002620626902",
    "geocoded_column": {
      "latitude": "29.966002620626902",
      "longitude": "-90.07468864505087"
    }
  },
  {
    "service_request": "2022-879721",
    "request_type": "Trash/Recycling",
    "request_reason": "Replace Recycling Cart",
    "date_created": "2022-05-03T14:19:38.000",
    "date_modified": "2022-05-03T14:19:38.000",
    "request_status": "Pending",
    "responsible_agency": "Department of Sanitation",
    "final_address": "2560 Eton St",
    "address_councildis": "C",
    "status": "Pending",
    "rowid": "879721",
    "final_x": "3704049.953",
    "final_y": "521635.309689",
    "longitude": "-89.99723018380669",
    "latitude": "29.927612339741895",
    "geocoded_column": {
      "latitude": "29.927612339741895",
      "longitude": "-89.99723018380669"
    }
  },
  {
    "service_request": "2022-879719",
    "request_type": "Trash/Recycling",
    "request_reason": "Illegal Dumping",
    "date_created": "2022-05-03T14:15:52.000",
    "date_modified": "2022-05-03T14:15:52.000",
    "request_status": "Pending",
    "responsible_agency": "Department of Sanitation",
    "final_address": "2421 Gravier St",
    "address_councildis": "B",
    "status": "Pending",
    "rowid": "879719",
    "final_x": "3675086.63086",
    "final_y": "532857.15322",
    "longitude": "-90.08827557845171",
    "latitude": "29.959365573784968",
    "geocoded_column": {
      "latitude": "29.959365573784968",
      "longitude": "-90.08827557845171"
    }
  },
  {
    "service_request": "2022-879718",
    "request_type": "Parks & Parkways",
    "request_reason": "Request Tree Service (Right of Way/Public Property)",
    "date_created": "2022-05-03T14:14:50.000",
    "date_modified": "2022-05-03T14:14:51.000",
    "request_status": "Pending",
    "responsible_agency": "Department of Parks & Parkway",
    "final_address": "536 S Tonti St",
    "address_councildis": "B",
    "status": "Pending",
    "rowid": "879718",
    "final_x": "3675382.22286",
    "final_y": "532831.234244",
    "longitude": "-90.08734305808309",
    "latitude": "29.959285470426103",
    "geocoded_column": {
      "latitude": "29.959285470426103",
      "longitude": "-90.08734305808309"
    }
  },
  {
    "service_request": "2022-879717",
    "request_type": "Trash/Recycling",
    "request_reason": "Request a Large Item Pick Up",
    "date_created": "2022-05-03T14:14:16.000",
    "date_modified": "2022-05-03T14:14:17.000",
    "request_status": "Pending",
    "responsible_agency": "Department of Sanitation",
    "final_address": "6061 Annunciation St",
    "address_councildis": "A",
    "status": "Assigned to Contractor",
    "contractor": "Richards Disposal",
    "rowid": "879717",
    "final_x": "3663818.63104",
    "final_y": "518053.517494",
    "longitude": "-90.12435063301314",
    "latitude": "29.918992141508493",
    "geocoded_column": {
      "latitude": "29.918992141508493",
      "longitude": "-90.12435063301314"
    }
  },
  {
    "service_request": "2022-879716",
    "request_type": "Trash/Recycling",
    "request_reason": "Missed Trash Pick-Up",
    "date_created": "2022-05-03T14:13:51.000",
    "date_modified": "2022-05-03T14:13:52.000",
    "request_status": "Pending",
    "responsible_agency": "Department of Sanitation",
    "final_address": "1628 Frankfort St, New Orleans, Louisiana, 70122",
    "address_councildis": "D",
    "status": "Assigned to Contractor",
    "contractor": "Metro Disposal",
    "rowid": "879716",
    "final_x": "3679248.49346",
    "final_y": "556452.402522",
    "longitude": "-90.07431473070696",
    "latitude": "30.024119206904604",
    "geocoded_column": {
      "latitude": "30.024119206904604",
      "longitude": "-90.07431473070696"
    }
  },
  {
    "service_request": "2022-879715",
    "request_type": "Trash/Recycling",
    "request_reason": "Illegal Dumping",
    "date_created": "2022-05-03T14:12:16.000",
    "date_modified": "2022-05-03T14:12:16.000",
    "request_status": "Pending",
    "responsible_agency": "Department of Sanitation",
    "final_address": "119 N Lopez St",
    "address_councildis": "B",
    "status": "Pending",
    "rowid": "879715",
    "final_x": "3673993.06388",
    "final_y": "536448.551495",
    "longitude": "-90.091605910311",
    "latitude": "29.969273339094578",
    "geocoded_column": {
      "latitude": "29.969273339094578",
      "longitude": "-90.091605910311"
    }
  },
  {
    "service_request": "2022-879714",
    "request_type": "Traffic Signals/Signs/Striping/Streetlights",
    "request_reason": "Traffic Sign Missing/Damaged",
    "date_created": "2022-05-03T14:08:52.000",
    "date_modified": "2022-05-03T14:08:52.000",
    "request_status": "Pending",
    "responsible_agency": "Department of Public Works",
    "final_address": "SULLEN PL & ESSEX CT",
    "address_councildis": "C",
    "status": "Pending",
    "rowid": "879714",
    "final_x": "3707642.7",
    "final_y": "517551.18",
    "longitude": "-89.98604044456567",
    "latitude": "29.91626672859217",
    "geocoded_column": {
      "latitude": "29.91626672859217",
      "longitude": "-89.98604044456567"
    }
  },
  {
    "service_request": "2022-879713",
    "request_type": "Trash/Recycling",
    "request_reason": "Request a Large Item Pick Up",
    "date_created": "2022-05-03T14:07:41.000",
    "date_modified": "2022-05-03T14:07:42.000",
    "request_status": "Pending",
    "responsible_agency": "Department of Sanitation",
    "final_address": "1522 Rev. John Raphael, Jr. Way",
    "address_councildis": "B",
    "status": "Assigned to Contractor",
    "contractor": "Richards Disposal",
    "rowid": "879713",
    "final_x": "3676575.69038",
    "final_y": "526914.465406",
    "longitude": "-90.08377812006358",
    "latitude": "29.942980589792885",
    "geocoded_column": {
      "latitude": "29.942980589792885",
      "longitude": "-90.08377812006358"
    }
  },
  {
    "service_request": "2022-879712",
    "request_type": "Roads/Drainage",
    "request_reason": "Pothole",
    "date_created": "2022-05-03T14:07:11.000",
    "date_modified": "2022-05-03T14:07:13.000",
    "request_status": "Pending",
    "responsible_agency": "Department of Public Works",
    "final_address": "TULANE AVE & S TONTI ST",
    "address_councildis": "B",
    "status": "Pending",
    "rowid": "879712",
    "final_x": "3675545.1",
    "final_y": "533146.48",
    "longitude": "-90.08681790128806",
    "latitude": "29.960147419391582",
    "geocoded_column": {
      "latitude": "29.960147419391582",
      "longitude": "-90.08681790128806"
    }
  },
  {
    "service_request": "2022-879711",
    "request_type": "Roads/Drainage",
    "request_reason": "Street Subsidence (Sinking)",
    "date_created": "2022-05-03T14:05:47.000",
    "date_modified": "2022-05-03T14:05:47.000",
    "request_status": "Pending",
    "responsible_agency": "Department of Public Works",
    "final_address": "Milan St & Camp St, New Orleans, Louisiana, 70115",
    "status": "Pending",
    "rowid": "879711",
    "longitude": "0.0",
    "latitude": "0.0",
    "geocoded_column": {
      "latitude": "0.0",
      "longitude": "0.0"
    }
  },
  {
    "service_request": "2022-879710",
    "request_type": "Trash/Recycling",
    "request_reason": "Missed Trash Pick-Up",
    "date_created": "2022-05-03T14:04:44.000",
    "date_modified": "2022-05-03T14:04:45.000",
    "request_status": "Pending",
    "responsible_agency": "Department of Sanitation",
    "final_address": "1001 Milan St, New Orleans, Louisiana, 70115",
    "address_councildis": "B",
    "status": "Assigned to Contractor",
    "contractor": "Richards Disposal",
    "rowid": "879710",
    "final_x": "3671820.68059",
    "final_y": "519273.322103",
    "longitude": "-90.09905075029566",
    "latitude": "29.922111635323976",
    "geocoded_column": {
      "latitude": "29.922111635323976",
      "longitude": "-90.09905075029566"
    }
  },
  {
    "service_request": "2022-879709",
    "request_type": "Trash/Recycling",
    "request_reason": "Missed Trash Pick-Up",
    "date_created": "2022-05-03T14:04:40.000",
    "date_modified": "2022-05-03T14:04:41.000",
    "request_status": "Pending",
    "responsible_agency": "Department of Sanitation",
    "final_address": "6019 Bellaire Dr",
    "address_councildis": "A",
    "status": "Assigned to Contractor",
    "contractor": "Metro Disposal",
    "rowid": "879709",
    "final_x": "3664339.07309",
    "final_y": "547764.40565",
    "longitude": "-90.12171620171776",
    "latitude": "30.000672261254035",
    "geocoded_column": {
      "latitude": "30.000672261254035",
      "longitude": "-90.12171620171776"
    }
  },
  {
    "service_request": "2022-879708",
    "request_type": "Trash/Recycling",
    "request_reason": "Missed Trash Pick-Up",
    "date_created": "2022-05-03T14:04:25.000",
    "date_modified": "2022-05-03T14:04:26.000",
    "request_status": "Pending",
    "responsible_agency": "Department of Sanitation",
    "final_address": "6021 Magazine St",
    "address_councildis": "A",
    "status": "Assigned to Contractor",
    "contractor": "Richards Disposal",
    "rowid": "879708",
    "final_x": "3664521.56852",
    "final_y": "519313.657527",
    "longitude": "-90.12208976495486",
    "latitude": "29.92243672062294",
    "geocoded_column": {
      "latitude": "29.92243672062294",
      "longitude": "-90.12208976495486"
    }
  },
  {
    "service_request": "2022-879707",
    "request_type": "Abandoned Vehicles",
    "request_reason": "Abandoned/Junk Vehicles",
    "date_created": "2022-05-03T14:01:19.000",
    "date_modified": "2022-05-03T14:01:20.000",
    "request_status": "Pending",
    "responsible_agency": "Department of Public Works",
    "final_address": "2309 Second St",
    "address_councildis": "B",
    "status": "Pending",
    "rowid": "879707",
    "final_x": "3675304.8756",
    "final_y": "525219.690685",
    "longitude": "-90.08784855844492",
    "latitude": "29.938358560668426",
    "geocoded_column": {
      "latitude": "29.938358560668426",
      "longitude": "-90.08784855844492"
    }
  },
  {
    "service_request": "2022-879706",
    "request_type": "Trash/Recycling",
    "request_reason": "Request a Large Item Pick Up",
    "date_created": "2022-05-03T14:00:55.000",
    "date_modified": "2022-05-03T14:00:56.000",
    "request_status": "Pending",
    "responsible_agency": "Department of Sanitation",
    "final_address": "2915 Conti St, New Orleans, Louisiana, 70119",
    "address_councildis": "B",
    "status": "Assigned to Contractor",
    "contractor": "Richards Disposal",
    "rowid": "879706",
    "final_x": "3675231.43617",
    "final_y": "536702.385479",
    "longitude": "-90.08768631742853",
    "latitude": "29.96993433780899",
    "geocoded_column": {
      "latitude": "29.96993433780899",
      "longitude": "-90.08768631742853"
    }
  },
  {
    "service_request": "2022-879705",
    "request_type": "Trash/Recycling",
    "request_reason": "MIssed Recycling Pick-Up",
    "date_created": "2022-05-03T14:00:36.000",
    "date_modified": "2022-05-03T14:00:37.000",
    "request_status": "Pending",
    "responsible_agency": "Department of Sanitation",
    "final_address": "1914 Esplanade Ave",
    "address_councildis": "D",
    "status": "Assigned to Contractor",
    "contractor": "Richards Disposal",
    "rowid": "879705",
    "final_x": "3680268.94703",
    "final_y": "537268.72084",
    "longitude": "-90.07175768356318",
    "latitude": "29.971340024340137",
    "geocoded_column": {
      "latitude": "29.971340024340137",
      "longitude": "-90.07175768356318"
    }
  },
  {
    "service_request": "2022-879703",
    "request_type": "Traffic Signals/Signs/Striping/Streetlights",
    "request_reason": "Street Light Outage/Malfunction",
    "date_created": "2022-05-03T13:57:27.000",
    "date_modified": "2022-05-03T13:57:30.000",
    "request_status": "Pending",
    "responsible_agency": "Department of Public Works",
    "final_address": "2829 Constance St",
    "address_councildis": "B",
    "status": "Pending",
    "contractor": "Royal Engineering",
    "rowid": "879703",
    "final_x": "3677042.56693",
    "final_y": "520411.80044",
    "longitude": "-90.0825281879046",
    "latitude": "29.92508638199704",
    "geocoded_column": {
      "latitude": "29.92508638199704",
      "longitude": "-90.0825281879046"
    }
  },
  {
    "service_request": "2022-879702",
    "request_type": "Abandoned Vehicles",
    "request_reason": "Abandoned/Junk Vehicles",
    "date_created": "2022-05-03T13:56:23.000",
    "date_modified": "2022-05-03T13:56:23.000",
    "request_status": "Pending",
    "responsible_agency": "Department of Public Works",
    "final_address": "CAMERON BLVD & BURBANK DR",
    "address_councildis": "D",
    "status": "Pending",
    "rowid": "879702",
    "final_x": "3682439.8",
    "final_y": "554674.68",
    "longitude": "-90.06429302185069",
    "latitude": "30.019134319818463",
    "geocoded_column": {
      "latitude": "30.019134319818463",
      "longitude": "-90.06429302185069"
    }
  },