[
  {
    "service_request": "2024-1065709",
    "request_type": "Roads/Drainage",
    "request_reason": "Pothole",
    "date_created": "2024-02-03T22:48:51.000",
    "date_modified": "2024-02-03T22:48:51.000",
    "request_status": "Pending",
    "responsible_agency": "Department of Public Works",
    "final_address": "5212 Danneel St",
    "address_councildis": "B",
    "status": "Pending",
    "rowid": "1065709",
    "final_x": "3668061.71629",
    "final_y": "522115.860666",
    "longitude": "-90.11082054481848",
    "latitude": "29.930038516955683",
    "geocoded_column": {
      "latitude": "29.930038516955683",
      "longitude": "-90.11082054481848"
    }
  },
  {
    "service_request": "2024-1065708",
    "request_type": "Roads/Drainage",
    "request_reason": "Street Flooding / Drainage",
    "date_created": "2024-02-03T22:37:49.000",
    "date_modified": "2024-02-03T22:37:49.000",
    "request_status": "Pending",
    "responsible_agency": "Department of Public Works",
    "final_address": "1801 Rousseau St",
    "address_councildis": "B",
    "status": "Pending",
    "rowid": "1065708",
    "final_x": "3681453.81589",
    "final_y": "521496.418873",
    "longitude": "-90.0685655133437",
    "latitude": "29.927935583435655",
    "geocoded_column": {
      "latitude": "29.927935583435655",
      "longitude": "-90.0685655133437"
    }
  },
  {
    "service_request": "2024-1065707",
    "request_type": "Roads/Drainage",
    "request_reason": "Street Flooding / Drainage",
    "date_created": "2024-02-03T22:08:54.000",
    "date_modified": "2024-02-03T22:08:54.000",
    "request_status": "Pending",
    "responsible_agency": "Department of Public Works",
    "final_address": "2227 Odin St",
    "address_councildis": "D",
    "status": "Pending",
    "rowid": "1065707",
    "final_x": "3683940.00124",
    "final_y": "553107.349527",
    "longitude": "-90.059607959909",
    "latitude": "30.014778964512548",
    "geocoded_column": {
      "latitude": "30.014778964512548",
      "longitude": "-90.059607959909"
    }
  },
  {
    "service_request": "2024-1065706",
    "request_type": "Roads/Drainage",
    "request_reason": "Catch Basin - Broken/Damage",
    "date_created": "2024-02-03T21:14:32.000",
    "date_modified": "2024-02-03T21:14:32.000",
    "request_status": "Pending",
    "responsible_agency": "Department of Public Works",
    "final_address": "3129 College Ct",
    "address_councildis": "B",
    "status": "Pending",
    "rowid": "1065706",
    "final_x": "3668533.32026",
    "final_y": "531911.576835",
    "longitude": "-90.10900134653045",
    "latitude": "29.956959719926903",
    "geocoded_column": {
      "latitude": "29.956959719926903",
      "longitude": "-90.10900134653045"
    }
  },
  {
    "service_request": "2024-1065705",
    "request_type": "Traffic Signals/Signs/Striping/Streetlights",
    "request_reason": "Traffic Sign Missing/Damaged",
    "date_created": "2024-02-03T20:26:25.000",
    "date_modified": "2024-02-03T20:26:25.000",
    "request_status": "Pending",
    "responsible_agency": "Department of Public Works",
    "final_address": "540 N Cortez St",
    "address_councildis": "A",
    "status": "Pending",
    "rowid": "1065705",
    "final_x": "3673245.67572",
    "final_y": "538862.846985",
    "longitude": "-90.09388374888503",
    "latitude": "29.975934082608557",
    "geocoded_column": {
      "latitude": "29.975934082608557",
      "longitude": "-90.09388374888503"
    }
  },
  {
    "service_request": "2024-1065704",
    "request_type": "Roads/Drainage",
    "request_reason": "Street Flooding / Drainage",
    "date_created": "2024-02-03T20:06:45.000",
    "date_modified": "2024-02-03T20:06:45.000",
    "request_status": "Pending",
    "responsible_agency": "Department of Public Works",
    "final_address": "5232 St Bernard Ave",
    "address_councildis": "D",
    "status": "Pending",
    "rowid": "1065704",
    "final_x": "3676625.16533",
    "final_y": "551366.516629",
    "longitude": "-90.08277935356156",
    "latitude": "30.010213848781504",
    "geocoded_column": {
      "latitude": "30.010213848781504",
      "longitude": "-90.08277935356156"
    }
  },
  {
    "service_request": "2024-1065702",
    "request_type": "Roads/Drainage",
    "request_reason": "Street Flooding / Drainage",
    "date_created": "2024-02-03T19:54:26.000",
    "date_modified": "2024-02-03T19:54:26.000",
    "request_status": "Pending",
    "responsible_agency": "Department of Public Works",
    "final_address": "1411 St Bernard Ave",
    "address_councildis": "C",
    "status": "Pending",
    "rowid": "1065702",
    "final_x": "3682544.73519",
    "final_y": "537318.509128",
    "longitude": "-90.06456868917684",
    "latitude": "29.971407831796544",
    "geocoded_column": {
      "latitude": "29.971407831796544",
      "longitude": "-90.06456868917684"
    }
  },
  {
    "service_request": "2024-1065700",
    "request_type": "Roads/Drainage",
    "request_reason": "Street Flooding / Drainage",
    "date_created": "2024-02-03T19:40:10.000",
    "date_modified": "2024-02-03T19:40:10.000",
    "request_status": "Pending",
    "responsible_agency": "Department of Public Works",
    "final_address": "1521 Mandeville St",
    "address_councildis": "C",
    "status": "Pending",
    "rowid": "1065700",
    "final_x": "3685680.73724",
    "final_y": "538024.984905",
    "longitude": "-90.054639866008",
    "latitude": "29.97325454105964",
    "geocoded_column": {
      "latitude": "29.97325454105964",
      "longitude": "-90.054639866008"
    }
  },
  {
    "service_request": "2024-1065699",
    "request_type": "Roads/Drainage",
    "request_reason": "Street Flooding / Drainage",
    "date_created": "2024-02-03T19:34:59.000",
    "date_modified": "2024-02-03T19:34:59.000",
    "request_status": "Pending",
    "responsible_agency": "Department of Public Works",
    "final_address": "2501 St Roch Ave",
    "address_councildis": "D",
    "status": "Pending",
    "rowid": "1065699",
    "final_x": "3686161.6285",
    "final_y": "541625.292428",
    "longitude": "-90.05299406596846",
    "latitude": "29.98313935499864",
    "geocoded_column": {
      "latitude": "29.98313935499864",
      "longitude": "-90.05299406596846"
    }
  },
  {
    "service_request": "2024-1065698",
    "request_type": "Roads/Drainage",
    "request_reason": "Street Flooding / Drainage",
    "date_created": "2024-02-03T19:28:00.000",
    "date_modified": "2024-02-03T19:28:00.000",
    "request_status": "Pending",
    "responsible_agency": "Department of Public Works",
    "final_address": "BANKS ST & S LOPEZ ST",
    "address_councildis": "B",
    "status": "Pending",
    "rowid": "1065698",
    "final_x": "3673134.7",
    "final_y": "535251.98",
    "longitude": "-90.0943575537168",
    "latitude": "29.966008719824238",
    "geocoded_column": {
      "latitude": "29.966008719824238",
      "longitude": "-90.0943575537168"
    }
  },
  {
    "service_request": "2024-1065697",
    "request_type": "Roads/Drainage",
    "request_reason": "Street Flooding / Drainage",
    "date_created": "2024-02-03T19:27:04.000",
    "date_modified": "2024-02-03T19:27:04.000",
    "request_status": "Pending",
    "responsible_agency": "Department of Public Works",
    "final_address": "4420 Fontainebleau Dr",
    "address_councildis": "A",
    "status": "Pending",
    "rowid": "1065697",
    "final_x": "3669024.66586",
    "final_y": "529547.656065",
    "longitude": "-90.10752968101023",
    "latitude": "29.950445268472325",
    "geocoded_column": {
      "latitude": "29.950445268472325",
      "longitude": "-90.10752968101023"
    }
  },
  {
    "service_request": "2024-1065696",
    "request_type": "Safety & Permits",
    "request_reason": "Licenses & Permits",
    "date_created": "2024-02-03T19:21:40.000",
    "date_modified": "2024-02-03T19:21:40.000",
    "request_status": "Pending",
    "responsible_agency": "Safety and Permits",
    "final_address": "4825 Camelia St",
    "address_councildis": "E",
    "status": "Pending",
    "rowid": "1065696",
    "final_x": "3701568.92247",
    "final_y": "554771.093592",
    "longitude": "-90.00384848196704",
    "latitude": "30.01880301429615",
    "geocoded_column": {
      "latitude": "30.01880301429615",
      "longitude": "-90.00384848196704"
    }
  },
  {
    "service_request": "2024-1065695",
    "request_type": "Roads/Drainage",
    "request_reason": "Street Flooding / Drainage",
    "date_created": "2024-02-03T19:18:35.000",
    "date_modified": "2024-02-03T19:18:35.000",
    "request_status": "Pending",
    "responsible_agency": "Department of Public Works",
    "final_address": "8962 Birch St",
    "address_councildis": "A",
    "status": "Pending",
    "rowid": "1065695",
    "final_x": "3660432.43853",
    "final_y": "531617.509635",
    "longitude": "-90.1345912457388",
    "latitude": "29.956386649266427",
    "geocoded_column": {
      "latitude": "29.956386649266427",
      "longitude": "-90.1345912457388"
    }
  },
  {
    "service_request": "2024-1065694",
    "request_type": "Roads/Drainage",
    "request_reason": "Street Flooding / Drainage",
    "date_created": "2024-02-03T19:17:47.000",
    "date_modified": "2024-02-03T19:17:47.000",
    "request_status": "Pending",
    "responsible_agency": "Department of Public Works",
    "final_address": "3137 Louisiana Avenue Prkwy",
    "address_councildis": "B",
    "status": "Pending",
    "rowid": "1065694",
    "final_x": "3672056.06151",
    "final_y": "526893.02803",
    "longitude": "-90.09804845129644",
    "latitude": "29.943056393642845",
    "geocoded_column": {
      "latitude": "29.943056393642845",
      "longitude": "-90.09804845129644"
    }
  },
  {
    "service_request": "2024-1065693",
    "request_type": "Roads/Drainage",
    "request_reason": "Street Flooding / Drainage",
    "date_created": "2024-02-03T19:08:44.000",
    "date_modified": "2024-02-03T19:08:44.000",
    "request_status": "Pending",
    "responsible_agency": "Department of Public Works",
    "final_address": "4420 Fontainebleau Dr",
    "address_councildis": "A",
    "status": "Pending",
    "rowid": "1065693",
    "final_x": "3669024.66586",
    "final_y": "529547.656065",
    "longitude": "-90.10752968101023",
    "latitude": "29.950445268472325",
    "geocoded_column": {
      "latitude": "29.950445268472325",
      "longitude": "-90.10752968101023"
    }
  },
  {
    "service_request": "2024-1065692",
    "request_type": "Roads/Drainage",
    "request_reason": "Street Flooding / Drainage",
    "date_created": "2024-02-03T18:53:37.000",
    "date_modified": "2024-02-03T18:53:37.000",
    "request_status": "Pending",
    "responsible_agency": "Department of Public Works",
    "final_address": "6000 BLK Charlotte Dr",
    "address_councildis": "D",
    "status": "Pending",
    "rowid": "1065692",
    "final_x": "3679865.54837",
    "final_y": "554928.173068",
    "longitude": "-90.07241795283468",
    "latitude": "30.019909475301823",
    "geocoded_column": {
      "latitude": "30.019909475301823",
      "longitude": "-90.07241795283468"
    }
  },
  {
    "service_request": "2024-1065691",
    "request_type": "Trash/Recycling",
    "request_reason": "Request a Large Item Pick Up",
    "date_created": "2024-02-03T18:52:41.000",
    "date_modified": "2024-02-03T18:52:41.000",
    "request_status": "Pending",
    "responsible_agency": "Department of Sanitation",
    "final_address": "1434 Freret St",
    "address_councildis": "B",
    "status": "Assigned to Contractor",
    "contractor": "Richards Disposal",
    "rowid": "1065691",
    "final_x": "3676527.378",
    "final_y": "527410.104639",
    "longitude": "-90.08391359104856",
    "latitude": "29.94434488247245",
    "geocoded_column": {
      "latitude": "29.94434488247245",
      "longitude": "-90.08391359104856"
    }
  },
  {
    "service_request": "2024-1065690",
    "request_type": "Roads/Drainage",
    "request_reason": "Street Flooding / Drainage",
    "date_created": "2024-02-03T18:45:29.000",
    "date_modified": "2024-02-03T18:45:29.000",
    "request_status": "Pending",
    "responsible_agency": "Department of Public Works",
    "final_address": "1544 Pressburg St",
    "address_councildis": "D",
    "status": "Pending",
    "rowid": "1065690",
    "final_x": "3678723.28245",
    "final_y": "553965.289752",
    "longitude": "-90.07606053016241",
    "latitude": "30.017296408321847",
    "geocoded_column": {
      "latitude": "30.017296408321847",
      "longitude": "-90.07606053016241"
    }
  },
  {
    "service_request": "2024-1065689",
    "request_type": "Roads/Drainage",
    "request_reason": "Street Flooding / Drainage",
    "date_created": "2024-02-03T18:39:53.000",
    "date_modified": "2024-02-03T18:39:53.000",
    "request_status": "Pending",
    "responsible_agency": "Department of Public Works",
    "final_address": "3300 BLK Jefferson Ave",
    "address_councildis": "B",
    "status": "Pending",
    "rowid": "1065689",
    "final_x": "3668701.66387",
    "final_y": "527458.350055",
    "longitude": "-90.10862006700881",
    "latitude": "29.944709854424442",
    "geocoded_column": {
      "latitude": "29.944709854424442",
      "longitude": "-90.10862006700881"
    }
  },
  {
    "service_request": "2024-1065688",
    "request_type": "Roads/Drainage",
    "request_reason": "Street Flooding / Drainage",
    "date_created": "2024-02-03T18:22:59.000",
    "date_modified": "2024-02-03T18:22:59.000",
    "request_status": "Pending",
    "responsible_agency": "Department of Public Works",
    "final_address": "6051 Charlotte Dr",
    "address_councildis": "D",
    "status": "Pending",
    "rowid": "1065688",
    "final_x": "3679948.74709",
    "final_y": "554882.789144",
    "longitude": "-90.07215664994266",
    "latitude": "30.019782168368202",
    "geocoded_column": {
      "latitude": "30.019782168368202",
      "longitude": "-90.07215664994266"
    }
  },
  {
    "service_request": "2024-1065687",
    "request_type": "Roads/Drainage",
    "request_reason": "Street Flooding / Drainage",
    "date_created": "2024-02-03T18:21:15.000",
    "date_modified": "2024-02-03T18:21:15.000",
    "request_status": "Pending",
    "responsible_agency": "Department of Public Works",
    "final_address": "7500 BLK Barkley Pl",
    "address_councildis": "D",
    "status": "Pending",
    "rowid": "1065687",
    "final_x": "3694457.46604",
    "final_y": "558045.076939",
    "longitude": "-90.02620004124198",
    "latitude": "30.028030191214462",
    "geocoded_column": {
      "latitude": "30.028030191214462",
      "longitude": "-90.02620004124198"
    }
  },
  {
    "service_request": "2024-1065686",
    "request_type": "Roads/Drainage",
    "request_reason": "Street Flooding / Drainage",
    "date_created": "2024-02-03T17:27:58.000",
    "date_modified": "2024-02-03T17:27:58.000",
    "request_status": "Pending",
    "responsible_agency": "Department of Public Works",
    "final_address": "1521 Richland Rd",
    "address_councildis": "C",
    "status": "Pending",
    "rowid": "1065686",
    "final_x": "3697856.14691",
    "final_y": "525564.373757",
    "longitude": "-90.0166398923209",
    "latitude": "29.93861304671705",
    "geocoded_column": {
      "latitude": "29.93861304671705",
      "longitude": "-90.0166398923209"
    }
  },
  {
    "service_request": "2024-1065685",
    "request_type": "Roads/Drainage",
    "request_reason": "Street Flooding / Drainage",
    "date_created": "2024-02-03T17:26:44.000",
    "date_modified": "2024-02-03T17:26:44.000",
    "request_status": "Pending",
    "responsible_agency": "Department of Public Works",
    "final_address": "1521 Richland Rd",
    "address_councildis": "C",
    "status": "Pending",
    "rowid": "1065685",
    "final_x": "3697856.14691",
    "final_y": "525564.373757",
    "longitude": "-90.0166398923209",
    "latitude": "29.93861304671705",
    "geocoded_column": {
      "latitude": "29.93861304671705",
      "longitude": "-90.0166398923209"
    }
  },
  {
    "service_request": "2024-1065684",
    "request_type": "Roads/Drainage",
    "request_reason": "Man hole cover issue",
    "date_created": "2024-02-03T17:17:30.000",
    "date_modified": "2024-02-03T17:17:30.000",
    "request_status": "Pending",
    "responsible_agency": "Department of Public Works",
    "final_address": "2839 N Dorgenois St",
    "address_councildis": "D",
    "status": "Pending",
    "rowid": "1065684",
    "final_x": "3688182.9871",
    "final_y": "541787.382988",
    "longitude": "-90.0466038432718",
    "latitude": "29.983522787241863",
    "geocoded_column": {
      "latitude": "29.983522787241863",
      "longitude": "-90.0466038432718"
    }
  },
  {
    "service_request": "2024-1065683",
    "request_type": "Roads/Drainage",
    "request_reason": "Catch Basin - Clogged",
    "date_created": "2024-02-03T16:50:02.000",
    "date_modified": "2024-02-03T16:50:02.000",
    "request_status": "Pending",
    "responsible_agency": "Department of Public Works",
    "final_address": "3320 Banks St",
    "address_councildis": "B",
    "status": "Pending",
    "rowid": "1065683",
    "final_x": "3672657.36571",
    "final_y": "535547.022342",
    "longitude": "-90.09585490276433",
    "latitude": "29.966834170390843",
    "geocoded_column": {
      "latitude": "29.966834170390843",
      "longitude": "-90.09585490276433"
    }
  },
  {
    "service_request": "2024-1065682",
    "request_type": "Roads/Drainage",
    "request_reason": "Catch Basin - Clogged",
    "date_created": "2024-02-03T16:47:23.000",
    "date_modified": "2024-02-03T16:47:23.000",
    "request_status": "Pending",
    "responsible_agency": "Department of Public Works",
    "final_address": "4400 BLK Elba St",
    "address_councildis": "B",
    "status": "Pending",
    "rowid": "1065682",
    "final_x": "3669665.58288",
    "final_y": "530460.659339",
    "longitude": "-90.1054751011141",
    "latitude": "29.952936859642445",
    "geocoded_column": {
      "latitude": "29.952936859642445",
      "longitude": "-90.1054751011141"
    }
  },
  {
    "service_request": "2024-1065681",
    "request_type": "Trash/Recycling",
    "request_reason": "Replace Trash Cart",
    "date_created": "2024-02-03T16:06:46.000",
    "date_modified": "2024-02-03T16:06:47.000",
    "request_status": "Pending",
    "responsible_agency": "Department of Sanitation",
    "final_address": "8609 Stroelitz St, New Orleans, Louisiana, 70118",
    "address_councildis": "A",
    "status": "Assigned to Contractor",
    "contractor": "Richards Disposal",
    "rowid": "1065681",
    "final_x": "3666601.38497",
    "final_y": "536250.794311",
    "longitude": "-90.11495612185045",
    "latitude": "29.968947756416984",
    "geocoded_column": {
      "latitude": "29.968947756416984",
      "longitude": "-90.11495612185045"
    }
  },
  {
    "service_request": "2024-1065679",
    "request_type": "Trash/Recycling",
    "request_reason": "Request a Large Item Pick Up",
    "date_created": "2024-02-03T15:36:44.000",
    "date_modified": "2024-02-03T15:36:44.000",
    "request_status": "Pending",
    "responsible_agency": "Department of Sanitation",
    "final_address": "623 Alvar St",
    "address_councildis": "C",
    "status": "Assigned to Contractor",
    "contractor": "IV Waste",
    "rowid": "1065679",
    "final_x": "3691127.05091",
    "final_y": "533728.897925",
    "longitude": "-90.03759279903288",
    "latitude": "29.961273571251745",
    "geocoded_column": {
      "latitude": "29.961273571251745",
      "longitude": "-90.03759279903288"
    }
  },
  {
    "service_request": "2024-1065677",
    "request_type": "Trash/Recycling",
    "request_reason": "Missed Trash Pick-Up",
    "date_created": "2024-02-03T15:28:07.000",
    "date_modified": "2024-02-03T15:28:07.000",
    "request_status": "Pending",
    "responsible_agency": "Department of Sanitation",
    "final_address": "5534 S Johnson St",
    "address_councildis": "A",
    "status": "Assigned to Contractor",
    "contractor": "Richards Disposal",
    "rowid": "1065677",
    "final_x": "3667951.53479",
    "final_y": "527054.73907",
    "longitude": "-90.11100205039655",
    "latitude": "29.94362207937838",
    "geocoded_column": {
      "latitude": "29.94362207937838",
      "longitude": "-90.11100205039655"
    }
  },
  {
    "service_request": "2024-1065676",
    "request_type": "Trash/Recycling",
    "request_reason": "Order Recycling Cart",
    "date_created": "2024-02-03T15:00:37.000",
    "date_modified": "2024-02-03T15:00:37.000",
    "request_status": "Pending",
    "responsible_agency": "Department of Sanitation",
    "final_address": "2709 N Roman St",
    "address_councildis": "D",
    "status": "Pending",
    "rowid": "1065676",
    "final_x": "3688182.98959",
    "final_y": "539020.193738",
    "longitude": "-90.04670197698529",
    "latitude": "29.975913997017855",
    "geocoded_column": {
      "latitude": "29.975913997017855",
      "longitude": "-90.04670197698529"
    }
  },
  {
    "service_request": "2024-1065675",
    "request_type": "Traffic Signals/Signs/Striping/Streetlights",
    "request_reason": "Street Light Outage/Malfunction",
    "date_created": "2024-02-03T14:52:13.000",
    "date_modified": "2024-02-03T14:52:13.000",
    "request_status": "Pending",
    "responsible_agency": "Department of Public Works",
    "final_address": "6200 BLK Louis XIV St",
    "address_councildis": "A",
    "status": "Assigned to Contractor",
    "contractor": "Legacy Professional Services",
    "rowid": "1065675",
    "final_x": "3668225.8036",
    "final_y": "548949.345787",
    "longitude": "-90.10939772335963",
    "latitude": "30.003816856557666",
    "geocoded_column": {
      "latitude": "30.003816856557666",
      "longitude": "-90.10939772335963"
    }
  },
  {
    "service_request": "2024-1065674",
    "request_type": "Abandoned Vehicles",
    "request_reason": "Abandoned/Junk Vehicles",
    "date_created": "2024-02-03T14:51:43.000",
    "date_modified": "2024-02-03T14:51:43.000",
    "request_status": "Pending",
    "responsible_agency": "Department of Public Works",
    "final_address": "SMITH ST & CATINA ST",
    "address_councildis": "A",
    "status": "Pending",
    "rowid": "1065674",
    "final_x": "3666991.2",
    "final_y": "551277.68",
    "longitude": "-90.11321973566959",
    "latitude": "30.010255168463086",
    "geocoded_column": {
      "latitude": "30.010255168463086",
      "longitude": "-90.11321973566959"
    }
  },
  {
    "service_request": "2024-1065673",
    "request_type": "Abandoned Vehicles",
    "request_reason": "Abandoned/Junk Vehicles",
    "date_created": "2024-02-03T14:45:56.000",
    "date_modified": "2024-02-03T14:45:56.000",
    "request_status": "Pending",
    "responsible_agency": "Department of Public Works",
    "final_address": "SMITH ST & CATINA ST",
    "address_councildis": "A",
    "status": "Pending",
    "rowid": "1065673",
    "final_x": "3666991.2",
    "final_y": "551277.68",
    "longitude": "-90.11321973566959",
    "latitude": "30.010255168463086",
    "geocoded_column": {
      "latitude": "30.010255168463086",
      "longitude": "-90.11321973566959"
    }
  },
  {
    "service_request": "2024-1065671",
    "request_type": "Trash/Recycling",
    "request_reason": "Request a Large Item Pick Up",
    "date_created": "2024-02-03T14:36:05.000",
    "date_modified": "2024-02-03T14:36:06.000",
    "request_status": "Pending",
    "responsible_agency": "Department of Sanitation",
    "final_address": "4429 Iberville St",
    "address_councildis": "A",
    "status": "Assigned to Contractor",
    "contractor": "Richards Disposal",
    "rowid": "1065671",
    "final_x": "3670093.14388",
    "final_y": "539704.866762",
    "longitude": "-90.10381183994168",
    "latitude": "29.97834274104806",
    "geocoded_column": {
      "latitude": "29.97834274104806",
      "longitude": "-90.10381183994168"
    }
  },
  {
    "service_request": "2024-1065670",
    "request_type": "Abandoned Vehicles",
    "request_reason": "Abandoned/Junk Vehicles",
    "date_created": "2024-02-03T14:31:15.000",
    "date_modified": "2024-02-03T14:31:15.000",
    "request_status": "Pending",
    "responsible_agency": "Department of Public Works",
    "final_address": "2300 Orleans Ave",
    "address_councildis": "D",
    "status": "Pending",
    "rowid": "1065670",
    "final_x": "3678074.03586",
    "final_y": "535962.094919",
    "longitude": "-90.07873470741417",
    "latitude": "29.96781351540864",
    "geocoded_column": {
      "latitude": "29.96781351540864",
      "longitude": "-90.07873470741417"
    }
  },
  {
    "service_request": "2024-1065669",
    "request_type": "Health Related Request",
    "request_reason": "Request Information on the Health Marketplace",
    "date_created": "2024-02-03T14:29:30.000",
    "date_modified": "2024-02-03T14:29:30.000",
    "request_status": "Pending",
    "responsible_agency": "Health Department",
    "final_address": "1219 Esplanade Ave",
    "address_councildis": "C",
    "status": "Pending",
    "rowid": "1065669",
    "final_x": "3682489.90127",
    "final_y": "535727.523463",
    "longitude": "-90.06479748822903",
    "latitude": "29.96703483988659",
    "geocoded_column": {
      "latitude": "29.96703483988659",
      "longitude": "-90.06479748822903"
    }
  },
  {
    "service_request": "2024-1065668",
    "request_type": "Roads/Drainage",
    "request_reason": "Pothole",
    "date_created": "2024-02-03T14:20:16.000",
    "date_modified": "2024-02-03T14:20:16.000",
    "request_status": "Pending",
    "responsible_agency": "Department of Public Works",
    "final_address": "MILAN ST & DANNEEL ST",
    "address_councildis": "B",
    "status": "Pending",
    "rowid": "1065668",
    "final_x": "3671457.3",
    "final_y": "522367.58",
    "longitude": "-90.10009267125722",
    "latitude": "29.930630612428747",
    "geocoded_column": {
      "latitude": "29.930630612428747",
      "longitude": "-90.10009267125722"
    }
  },
  {
    "service_request": "2024-1065667",
    "request_type": "Roads/Drainage",
    "request_reason": "Pothole",
    "date_created": "2024-02-03T14:12:16.000",
    "date_modified": "2024-02-03T14:12:16.000",
    "request_status": "Pending",
    "responsible_agency": "Department of Public Works",
    "final_address": "1908 Constantinople St",
    "address_councildis": "B",
    "status": "Pending",
    "rowid": "1065667",
    "final_x": "3672112.71131",
    "final_y": "522185.217978",
    "longitude": "-90.09802983585794",
    "latitude": "29.93010976301257",
    "geocoded_column": {
      "latitude": "29.93010976301257",
      "longitude": "-90.09802983585794"
    }
  },
  {
    "service_request": "2024-1065666",
    "request_type": "Property Maintenance",
    "request_reason": "Property Maintenance",
    "date_created": "2024-02-03T14:05:11.000",
    "date_modified": "2024-02-03T14:05:11.000",
    "request_status": "Pending",
    "responsible_agency": "Department of Code Enforcement",
    "final_address": "5924 Prytania St",
    "address_councildis": "A",
    "status": "Pending",
    "rowid": "1065666",
    "final_x": "3665376.0544",
    "final_y": "520678.843833",
    "longitude": "-90.11934683236012",
    "latitude": "29.926165689488833",
    "geocoded_column": {
      "latitude": "29.926165689488833",
      "longitude": "-90.11934683236012"
    }
  },
  {
    "service_request": "2024-1065665",
    "request_type": "Roads/Drainage",
    "request_reason": "Catch Basin - Broken/Damage",
    "date_created": "2024-02-03T13:43:43.000",
    "date_modified": "2024-02-03T13:43:43.000",
    "request_status": "Pending",
    "responsible_agency": "Department of Public Works",
    "final_address": "4133 S Carrollton Ave",
    "address_councildis": "A",
    "status": "Pending",
    "rowid": "1065665",
    "final_x": "3669296.41102",
    "final_y": "536637.131911",
    "longitude": "-90.1064319636555",
    "latitude": "29.969930985210816",
    "geocoded_column": {
      "latitude": "29.969930985210816",
      "longitude": "-90.1064319636555"
    }
  },
  {
    "service_request": "2024-1065664",
    "request_type": "Roads/Drainage",
    "request_reason": "Catch Basin - Broken/Damage",
    "date_created": "2024-02-03T13:39:39.000",
    "date_modified": "2024-02-03T13:39:39.000",
    "request_status": "Pending",
    "responsible_agency": "Department of Public Works",
    "final_address": "2017 N Galvez St",
    "address_councildis": "D",
    "status": "Pending",
    "rowid": "1065664",
    "final_x": "3683747.41858",
    "final_y": "539950.731338",
    "longitude": "-90.06067811820884",
    "latitude": "29.97860885315275",
    "geocoded_column": {
      "latitude": "29.97860885315275",
      "longitude": "-90.06067811820884"
    }
  },
  {
    "service_request": "2024-1065663",
    "request_type": "Trash/Recycling",
    "request_reason": "Request a Large Item Pick Up",
    "date_created": "2024-02-03T13:39:22.000",
    "date_modified": "2024-02-03T13:39:23.000",
    "request_status": "Pending",
    "responsible_agency": "Department of Sanitation",
    "final_address": "1300 Pauline St",
    "address_councildis": "D",
    "status": "Assigned to Contractor",
    "contractor": "IV Waste",
    "rowid": "1065663",
    "final_x": "3691359.28886",
    "final_y": "536228.537415",
    "longitude": "-90.03677011850134",
    "latitude": "29.968139479293676",
    "geocoded_column": {
      "latitude": "29.968139479293676",
      "longitude": "-90.03677011850134"
    }
  },
  {
    "service_request": "2024-1065662",
    "request_type": "Roads/Drainage",
    "request_reason": "Catch Basin - Broken/Damage",
    "date_created": "2024-02-03T13:34:47.000",
    "date_modified": "2024-02-03T13:34:47.000",
    "request_status": "Pending",
    "responsible_agency": "Department of Public Works",
    "final_address": "4360 Washington Ave",
    "address_councildis": "B",
    "status": "Pending",
    "rowid": "1065662",
    "final_x": "3670418.96833",
    "final_y": "531194.343618",
    "longitude": "-90.10307136254022",
    "latitude": "29.954932029896785",
    "geocoded_column": {
      "latitude": "29.954932029896785",
      "longitude": "-90.10307136254022"
    }
  },
  {
    "service_request": "2024-1065661",
    "request_type": "Roads/Drainage",
    "request_reason": "Catch Basin - Clogged",
    "date_created": "2024-02-03T13:32:05.000",
    "date_modified": "2024-02-03T13:32:05.000",
    "request_status": "Pending",
    "responsible_agency": "Department of Public Works",
    "final_address": "4910 Washington Ave",
    "address_councildis": "B",
    "status": "Pending",
    "rowid": "1065661",
    "final_x": "3669542.27598",
    "final_y": "533259.408388",
    "longitude": "-90.10576977596176",
    "latitude": "29.960636129358353",
    "geocoded_column": {
      "latitude": "29.960636129358353",
      "longitude": "-90.10576977596176"
    }
  },
  {
    "service_request": "2024-1065660",
    "request_type": "Trash/Recycling",
    "request_reason": "Request a Large Item Pick Up",
    "date_created": "2024-02-03T13:29:37.000",
    "date_modified": "2024-02-03T13:29:37.000",
    "request_status": "Pending",
    "responsible_agency": "Department of Sanitation",
    "final_address": "7531 Scottwood Dr",
    "address_councildis": "E",
    "status": "Assigned to Contractor",
    "contractor": "Waste Pro",
    "rowid": "1065660",
    "final_x": "3717667.34911",
    "final_y": "570344.897703",
    "longitude": "-89.95239076466447",
    "latitude": "30.061101236553146",
    "geocoded_column": {
      "latitude": "30.061101236553146",
      "longitude": "-89.95239076466447"
    }
  },
  {
    "service_request": "2024-1065659",
    "request_type": "Trash/Recycling",
    "request_reason": "Request a Large Item Pick Up",
    "date_created": "2024-02-03T13:29:36.000",
    "date_modified": "2024-02-03T13:29:37.000",
    "request_status": "Pending",
    "responsible_agency": "Department of Sanitation",
    "final_address": "7531 Scottwood Dr",
    "address_councildis": "E",
    "status": "Assigned to Contractor",
    "contractor": "Waste Pro",
    "rowid": "1065659",
    "final_x": "3717667.34911",
    "final_y": "570344.897703",
    "longitude": "-89.95239076466447",
    "latitude": "30.061101236553146",
    "geocoded_column": {
      "latitude": "30.061101236553146",
      "longitude": "-89.95239076466447"
    }
  },
  {
    "service_request": "2024-1065658",
    "request_type": "Roads/Drainage",
    "request_reason": "Catch Basin - Broken/Damage",
    "date_created": "2024-02-03T13:28:03.000",
    "date_modified": "2024-02-03T13:28:03.000",
    "request_status": "Pending",
    "responsible_agency": "Department of Public Works",
    "final_address": "7300 BLK Washington Ave",
    "address_councildis": "B",
    "status": "Pending",
    "rowid": "1065658",
    "final_x": "3668930.33697",
    "final_y": "534330.602058",
    "longitude": "-90.10766598168254",
    "latitude": "29.963599569228922",
    "geocoded_column": {
      "latitude": "29.963599569228922",
      "longitude": "-90.10766598168254"
    }
  },
  {
    "service_request": "2024-1065657",
    "request_type": "Trash/Recycling",
    "request_reason": "Replace Trash Cart",
    "date_created": "2024-02-03T13:24:23.000",
    "date_modified": "2024-02-03T13:24:24.000",
    "request_status": "Pending",
    "responsible_agency": "Department of Sanitation",
    "final_address": "3717 Palmyra St",
    "address_councildis": "A",
    "status": "Assigned to Contractor",
    "contractor": "Richards Disposal",
    "rowid": "1065657",
    "final_x": "3671767.16692",
    "final_y": "536895.500616",
    "longitude": "-90.09862026775478",
    "latitude": "29.970568437307566",
    "geocoded_column": {
      "latitude": "29.970568437307566",
      "longitude": "-90.09862026775478"
    }
  },
  {
    "service_request": "2024-1065656",
    "request_type": "Trash/Recycling",
    "request_reason": "Illegal Dumping",
    "date_created": "2024-02-03T13:19:27.000",
    "date_modified": "2024-02-03T13:19:27.000",
    "request_status": "Pending",
    "responsible_agency": "Department of Sanitation",
    "final_address": "3800 BLK Ulloa St",
    "address_councildis": "B",
    "status": "Pending",
    "rowid": "1065656",
    "final_x": "3670499.03921",
    "final_y": "535836.470766",
    "longitude": "-90.10266109529677",
    "latitude": "29.96769397306958",
    "geocoded_column": {
      "latitude": "29.96769397306958",
      "longitude": "-90.10266109529677"
    }
  },
  {
    "service_request": "2024-1065655",
    "request_type": "Trash/Recycling",
    "request_reason": "Missed Trash Pick-Up",
    "date_created": "2024-02-03T13:11:03.000",
    "date_modified": "2024-02-03T13:11:04.000",
    "request_status": "Pending",
    "responsible_agency": "Department of Sanitation",
    "final_address": "422 Burdette St, New Orleans, Louisiana, 70118",
    "address_councildis": "A",
    "status": "Assigned to Contractor",
    "contractor": "Richards Disposal",
    "rowid": "1065655",
    "final_x": "3660996.82637",
    "final_y": "525706.529853",
    "longitude": "-90.1330046118547",
    "latitude": "29.9401170967883",
    "geocoded_column": {
      "latitude": "29.9401170967883",
      "longitude": "-90.1330046118547"
    }
  },
  {
    "service_request": "2024-1065654",
    "request_type": "Property Maintenance",
    "request_reason": "Property Maintenance",
    "date_created": "2024-02-03T13:02:47.000",
    "date_modified": "2024-02-03T13:02:47.000",
    "request_status": "Pending",
    "responsible_agency": "Department of Code Enforcement",
    "final_address": "1532 Eleonore St",
    "address_councildis": "A",
    "status": "Pending",
    "rowid": "1065654",
    "final_x": "3665841.33095",
    "final_y": "522007.632186",
    "longitude": "-90.11783358628247",
    "latitude": "29.929805874871004",
    "geocoded_column": {
      "latitude": "29.929805874871004",
      "longitude": "-90.11783358628247"
    }
  },
  {
    "service_request": "2024-1065653",
    "request_type": "Trash/Recycling",
    "request_reason": "Request a Large Item Pick Up",
    "date_created": "2024-02-03T13:01:26.000",
    "date_modified": "2024-02-03T13:01:26.000",
    "request_status": "Pending",
    "responsible_agency": "Department of Sanitation",
    "final_address": "6011 Painters St",
    "address_councildis": "D",
    "status": "Assigned to Contractor",
    "contractor": "IV Waste",
    "rowid": "1065653",
    "final_x": "3686108.22434",
    "final_y": "555259.655449",
    "longitude": "-90.05268143396154",
    "latitude": "30.0206305624863",
    "geocoded_column": {
      "latitude": "30.0206305624863",
      "longitude": "-90.05268143396154"
    }
  },
  {
    "service_request": "2024-1065652",
    "request_type": "Trash/Recycling",
    "request_reason": "Request a Large Item Pick Up",
    "date_created": "2024-02-03T12:56:17.000",
    "date_modified": "2024-02-03T12:56:17.000",
    "request_status": "Pending",
    "responsible_agency": "Department of Sanitation",
    "final_address": "3011 Sullen Pl",
    "address_councildis": "C",
    "status": "Assigned to Contractor",
    "contractor": "Richards Disposal",
    "rowid": "1065652",
    "final_x": "3707785.08331",
    "final_y": "519617.937592",
    "longitude": "-89.98551429608008",
    "latitude": "29.921944987773887",
    "geocoded_column": {
      "latitude": "29.921944987773887",
      "longitude": "-89.98551429608008"
    }
  },
  {
    "service_request": "2024-1065651",
    "request_type": "Roads/Drainage",
    "request_reason": "Man hole cover issue",
    "date_created": "2024-02-03T12:30:30.000",
    "date_modified": "2024-02-03T12:47:28.000",
    "request_status": "Pending",
    "responsible_agency": "Department of Public Works",
    "final_address": "2309 Baronne St, New Orleans, Louisiana, 70113",
    "address_councildis": "B",
    "status": "Pending",
    "rowid": "1065651",
    "final_x": "3676676.82216",
    "final_y": "523960.35142",
    "longitude": "-90.08356055055965",
    "latitude": "29.93485471487099",
    "geocoded_column": {
      "latitude": "29.93485471487099",
      "longitude": "-90.08356055055965"
    }
  },
  {
    "service_request": "2024-1065650",
    "request_type": "Trash/Recycling",
    "request_reason": "Replace Trash Cart",
    "date_created": "2024-02-03T12:20:39.000",
    "date_modified": "2024-02-03T12:20:39.000",
    "request_status": "Pending",
    "responsible_agency": "Department of Sanitation",
    "final_address": "137 S Hennessey St",
    "address_councildis": "A",
    "status": "Assigned to Contractor",
    "contractor": "Richards Disposal",
    "rowid": "1065650",
    "final_x": "3670038.24705",
    "final_y": "538698.561033",
    "longitude": "-90.10401932270256",
    "latitude": "29.975577360066254",
    "geocoded_column": {
      "latitude": "29.975577360066254",
      "longitude": "-90.10401932270256"
    }
  },
  {
    "service_request": "2024-1065648",
    "request_type": "Trash/Recycling",
    "request_reason": "Request a Large Item Pick Up",
    "date_created": "2024-02-03T12:18:28.000",
    "date_modified": "2024-02-03T12:18:28.000",
    "request_status": "Pending",
    "responsible_agency": "Department of Sanitation",
    "final_address": "1311 Flanders St",
    "address_councildis": "C",
    "status": "Assigned to Contractor",
    "contractor": "Richards Disposal",
    "rowid": "1065648",
    "final_x": "3696684.48791",
    "final_y": "526505.941374",
    "longitude": "-90.0203048602097",
    "latitude": "29.941239000146606",
    "geocoded_column": {
      "latitude": "29.941239000146606",
      "longitude": "-90.0203048602097"
    }
  },
  {
    "service_request": "2024-1065647",
    "request_type": "Trash/Recycling",
    "request_reason": "Request a Large Item Pick Up",
    "date_created": "2024-02-03T12:15:49.000",
    "date_modified": "2024-02-03T12:15:50.000",
    "request_status": "Pending",
    "responsible_agency": "Department of Sanitation",
    "final_address": "2529 Calhoun St, New Orleans, Louisiana, 70118",
    "address_councildis": "A",
    "status": "Assigned to Contractor",
    "contractor": "Richards Disposal",
    "rowid": "1065647",
    "final_x": "3666313.28807",
    "final_y": "526238.287358",
    "longitude": "-90.11620182944185",
    "latitude": "29.941425051641872",
    "geocoded_column": {
      "latitude": "29.941425051641872",
      "longitude": "-90.11620182944185"
    }
  },
  {
    "service_request": "2024-1065646",
    "request_type": "Roads/Drainage",
    "request_reason": "Damaged Sidewalk",
    "date_created": "2024-02-03T11:58:49.000",
    "date_modified": "2024-02-03T11:58:49.000",
    "request_status": "Pending",
    "responsible_agency": "Department of Public Works",
    "final_address": "823 Burgundy St",
    "address_councildis": "C",
    "status": "Pending",
    "rowid": "1065646",
    "final_x": "3682012.18588",
    "final_y": "533580.717957",
    "longitude": "-90.06638107662758",
    "latitude": "29.961146394183746",
    "geocoded_column": {
      "latitude": "29.961146394183746",
      "longitude": "-90.06638107662758"
    }
  },
  {
    "service_request": "2024-1065645",
    "request_type": "Roads/Drainage",
    "request_reason": "Damaged Sidewalk",
    "date_created": "2024-02-03T11:57:31.000",
    "date_modified": "2024-02-03T11:57:31.000",
    "request_status": "Pending",
    "responsible_agency": "Department of Public Works",
    "final_address": "823 Burgundy St",
    "address_councildis": "C",
    "status": "Pending",
    "rowid": "1065645",
    "final_x": "3682012.18588",
    "final_y": "533580.717957",
    "longitude": "-90.06638107662758",
    "latitude": "29.961146394183746",
    "geocoded_column": {
      "latitude": "29.961146394183746",
      "longitude": "-90.06638107662758"
    }
  },
  {
    "service_request": "2024-1065644",
    "request_type": "Abandoned Vehicles",
    "request_reason": "Abandoned/Junk Vehicles",
    "date_created": "2024-02-03T11:33:48.000",
    "date_modified": "2024-02-03T11:33:48.000",
    "request_status": "Pending",
    "responsible_agency": "Department of Public Works",
    "final_address": "920 Harding Dr",
    "address_councildis": "A",
    "status": "Pending",
    "rowid": "1065644",
    "final_x": "3674396.08596",
    "final_y": "539835.078474",
    "longitude": "-90.09021710560665",
    "latitude": "29.978573120300357",
    "geocoded_column": {
      "latitude": "29.978573120300357",
      "longitude": "-90.09021710560665"
    }
  },
  {
    "service_request": "2024-1065643",
    "request_type": "Utility Poles",
    "request_reason": "Utility Pole Leaning",
    "date_created": "2024-02-03T11:32:42.000",
    "date_modified": "2024-02-03T11:32:48.000",
    "request_status": "Pending",
    "responsible_agency": "Utility Company Collective",
    "final_address": "4658 Redwood St",
    "address_councildis": "E",
    "status": "Pending",
    "rowid": "1065643",
    "final_x": "3712459.71186",
    "final_y": "555684.124889",
    "longitude": "-89.9694034829238",
    "latitude": "30.020961545322002",
    "geocoded_column": {
      "latitude": "30.020961545322002",
      "longitude": "-89.9694034829238"
    }
  },
  {
    "service_request": "2024-1065642",
    "request_type": "Trash/Recycling",
    "request_reason": "Order Trash Cart",
    "date_created": "2024-02-03T11:22:50.000",
    "date_modified": "2024-02-03T11:22:50.000",
    "request_status": "Pending",
    "responsible_agency": "Department of Sanitation",
    "final_address": "7922 Burthe St",
    "address_councildis": "A",
    "status": "Assigned to Contractor",
    "contractor": "Richards Disposal",
    "rowid": "1065642",
    "final_x": "3661661.05978",
    "final_y": "527180.766143",
    "longitude": "-90.13085866976516",
    "latitude": "29.94415162851905",
    "geocoded_column": {
      "latitude": "29.94415162851905",
      "longitude": "-90.13085866976516"
    }
  },
  {
    "service_request": "2024-1065641",
    "request_type": "Trash/Recycling",
    "request_reason": "Request a Large Item Pick Up",
    "date_created": "2024-02-03T11:11:58.000",
    "date_modified": "2024-02-03T11:11:58.000",
    "request_status": "Pending",
    "responsible_agency": "Department of Sanitation",
    "final_address": "3006 Bienville Ave",
    "address_councildis": "B",
    "status": "Assigned to Contractor",
    "contractor": "Richards Disposal",
    "rowid": "1065641",
    "final_x": "3674726.76872",
    "final_y": "536495.472327",
    "longitude": "-90.08928720281813",
    "latitude": "29.969380472460582",
    "geocoded_column": {
      "latitude": "29.969380472460582",
      "longitude": "-90.08928720281813"
    }
  },
  {
    "service_request": "2024-1065640",
    "request_type": "Abandoned Vehicles",
    "request_reason": "Vehicle Blocking Your Driveway",
    "date_created": "2024-02-03T11:04:42.000",
    "date_modified": "2024-02-03T11:04:42.000",
    "request_status": "Pending",
    "responsible_agency": "Department of Public Works",
    "final_address": "2413 Joseph St",
    "address_councildis": "A",
    "status": "Pending",
    "rowid": "1065640",
    "final_x": "3667495.14401",
    "final_y": "524946.817213",
    "longitude": "-90.11251390940009",
    "latitude": "29.937839352117035",
    "geocoded_column": {
      "latitude": "29.937839352117035",
      "longitude": "-90.11251390940009"
    }
  },
  {
    "service_request": "2024-1065639",
    "request_type": "Trash/Recycling",
    "request_reason": "Replace Trash Cart",
    "date_created": "2024-02-03T11:01:13.000",
    "date_modified": "2024-02-03T11:01:14.000",
    "request_status": "Pending",
    "responsible_agency": "Department of Sanitation",
    "final_address": "4646 De Montluzin St",
    "address_councildis": "D",
    "status": "Assigned to Contractor",
    "contractor": "IV Waste",
    "rowid": "1065639",
    "final_x": "3687137.46908",
    "final_y": "550122.763028",
    "longitude": "-90.04961117650188",
    "latitude": "30.00647432590866",
    "geocoded_column": {
      "latitude": "30.00647432590866",
      "longitude": "-90.04961117650188"
    }
  },
  {
    "service_request": "2024-1065638",
    "request_type": "Trash/Recycling",
    "request_reason": "Replace Trash Cart",
    "date_created": "2024-02-03T10:59:07.000",
    "date_modified": "2024-02-03T10:59:07.000",
    "request_status": "Pending",
    "responsible_agency": "Department of Sanitation",
    "final_address": "4646 De Montluzin St",
    "address_councildis": "D",
    "status": "Assigned to Contractor",
    "contractor": "IV Waste",
    "rowid": "1065638",
    "final_x": "3687137.46908",
    "final_y": "550122.763028",
    "longitude": "-90.04961117650188",
    "latitude": "30.00647432590866",
    "geocoded_column": {
      "latitude": "30.00647432590866",
      "longitude": "-90.04961117650188"
    }
  },
  {
    "service_request": "2024-1065637",
    "request_type": "Trash/Recycling",
    "request_reason": "Request a Large Item Pick Up",
    "date_created": "2024-02-03T09:57:53.000",
    "date_modified": "2024-02-03T09:57:54.000",
    "request_status": "Pending",
    "responsible_agency": "Department of Sanitation",
    "final_address": "2625 Jefferson Ave",
    "address_councildis": "B",
    "status": "Assigned to Contractor",
    "contractor": "Richards Disposal",
    "rowid": "1065637",
    "final_x": "3668243.64461",
    "final_y": "525139.784701",
    "longitude": "-90.11014432101095",
    "latitude": "29.938348001352654",
    "geocoded_column": {
      "latitude": "29.938348001352654",
      "longitude": "-90.11014432101095"
    }
  },
  {
    "service_request": "2024-1065636",
    "request_type": "Trash/Recycling",
    "request_reason": "Request a Large Item Pick Up",
    "date_created": "2024-02-03T09:57:21.000",
    "date_modified": "2024-02-03T09:57:22.000",
    "request_status": "Pending",
    "responsible_agency": "Department of Sanitation",
    "final_address": "2625 Jefferson Ave",
    "address_councildis": "B",
    "status": "Assigned to Contractor",
    "contractor": "Richards Disposal",
    "rowid": "1065636",
    "final_x": "3668243.64461",
    "final_y": "525139.784701",
    "longitude": "-90.11014432101095",
    "latitude": "29.938348001352654",
    "geocoded_column": {
      "latitude": "29.938348001352654",
      "longitude": "-90.11014432101095"
    }
  },
  {
    "service_request": "2024-1065635",
    "request_type": "Trash/Recycling",
    "request_reason": "Request a Large Item Pick Up",
    "date_created": "2024-02-03T09:52:02.000",
    "date_modified": "2024-02-03T09:52:03.000",
    "request_status": "Pending",
    "responsible_agency": "Department of Sanitation",
    "final_address": "3221 Elmwood Park Dr, New Orleans, Louisiana, 70114",
    "address_councildis": "C",
    "status": "Assigned to Contractor",
    "contractor": "Richards Disposal",
    "rowid": "1065635",
    "final_x": "3694908.0081",
    "final_y": "518268.22815",
    "longitude": "-90.02621020273618",
    "latitude": "29.918643952674355",
    "geocoded_column": {
      "latitude": "29.918643952674355",
      "longitude": "-90.02621020273618"
    }
  },
  {
    "service_request": "2024-1065634",
    "request_type": "Abandoned Vehicles",
    "request_reason": "Abandoned/Junk Vehicles",
    "date_created": "2024-02-03T09:41:36.000",
    "date_modified": "2024-02-03T09:41:36.000",
    "request_status": "Pending",
    "responsible_agency": "Department of Public Works",
    "final_address": "BANKS ST & S ALEXANDER ST",
    "address_councildis": "A",
    "status": "Pending",
    "rowid": "1065634",
    "final_x": "3669254.4",
    "final_y": "538197.78",
    "longitude": "-90.1065118687971",
    "latitude": "29.974223480735535",
    "geocoded_column": {
      "latitude": "29.974223480735535",
      "longitude": "-90.1065118687971"
    }
  },
  {
    "service_request": "2024-1065633",
    "request_type": "Trash/Recycling",
    "request_reason": "Replace Trash Cart",
    "date_created": "2024-02-03T09:38:25.000",
    "date_modified": "2024-02-03T09:38:25.000",
    "request_status": "Pending",
    "responsible_agency": "Department of Sanitation",
    "final_address": "8506 S Claiborne Ave",
    "address_councildis": "A",
    "status": "Assigned to Contractor",
    "contractor": "Richards Disposal",
    "rowid": "1065633",
    "final_x": "3663647.87872",
    "final_y": "532489.245892",
    "longitude": "-90.12440886394765",
    "latitude": "29.958690752896544",
    "geocoded_column": {
      "latitude": "29.958690752896544",
      "longitude": "-90.12440886394765"
    }
  },
  {
    "service_request": "2024-1065632",
    "request_type": "Trash/Recycling",
    "request_reason": "Illegal Dumping",
    "date_created": "2024-02-03T09:32:50.000",
    "date_modified": "2024-02-03T09:32:50.000",
    "request_status": "Pending",
    "responsible_agency": "Department of Sanitation",
    "final_address": "3300 BLK Cleveland Ave",
    "address_councildis": "B",
    "status": "Pending",
    "rowid": "1065632",
    "final_x": "3673180.01056",
    "final_y": "536224.082523",
    "longitude": "-90.09418126524753",
    "latitude": "29.96868032713654",
    "geocoded_column": {
      "latitude": "29.96868032713654",
      "longitude": "-90.09418126524753"
    }
  },
  {
    "service_request": "2024-1065631",
    "request_type": "Trash/Recycling",
    "request_reason": "Illegal Dumping",
    "date_created": "2024-02-03T09:32:01.000",
    "date_modified": "2024-02-03T09:32:01.000",
    "request_status": "Pending",
    "responsible_agency": "Department of Sanitation",
    "final_address": "3300 BLK Cleveland Ave",
    "address_councildis": "B",
    "status": "Pending",
    "rowid": "1065631",
    "final_x": "3673180.01056",
    "final_y": "536224.082523",
    "longitude": "-90.09418126524753",
    "latitude": "29.96868032713654",
    "geocoded_column": {
      "latitude": "29.96868032713654",
      "longitude": "-90.09418126524753"
    }
  },
  {
    "service_request": "2024-1065630",
    "request_type": "Trash/Recycling",
    "request_reason": "Illegal Dumping",
    "date_created": "2024-02-03T09:31:54.000",
    "date_modified": "2024-02-03T09:31:54.000",
    "request_status": "Pending",
    "responsible_agency": "Department of Sanitation",
    "final_address": "3300 BLK Cleveland Ave",
    "address_councildis": "B",
    "status": "Pending",
    "rowid": "1065630",
    "final_x": "3673180.01056",
    "final_y": "536224.082523",
    "longitude": "-90.09418126524753",
    "latitude": "29.96868032713654",
    "geocoded_column": {
      "latitude": "29.96868032713654",
      "longitude": "-90.09418126524753"
    }
  },
  {
    "service_request": "2024-1065629",
    "request_type": "Trash/Recycling",
    "request_reason": "Illegal Dumping",
    "date_created": "2024-02-03T09:31:10.000",
    "date_modified": "2024-02-03T09:31:10.000",
    "request_status": "Pending",
    "responsible_agency": "Department of Sanitation",
    "final_address": "3300 BLK Cleveland Ave",
    "address_councildis": "B",
    "status": "Pending",
    "rowid": "1065629",
    "final_x": "3673180.01056",
    "final_y": "536224.082523",
    "longitude": "-90.09418126524753",
    "latitude": "29.96868032713654",
    "geocoded_column": {
      "latitude": "29.96868032713654",
      "longitude": "-90.09418126524753"
    }
  },
  {
    "service_request": "2024-1065628",
    "request_type": "Trash/Recycling",
    "request_reason": "Replace Trash Cart",
    "date_created": "2024-02-03T09:30:43.000",
    "date_modified": "2024-02-03T09:30:44.000",
    "request_status": "Pending",
    "responsible_agency": "Department of Sanitation",
    "final_address": "7617 Hampson St",
    "address_councildis": "A",
    "status": "Assigned to Contractor",
    "contractor": "Richards Disposal",
    "rowid": "1065628",
    "final_x": "3662037.13639",
    "final_y": "526016.151934",
    "longitude": "-90.12970990865992",
    "latitude": "29.940938452804403",
    "geocoded_column": {
      "latitude": "29.940938452804403",
      "longitude": "-90.12970990865992"
    }
  },
  {
    "service_request": "2024-1065627",
    "request_type": "Roads/Drainage",
    "request_reason": "Pothole",
    "date_created": "2024-02-03T09:27:37.000",
    "date_modified": "2024-02-03T09:27:37.000",
    "request_status": "Pending",
    "responsible_agency": "Department of Public Works",
    "final_address": "5000 Pauger St",
    "address_councildis": "D",
    "status": "Pending",
    "rowid": "1065627",
    "final_x": "3682632.64725",
    "final_y": "551084.189397",
    "longitude": "-90.06380938443785",
    "latitude": "30.00925590338798",
    "geocoded_column": {
      "latitude": "30.00925590338798",
      "longitude": "-90.06380938443785"
    }
  },
  {
    "service_request": "2024-1065626",
    "request_type": "Trash/Recycling",
    "request_reason": "Repair Trash Cart",
    "date_created": "2024-02-03T08:52:52.000",
    "date_modified": "2024-02-03T08:52:53.000",
    "request_status": "Pending",
    "responsible_agency": "Department of Sanitation",
    "final_address": "1905 Valence St",
    "address_councildis": "B",
    "status": "Assigned to Contractor",
    "contractor": "Richards Disposal",
    "rowid": "1065626",
    "final_x": "3669676.18567",
    "final_y": "521910.407226",
    "longitude": "-90.10573086610893",
    "latitude": "29.929426123822953",
    "geocoded_column": {
      "latitude": "29.929426123822953",
      "longitude": "-90.10573086610893"
    }
  },
  {
    "service_request": "2024-1065625",
    "request_type": "Abandoned Vehicles",
    "request_reason": "Abandoned/Junk Vehicles",
    "date_created": "2024-02-03T08:21:19.000",
    "date_modified": "2024-02-03T08:21:19.000",
    "request_status": "Pending",
    "responsible_agency": "Department of Public Works",
    "final_address": "830 Verret St",
    "address_councildis": "C",
    "status": "Pending",
    "rowid": "1065625",
    "final_x": "3687197.31324",
    "final_y": "528470.506432",
    "longitude": "-90.0501881321014",
    "latitude": "29.9469364052874",
    "geocoded_column": {
      "latitude": "29.9469364052874",
      "longitude": "-90.0501881321014"
    }
  },
  {
    "service_request": "2024-1065624",
    "request_type": "Safety & Permits",
    "request_reason": "Licenses & Permits",
    "date_created": "2024-02-03T08:18:47.000",
    "date_modified": "2024-02-03T08:18:47.000",
    "request_status": "Pending",
    "responsible_agency": "Safety and Permits",
    "final_address": "NAPOLEON AVE & PRYTANIA ST",
    "address_councildis": "B",
    "status": "Pending",
    "rowid": "1065624",
    "final_x": "3670865.7",
    "final_y": "520323.88",
    "longitude": "-90.10202959904824",
    "latitude": "29.92502858607668",
    "geocoded_column": {
      "latitude": "29.92502858607668",
      "longitude": "-90.10202959904824"
    }
  },
  {
    "service_request": "2024-1065623",
    "request_type": "Trash/Recycling",
    "request_reason": "MIssed Recycling Pick-Up",
    "date_created": "2024-02-03T08:17:33.000",
    "date_modified": "2024-02-03T08:17:34.000",
    "request_status": "Pending",
    "responsible_agency": "Department of Sanitation",
    "final_address": "7920 Colapissa St, New Orleans, Louisiana, 70125",
    "address_councildis": "B",
    "status": "Assigned to Contractor",
    "contractor": "Richards Disposal",
    "rowid": "1065623",
    "final_x": "3666914.51546",
    "final_y": "532919.840132",
    "longitude": "-90.11407916518037",
    "latitude": "29.959779574608028",
    "geocoded_column": {
      "latitude": "29.959779574608028",
      "longitude": "-90.11407916518037"
    }
  },
  {
    "service_request": "2024-1065622",
    "request_type": "Abandoned Vehicles",
    "request_reason": "Abandoned/Junk Vehicles",
    "date_created": "2024-02-03T07:40:20.000",
    "date_modified": "2024-02-03T07:40:20.000",
    "request_status": "Pending",
    "responsible_agency": "Department of Public Works",
    "final_address": "1300 Touro St",
    "address_councildis": "C",
    "status": "Pending",
    "rowid": "1065622",
    "final_x": "3684133.78306",
    "final_y": "537008.460936",
    "longitude": "-90.0595611405639",
    "latitude": "29.970506830565938",
    "geocoded_column": {
      "latitude": "29.970506830565938",
      "longitude": "-90.0595611405639"
    }
  },
  {
    "service_request": "2024-1065620",
    "request_type": "Property Maintenance",
    "request_reason": "Property Maintenance",
    "date_created": "2024-02-03T06:40:12.000",
    "date_modified": "2024-02-03T06:40:12.000",
    "request_status": "Pending",
    "responsible_agency": "Department of Code Enforcement",
    "final_address": "726 Frenchmen St",
    "address_councildis": "C",
    "status": "Pending",
    "rowid": "1065620",
    "final_x": "3684659.78793",
    "final_y": "535055.56871",
    "longitude": "-90.0579686056295",
    "latitude": "29.965120965039638",
    "geocoded_column": {
      "latitude": "29.965120965039638",
      "longitude": "-90.0579686056295"
    }
  },
  {
    "service_request": "2024-1065619",
    "request_type": "Health Related Request",
    "request_reason": "Noise Ordinance Complaint",
    "date_created": "2024-02-03T06:34:43.000",
    "date_modified": "2024-02-03T06:34:43.000",
    "request_status": "Pending",
    "responsible_agency": "Health Department",
    "final_address": "1010 Common St",
    "address_councildis": "B",
    "status": "Pending",
    "rowid": "1065619",
    "final_x": "3679756.67727",
    "final_y": "530907.359362",
    "longitude": "-90.07359637392588",
    "latitude": "29.953863944012166",
    "geocoded_column": {
      "latitude": "29.953863944012166",
      "longitude": "-90.07359637392588"
    }
  },
  {
    "service_request": "2024-1065618",
    "request_type": "Health Related Request",
    "request_reason": "Noise Ordinance Complaint",
    "date_created": "2024-02-03T06:09:48.000",
    "date_modified": "2024-02-03T06:09:48.000",
    "request_status": "Pending",
    "responsible_agency": "Health Department",
    "final_address": "1010 Common St",
    "address_councildis": "B",
    "status": "Pending",
    "rowid": "1065618",
    "final_x": "3679756.67727",
    "final_y": "530907.359362",
    "longitude": "-90.07359637392588",
    "latitude": "29.953863944012166",
    "geocoded_column": {
      "latitude": "29.953863944012166",
      "longitude": "-90.07359637392588"
    }
  },
  {
    "service_request": "2024-1065616",
    "request_type": "Roads/Drainage",
    "request_reason": "Pothole",
    "date_created": "2024-02-03T00:12:50.000",
    "date_modified": "2024-02-03T00:12:50.000",
    "request_status": "Pending",
    "responsible_agency": "Department of Public Works",
    "final_address": "1301 Constantinople St",
    "address_councildis": "B",
    "status": "Pending",
    "rowid": "1065616",
    "final_x": "3672430.66305",
    "final_y": "520250.7726",
    "longitude": "-90.09709199725775",
    "latitude": "29.924781230435865",
    "geocoded_column": {
      "latitude": "29.924781230435865",
      "longitude": "-90.09709199725775"
    }
  },
  {
    "service_request": "2024-1065615",
    "request_type": "Health Related Request",
    "request_reason": "Noise Ordinance Complaint",
    "date_created": "2024-02-03T00:11:24.000",
    "date_modified": "2024-02-03T00:11:24.000",
    "request_status": "Pending",
    "responsible_agency": "Health Department",
    "final_address": "309 Decatur St, New Orleans, Louisiana, 70130",
    "address_councildis": "C",
    "status": "Pending",
    "rowid": "1065615",
    "final_x": "3682303.87119",
    "final_y": "530935.66509",
    "longitude": "-90.06555240294671",
    "latitude": "29.953864528206758",
    "geocoded_column": {
      "latitude": "29.953864528206758",
      "longitude": "-90.06555240294671"
    }
  },
  {
    "service_request": "2024-1065614",
    "request_type": "Roads/Drainage",
    "request_reason": "Pothole",
    "date_created": "2024-02-03T00:02:54.000",
    "date_modified": "2024-02-03T00:02:54.000",
    "request_status": "Pending",
    "responsible_agency": "Department of Public Works",
    "final_address": "1312 Milan St",
    "address_councildis": "B",
    "status": "Pending",
    "rowid": "1065614",
    "final_x": "3671625.82823",
    "final_y": "520286.919608",
    "longitude": "-90.09963137110304",
    "latitude": "29.92490447494246",
    "geocoded_column": {
      "latitude": "29.92490447494246",
      "longitude": "-90.09963137110304"
    }
  },
  {
    "service_request": "2024-1065613",
    "request_type": "Traffic Signals/Signs/Striping/Streetlights",
    "request_reason": "Street Light Outage/Malfunction",
    "date_created": "2024-02-02T23:47:27.000",
    "date_modified": "2024-02-02T23:47:28.000",
    "request_status": "Pending",
    "responsible_agency": "Department of Public Works",
    "final_address": "1016 Joseph St",
    "address_councildis": "A",
    "status": "Assigned to Contractor",
    "contractor": "Legacy Professional Services",
    "rowid": "1065613",
    "final_x": "3666241.31847",
    "final_y": "519674.125944",
    "longitude": "-90.11664910922086",
    "latitude": "29.923377796667936",
    "geocoded_column": {
      "latitude": "29.923377796667936",
      "longitude": "-90.11664910922086"
    }
  },
  {
    "service_request": "2024-1065612",
    "request_type": "Traffic Signals/Signs/Striping/Streetlights",
    "request_reason": "Street Light Outage/Malfunction",
    "date_created": "2024-02-02T23:44:40.000",
    "date_modified": "2024-02-02T23:44:40.000",
    "request_status": "Pending",
    "responsible_agency": "Department of Public Works",
    "final_address": "1010 Joseph St",
    "address_councildis": "A",
    "status": "Assigned to Contractor",
    "contractor": "Legacy Professional Services",
    "rowid": "1065612",
    "final_x": "3666234.2626",
    "final_y": "519638.903736",
    "longitude": "-90.11667256258782",
    "latitude": "29.923281152686286",
    "geocoded_column": {
      "latitude": "29.923281152686286",
      "longitude": "-90.11667256258782"
    }
  },
  {
    "service_request": "2024-1065611",
    "request_type": "Traffic Signals/Signs/Striping/Streetlights",
    "request_reason": "Street Light Outage/Malfunction",
    "date_created": "2024-02-02T22:51:03.000",
    "date_modified": "2024-02-02T22:51:04.000",
    "request_status": "Pending",
    "responsible_agency": "Department of Public Works",
    "final_address": "2831 Audubon St",
    "address_councildis": "B",
    "status": "Assigned to Contractor",
    "contractor": "Legacy Professional Services",
    "rowid": "1065611",
    "final_x": "3667694.17434",
    "final_y": "531295.870018",
    "longitude": "-90.11167184375363",
    "latitude": "29.955291355719048",
    "geocoded_column": {
      "latitude": "29.955291355719048",
      "longitude": "-90.11167184375363"
    }
  },
  {
    "service_request": "2024-1065610",
    "request_type": "Roads/Drainage",
    "request_reason": "Accessibility Ramps, Curbs and Sidewalk Repair",
    "date_created": "2024-02-02T22:12:30.000",
    "date_modified": "2024-02-02T22:12:30.000",
    "request_status": "Pending",
    "responsible_agency": "Department of Public Works",
    "final_address": "EARHART BLVD & WASHINGTON AVE",
    "address_councildis": "B",
    "status": "Pending",
    "rowid": "1065610",
    "final_x": "3670169.7",
    "final_y": "531931.18",
    "longitude": "-90.10383349459518",
    "latitude": "29.95696544353101",
    "geocoded_column": {
      "latitude": "29.95696544353101",
      "longitude": "-90.10383349459518"
    }
  },
  {
    "service_request": "2024-1065609",
    "request_type": "Health Related Request",
    "request_reason": "Noise Ordinance Complaint",
    "date_created": "2024-02-02T22:03:24.000",
    "date_modified": "2024-02-02T22:03:24.000",
    "request_status": "Pending",
    "responsible_agency": "Health Department",
    "final_address": "3651 Rue Denise, New Orleans, Louisiana, 70131",
    "address_councildis": "C",
    "status": "Pending",
    "rowid": "1065609",
    "final_x": "3704201.08542",
    "final_y": "517054.713141",
    "longitude": "-89.99692174591713",
    "latitude": "29.915012437581023",
    "geocoded_column": {
      "latitude": "29.915012437581023",
      "longitude": "-89.99692174591713"
    }
  },
  {
    "service_request": "2024-1065608",
    "request_type": "Roads/Drainage",
    "request_reason": "Pothole",
    "date_created": "2024-02-02T21:50:11.000",
    "date_modified": "2024-02-02T21:50:11.000",
    "request_status": "Pending",
    "responsible_agency": "Department of Public Works",
    "final_address": "6030 Chestnut St",
    "address_councildis": "A",
    "status": "Pending",
    "rowid": "1065608",
    "final_x": "3664661.37773",
    "final_y": "519852.51884",
    "longitude": "-90.1216304547064",
    "latitude": "29.923914355909606",
    "geocoded_column": {
      "latitude": "29.923914355909606",
      "longitude": "-90.1216304547064"
    }
  },
  {
    "service_request": "2024-1065607",
    "request_type": "Roads/Drainage",
    "request_reason": "Pothole",
    "date_created": "2024-02-02T21:47:24.000",
    "date_modified": "2024-02-02T21:47:24.000",
    "request_status": "Pending",
    "responsible_agency": "Department of Public Works",
    "final_address": "6070 Chestnut St",
    "address_councildis": "A",
    "status": "Pending",
    "rowid": "1065607",
    "final_x": "3664412.78983",
    "final_y": "519991.592952",
    "longitude": "-90.12241052146828",
    "latitude": "29.92430399204139",
    "geocoded_column": {
      "latitude": "29.92430399204139",
      "longitude": "-90.12241052146828"
    }
  },
  {
    "service_request": "2024-1065606",
    "request_type": "Health Related Request",
    "request_reason": "Noise Ordinance Complaint",
    "date_created": "2024-02-02T21:23:01.000",
    "date_modified": "2024-02-02T21:23:01.000",
    "request_status": "Pending",
    "responsible_agency": "Health Department",
    "final_address": "3651 Rue Denise, New Orleans, Louisiana, 70131",
    "address_councildis": "C",
    "status": "Pending",
    "rowid": "1065606",
    "final_x": "3704201.08542",
    "final_y": "517054.713141",
    "longitude": "-89.99692174591713",
    "latitude": "29.915012437581023",
    "geocoded_column": {
      "latitude": "29.915012437581023",
      "longitude": "-89.99692174591713"
    }
  },
  {
    "service_request": "2024-1065605",
    "request_type": "Roads/Drainage",
    "request_reason": "Pothole",
    "date_created": "2024-02-02T20:34:18.000",
    "date_modified": "2024-02-02T20:34:18.000",
    "request_status": "Pending",
    "responsible_agency": "Department of Public Works",
    "final_address": "6000 Chestnut St",
    "address_councildis": "A",
    "status": "Pending",
    "rowid": "1065605",
    "final_x": "3664755.86087",
    "final_y": "519859.84876",
    "longitude": "-90.12133195933855",
    "latitude": "29.92393176323877",
    "geocoded_column": {
      "latitude": "29.92393176323877",
      "longitude": "-90.12133195933855"
    }
  },
  {
    "service_request": "2024-1065602",
    "request_type": "Trash/Recycling",
    "request_reason": "Missed Trash Pick-Up",
    "date_created": "2024-02-02T18:50:38.000",
    "date_modified": "2024-02-02T18:50:38.000",
    "request_status": "Pending",
    "responsible_agency": "Department of Sanitation",
    "final_address": "7724 Primrose Dr",
    "address_councildis": "E",
    "status": "Assigned to Contractor",
    "contractor": "Waste Pro",
    "rowid": "1065602",
    "final_x": "3701540.00189",
    "final_y": "561572.299615",
    "longitude": "-90.00369049594765",
    "latitude": "30.03750462567292",
    "geocoded_column": {
      "latitude": "30.03750462567292",
      "longitude": "-90.00369049594765"
    }
  },
  {
    "service_request": "2024-1065601",
    "request_type": "Roads/Drainage",
    "request_reason": "Street Subsidence (Sinking)",
    "date_created": "2024-02-02T18:44:05.000",
    "date_modified": "2024-02-02T18:44:05.000",
    "request_status": "Pending",
    "responsible_agency": "Department of Public Works",
    "final_address": "4400 BLK Walmsley Ave",
    "address_councildis": "B",
    "status": "Pending",
    "rowid": "1065601",
    "final_x": "3669472.22762",
    "final_y": "530151.690797",
    "longitude": "-90.10609608241907",
    "latitude": "29.952092993268497",
    "geocoded_column": {
      "latitude": "29.952092993268497",
      "longitude": "-90.10609608241907"
    }
  },
  {
    "service_request": "2024-1065600",
    "request_type": "Safety & Permits",
    "request_reason": "Healthy Homes",
    "date_created": "2024-02-02T18:41:49.000",
    "date_modified": "2024-02-02T18:41:49.000",
    "request_status": "Pending",
    "responsible_agency": "Department of Code Enforcement",
    "final_address": "928 N Salcedo St",
    "address_councildis": "A",
    "status": "Pending",
    "rowid": "1065600",
    "final_x": "3676088.51233",
    "final_y": "538652.277833",
    "longitude": "-90.08491249304397",
    "latitude": "29.975270229132203",
    "geocoded_column": {
      "latitude": "29.975270229132203",
      "longitude": "-90.08491249304397"
    }
  },
  {
    "service_request": "2024-1065599",
    "request_type": "Roads/Drainage",
    "request_reason": "Pothole",
    "date_created": "2024-02-02T18:36:06.000",
    "date_modified": "2024-02-02T18:36:06.000",
    "request_status": "Pending",
    "responsible_agency": "Department of Public Works",
    "final_address": "7701 Downman Rd",
    "address_councildis": "D",
    "status": "Pending",
    "rowid": "1065599",
    "final_x": "3694667.44304",
    "final_y": "558710.169948",
    "longitude": "-90.02551254293856",
    "latitude": "30.02985235580821",
    "geocoded_column": {
      "latitude": "30.02985235580821",
      "longitude": "-90.02551254293856"
    }
  },
  {
    "service_request": "2024-1065598",
    "request_type": "Utility Poles",
    "request_reason": "Utility Pole Leaning",
    "date_created": "2024-02-02T18:24:56.000",
    "date_modified": "2024-02-02T18:25:01.000",
    "request_status": "Pending",
    "responsible_agency": "Utility Company Collective",
    "final_address": "7700 Alabama St",
    "address_councildis": "D",
    "status": "Pending",
    "rowid": "1065598",
    "final_x": "3694767.87555",
    "final_y": "558742.218332",
    "longitude": "-90.02519402212589",
    "latitude": "30.029937324365008",
    "geocoded_column": {
      "latitude": "30.029937324365008",
      "longitude": "-90.02519402212589"
    }
  },
  {
    "service_request": "2024-1065597",
    "request_type": "Roads/Drainage",
    "request_reason": "Street Subsidence (Sinking)",
    "date_created": "2024-02-02T18:10:24.000",
    "date_modified": "2024-02-02T18:10:24.000",
    "request_status": "Pending",
    "responsible_agency": "Department of Public Works",
    "final_address": "7700 Alabama St",
    "address_councildis": "D",
    "status": "Pending",
    "rowid": "1065597",
    "final_x": "3694767.87555",
    "final_y": "558742.218332",
    "longitude": "-90.02519402212589",
    "latitude": "30.029937324365008",
    "geocoded_column": {
      "latitude": "30.029937324365008",
      "longitude": "-90.02519402212589"
    }
  },
  {
    "service_request": "2024-1065596",
    "request_type": "Roads/Drainage",
    "request_reason": "Catch Basin - Clogged",
    "date_created": "2024-02-02T18:03:40.000",
    "date_modified": "2024-02-02T18:03:40.000",
    "request_status": "Pending",
    "responsible_agency": "Department of Public Works",
    "final_address": "7700 Alabama St",
    "address_councildis": "D",
    "status": "Pending",
    "rowid": "1065596",
    "final_x": "3694767.87555",
    "final_y": "558742.218332",
    "longitude": "-90.02519402212589",
    "latitude": "30.029937324365008",
    "geocoded_column": {
      "latitude": "30.029937324365008",
      "longitude": "-90.02519402212589"
    }
  },
  {
    "service_request": "2024-1065595",
    "request_type": "Roads/Drainage",
    "request_reason": "Street Flooding / Drainage",
    "date_created": "2024-02-02T17:50:04.000",
    "date_modified": "2024-02-02T17:50:04.000",
    "request_status": "Pending",
    "responsible_agency": "Department of Public Works",
    "final_address": "5510 Vermillion Blvd",
    "address_councildis": "D",
    "status": "Pending",
    "rowid": "1065595",
    "final_x": "3683132.66671",
    "final_y": "553101.729303",
    "longitude": "-90.06215894087595",
    "latitude": "30.01478816257034",
    "geocoded_column": {
      "latitude": "30.01478816257034",
      "longitude": "-90.06215894087595"
    }
  },
  {
    "service_request": "2024-1065594",
    "request_type": "Trash/Recycling",
    "request_reason": "Missed Trash Pick-Up",
    "date_created": "2024-02-02T17:46:38.000",
    "date_modified": "2024-02-02T17:46:38.000",
    "request_status": "Pending",
    "responsible_agency": "Department of Sanitation",
    "final_address": "3609 Calhoun St",
    "address_councildis": "A",
    "status": "Assigned to Contractor",
    "contractor": "Richards Disposal",
    "rowid": "1065594",
    "final_x": "3667950.91757",
    "final_y": "529772.891009",
    "longitude": "-90.1109124441971",
    "latitude": "29.951096132326587",
    "geocoded_column": {
      "latitude": "29.951096132326587",
      "longitude": "-90.1109124441971"
    }
  },
  {
    "service_request": "2024-1065593",
    "request_type": "Traffic Signals/Signs/Striping/Streetlights",
    "request_reason": "Street Light Outage/Malfunction",
    "date_created": "2024-02-02T17:41:52.000",
    "date_modified": "2024-02-02T17:41:52.000",
    "request_status": "Pending",
    "responsible_agency": "Department of Public Works",
    "final_address": "7000 BLK Pinebrook Dr",
    "address_councildis": "E",
    "status": "Assigned to Contractor",
    "contractor": "Legacy Professional Services",
    "rowid": "1065593",
    "final_x": "3719218.98935",
    "final_y": "570252.128312",
    "longitude": "-89.94748966234589",
    "latitude": "30.060794650383254",
    "geocoded_column": {
      "latitude": "30.060794650383254",
      "longitude": "-89.94748966234589"
    }
  },
  {
    "service_request": "2024-1065592",
    "request_type": "Roads/Drainage",
    "request_reason": "Street Subsidence (Sinking)",
    "date_created": "2024-02-02T17:33:48.000",
    "date_modified": "2024-02-02T17:33:48.000",
    "request_status": "Pending",
    "responsible_agency": "Department of Public Works",
    "final_address": "5850 Bellaire Dr",
    "address_councildis": "A",
    "status": "Pending",
    "rowid": "1065592",
    "final_x": "3664146.76237",
    "final_y": "546899.480657",
    "longitude": "-90.1223526044195",
    "latitude": "29.998299603808622",
    "geocoded_column": {
      "latitude": "29.998299603808622",
      "longitude": "-90.1223526044195"
    }
  },
  {
    "service_request": "2024-1065591",
    "request_type": "Abandoned Vehicles",
    "request_reason": "Abandoned/Junk Vehicles",
    "date_created": "2024-02-02T17:25:44.000",
    "date_modified": "2024-02-02T17:25:44.000",
    "request_status": "Pending",
    "responsible_agency": "Department of Public Works",
    "final_address": "5850 Bellaire Dr",
    "address_councildis": "A",
    "status": "Pending",
    "rowid": "1065591",
    "final_x": "3664146.76237",
    "final_y": "546899.480657",
    "longitude": "-90.1223526044195",
    "latitude": "29.998299603808622",
    "geocoded_column": {
      "latitude": "29.998299603808622",
      "longitude": "-90.1223526044195"
    }
  },
  {
    "service_request": "2024-1065590",
    "request_type": "Abandoned Vehicles",
    "request_reason": "Abandoned/Junk Vehicles",
    "date_created": "2024-02-02T17:16:33.000",
    "date_modified": "2024-02-02T17:16:33.000",
    "request_status": "Pending",
    "responsible_agency": "Department of Public Works",
    "final_address": "4708 Clio St",
    "address_councildis": "B",
    "status": "Pending",
    "rowid": "1065590",
    "final_x": "3669630.09972",
    "final_y": "532669.794244",
    "longitude": "-90.10551239611301",
    "latitude": "29.959012298221065",
    "geocoded_column": {
      "latitude": "29.959012298221065",
      "longitude": "-90.10551239611301"
    }
  },
  {
    "service_request": "2024-1065588",
    "request_type": "Abandoned Vehicles",
    "request_reason": "Vehicle Blocking Your Driveway",
    "date_created": "2024-02-02T16:36:36.000",
    "date_modified": "2024-02-02T16:36:36.000",
    "request_status": "Pending",
    "responsible_agency": "Department of Public Works",
    "final_address": "334 O'Keefe Ave. New Orleans LA 70112",
    "status": "Pending",
    "rowid": "1065588",
    "longitude": "0.0",
    "latitude": "0.0",
    "geocoded_column": {
      "latitude": "0.0",
      "longitude": "0.0"
    }
  },
  {
    "service_request": "2024-1065587",
    "request_type": "Trash/Recycling",
    "request_reason": "Order Trash Cart",
    "date_created": "2024-02-02T16:30:40.000",
    "date_modified": "2024-02-02T16:30:40.000",
    "request_status": "Pending",
    "responsible_agency": "Department of Sanitation",
    "final_address": "4925 Western St",
    "address_councildis": "D",
    "status": "Assigned to Contractor",
    "contractor": "IV Waste",
    "rowid": "1065587",
    "final_x": "3684126.49525",
    "final_y": "550938.856661",
    "longitude": "-90.05909492106252",
    "latitude": "30.00881069735065",
    "geocoded_column": {
      "latitude": "30.00881069735065",
      "longitude": "-90.05909492106252"
    }
  },
  {
    "service_request": "2024-1065586",
    "request_type": "Trash/Recycling",
    "request_reason": "Replace Trash Cart",
    "date_created": "2024-02-02T16:11:58.000",
    "date_modified": "2024-02-02T16:11:59.000",
    "request_status": "Pending",
    "responsible_agency": "Department of Sanitation",
    "final_address": "1477 N Johnson St",
    "address_councildis": "D",
    "status": "Assigned to Contractor",
    "contractor": "IV Waste",
    "rowid": "1065586",
    "final_x": "3680510.92091",
    "final_y": "537997.309129",
    "longitude": "-90.0709681463597",
    "latitude": "29.973336063199827",
    "geocoded_column": {
      "latitude": "29.973336063199827",
      "longitude": "-90.0709681463597"
    }
  },
  {
    "service_request": "2024-1065585",
    "request_type": "Trash/Recycling",
    "request_reason": "Request a Large Item Pick Up",
    "date_created": "2024-02-02T16:01:23.000",
    "date_modified": "2024-02-02T16:01:23.000",
    "request_status": "Pending",
    "responsible_agency": "Department of Sanitation",
    "final_address": "4631 America St",
    "address_councildis": "E",
    "status": "Assigned to Contractor",
    "contractor": "Waste Pro",
    "rowid": "1065585",
    "final_x": "3699832.42288",
    "final_y": "554444.873752",
    "longitude": "-90.00934707769409",
    "latitude": "30.017961319385403",
    "geocoded_column": {
      "latitude": "30.017961319385403",
      "longitude": "-90.00934707769409"
    }
  },
  {
    "service_request": "2024-1065584",
    "request_type": "Trash/Recycling",
    "request_reason": "Request a Large Item Pick Up",
    "date_created": "2024-02-02T16:00:19.000",
    "date_modified": "2024-02-02T16:00:19.000",
    "request_status": "Pending",
    "responsible_agency": "Department of Sanitation",
    "final_address": "4425 San Marco Rd",
    "address_councildis": "E",
    "status": "Assigned to Contractor",
    "contractor": "Waste Pro",
    "rowid": "1065584",
    "final_x": "3762485.02941",
    "final_y": "572763.814889",
    "longitude": "-89.81062505951174",
    "latitude": "30.06619081888497",
    "geocoded_column": {
      "latitude": "30.06619081888497",
      "longitude": "-89.81062505951174"
    }
  },
  {
    "service_request": "2024-1065583",
    "request_type": "Trash/Recycling",
    "request_reason": "Request a Large Item Pick Up",
    "date_created": "2024-02-02T15:59:17.000",
    "date_modified": "2024-02-02T16:27:13.000",
    "case_close_date": "2024-02-02T10:27:13.000",
    "request_status": "Closed",
    "responsible_agency": "Department of Sanitation",
    "final_address": "4728 Stemway Dr",
    "address_councildis": "D",
    "status": "Duplicate Request",
    "contractor": "Waste Pro",
    "contractor_action": "duplicate",
    "rowid": "1065583",
    "final_x": "3696845.24343",
    "final_y": "554186.104984",
    "longitude": "-90.01879475083793",
    "latitude": "30.017344371052182",
    "geocoded_column": {
      "latitude": "30.017344371052182",
      "longitude": "-90.01879475083793"
    }
  },
  {
    "service_request": "2024-1065582",
    "request_type": "Trash/Recycling",
    "request_reason": "Illegal Dumping",
    "date_created": "2024-02-02T15:57:47.000",
    "date_modified": "2024-02-02T15:57:47.000",
    "request_status": "Pending",
    "responsible_agency": "Department of Sanitation",
    "final_address": "1800 BLK Horace St",
    "address_councildis": "C",
    "status": "Pending",
    "rowid": "1065582",
    "final_x": "3696278.40104",
    "final_y": "524515.627594",
    "longitude": "-90.02165887858577",
    "latitude": "29.935779113473014",
    "geocoded_column": {
      "latitude": "29.935779113473014",
      "longitude": "-90.02165887858577"
    }
  },
  {
    "service_request": "2024-1065581",
    "request_type": "Trash/Recycling",
    "request_reason": "Request a Large Item Pick Up",
    "date_created": "2024-02-02T15:51:29.000",
    "date_modified": "2024-02-02T15:51:29.000",
    "request_status": "Pending",
    "responsible_agency": "Department of Sanitation",
    "final_address": "7926 Nelson St",
    "address_councildis": "A",
    "status": "Assigned to Contractor",
    "contractor": "Richards Disposal",
    "rowid": "1065581",
    "final_x": "3665497.23892",
    "final_y": "531448.225219",
    "longitude": "-90.11860388871484",
    "latitude": "29.95577450565119",
    "geocoded_column": {
      "latitude": "29.95577450565119",
      "longitude": "-90.11860388871484"
    }
  },
  {
    "service_request": "2024-1065580",
    "request_type": "Trash/Recycling",
    "request_reason": "Request a Large Item Pick Up",
    "date_created": "2024-02-02T15:47:18.000",
    "date_modified": "2024-02-02T15:47:19.000",
    "request_status": "Pending",
    "responsible_agency": "Department of Sanitation",
    "final_address": "2831 St Peter St",
    "address_councildis": "A",
    "status": "Assigned to Contractor",
    "contractor": "Richards Disposal",
    "rowid": "1065580",
    "final_x": "3676019.25013",
    "final_y": "537386.532872",
    "longitude": "-90.08517478691941",
    "latitude": "29.971791937622317",
    "geocoded_column": {
      "latitude": "29.971791937622317",
      "longitude": "-90.08517478691941"
    }
  },
  {
    "service_request": "2024-1065579",
    "request_type": "Trash/Recycling",
    "request_reason": "Request a Large Item Pick Up",
    "date_created": "2024-02-02T15:44:14.000",
    "date_modified": "2024-02-02T15:44:14.000",
    "request_status": "Pending",
    "responsible_agency": "Department of Sanitation",
    "final_address": "4728 Stemway Dr",
    "address_councildis": "D",
    "status": "Assigned to Contractor",
    "contractor": "Waste Pro",
    "rowid": "1065579",
    "final_x": "3696845.24343",
    "final_y": "554186.104984",
    "longitude": "-90.01879475083793",
    "latitude": "30.017344371052182",
    "geocoded_column": {
      "latitude": "30.017344371052182",
      "longitude": "-90.01879475083793"
    }
  },
  {
    "service_request": "2024-1065578",
    "request_type": "Trash/Recycling",
    "request_reason": "Repair Recycling Cart",
    "date_created": "2024-02-02T15:40:48.000",
    "date_modified": "2024-02-02T15:40:49.000",
    "request_status": "Pending",
    "responsible_agency": "Department of Sanitation",
    "final_address": "7210 Claridge Ct",
    "address_councildis": "E",
    "status": "Pending",
    "rowid": "1065578",
    "final_x": "3704861.76241",
    "final_y": "560562.167518",
    "longitude": "-89.99323036449172",
    "latitude": "30.034620753934256",
    "geocoded_column": {
      "latitude": "30.034620753934256",
      "longitude": "-89.99323036449172"
    }
  },
  {
    "service_request": "2024-1065577",
    "request_type": "Trash/Recycling",
    "request_reason": "Dead Animal Pick Up",
    "date_created": "2024-02-02T15:40:37.000",
    "date_modified": "2024-02-02T15:41:45.000",
    "request_status": "Pending",
    "responsible_agency": "Department of Sanitation",
    "final_address": "7320 Briarheath Dr",
    "address_councildis": "E",
    "status": "Assigned to Contractor",
    "contractor": "Waste Pro",
    "rowid": "1065577",
    "final_x": "3714191.35986",
    "final_y": "566416.404067",
    "longitude": "-89.96352664348754",
    "latitude": "30.05041421888642",
    "geocoded_column": {
      "latitude": "30.05041421888642",
      "longitude": "-89.96352664348754"
    }
  },
  {
    "service_request": "2024-1065576",
    "request_type": "Traffic Signals/Signs/Striping/Streetlights",
    "request_reason": "Street Light Outage/Malfunction",
    "date_created": "2024-02-02T15:40:36.000",
    "date_modified": "2024-02-02T15:40:37.000",
    "request_status": "Pending",
    "responsible_agency": "Department of Public Works",
    "final_address": "5945 Memphis St",
    "address_councildis": "A",
    "status": "Assigned to Contractor",
    "contractor": "Legacy Professional Services",
    "rowid": "1065576",
    "final_x": "3669246.90497",
    "final_y": "546928.432081",
    "longitude": "-90.10624025274686",
    "latitude": "29.998230015938244",
    "geocoded_column": {
      "latitude": "29.998230015938244",
      "longitude": "-90.10624025274686"
    }
  },
  {
    "service_request": "2024-1065575",
    "request_type": "Trash/Recycling",
    "request_reason": "Replace Trash Cart",
    "date_created": "2024-02-02T15:39:04.000",
    "date_modified": "2024-02-02T15:39:05.000",
    "request_status": "Pending",
    "responsible_agency": "Department of Sanitation",
    "final_address": "2111 Ap Tureaud Ave",
    "address_councildis": "D",
    "status": "Assigned to Contractor",
    "contractor": "IV Waste",
    "rowid": "1065575",
    "final_x": "3681772.81973",
    "final_y": "539835.179978",
    "longitude": "-90.06691866345516",
    "latitude": "29.978351283024036",
    "geocoded_column": {
      "latitude": "29.978351283024036",
      "longitude": "-90.06691866345516"
    }
  },
  {
    "service_request": "2024-1065574",
    "request_type": "Abandoned Vehicles",
    "request_reason": "Abandoned/Junk Vehicles",
    "date_created": "2024-02-02T15:36:07.000",
    "date_modified": "2024-02-02T15:36:07.000",
    "request_status": "Pending",
    "responsible_agency": "Department of Public Works",
    "final_address": "7211 Thornley Dr",
    "address_councildis": "E",
    "status": "Pending",
    "rowid": "1065574",
    "final_x": "3703019.27102",
    "final_y": "560163.863325",
    "longitude": "-89.99906751891268",
    "latitude": "30.033584694743688",
    "geocoded_column": {
      "latitude": "30.033584694743688",
      "longitude": "-89.99906751891268"
    }
  },
  {
    "service_request": "2024-1065573",
    "request_type": "Traffic Signals/Signs/Striping/Streetlights",
    "request_reason": "Request for Stop Sign",
    "date_created": "2024-02-02T15:34:57.000",
    "date_modified": "2024-02-02T15:34:57.000",
    "request_status": "Pending",
    "responsible_agency": "Department of Public Works",
    "final_address": "1300 Elysian Fields Ave, New Orleans, Louisiana, 70117",
    "address_councildis": "C",
    "status": "Pending",
    "rowid": "1065573",
    "final_x": "3684855.47484",
    "final_y": "537062.585032",
    "longitude": "-90.05728005535073",
    "latitude": "29.97063357367015",
    "geocoded_column": {
      "latitude": "29.97063357367015",
      "longitude": "-90.05728005535073"
    }
  },
  {
    "service_request": "2024-1065572",
    "request_type": "Trash/Recycling",
    "request_reason": "Order Trash Cart",
    "date_created": "2024-02-02T15:31:20.000",
    "date_modified": "2024-02-02T15:31:20.000",
    "request_status": "Pending",
    "responsible_agency": "Department of Sanitation",
    "final_address": "1801 Lamanche St",
    "address_councildis": "E",
    "status": "Assigned to Contractor",
    "contractor": "Waste Pro",
    "rowid": "1065572",
    "final_x": "3699153.34743",
    "final_y": "536312.078215",
    "longitude": "-90.01215327982548",
    "latitude": "29.968124385027675",
    "geocoded_column": {
      "latitude": "29.968124385027675",
      "longitude": "-90.01215327982548"
    }
  },
  {
    "service_request": "2024-1065571",
    "request_type": "Roads/Drainage",
    "request_reason": "Pothole",
    "date_created": "2024-02-02T15:31:09.000",
    "date_modified": "2024-02-02T15:31:28.000",
    "case_close_date": "2024-02-02T09:31:28.000",
    "request_status": "Closed",
    "responsible_agency": "Department of Public Works",
    "final_address": "1320 Second St",
    "address_councildis": "B",
    "status": "Resolved",
    "rowid": "1065571",
    "final_x": "3677269.52674",
    "final_y": "522063.147194",
    "longitude": "-90.0817548103995",
    "latitude": "29.92962023441985",
    "geocoded_column": {
      "latitude": "29.92962023441985",
      "longitude": "-90.0817548103995"
    }
  },
  {
    "service_request": "2024-1065570",
    "request_type": "Roads/Drainage",
    "request_reason": "Pothole",
    "date_created": "2024-02-02T15:29:19.000",
    "date_modified": "2024-02-02T15:29:39.000",
    "case_close_date": "2024-02-02T09:29:38.000",
    "request_status": "Closed",
    "responsible_agency": "Department of Public Works",
    "final_address": "1208 Second St",
    "address_councildis": "B",
    "status": "Resolved",
    "rowid": "1065570",
    "final_x": "3677488.66798",
    "final_y": "521701.902393",
    "longitude": "-90.08107548324962",
    "latitude": "29.92862034542208",
    "geocoded_column": {
      "latitude": "29.92862034542208",
      "longitude": "-90.08107548324962"
    }
  },
  {
    "service_request": "2024-1065569",
    "request_type": "Roads/Drainage",
    "request_reason": "Pothole",
    "date_created": "2024-02-02T15:27:45.000",
    "date_modified": "2024-02-02T15:28:07.000",
    "case_close_date": "2024-02-02T09:28:07.000",
    "request_status": "Closed",
    "responsible_agency": "Department of Public Works",
    "final_address": "1115 Second St",
    "address_councildis": "B",
    "status": "Resolved",
    "rowid": "1065569",
    "final_x": "3677794.78978",
    "final_y": "521436.590457",
    "longitude": "-90.08011828085058",
    "latitude": "29.9278816214132",
    "geocoded_column": {
      "latitude": "29.9278816214132",
      "longitude": "-90.08011828085058"
    }
  },
  {
    "service_request": "2024-1065568",
    "request_type": "Roads/Drainage",
    "request_reason": "Pothole",
    "date_created": "2024-02-02T15:25:52.000",
    "date_modified": "2024-02-02T15:26:20.000",
    "case_close_date": "2024-02-02T09:26:20.000",
    "request_status": "Closed",
    "responsible_agency": "Department of Public Works",
    "final_address": "1117 First St",
    "address_councildis": "B",
    "status": "Resolved",
    "rowid": "1065568",
    "final_x": "3678032.2196",
    "final_y": "521633.192761",
    "longitude": "-90.0793619781552",
    "latitude": "29.928415071194085",
    "geocoded_column": {
      "latitude": "29.928415071194085",
      "longitude": "-90.0793619781552"
    }
  },
  {
    "service_request": "2024-1065567",
    "request_type": "Roads/Drainage",
    "request_reason": "Pothole",
    "date_created": "2024-02-02T15:23:33.000",
    "date_modified": "2024-02-02T15:24:44.000",
    "case_close_date": "2024-02-02T09:24:44.000",
    "request_status": "Closed",
    "responsible_agency": "Department of Public Works",
    "final_address": "1200 BLK S Robertson St",
    "address_councildis": "B",
    "status": "Resolved",
    "rowid": "1065567",
    "final_x": "3676564.96015",
    "final_y": "528131.640047",
    "longitude": "-90.08377009020872",
    "latitude": "29.946327739072462",
    "geocoded_column": {
      "latitude": "29.946327739072462",
      "longitude": "-90.08377009020872"
    }
  },
  {
    "service_request": "2024-1065566",
    "request_type": "Traffic Signals/Signs/Striping/Streetlights",
    "request_reason": "Traffic Signal Malfunctioning/Damaged",
    "date_created": "2024-02-02T15:21:34.000",
    "date_modified": "2024-02-02T15:21:34.000",
    "request_status": "Pending",
    "responsible_agency": "Department of Public Works",
    "final_address": "ELYSIAN FIELDS AVE & GENTILLY BLVD",
    "address_councildis": "D",
    "status": "Pending",
    "rowid": "1065566",
    "final_x": "3684059.79",
    "final_y": "547584.11",
    "longitude": "-90.05942349799389",
    "latitude": "29.99958839427118",
    "geocoded_column": {
      "latitude": "29.99958839427118",
      "longitude": "-90.05942349799389"
    }
  },
  {
    "service_request": "2024-1065565",
    "request_type": "Trash/Recycling",
    "request_reason": "Missed Trash Pick-Up",
    "date_created": "2024-02-02T15:19:22.000",
    "date_modified": "2024-02-02T15:54:23.000",
    "case_close_date": "2024-02-02T09:54:23.000",
    "request_status": "Closed",
    "responsible_agency": "Department of Sanitation",
    "final_address": "5420 S Eastover Dr",
    "address_councildis": "E",
    "status": "Assigned to Contractor",
    "contractor": "Waste Pro",
    "contractor_action": "Invalid Request",
    "rowid": "1065565",
    "final_x": "3720233.26342",
    "final_y": "560818.94115",
    "longitude": "-89.94464498414145",
    "latitude": "30.034823504145322",
    "geocoded_column": {
      "latitude": "30.034823504145322",
      "longitude": "-89.94464498414145"
    }
  },
  {
    "service_request": "2024-1065564",
    "request_type": "Roads/Drainage",
    "request_reason": "Catch Basin - Clogged",
    "date_created": "2024-02-02T15:17:36.000",
    "date_modified": "2024-02-02T15:17:36.000",
    "request_status": "Pending",
    "responsible_agency": "Department of Public Works",
    "final_address": "55 Yellowstone Dr",
    "address_councildis": "C",
    "status": "Pending",
    "rowid": "1065564",
    "final_x": "3700176.84439",
    "final_y": "516899.589621",
    "longitude": "-90.00962927092132",
    "latitude": "29.914714344137973",
    "geocoded_column": {
      "latitude": "29.914714344137973",
      "longitude": "-90.00962927092132"
    }
  },
  {
    "service_request": "2024-1065563",
    "request_type": "Property Maintenance",
    "request_reason": "Property Maintenance",
    "date_created": "2024-02-02T15:12:32.000",
    "date_modified": "2024-02-02T15:12:32.000",
    "request_status": "Pending",
    "responsible_agency": "Department of Code Enforcement",
    "final_address": "3613 Metropolitan St",
    "address_councildis": "D",
    "status": "Pending",
    "rowid": "1065563",
    "final_x": "3691745.93072",
    "final_y": "545715.632272",
    "longitude": "-90.03520966903733",
    "latitude": "29.99421355921321",
    "geocoded_column": {
      "latitude": "29.99421355921321",
      "longitude": "-90.03520966903733"
    }
  },
  {
    "service_request": "2024-1065562",
    "request_type": "Property Maintenance",
    "request_reason": "Property Maintenance",
    "date_created": "2024-02-02T15:08:36.000",
    "date_modified": "2024-02-02T15:08:36.000",
    "request_status": "Pending",
    "responsible_agency": "Department of Code Enforcement",
    "final_address": "2114 Decatur St",
    "address_councildis": "C",
    "status": "Pending",
    "rowid": "1065562",
    "final_x": "3684932.02453",
    "final_y": "534043.060485",
    "longitude": "-90.05714451082923",
    "latitude": "29.96232858234323",
    "geocoded_column": {
      "latitude": "29.96232858234323",
      "longitude": "-90.05714451082923"
    }
  },
  {
    "service_request": "2024-1065561",
    "request_type": "Roads/Drainage",
    "request_reason": "Street Flooding / Drainage",
    "date_created": "2024-02-02T15:07:00.000",
    "date_modified": "2024-02-02T15:07:00.000",
    "request_status": "Pending",
    "responsible_agency": "Department of Public Works",
    "final_address": "406 38Th St",
    "address_councildis": "A",
    "status": "Pending",
    "rowid": "1065561",
    "final_x": "3664918.89773",
    "final_y": "552657.589334",
    "longitude": "-90.11972076524341",
    "latitude": "30.01410994978017",
    "geocoded_column": {
      "latitude": "30.01410994978017",
      "longitude": "-90.11972076524341"
    }
  },
  {
    "service_request": "2024-1065560",
    "request_type": "Traffic Signals/Signs/Striping/Streetlights",
    "request_reason": "Street Light Outage/Malfunction",
    "date_created": "2024-02-02T15:05:03.000",
    "date_modified": "2024-02-02T15:05:03.000",
    "request_status": "Pending",
    "responsible_agency": "Department of Public Works",
    "final_address": "BELLAIRE DR & 38TH ST",
    "address_councildis": "A",
    "status": "Assigned to Contractor",
    "contractor": "Legacy Professional Services",
    "rowid": "1065560",
    "final_x": "3664578.3",
    "final_y": "552725.48",
    "longitude": "-90.12079461709544",
    "latitude": "30.01430654014819",
    "geocoded_column": {
      "latitude": "30.01430654014819",
      "longitude": "-90.12079461709544"
    }
  },