[
  {
    "service_request": "2022-942555",
    "request_type": "Trash/Recycling",
    "request_reason": "Replace Recycling Cart",
    "date_created": "2022-11-12T01:00:53.000",
    "date_modified": "2022-11-12T01:00:53.000",
    "request_status": "Pending",
    "responsible_agency": "Department of Sanitation",
    "final_address": "425 S White St",
    "address_councildis": "B",
    "status": "Pending",
    "rowid": "942555",
    "final_x": "3673937.32744",
    "final_y": "534339.043717",
    "longitude": "-90.09185411088967",
    "latitude": "29.963474564369214",
    "geocoded_column": {
      "latitude": "29.963474564369214",
      "longitude": "-90.09185411088967"
    }
  },
  {
    "service_request": "2022-942553",
    "request_type": "Roads/Drainage",
    "request_reason": "Pothole",
    "date_created": "2022-11-11T23:42:06.000",
    "date_modified": "2022-11-11T23:42:06.000",
    "request_status": "Pending",
    "responsible_agency": "Department of Public Works",
    "final_address": "4911 Magnolia St",
    "address_councildis": "B",
    "status": "Pending",
    "rowid": "942553",
    "final_x": "3669089.46644",
    "final_y": "524648.525436",
    "longitude": "-90.10749056344149",
    "latitude": "29.936972342251075",
    "geocoded_column": {
      "latitude": "29.936972342251075",
      "longitude": "-90.10749056344149"
    }
  },
  {
    "service_request": "2022-942552",
    "request_type": "Roads/Drainage",
    "request_reason": "Bicycle Hazardous Incident Reporting",
    "date_created": "2022-11-11T23:31:29.000",
    "date_modified": "2022-11-11T23:31:29.000",
    "request_status": "Pending",
    "responsible_agency": "Health Department",
    "final_address": "3600 Simms St",
    "address_councildis": "C",
    "status": "Pending",
    "rowid": "942552",
    "final_x": "3714016.54687",
    "final_y": "516828.794101",
    "longitude": "-89.96594947042061",
    "latitude": "29.914072811125607",
    "geocoded_column": {
      "latitude": "29.914072811125607",
      "longitude": "-89.96594947042061"
    }
  },
  {
    "service_request": "2022-942551",
    "request_type": "Property Maintenance",
    "request_reason": "Property Maintenance",
    "date_created": "2022-11-11T23:26:13.000",
    "date_modified": "2022-11-11T23:26:13.000",
    "request_status": "Pending",
    "responsible_agency": "Department of Code Enforcement",
    "final_address": "201 Bourbon St",
    "address_councildis": "C",
    "status": "Pending",
    "rowid": "942551",
    "final_x": "3681146.39893",
    "final_y": "531272.414338",
    "longitude": "-90.06919549071922",
    "latitude": "29.95482563751313",
    "geocoded_column": {
      "latitude": "29.95482563751313",
      "longitude": "-90.06919549071922"
    }
  },
  {
    "service_request": "2022-942550",
    "request_type": "Traffic Signals/Signs/Striping/Streetlights",
    "request_reason": "Street Light Outage/Malfunction",
    "date_created": "2022-11-11T23:24:47.000",
    "date_modified": "2022-11-11T23:24:48.000",
    "request_status": "Pending",
    "responsible_agency": "Department of Public Works",
    "final_address": "3701 Jackson St",
    "address_councildis": "C",
    "status": "Pending",
    "contractor": "Legacy Professional Services",
    "rowid": "942550",
    "final_x": "3712904.00722",
    "final_y": "515900.907636",
    "longitude": "-89.96949583411298",
    "latitude": "29.911557907773698",
    "geocoded_column": {
      "latitude": "29.911557907773698",
      "longitude": "-89.96949583411298"
    }
  },
  {
    "service_request": "2022-942549",
    "request_type": "Traffic Signals/Signs/Striping/Streetlights",
    "request_reason": "Street Light Outage/Malfunction",
    "date_created": "2022-11-11T23:17:18.000",
    "date_modified": "2022-11-11T23:17:19.000",
    "request_status": "Pending",
    "responsible_agency": "Department of Public Works",
    "final_address": "2301 Holiday Dr",
    "address_councildis": "C",
    "status": "Pending",
    "contractor": "Legacy Professional Services",
    "rowid": "942549",
    "final_x": "3698796.48458",
    "final_y": "522931.851963",
    "longitude": "-90.01376687700736",
    "latitude": "29.931344778137085",
    "geocoded_column": {
      "latitude": "29.931344778137085",
      "longitude": "-90.01376687700736"
    }
  },
  {
    "service_request": "2022-942548",
    "request_type": "Traffic Signals/Signs/Striping/Streetlights",
    "request_reason": "Street Light Outage/Malfunction",
    "date_created": "2022-11-11T23:14:25.000",
    "date_modified": "2022-11-11T23:14:26.000",
    "request_status": "Pending",
    "responsible_agency": "Department of Public Works",
    "final_address": "1853 Shirley Dr",
    "address_councildis": "C",
    "status": "Pending",
    "contractor": "Legacy Professional Services",
    "rowid": "942548",
    "final_x": "3692857.58569",
    "final_y": "522466.130682",
    "longitude": "-90.03253185583212",
    "latitude": "29.93025092536533",
    "geocoded_column": {
      "latitude": "29.93025092536533",
      "longitude": "-90.03253185583212"
    }
  },
  {
    "service_request": "2022-942547",
    "request_type": "Traffic Signals/Signs/Striping/Streetlights",
    "request_reason": "Street Light Outage/Malfunction",
    "date_created": "2022-11-11T23:10:32.000",
    "date_modified": "2022-11-11T23:10:32.000",
    "request_status": "Pending",
    "responsible_agency": "Department of Public Works",
    "final_address": "6001 Woodland Hwy",
    "address_councildis": "C",
    "status": "Pending",
    "contractor": "Legacy Professional Services",
    "rowid": "942547",
    "final_x": "3705934.84919",
    "final_y": "514368.845811",
    "longitude": "-89.99154868222467",
    "latitude": "29.90757151102874",
    "geocoded_column": {
      "latitude": "29.90757151102874",
      "longitude": "-89.99154868222467"
    }
  },
  {
    "service_request": "2022-942546",
    "request_type": "Traffic Signals/Signs/Striping/Streetlights",
    "request_reason": "Street Light Outage/Malfunction",
    "date_created": "2022-11-11T23:06:09.000",
    "date_modified": "2022-11-11T23:06:10.000",
    "request_status": "Pending",
    "responsible_agency": "Department of Public Works",
    "final_address": "202 River Oaks Dr",
    "address_councildis": "C",
    "status": "Pending",
    "contractor": "Legacy Professional Services",
    "rowid": "942546",
    "final_x": "3701643.91985",
    "final_y": "523274.555899",
    "longitude": "-90.0047653958975",
    "latitude": "29.932196622170288",
    "geocoded_column": {
      "latitude": "29.932196622170288",
      "longitude": "-90.0047653958975"
    }
  },
  {
    "service_request": "2022-942545",
    "request_type": "Traffic Signals/Signs/Striping/Streetlights",
    "request_reason": "Traffic Signal Malfunctioning/Damaged",
    "date_created": "2022-11-11T23:03:13.000",
    "date_modified": "2022-11-11T23:03:13.000",
    "request_status": "Pending",
    "responsible_agency": "Department of Public Works",
    "final_address": "4550 General Meyer Ave",
    "address_councildis": "C",
    "status": "Pending",
    "rowid": "942545",
    "final_x": "3700975.98116",
    "final_y": "524028.633724",
    "longitude": "-90.0068464407169",
    "latitude": "29.93429135220511",
    "geocoded_column": {
      "latitude": "29.93429135220511",
      "longitude": "-90.0068464407169"
    }
  },
  {
    "service_request": "2022-942544",
    "request_type": "Parks & Parkways",
    "request_reason": "Request Tree Service (Right of Way/Public Property)",
    "date_created": "2022-11-11T22:59:37.000",
    "date_modified": "2022-11-11T22:59:37.000",
    "request_status": "Pending",
    "responsible_agency": "Department of Parks & Parkway",
    "final_address": "3904 General Meyer Ave",
    "address_councildis": "C",
    "status": "Pending",
    "rowid": "942544",
    "final_x": "3698599.4849",
    "final_y": "525052.321021",
    "longitude": "-90.01431171906243",
    "latitude": "29.937181571541625",
    "geocoded_column": {
      "latitude": "29.937181571541625",
      "longitude": "-90.01431171906243"
    }
  },
  {
    "service_request": "2022-942543",
    "request_type": "Trash/Recycling",
    "request_reason": "Request a Large Item Pick Up",
    "date_created": "2022-11-11T22:53:29.000",
    "date_modified": "2022-11-11T22:53:29.000",
    "request_status": "Pending",
    "responsible_agency": "Department of Sanitation",
    "final_address": "317 N Johnson St",
    "address_councildis": "B",
    "status": "Assigned to Contractor",
    "contractor": "Richards Disposal",
    "rowid": "942543",
    "final_x": "3677769.56757",
    "final_y": "534486.568453",
    "longitude": "-90.0797472069718",
    "latitude": "29.963765482199058",
    "geocoded_column": {
      "latitude": "29.963765482199058",
      "longitude": "-90.0797472069718"
    }
  },
  {
    "service_request": "2022-942542",
    "request_type": "Abandoned Vehicles",
    "request_reason": "Abandoned/Junk Vehicles",
    "date_created": "2022-11-11T22:25:54.000",
    "date_modified": "2022-11-11T22:25:54.000",
    "request_status": "Pending",
    "responsible_agency": "Department of Public Works",
    "final_address": "7412 Malvern Dr",
    "address_councildis": "E",
    "status": "Pending",
    "rowid": "942542",
    "final_x": "3702593.68093",
    "final_y": "560967.199134",
    "longitude": "-90.00038289002917",
    "latitude": "30.035807174330134",
    "geocoded_column": {
      "latitude": "30.035807174330134",
      "longitude": "-90.00038289002917"
    }
  },
  {
    "service_request": "2022-942541",
    "request_type": "Trash/Recycling",
    "request_reason": "Order Recycling Cart",
    "date_created": "2022-11-11T22:09:44.000",
    "date_modified": "2022-11-11T22:09:44.000",
    "request_status": "Pending",
    "responsible_agency": "Department of Sanitation",
    "final_address": "4818 Charmes Ct",
    "address_councildis": "E",
    "status": "Pending",
    "rowid": "942541",
    "final_x": "3726315.15046",
    "final_y": "561261.125726",
    "longitude": "-89.9254084178399",
    "latitude": "30.03583525627198",
    "geocoded_column": {
      "latitude": "30.03583525627198",
      "longitude": "-89.9254084178399"
    }
  },
  {
    "service_request": "2022-942540",
    "request_type": "Trash/Recycling",
    "request_reason": "MIssed Recycling Pick-Up",
    "date_created": "2022-11-11T22:08:22.000",
    "date_modified": "2022-11-11T22:08:23.000",
    "request_status": "Pending",
    "responsible_agency": "Department of Sanitation",
    "final_address": "2123 Broadway St",
    "address_councildis": "A",
    "status": "Assigned to Contractor",
    "contractor": "Richards Disposal",
    "rowid": "942540",
    "final_x": "3666112.92826",
    "final_y": "529285.727937",
    "longitude": "-90.11673225146713",
    "latitude": "29.9498103802666",
    "geocoded_column": {
      "latitude": "29.9498103802666",
      "longitude": "-90.11673225146713"
    }
  },
  {
    "service_request": "2022-942538",
    "request_type": "Abandoned Vehicles",
    "request_reason": "Vehicle Blocking Your Driveway",
    "date_created": "2022-11-11T21:51:37.000",
    "date_modified": "2022-11-11T21:51:37.000",
    "request_status": "Pending",
    "responsible_agency": "Department of Public Works",
    "final_address": "2501 N Derbigny St",
    "address_councildis": "D",
    "status": "Pending",
    "rowid": "942538",
    "final_x": "3687064.48297",
    "final_y": "538727.122505",
    "longitude": "-90.05024489710529",
    "latitude": "29.975142640727455",
    "geocoded_column": {
      "latitude": "29.975142640727455",
      "longitude": "-90.05024489710529"
    }
  },
  {
    "service_request": "2022-942537",
    "request_type": "Trash/Recycling",
    "request_reason": "Order Recycling Cart",
    "date_created": "2022-11-11T21:30:12.000",
    "date_modified": "2022-11-11T21:30:12.000",
    "request_status": "Pending",
    "responsible_agency": "Department of Sanitation",
    "final_address": "14 Petit Bayou Ln",
    "address_councildis": "E",
    "status": "Pending",
    "rowid": "942537",
    "final_x": "3724765.12486",
    "final_y": "563960.888609",
    "longitude": "-89.93020223795439",
    "latitude": "30.043310767442858",
    "geocoded_column": {
      "latitude": "30.043310767442858",
      "longitude": "-89.93020223795439"
    }
  },
  {
    "service_request": "2022-942536",
    "request_type": "Trash/Recycling",
    "request_reason": "Illegal Dumping",
    "date_created": "2022-11-11T21:09:37.000",
    "date_modified": "2022-11-11T21:09:37.000",
    "request_status": "Pending",
    "responsible_agency": "Department of Sanitation",
    "final_address": "1730 Laharpe St",
    "address_councildis": "D",
    "status": "Pending",
    "rowid": "942536",
    "final_x": "3681393.15164",
    "final_y": "537711.195144",
    "longitude": "-90.06819186001897",
    "latitude": "29.972522593963376",
    "geocoded_column": {
      "latitude": "29.972522593963376",
      "longitude": "-90.06819186001897"
    }
  },
  {
    "service_request": "2022-942535",
    "request_type": "Traffic Signals/Signs/Striping/Streetlights",
    "request_reason": "Street Light Outage/Malfunction",
    "date_created": "2022-11-11T21:07:35.000",
    "date_modified": "2022-11-11T21:07:36.000",
    "request_status": "Pending",
    "responsible_agency": "Department of Public Works",
    "final_address": "1729 Laharpe St",
    "address_councildis": "D",
    "status": "Pending",
    "contractor": "Legacy Professional Services",
    "rowid": "942535",
    "final_x": "3681473.47381",
    "final_y": "537888.691721",
    "longitude": "-90.06793199785254",
    "latitude": "29.973008209393694",
    "geocoded_column": {
      "latitude": "29.973008209393694",
      "longitude": "-90.06793199785254"
    }
  },
  {
    "service_request": "2022-942534",
    "request_type": "Abandoned Vehicles",
    "request_reason": "Abandoned/Junk Vehicles",
    "date_created": "2022-11-11T20:43:51.000",
    "date_modified": "2022-11-11T20:43:51.000",
    "request_status": "Pending",
    "responsible_agency": "Department of Public Works",
    "final_address": "4004 State Street Dr",
    "address_councildis": "B",
    "status": "Pending",
    "rowid": "942534",
    "final_x": "3668187.81466",
    "final_y": "530336.185346",
    "longitude": "-90.11014545236264",
    "latitude": "29.952638056348228",
    "geocoded_column": {
      "latitude": "29.952638056348228",
      "longitude": "-90.11014545236264"
    }
  },
  {
    "service_request": "2022-942533",
    "request_type": "Trash/Recycling",
    "request_reason": "Order Recycling Cart",
    "date_created": "2022-11-11T20:35:12.000",
    "date_modified": "2022-11-11T20:35:12.000",
    "request_status": "Pending",
    "responsible_agency": "Department of Sanitation",
    "final_address": "1870 Industry St",
    "address_councildis": "D",
    "status": "Pending",
    "rowid": "942533",
    "final_x": "3682155.58261",
    "final_y": "542720.100493",
    "longitude": "-90.0656089519924",
    "latitude": "29.98627216642327",
    "geocoded_column": {
      "latitude": "29.98627216642327",
      "longitude": "-90.0656089519924"
    }
  },
  {
    "service_request": "2022-942532",
    "request_type": "Traffic Signals/Signs/Striping/Streetlights",
    "request_reason": "Street Light Outage/Malfunction",
    "date_created": "2022-11-11T20:24:45.000",
    "date_modified": "2022-11-11T20:24:46.000",
    "request_status": "Pending",
    "responsible_agency": "Department of Public Works",
    "final_address": "422 State St",
    "address_councildis": "A",
    "status": "Pending",
    "contractor": "Legacy Professional Services",
    "rowid": "942532",
    "final_x": "3664261.60199",
    "final_y": "518046.46175",
    "longitude": "-90.12295263077425",
    "latitude": "29.918959881492093",
    "geocoded_column": {
      "latitude": "29.918959881492093",
      "longitude": "-90.12295263077425"
    }
  },
  {
    "service_request": "2022-942531",
    "request_type": "Trash/Recycling",
    "request_reason": "Order Recycling Cart",
    "date_created": "2022-11-11T20:18:14.000",
    "date_modified": "2022-11-11T20:18:14.000",
    "request_status": "Pending",
    "responsible_agency": "Department of Sanitation",
    "final_address": "6841 Manchester St",
    "address_councildis": "E",
    "status": "Pending",
    "rowid": "942531",
    "final_x": "3698578.59997",
    "final_y": "560061.189213",
    "longitude": "-90.0131041938401",
    "latitude": "30.033443813449125",
    "geocoded_column": {
      "latitude": "30.033443813449125",
      "longitude": "-90.0131041938401"
    }
  },
  {
    "service_request": "2022-942530",
    "request_type": "Trash/Recycling",
    "request_reason": "Order Recycling Cart",
    "date_created": "2022-11-11T20:16:34.000",
    "date_modified": "2022-11-11T20:16:34.000",
    "request_status": "Pending",
    "responsible_agency": "Department of Sanitation",
    "final_address": "4751 Major Dr",
    "address_councildis": "E",
    "status": "Pending",
    "rowid": "942530",
    "final_x": "3718278.33253",
    "final_y": "557009.417946",
    "longitude": "-89.95096802253137",
    "latitude": "30.024413847568635",
    "geocoded_column": {
      "latitude": "30.024413847568635",
      "longitude": "-89.95096802253137"
    }
  },
  {
    "service_request": "2022-942529",
    "request_type": "Trash/Recycling",
    "request_reason": "Order Recycling Cart",
    "date_created": "2022-11-11T20:11:22.000",
    "date_modified": "2022-11-11T20:11:22.000",
    "request_status": "Pending",
    "responsible_agency": "Department of Sanitation",
    "final_address": "11007 N Hardy St",
    "address_councildis": "E",
    "status": "Pending",
    "rowid": "942529",
    "final_x": "3712885.9475",
    "final_y": "562386.092703",
    "longitude": "-89.96780435241944",
    "latitude": "30.039375336098704",
    "geocoded_column": {
      "latitude": "30.039375336098704",
      "longitude": "-89.96780435241944"
    }
  },
  {
    "service_request": "2022-942528",
    "request_type": "Trash/Recycling",
    "request_reason": "Request a Large Item Pick Up",
    "date_created": "2022-11-11T19:58:53.000",
    "date_modified": "2022-11-11T19:58:54.000",
    "request_status": "Pending",
    "responsible_agency": "Department of Sanitation",
    "final_address": "800 Weiblen Pl",
    "address_councildis": "A",
    "status": "Assigned to Contractor",
    "contractor": "IV Waste",
    "rowid": "942528",
    "final_x": "3668426.98906",
    "final_y": "542529.110541",
    "longitude": "-90.10897886649977",
    "latitude": "29.986157508466217",
    "geocoded_column": {
      "latitude": "29.986157508466217",
      "longitude": "-90.10897886649977"
    }
  },
  {
    "service_request": "2022-942527",
    "request_type": "Trash/Recycling",
    "request_reason": "Request a Large Item Pick Up",
    "date_created": "2022-11-11T19:19:15.000",
    "date_modified": "2022-11-11T19:19:16.000",
    "request_status": "Pending",
    "responsible_agency": "Department of Sanitation",
    "final_address": "7463 Dominican street 70118",
    "status": "Assigned to Contractor",
    "rowid": "942527",
    "longitude": "0.0",
    "latitude": "0.0",
    "geocoded_column": {
      "latitude": "0.0",
      "longitude": "0.0"
    }
  },
  {
    "service_request": "2022-942526",
    "request_type": "Trash/Recycling",
    "request_reason": "Order Recycling Cart",
    "date_created": "2022-11-11T19:17:57.000",
    "date_modified": "2022-11-11T19:17:57.000",
    "request_status": "Pending",
    "responsible_agency": "Department of Sanitation",
    "final_address": "5711 Macarthur Blvd",
    "address_councildis": "C",
    "status": "Pending",
    "rowid": "942526",
    "final_x": "3704410.03268",
    "final_y": "519338.833015",
    "longitude": "-89.99617810631355",
    "latitude": "29.9212862765193",
    "geocoded_column": {
      "latitude": "29.9212862765193",
      "longitude": "-89.99617810631355"
    }
  },
  {
    "service_request": "2022-942525",
    "request_type": "Mosquito, Termite & Rodent Control",
    "request_reason": "Rodent Complaint (Rats)",
    "date_created": "2022-11-11T19:02:58.000",
    "date_modified": "2022-11-11T19:02:58.000",
    "request_status": "Pending",
    "responsible_agency": "Mosquito, Termite & Rodent Control Board",
    "final_address": "7107 St Charles Ave",
    "address_councildis": "A",
    "status": "Pending",
    "rowid": "942525",
    "final_x": "3663222.32224",
    "final_y": "524639.981372",
    "longitude": "-90.12601382602749",
    "latitude": "29.93712013595339",
    "geocoded_column": {
      "latitude": "29.93712013595339",
      "longitude": "-90.12601382602749"
    }
  },
  {
    "service_request": "2022-942524",
    "request_type": "Trash/Recycling",
    "request_reason": "Order Recycling Cart",
    "date_created": "2022-11-11T19:01:05.000",
    "date_modified": "2022-11-11T19:01:06.000",
    "request_status": "Pending",
    "responsible_agency": "Department of Sanitation",
    "final_address": "4800 Arthur Dr",
    "address_councildis": "E",
    "status": "Pending",
    "rowid": "942524",
    "final_x": "3707569.71345",
    "final_y": "555994.024217",
    "longitude": "-89.98484281177248",
    "latitude": "30.021972789519612",
    "geocoded_column": {
      "latitude": "30.021972789519612",
      "longitude": "-89.98484281177248"
    }
  },
  {
    "service_request": "2022-942523",
    "request_type": "Abandoned Vehicles",
    "request_reason": "Abandoned/Junk Vehicles",
    "date_created": "2022-11-11T18:59:52.000",
    "date_modified": "2022-11-11T18:59:52.000",
    "request_status": "Pending",
    "responsible_agency": "Department of Public Works",
    "final_address": "29 Curtis Dr",
    "address_councildis": "E",
    "status": "Pending",
    "rowid": "942523",
    "final_x": "3698163.57495",
    "final_y": "561151.098014",
    "longitude": "-90.01437606423181",
    "latitude": "30.036453783329165",
    "geocoded_column": {
      "latitude": "30.036453783329165",
      "longitude": "-90.01437606423181"
    }
  },
  {
    "service_request": "2022-942522",
    "request_type": "Trash/Recycling",
    "request_reason": "MIssed Recycling Pick-Up",
    "date_created": "2022-11-11T18:48:23.000",
    "date_modified": "2022-11-11T18:48:24.000",
    "request_status": "Pending",
    "responsible_agency": "Department of Sanitation",
    "final_address": "7102 Birch St",
    "address_councildis": "A",
    "status": "Assigned to Contractor",
    "contractor": "Richards Disposal",
    "rowid": "942522",
    "final_x": "3665117.95546",
    "final_y": "527519.063167",
    "longitude": "-90.11993292224139",
    "latitude": "29.944981632503026",
    "geocoded_column": {
      "latitude": "29.944981632503026",
      "longitude": "-90.11993292224139"
    }
  },
  {
    "service_request": "2022-942521",
    "request_type": "Traffic Signals/Signs/Striping/Streetlights",
    "request_reason": "Street Light Outage/Malfunction",
    "date_created": "2022-11-11T18:48:21.000",
    "date_modified": "2022-11-11T18:49:35.000",
    "request_status": "Pending",
    "responsible_agency": "Department of Public Works",
    "final_address": "3708 Timber Bluff Ln",
    "address_councildis": "C",
    "status": "Pending",
    "contractor": "Legacy Professional Services",
    "rowid": "942521",
    "final_x": "3704052.53668",
    "final_y": "510762.463983",
    "longitude": "-89.99762213079649",
    "latitude": "29.897715659028023",
    "geocoded_column": {
      "latitude": "29.897715659028023",
      "longitude": "-89.99762213079649"
    }
  },
  {
    "service_request": "2022-942520",
    "request_type": "Trash/Recycling",
    "request_reason": "Order Recycling Cart",
    "date_created": "2022-11-11T18:47:00.000",
    "date_modified": "2022-11-11T18:47:00.000",
    "request_status": "Pending",
    "responsible_agency": "Department of Sanitation",
    "final_address": "4727 Warren Dr",
    "address_councildis": "E",
    "status": "Pending",
    "rowid": "942520",
    "final_x": "3713537.7445",
    "final_y": "556198.971738",
    "longitude": "-89.96597783398602",
    "latitude": "30.022341843506457",
    "geocoded_column": {
      "latitude": "30.022341843506457",
      "longitude": "-89.96597783398602"
    }
  },
  {
    "service_request": "2022-942519",
    "request_type": "Trash/Recycling",
    "request_reason": "Order Recycling Cart",
    "date_created": "2022-11-11T18:43:50.000",
    "date_modified": "2022-11-11T18:43:51.000",
    "request_status": "Pending",
    "responsible_agency": "Department of Sanitation",
    "final_address": "4626 Knight Dr",
    "address_councildis": "E",
    "status": "Pending",
    "rowid": "942519",
    "final_x": "3708138.9987",
    "final_y": "554773.133464",
    "longitude": "-89.98308949058871",
    "latitude": "30.01859738065918",
    "geocoded_column": {
      "latitude": "30.01859738065918",
      "longitude": "-89.98308949058871"
    }
  },
  {
    "service_request": "2022-942518",
    "request_type": "Trash/Recycling",
    "request_reason": "Order Recycling Cart",
    "date_created": "2022-11-11T18:41:28.000",
    "date_modified": "2022-11-11T18:41:28.000",
    "request_status": "Pending",
    "responsible_agency": "Department of Sanitation",
    "final_address": "130 Horseshoe Bend",
    "address_councildis": "E",
    "status": "Pending",
    "rowid": "942518",
    "final_x": "3720124.63052",
    "final_y": "561626.157791",
    "longitude": "-89.9449573675473",
    "latitude": "30.037046641322327",
    "geocoded_column": {
      "latitude": "30.037046641322327",
      "longitude": "-89.9449573675473"
    }
  },
  {
    "service_request": "2022-942517",
    "request_type": "Trash/Recycling",
    "request_reason": "MIssed Recycling Pick-Up",
    "date_created": "2022-11-11T18:41:03.000",
    "date_modified": "2022-11-11T18:41:04.000",
    "request_status": "Pending",
    "responsible_agency": "Department of Sanitation",
    "final_address": "208 Hillary St",
    "address_councildis": "A",
    "status": "Assigned to Contractor",
    "contractor": "Richards Disposal",
    "rowid": "942517",
    "final_x": "3660791.92806",
    "final_y": "524467.190908",
    "longitude": "-90.13369247583448",
    "latitude": "29.936715206414828",
    "geocoded_column": {
      "latitude": "29.936715206414828",
      "longitude": "-90.13369247583448"
    }
  },
  {
    "service_request": "2022-942516",
    "request_type": "Trash/Recycling",
    "request_reason": "MIssed Recycling Pick-Up",
    "date_created": "2022-11-11T18:38:47.000",
    "date_modified": "2022-11-11T18:38:47.000",
    "request_status": "Pending",
    "responsible_agency": "Department of Sanitation",
    "final_address": "7522 Jeannette St",
    "address_councildis": "A",
    "status": "Assigned to Contractor",
    "contractor": "Richards Disposal",
    "rowid": "942516",
    "final_x": "3664069.328",
    "final_y": "527748.667711",
    "longitude": "-90.12323612034218",
    "latitude": "29.945643463521094",
    "geocoded_column": {
      "latitude": "29.945643463521094",
      "longitude": "-90.12323612034218"
    }
  },
  {
    "service_request": "2022-942515",
    "request_type": "Trash/Recycling",
    "request_reason": "MIssed Recycling Pick-Up",
    "date_created": "2022-11-11T18:36:26.000",
    "date_modified": "2022-11-11T18:36:26.000",
    "request_status": "Pending",
    "responsible_agency": "Department of Sanitation",
    "final_address": "7628 Jeannette St",
    "address_councildis": "A",
    "status": "Assigned to Contractor",
    "contractor": "Richards Disposal",
    "rowid": "942515",
    "final_x": "3663848.18592",
    "final_y": "527966.194367",
    "longitude": "-90.1239270926007",
    "latitude": "29.946248011815257",
    "geocoded_column": {
      "latitude": "29.946248011815257",
      "longitude": "-90.1239270926007"
    }
  },
  {
    "service_request": "2022-942514",
    "request_type": "Trash/Recycling",
    "request_reason": "Order Recycling Cart",
    "date_created": "2022-11-11T18:21:00.000",
    "date_modified": "2022-11-11T18:21:00.000",
    "request_status": "Pending",
    "responsible_agency": "Department of Sanitation",
    "final_address": "7051 Curran Rd",
    "address_councildis": "E",
    "status": "Pending",
    "rowid": "942514",
    "final_x": "3699165.61853",
    "final_y": "560442.258846",
    "longitude": "-90.0112352686101",
    "latitude": "30.03447299712617",
    "geocoded_column": {
      "latitude": "30.03447299712617",
      "longitude": "-90.0112352686101"
    }
  },
  {
    "service_request": "2022-942513",
    "request_type": "Abandoned Vehicles",
    "request_reason": "Abandoned/Junk Vehicles",
    "date_created": "2022-11-11T18:11:40.000",
    "date_modified": "2022-11-11T18:11:40.000",
    "request_status": "Pending",
    "responsible_agency": "Department of Public Works",
    "final_address": "8239 Spruce St",
    "address_councildis": "A",
    "status": "Pending",
    "rowid": "942513",
    "final_x": "3663384.08371",
    "final_y": "530933.072002",
    "longitude": "-90.12529367164461",
    "latitude": "29.954419430130887",
    "geocoded_column": {
      "latitude": "29.954419430130887",
      "longitude": "-90.12529367164461"
    }
  },
  {
    "service_request": "2022-942512",
    "request_type": "Trash/Recycling",
    "request_reason": "Replace Trash Cart",
    "date_created": "2022-11-11T17:57:51.000",
    "date_modified": "2022-11-11T17:57:52.000",
    "request_status": "Pending",
    "responsible_agency": "Department of Sanitation",
    "final_address": "4136 Walmsley Ave",
    "address_councildis": "B",
    "status": "Assigned to Contractor",
    "contractor": "Richards Disposal",
    "rowid": "942512",
    "final_x": "3670135.01646",
    "final_y": "529685.051521",
    "longitude": "-90.10401910729068",
    "latitude": "29.950790352655375",
    "geocoded_column": {
      "latitude": "29.950790352655375",
      "longitude": "-90.10401910729068"
    }
  },
  {
    "service_request": "2022-942511",
    "request_type": "Trash/Recycling",
    "request_reason": "Order Recycling Cart",
    "date_created": "2022-11-11T17:57:07.000",
    "date_modified": "2022-11-11T17:57:07.000",
    "request_status": "Pending",
    "responsible_agency": "Department of Sanitation",
    "final_address": "10131 Flossmoor Dr",
    "address_councildis": "E",
    "status": "Pending",
    "rowid": "942511",
    "final_x": "3709577.65067",
    "final_y": "563640.130145",
    "longitude": "-89.9782125808054",
    "latitude": "30.042931429316106",
    "geocoded_column": {
      "latitude": "30.042931429316106",
      "longitude": "-89.9782125808054"
    }
  },
  {
    "service_request": "2022-942510",
    "request_type": "Trash/Recycling",
    "request_reason": "MIssed Recycling Pick-Up",
    "date_created": "2022-11-11T17:49:03.000",
    "date_modified": "2022-11-11T17:49:04.000",
    "request_status": "Pending",
    "responsible_agency": "Department of Sanitation",
    "final_address": "2831 Audubon St",
    "address_councildis": "B",
    "status": "Assigned to Contractor",
    "contractor": "Richards Disposal",
    "rowid": "942510",
    "final_x": "3667694.17434",
    "final_y": "531295.870018",
    "longitude": "-90.11167184375363",
    "latitude": "29.955291355719048",
    "geocoded_column": {
      "latitude": "29.955291355719048",
      "longitude": "-90.11167184375363"
    }
  },
  {
    "service_request": "2022-942509",
    "request_type": "Property Maintenance",
    "request_reason": "Property Maintenance",
    "date_created": "2022-11-11T17:48:18.000",
    "date_modified": "2022-11-11T17:48:18.000",
    "request_status": "Pending",
    "responsible_agency": "Department of Code Enforcement",
    "final_address": "2223 St Ann St",
    "address_councildis": "D",
    "status": "Pending",
    "rowid": "942509",
    "final_x": "3678439.15822",
    "final_y": "536123.246983",
    "longitude": "-90.07757606246672",
    "latitude": "29.968245630982484",
    "geocoded_column": {
      "latitude": "29.968245630982484",
      "longitude": "-90.07757606246672"
    }
  },
  {
    "service_request": "2022-942508",
    "request_type": "Traffic Signals/Signs/Striping/Streetlights",
    "request_reason": "Street Light Outage/Malfunction",
    "date_created": "2022-11-11T17:47:28.000",
    "date_modified": "2022-11-11T17:47:29.000",
    "request_status": "Pending",
    "responsible_agency": "Department of Public Works",
    "final_address": "6017 Elysian Fields Ave",
    "address_councildis": "D",
    "status": "Pending",
    "contractor": "Legacy Professional Services",
    "rowid": "942508",
    "final_x": "3683648.63721",
    "final_y": "555128.173721",
    "longitude": "-90.06045760132488",
    "latitude": "30.020344393203146",
    "geocoded_column": {
      "latitude": "30.020344393203146",
      "longitude": "-90.06045760132488"
    }
  },
  {
    "service_request": "2022-942507",
    "request_type": "Trash/Recycling",
    "request_reason": "Request a Large Item Pick Up",
    "date_created": "2022-11-11T17:41:08.000",
    "date_modified": "2022-11-11T17:41:09.000",
    "request_status": "Pending",
    "responsible_agency": "Department of Sanitation",
    "final_address": "619 Toulouse St HM",
    "address_councildis": "C",
    "status": "Assigned to Contractor",
    "contractor": "Empire Services",
    "rowid": "942507",
    "final_x": "3682545.49896",
    "final_y": "532111.620355",
    "longitude": "-90.06474833326592",
    "latitude": "29.957090652210397",
    "geocoded_column": {
      "latitude": "29.957090652210397",
      "longitude": "-90.06474833326592"
    }
  },
  {
    "service_request": "2022-942506",
    "request_type": "Property Maintenance",
    "request_reason": "Property Maintenance",
    "date_created": "2022-11-11T17:34:46.000",
    "date_modified": "2022-11-11T17:34:47.000",
    "request_status": "Pending",
    "responsible_agency": "Department of Code Enforcement",
    "final_address": "7928 Forshey St",
    "address_councildis": "B",
    "status": "Pending",
    "rowid": "942506",
    "final_x": "3667392.80314",
    "final_y": "533521.207045",
    "longitude": "-90.11254860288972",
    "latitude": "29.961419132925258",
    "geocoded_column": {
      "latitude": "29.961419132925258",
      "longitude": "-90.11254860288972"
    }
  },
  {
    "service_request": "2022-942505",
    "request_type": "Traffic Signals/Signs/Striping/Streetlights",
    "request_reason": "Street Light Outage/Malfunction",
    "date_created": "2022-11-11T17:34:44.000",
    "date_modified": "2022-11-11T17:34:44.000",
    "request_status": "Pending",
    "responsible_agency": "Department of Public Works",
    "final_address": "4222 Monroe St",
    "address_councildis": "A",
    "status": "Pending",
    "contractor": "Legacy Professional Services",
    "rowid": "942505",
    "final_x": "3667667.05665",
    "final_y": "537894.055497",
    "longitude": "-90.11153531375612",
    "latitude": "29.973434975773422",
    "geocoded_column": {
      "latitude": "29.973434975773422",
      "longitude": "-90.11153531375612"
    }
  },
  {
    "service_request": "2022-942504",
    "request_type": "Trash/Recycling",
    "request_reason": "Missed Trash Pick-Up",
    "date_created": "2022-11-11T17:29:28.000",
    "date_modified": "2022-11-11T17:29:29.000",
    "request_status": "Pending",
    "responsible_agency": "Department of Sanitation",
    "final_address": "7810 Exeter St",
    "address_councildis": "E",
    "status": "Assigned to Contractor",
    "contractor": "Waste Pro",
    "rowid": "942504",
    "final_x": "3697480.08099",
    "final_y": "559995.223965",
    "longitude": "-90.01657800852742",
    "latitude": "30.033297190830837",
    "geocoded_column": {
      "latitude": "30.033297190830837",
      "longitude": "-90.01657800852742"
    }
  },
  {
    "service_request": "2022-942503",
    "request_type": "Trash/Recycling",
    "request_reason": "Replace Trash Cart",
    "date_created": "2022-11-11T17:25:23.000",
    "date_modified": "2022-11-11T17:25:24.000",
    "request_status": "Pending",
    "responsible_agency": "Department of Sanitation",
    "final_address": "2106 Piety St",
    "address_councildis": "D",
    "status": "Assigned to Contractor",
    "contractor": "IV Waste",
    "rowid": "942503",
    "final_x": "3690771.71388",
    "final_y": "539653.031626",
    "longitude": "-90.03850348849589",
    "latitude": "29.977573895447094",
    "geocoded_column": {
      "latitude": "29.977573895447094",
      "longitude": "-90.03850348849589"
    }
  },
  {
    "service_request": "2022-942502",
    "request_type": "Trash/Recycling",
    "request_reason": "Order Recycling Cart",
    "date_created": "2022-11-11T17:17:23.000",
    "date_modified": "2022-11-11T17:17:23.000",
    "request_status": "Pending",
    "responsible_agency": "Department of Sanitation",
    "final_address": "2932 St Bernard Ave",
    "address_councildis": "D",
    "status": "Pending",
    "rowid": "942502",
    "final_x": "3679439.62453",
    "final_y": "542935.594381",
    "longitude": "-90.07418013488574",
    "latitude": "29.98694704274744",
    "geocoded_column": {
      "latitude": "29.98694704274744",
      "longitude": "-90.07418013488574"
    }
  },
  {
    "service_request": "2022-942501",
    "request_type": "Trash/Recycling",
    "request_reason": "Missed Trash Pick-Up",
    "date_created": "2022-11-11T17:16:20.000",
    "date_modified": "2022-11-11T17:16:20.000",
    "request_status": "Pending",
    "responsible_agency": "Department of Sanitation",
    "final_address": "1621 General Pershing St",
    "address_councildis": "B",
    "status": "Assigned to Contractor",
    "contractor": "Richards Disposal",
    "rowid": "942501",
    "final_x": "3671317.43195",
    "final_y": "521137.934137",
    "longitude": "-90.10057597789081",
    "latitude": "29.92725361929557",
    "geocoded_column": {
      "latitude": "29.92725361929557",
      "longitude": "-90.10057597789081"
    }
  },
  {
    "service_request": "2022-942500",
    "request_type": "Trash/Recycling",
    "request_reason": "Order Recycling Cart",
    "date_created": "2022-11-11T17:15:27.000",
    "date_modified": "2022-11-11T17:15:27.000",
    "request_status": "Pending",
    "responsible_agency": "Department of Sanitation",
    "final_address": "2934 St Bernard Ave",
    "address_councildis": "D",
    "status": "Pending",
    "rowid": "942500",
    "final_x": "3679435.72648",
    "final_y": "542938.546701",
    "longitude": "-90.07419234492963",
    "latitude": "29.986955278376126",
    "geocoded_column": {
      "latitude": "29.986955278376126",
      "longitude": "-90.07419234492963"
    }
  },
  {
    "service_request": "2022-942498",
    "request_type": "Trash/Recycling",
    "request_reason": "MIssed Recycling Pick-Up",
    "date_created": "2022-11-11T17:12:01.000",
    "date_modified": "2022-11-11T17:12:02.000",
    "request_status": "Pending",
    "responsible_agency": "Department of Sanitation",
    "final_address": "8416 Pritchard Pl",
    "address_councildis": "A",
    "status": "Assigned to Contractor",
    "contractor": "Richards Disposal",
    "rowid": "942498",
    "final_x": "3665129.72",
    "final_y": "533683.936773",
    "longitude": "-90.11968961579052",
    "latitude": "29.96193268942483",
    "geocoded_column": {
      "latitude": "29.96193268942483",
      "longitude": "-90.11968961579052"
    }
  },
  {
    "service_request": "2022-942497",
    "request_type": "Trash/Recycling",
    "request_reason": "Missed Trash Pick-Up",
    "date_created": "2022-11-11T17:09:14.000",
    "date_modified": "2022-11-11T17:09:15.000",
    "request_status": "Pending",
    "responsible_agency": "Department of Sanitation",
    "final_address": "11413 S Easterlyn Cir",
    "address_councildis": "E",
    "status": "Assigned to Contractor",
    "contractor": "Waste Pro",
    "rowid": "942497",
    "final_x": "3718655.44831",
    "final_y": "560424.89955",
    "longitude": "-89.9496460940847",
    "latitude": "30.033792533356536",
    "geocoded_column": {
      "latitude": "30.033792533356536",
      "longitude": "-89.9496460940847"
    }
  },
  {
    "service_request": "2022-942496",
    "request_type": "Trash/Recycling",
    "request_reason": "Missed Trash Pick-Up",
    "date_created": "2022-11-11T17:07:17.000",
    "date_modified": "2022-11-11T17:07:17.000",
    "request_status": "Pending",
    "responsible_agency": "Department of Sanitation",
    "final_address": "2007 St Claude Ave",
    "address_councildis": "C",
    "status": "Assigned to Contractor",
    "contractor": "IV Waste",
    "rowid": "942496",
    "final_x": "3684308.91471",
    "final_y": "536291.174791",
    "longitude": "-90.05903324783523",
    "latitude": "29.968529188164926",
    "geocoded_column": {
      "latitude": "29.968529188164926",
      "longitude": "-90.05903324783523"
    }
  },
  {
    "service_request": "2022-942495",
    "request_type": "Trash/Recycling",
    "request_reason": "Missed Trash Pick-Up",
    "date_created": "2022-11-11T17:03:49.000",
    "date_modified": "2022-11-11T17:03:50.000",
    "request_status": "Pending",
    "responsible_agency": "Department of Sanitation",
    "final_address": "4834 Lurline St",
    "address_councildis": "E",
    "status": "Assigned to Contractor",
    "contractor": "Waste Pro",
    "rowid": "942495",
    "final_x": "3711848.26379",
    "final_y": "556618.26633",
    "longitude": "-89.97130037818867",
    "latitude": "30.023550065542842",
    "geocoded_column": {
      "latitude": "30.023550065542842",
      "longitude": "-89.97130037818867"
    }
  },
  {
    "service_request": "2022-942494",
    "request_type": "Trash/Recycling",
    "request_reason": "Illegal Dumping",
    "date_created": "2022-11-11T17:00:15.000",
    "date_modified": "2022-11-11T17:00:16.000",
    "request_status": "Pending",
    "responsible_agency": "Department of Sanitation",
    "final_address": "6TH ST & DANNEEL ST",
    "address_councildis": "B",
    "status": "Pending",
    "rowid": "942494",
    "final_x": "3674705.9",
    "final_y": "523450.08",
    "longitude": "-90.08980021715524",
    "latitude": "29.93351059689319",
    "geocoded_column": {
      "latitude": "29.93351059689319",
      "longitude": "-90.08980021715524"
    }
  },
  {
    "service_request": "2022-942493",
    "request_type": "Trash/Recycling",
    "request_reason": "Start Trash Service",
    "date_created": "2022-11-11T16:57:18.000",
    "date_modified": "2022-11-11T16:57:19.000",
    "request_status": "Pending",
    "responsible_agency": "Department of Sanitation",
    "final_address": "1235 Frenchmen St",
    "address_councildis": "C",
    "status": "Assigned to Contractor",
    "contractor": "IV Waste",
    "rowid": "942493",
    "final_x": "3684563.73007",
    "final_y": "536928.665352",
    "longitude": "-90.0582061250775",
    "latitude": "29.9702742714496",
    "geocoded_column": {
      "latitude": "29.9702742714496",
      "longitude": "-90.0582061250775"
    }
  },
  {
    "service_request": "2022-942492",
    "request_type": "Trash/Recycling",
    "request_reason": "Replace Trash Cart",
    "date_created": "2022-11-11T16:53:13.000",
    "date_modified": "2022-11-11T16:53:14.000",
    "request_status": "Pending",
    "responsible_agency": "Department of Sanitation",
    "final_address": "6062 Wildair Dr",
    "address_councildis": "D",
    "status": "Assigned to Contractor",
    "contractor": "IV Waste",
    "rowid": "942492",
    "final_x": "3681363.63848",
    "final_y": "555381.552921",
    "longitude": "-90.06766864816217",
    "latitude": "30.021110690159517",
    "geocoded_column": {
      "latitude": "30.021110690159517",
      "longitude": "-90.06766864816217"
    }
  },
  {
    "service_request": "2022-942491",
    "request_type": "Trash/Recycling",
    "request_reason": "Order Trash Cart",
    "date_created": "2022-11-11T16:52:37.000",
    "date_modified": "2022-11-11T16:52:37.000",
    "request_status": "Pending",
    "responsible_agency": "Department of Sanitation",
    "final_address": "7820 Wave Dr",
    "address_councildis": "E",
    "status": "Assigned to Contractor",
    "contractor": "Waste Pro",
    "rowid": "942491",
    "final_x": "3714386.88197",
    "final_y": "569428.201318",
    "longitude": "-89.96279481524695",
    "latitude": "30.058688998488748",
    "geocoded_column": {
      "latitude": "30.058688998488748",
      "longitude": "-89.96279481524695"
    }
  },
  {
    "service_request": "2022-942490",
    "request_type": "Trash/Recycling",
    "request_reason": "Order Recycling Cart",
    "date_created": "2022-11-11T16:52:08.000",
    "date_modified": "2022-11-11T16:52:11.000",
    "request_status": "Pending",
    "responsible_agency": "Department of Sanitation",
    "final_address": "7820 Wave Dr",
    "address_councildis": "E",
    "status": "Pending",
    "rowid": "942490",
    "final_x": "3714386.88197",
    "final_y": "569428.201318",
    "longitude": "-89.96279481524695",
    "latitude": "30.058688998488748",
    "geocoded_column": {
      "latitude": "30.058688998488748",
      "longitude": "-89.96279481524695"
    }
  },
  {
    "service_request": "2022-942489",
    "request_type": "Trash/Recycling",
    "request_reason": "Order Recycling Cart",
    "date_created": "2022-11-11T16:47:50.000",
    "date_modified": "2022-11-11T16:47:50.000",
    "request_status": "Pending",
    "responsible_agency": "Department of Sanitation",
    "final_address": "13224 Willowbrook Dr",
    "address_councildis": "E",
    "status": "Pending",
    "rowid": "942489",
    "final_x": "3726771.22483",
    "final_y": "564136.454177",
    "longitude": "-89.92385538926995",
    "latitude": "30.043725801321578",
    "geocoded_column": {
      "latitude": "30.043725801321578",
      "longitude": "-89.92385538926995"
    }
  },
  {
    "service_request": "2022-942488",
    "request_type": "Roads/Drainage",
    "request_reason": "Street Flooding / Drainage",
    "date_created": "2022-11-11T16:47:35.000",
    "date_modified": "2022-11-11T16:47:35.000",
    "request_status": "Pending",
    "responsible_agency": "Department of Public Works",
    "final_address": "601 S Carrollton Ave",
    "address_councildis": "A",
    "status": "Pending",
    "rowid": "942488",
    "final_x": "3660737.10822",
    "final_y": "526789.355326",
    "longitude": "-90.13378879756087",
    "latitude": "29.943102002108066",
    "geocoded_column": {
      "latitude": "29.943102002108066",
      "longitude": "-90.13378879756087"
    }
  },
  {
    "service_request": "2022-942487",
    "request_type": "Trash/Recycling",
    "request_reason": "Illegal Dumping",
    "date_created": "2022-11-11T16:47:33.000",
    "date_modified": "2022-11-11T16:50:07.000",
    "request_status": "Pending",
    "responsible_agency": "Department of Sanitation",
    "final_address": "2518 General Ogden St",
    "address_councildis": "A",
    "status": "Pending",
    "rowid": "942487",
    "final_x": "3663106.21152",
    "final_y": "533891.391621",
    "longitude": "-90.12607266730325",
    "latitude": "29.962561899430057",
    "geocoded_column": {
      "latitude": "29.962561899430057",
      "longitude": "-90.12607266730325"
    }
  },
  {
    "service_request": "2022-942486",
    "request_type": "Trash/Recycling",
    "request_reason": "Order Recycling Cart",
    "date_created": "2022-11-11T16:47:17.000",
    "date_modified": "2022-11-11T16:47:17.000",
    "request_status": "Pending",
    "responsible_agency": "Department of Sanitation",
    "final_address": "4910 Dauphine St",
    "address_councildis": "E",
    "status": "Pending",
    "rowid": "942486",
    "final_x": "3695174.76982",
    "final_y": "533223.825348",
    "longitude": "-90.02482909663985",
    "latitude": "29.959758320453343",
    "geocoded_column": {
      "latitude": "29.959758320453343",
      "longitude": "-90.02482909663985"
    }
  },
  {
    "service_request": "2022-942485",
    "request_type": "Trash/Recycling",
    "request_reason": "Repair Trash Cart",
    "date_created": "2022-11-11T16:44:57.000",
    "date_modified": "2022-11-11T16:44:58.000",
    "request_status": "Pending",
    "responsible_agency": "Department of Sanitation",
    "final_address": "2253 Milton St",
    "address_councildis": "D",
    "status": "Assigned to Contractor",
    "contractor": "IV Waste",
    "rowid": "942485",
    "final_x": "3684460.75004",
    "final_y": "546765.488657",
    "longitude": "-90.05818563182129",
    "latitude": "29.997325215990514",
    "geocoded_column": {
      "latitude": "29.997325215990514",
      "longitude": "-90.05818563182129"
    }
  },
  {
    "service_request": "2022-942484",
    "request_type": "Abandoned Vehicles",
    "request_reason": "Abandoned/Junk Vehicles",
    "date_created": "2022-11-11T16:44:04.000",
    "date_modified": "2022-11-11T16:44:04.000",
    "request_status": "Pending",
    "responsible_agency": "Department of Public Works",
    "final_address": "2718 Marais St",
    "address_councildis": "C",
    "status": "Pending",
    "rowid": "942484",
    "final_x": "3687651.88617",
    "final_y": "536668.245575",
    "longitude": "-90.04846264328555",
    "latitude": "29.969463352236183",
    "geocoded_column": {
      "latitude": "29.969463352236183",
      "longitude": "-90.04846264328555"
    }
  },
  {
    "service_request": "2022-942483",
    "request_type": "Trash/Recycling",
    "request_reason": "Repair Trash Cart",
    "date_created": "2022-11-11T16:42:04.000",
    "date_modified": "2022-11-11T16:42:05.000",
    "request_status": "Pending",
    "responsible_agency": "Department of Sanitation",
    "final_address": "1508 Riviera Ave",
    "address_councildis": "D",
    "status": "Assigned to Contractor",
    "contractor": "IV Waste",
    "rowid": "942483",
    "final_x": "3678733.88322",
    "final_y": "550853.957781",
    "longitude": "-90.07613489532724",
    "latitude": "30.00874104630792",
    "geocoded_column": {
      "latitude": "30.00874104630792",
      "longitude": "-90.07613489532724"
    }
  },
  {
    "service_request": "2022-942482",
    "request_type": "Trash/Recycling",
    "request_reason": "Missed Trash Pick-Up",
    "date_created": "2022-11-11T16:38:10.000",
    "date_modified": "2022-11-11T16:38:10.000",
    "request_status": "Pending",
    "responsible_agency": "Department of Sanitation",
    "final_address": "8919 Nelson St",
    "address_councildis": "A",
    "status": "Assigned to Contractor",
    "contractor": "Richards Disposal",
    "rowid": "942482",
    "final_x": "3662934.21792",
    "final_y": "533881.626629",
    "longitude": "-90.12661612698331",
    "latitude": "29.96254003051835",
    "geocoded_column": {
      "latitude": "29.96254003051835",
      "longitude": "-90.12661612698331"
    }
  },
  {
    "service_request": "2022-942481",
    "request_type": "Trash/Recycling",
    "request_reason": "MIssed Recycling Pick-Up",
    "date_created": "2022-11-11T16:36:11.000",
    "date_modified": "2022-11-11T16:36:12.000",
    "request_status": "Pending",
    "responsible_agency": "Department of Sanitation",
    "final_address": "8919 Nelson St",
    "address_councildis": "A",
    "status": "Assigned to Contractor",
    "contractor": "Richards Disposal",
    "rowid": "942481",
    "final_x": "3662934.21792",
    "final_y": "533881.626629",
    "longitude": "-90.12661612698331",
    "latitude": "29.96254003051835",
    "geocoded_column": {
      "latitude": "29.96254003051835",
      "longitude": "-90.12661612698331"
    }
  },
  {
    "service_request": "2022-942480",
    "request_type": "Trash/Recycling",
    "request_reason": "Request a Large Item Pick Up",
    "date_created": "2022-11-11T16:34:52.000",
    "date_modified": "2022-11-11T16:34:53.000",
    "request_status": "Pending",
    "responsible_agency": "Department of Sanitation",
    "final_address": "3324 Dauphine St",
    "address_councildis": "C",
    "status": "Assigned to Contractor",
    "contractor": "IV Waste",
    "rowid": "942480",
    "final_x": "3689738.98179",
    "final_y": "534573.062725",
    "longitude": "-90.04194601783503",
    "latitude": "29.963637817265344",
    "geocoded_column": {
      "latitude": "29.963637817265344",
      "longitude": "-90.04194601783503"
    }
  },
  {
    "service_request": "2022-942479",
    "request_type": "Trash/Recycling",
    "request_reason": "Request a Large Item Pick Up",
    "date_created": "2022-11-11T16:33:03.000",
    "date_modified": "2022-11-11T16:33:04.000",
    "request_status": "Pending",
    "responsible_agency": "Department of Sanitation",
    "final_address": "3324 Dauphine St",
    "address_councildis": "C",
    "status": "Assigned to Contractor",
    "contractor": "IV Waste",
    "rowid": "942479",
    "final_x": "3689738.98179",
    "final_y": "534573.062725",
    "longitude": "-90.04194601783503",
    "latitude": "29.963637817265344",
    "geocoded_column": {
      "latitude": "29.963637817265344",
      "longitude": "-90.04194601783503"
    }
  },
  {
    "service_request": "2022-942478",
    "request_type": "Trash/Recycling",
    "request_reason": "Order Recycling Cart",
    "date_created": "2022-11-11T16:30:58.000",
    "date_modified": "2022-11-11T16:30:58.000",
    "request_status": "Pending",
    "responsible_agency": "Department of Sanitation",
    "final_address": "6813 Louisville St",
    "address_councildis": "A",
    "status": "Pending",
    "rowid": "942478",
    "final_x": "3668343.701",
    "final_y": "552893.910231",
    "longitude": "-90.10889210044853",
    "latitude": "30.014659564725132",
    "geocoded_column": {
      "latitude": "30.014659564725132",
      "longitude": "-90.10889210044853"
    }
  },
  {
    "service_request": "2022-942477",
    "request_type": "Trash/Recycling",
    "request_reason": "Order Recycling Cart",
    "date_created": "2022-11-11T16:29:00.000",
    "date_modified": "2022-11-11T16:29:00.000",
    "request_status": "Pending",
    "responsible_agency": "Department of Sanitation",
    "final_address": "1411 Mandeville St",
    "address_councildis": "C",
    "status": "Pending",
    "rowid": "942477",
    "final_x": "3685718.30076",
    "final_y": "537576.73492",
    "longitude": "-90.0545370323361",
    "latitude": "29.97202085751056",
    "geocoded_column": {
      "latitude": "29.97202085751056",
      "longitude": "-90.0545370323361"
    }
  },
  {
    "service_request": "2022-942476",
    "request_type": "Roads/Drainage",
    "request_reason": "Street Flooding / Drainage",
    "date_created": "2022-11-11T16:26:12.000",
    "date_modified": "2022-11-11T16:26:12.000",
    "request_status": "Pending",
    "responsible_agency": "Department of Public Works",
    "final_address": "1410 Melpomene St",
    "address_councildis": "B",
    "status": "Pending",
    "rowid": "942476",
    "final_x": "3679894.91842",
    "final_y": "525048.659645",
    "longitude": "-90.07336328496496",
    "latitude": "29.937750297315024",
    "geocoded_column": {
      "latitude": "29.937750297315024",
      "longitude": "-90.07336328496496"
    }
  },
  {
    "service_request": "2022-942475",
    "request_type": "Trash/Recycling",
    "request_reason": "Replace Trash Cart",
    "date_created": "2022-11-11T16:25:02.000",
    "date_modified": "2022-11-11T16:25:03.000",
    "request_status": "Pending",
    "responsible_agency": "Department of Sanitation",
    "final_address": "1410 Melpomene St",
    "address_councildis": "B",
    "status": "Assigned to Contractor",
    "contractor": "Richards Disposal",
    "rowid": "942475",
    "final_x": "3679894.91842",
    "final_y": "525048.659645",
    "longitude": "-90.07336328496496",
    "latitude": "29.937750297315024",
    "geocoded_column": {
      "latitude": "29.937750297315024",
      "longitude": "-90.07336328496496"
    }
  },
  {
    "service_request": "2022-942474",
    "request_type": "Trash/Recycling",
    "request_reason": "Order Recycling Cart",
    "date_created": "2022-11-11T16:23:16.000",
    "date_modified": "2022-11-11T16:23:16.000",
    "request_status": "Pending",
    "responsible_agency": "Department of Sanitation",
    "final_address": "4628 Bonita Dr",
    "address_councildis": "E",
    "status": "Pending",
    "rowid": "942474",
    "final_x": "3704506.8042",
    "final_y": "554535.770584",
    "longitude": "-89.9945745813066",
    "latitude": "30.01806191166592",
    "geocoded_column": {
      "latitude": "30.01806191166592",
      "longitude": "-89.9945745813066"
    }
  },
  {
    "service_request": "2022-942473",
    "request_type": "Trash/Recycling",
    "request_reason": "Order Recycling Cart",
    "date_created": "2022-11-11T16:22:45.000",
    "date_modified": "2022-11-11T16:22:46.000",
    "request_status": "Pending",
    "responsible_agency": "Department of Sanitation",
    "final_address": "4626 Bonita Dr",
    "address_councildis": "E",
    "status": "Pending",
    "rowid": "942473",
    "final_x": "3704503.0083",
    "final_y": "554552.007128",
    "longitude": "-89.99458597543689",
    "latitude": "30.01810667786361",
    "geocoded_column": {
      "latitude": "30.01810667786361",
      "longitude": "-89.99458597543689"
    }
  },
  {
    "service_request": "2022-942472",
    "request_type": "Trash/Recycling",
    "request_reason": "Repair Trash Cart",
    "date_created": "2022-11-11T16:20:35.000",
    "date_modified": "2022-11-11T16:20:36.000",
    "request_status": "Pending",
    "responsible_agency": "Department of Sanitation",
    "final_address": "6007 Erin Dr",
    "address_councildis": "E",
    "status": "Assigned to Contractor",
    "contractor": "Waste Pro",
    "rowid": "942472",
    "final_x": "3695324.42832",
    "final_y": "558444.212892",
    "longitude": "-90.02344609090146",
    "latitude": "30.029100440670412",
    "geocoded_column": {
      "latitude": "30.029100440670412",
      "longitude": "-90.02344609090146"
    }
  },
  {
    "service_request": "2022-942471",
    "request_type": "Parks & Parkways",
    "request_reason": "Request Grass Cutting Service (City Owned Property)",
    "date_created": "2022-11-11T16:19:22.000",
    "date_modified": "2022-11-11T16:19:22.000",
    "request_status": "Pending",
    "responsible_agency": "Department of Parks & Parkway",
    "final_address": "2118 Elysian Fields Ave",
    "address_councildis": "D",
    "status": "Pending",
    "rowid": "942471",
    "final_x": "3684484.62287",
    "final_y": "540227.920203",
    "longitude": "-90.05834001558696",
    "latitude": "29.97934849071494",
    "geocoded_column": {
      "latitude": "29.97934849071494",
      "longitude": "-90.05834001558696"
    }
  },
  {
    "service_request": "2022-942470",
    "request_type": "Trash/Recycling",
    "request_reason": "Order Recycling Cart",
    "date_created": "2022-11-11T16:18:00.000",
    "date_modified": "2022-11-11T16:18:00.000",
    "request_status": "Pending",
    "responsible_agency": "Department of Sanitation",
    "final_address": "8057 Edgelake Ct",
    "address_councildis": "E",
    "status": "Pending",
    "rowid": "942470",
    "final_x": "3702465.79812",
    "final_y": "562630.422112",
    "longitude": "-90.00072589224817",
    "latitude": "30.040384475998728",
    "geocoded_column": {
      "latitude": "30.040384475998728",
      "longitude": "-90.00072589224817"
    }
  },
  {
    "service_request": "2022-942469",
    "request_type": "Abandoned Vehicles",
    "request_reason": "Abandoned/Junk Vehicles",
    "date_created": "2022-11-11T16:17:28.000",
    "date_modified": "2022-11-11T16:18:37.000",
    "request_status": "Pending",
    "responsible_agency": "Department of Public Works",
    "final_address": "6219 Wadsworth Dr",
    "address_councildis": "D",
    "status": "Pending",
    "rowid": "942469",
    "final_x": "3681677.11746",
    "final_y": "555872.255065",
    "longitude": "-90.06666100409812",
    "latitude": "30.022450416596797",
    "geocoded_column": {
      "latitude": "30.022450416596797",
      "longitude": "-90.06666100409812"
    }
  },
  {
    "service_request": "2022-942468",
    "request_type": "Trash/Recycling",
    "request_reason": "Order Recycling Cart",
    "date_created": "2022-11-11T16:15:00.000",
    "date_modified": "2022-11-11T16:15:01.000",
    "request_status": "Pending",
    "responsible_agency": "Department of Sanitation",
    "final_address": "6403 Franklin Ave",
    "address_councildis": "D",
    "status": "Pending",
    "rowid": "942468",
    "final_x": "3686380.76073",
    "final_y": "556792.782938",
    "longitude": "-90.05176612173068",
    "latitude": "30.02483771626494",
    "geocoded_column": {
      "latitude": "30.02483771626494",
      "longitude": "-90.05176612173068"
    }
  },
  {
    "service_request": "2022-942467",
    "request_type": "Trash/Recycling",
    "request_reason": "Return Trash Cart",
    "date_created": "2022-11-11T16:13:44.000",
    "date_modified": "2022-11-11T16:13:45.000",
    "request_status": "Pending",
    "responsible_agency": "Department of Sanitation",
    "final_address": "4663 Baccich St, New Orleans, Louisiana, 70122",
    "address_councildis": "D",
    "status": "Assigned to Contractor",
    "contractor": "IV Waste",
    "rowid": "942467",
    "final_x": "3687800.73737",
    "final_y": "550271.125716",
    "longitude": "-90.0475104894241",
    "latitude": "30.00686182040591",
    "geocoded_column": {
      "latitude": "30.00686182040591",
      "longitude": "-90.0475104894241"
    }
  },
  {
    "service_request": "2022-942466",
    "request_type": "Roads/Drainage",
    "request_reason": "Accessibility Ramps, Curbs and Sidewalk Repair",
    "date_created": "2022-11-11T16:10:00.000",
    "date_modified": "2022-11-11T16:10:01.000",
    "request_status": "Pending",
    "responsible_agency": "Department of Public Works",
    "final_address": "3201 Kansas St",
    "address_councildis": "C",
    "status": "Pending",
    "rowid": "942466",
    "final_x": "3694507.2047",
    "final_y": "520695.681081",
    "longitude": "-90.02738799445169",
    "latitude": "29.92533119423876",
    "geocoded_column": {
      "latitude": "29.92533119423876",
      "longitude": "-90.02738799445169"
    }
  },
  {
    "service_request": "2022-942465",
    "request_type": "Trash/Recycling",
    "request_reason": "MIssed Recycling Pick-Up",
    "date_created": "2022-11-11T16:08:09.000",
    "date_modified": "2022-11-11T16:08:10.000",
    "request_status": "Pending",
    "responsible_agency": "Department of Sanitation",
    "final_address": "4219 Clio St",
    "address_councildis": "B",
    "status": "Assigned to Contractor",
    "contractor": "Richards Disposal",
    "rowid": "942465",
    "final_x": "3671468.16065",
    "final_y": "531591.879683",
    "longitude": "-90.09974488806519",
    "latitude": "29.955994106084443",
    "geocoded_column": {
      "latitude": "29.955994106084443",
      "longitude": "-90.09974488806519"
    }
  },
  {
    "service_request": "2022-942464",
    "request_type": "Trash/Recycling",
    "request_reason": "Missed Trash Pick-Up",
    "date_created": "2022-11-11T16:04:28.000",
    "date_modified": "2022-11-11T16:04:29.000",
    "request_status": "Pending",
    "responsible_agency": "Department of Sanitation",
    "final_address": "915 Thalia St",
    "address_councildis": "B",
    "status": "Assigned to Contractor",
    "contractor": "Richards Disposal",
    "rowid": "942464",
    "final_x": "3681195.47324",
    "final_y": "525113.379773",
    "longitude": "-90.06925507965235",
    "latitude": "29.93788886923079",
    "geocoded_column": {
      "latitude": "29.93788886923079",
      "longitude": "-90.06925507965235"
    }
  },
  {
    "service_request": "2022-942463",
    "request_type": "Trash/Recycling",
    "request_reason": "MIssed Recycling Pick-Up",
    "date_created": "2022-11-11T16:04:06.000",
    "date_modified": "2022-11-11T16:04:07.000",
    "request_status": "Pending",
    "responsible_agency": "Department of Sanitation",
    "final_address": "915 Thalia St",
    "address_councildis": "B",
    "status": "Assigned to Contractor",
    "contractor": "Richards Disposal",
    "rowid": "942463",
    "final_x": "3681195.47324",
    "final_y": "525113.379773",
    "longitude": "-90.06925507965235",
    "latitude": "29.93788886923079",
    "geocoded_column": {
      "latitude": "29.93788886923079",
      "longitude": "-90.06925507965235"
    }
  },
  {
    "service_request": "2022-942461",
    "request_type": "Trash/Recycling",
    "request_reason": "Order Recycling Cart",
    "date_created": "2022-11-11T16:01:43.000",
    "date_modified": "2022-11-11T16:01:43.000",
    "request_status": "Pending",
    "responsible_agency": "Department of Sanitation",
    "final_address": "2506 N Rampart St",
    "address_councildis": "C",
    "status": "Pending",
    "rowid": "942461",
    "final_x": "3686606.46313",
    "final_y": "536037.438791",
    "longitude": "-90.05178644817411",
    "latitude": "29.96776104535594",
    "geocoded_column": {
      "latitude": "29.96776104535594",
      "longitude": "-90.05178644817411"
    }
  },
  {
    "service_request": "2022-942460",
    "request_type": "Trash/Recycling",
    "request_reason": "Order Recycling Cart",
    "date_created": "2022-11-11T15:58:05.000",
    "date_modified": "2022-11-11T15:58:06.000",
    "request_status": "Pending",
    "responsible_agency": "Department of Sanitation",
    "final_address": "12710 Curran Rd",
    "address_councildis": "E",
    "status": "Pending",
    "rowid": "942460",
    "final_x": "3714908.13381",
    "final_y": "569129.649574",
    "longitude": "-89.96115850548756",
    "latitude": "30.057850950967577",
    "geocoded_column": {
      "latitude": "30.057850950967577",
      "longitude": "-89.96115850548756"
    }
  },
  {
    "service_request": "2022-942459",
    "request_type": "Traffic Signals/Signs/Striping/Streetlights",
    "request_reason": "Street Light Outage/Malfunction",
    "date_created": "2022-11-11T15:57:57.000",
    "date_modified": "2022-11-11T16:01:15.000",
    "request_status": "Pending",
    "responsible_agency": "Department of Public Works",
    "final_address": "6645 Spanish Fort Blvd",
    "address_councildis": "D",
    "status": "Pending",
    "contractor": "Legacy Professional Services",
    "rowid": "942459",
    "final_x": "3674308.50043",
    "final_y": "556519.450458",
    "longitude": "-90.08992190764049",
    "latitude": "30.02445188760333",
    "geocoded_column": {
      "latitude": "30.02445188760333",
      "longitude": "-90.08992190764049"
    }
  },
  {
    "service_request": "2022-942458",
    "request_type": "Roads/Drainage",
    "request_reason": "Damaged Sidewalk",
    "date_created": "2022-11-11T15:57:05.000",
    "date_modified": "2022-11-11T15:57:05.000",
    "request_status": "Pending",
    "responsible_agency": "Department of Public Works",
    "final_address": "701 S Genois St",
    "address_councildis": "B",
    "status": "Pending",
    "rowid": "942458",
    "final_x": "3671088.10823",
    "final_y": "535281.514374",
    "longitude": "-90.10081964688993",
    "latitude": "29.966150619139494",
    "geocoded_column": {
      "latitude": "29.966150619139494",
      "longitude": "-90.10081964688993"
    }
  },
  {
    "service_request": "2022-942457",
    "request_type": "Trash/Recycling",
    "request_reason": "Order Trash Cart",
    "date_created": "2022-11-11T15:56:45.000",
    "date_modified": "2022-11-11T15:56:46.000",
    "request_status": "Pending",
    "responsible_agency": "Department of Sanitation",
    "final_address": "5120 Westlake Dr",
    "address_councildis": "E",
    "status": "Assigned to Contractor",
    "contractor": "Waste Pro",
    "rowid": "942457",
    "final_x": "3699383.48228",
    "final_y": "556208.503322",
    "longitude": "-90.0107012279653",
    "latitude": "30.022824884424296",
    "geocoded_column": {
      "latitude": "30.022824884424296",
      "longitude": "-90.0107012279653"
    }
  },
  {
    "service_request": "2022-942456",
    "request_type": "Trash/Recycling",
    "request_reason": "Repair Trash Cart",
    "date_created": "2022-11-11T15:55:44.000",
    "date_modified": "2022-11-11T15:55:45.000",
    "request_status": "Pending",
    "responsible_agency": "Department of Sanitation",
    "final_address": "2821 Joseph St",
    "address_councildis": "A",
    "status": "Assigned to Contractor",
    "contractor": "Richards Disposal",
    "rowid": "942456",
    "final_x": "3667859.75597",
    "final_y": "526317.96563",
    "longitude": "-90.11131662974273",
    "latitude": "29.941598882154363",
    "geocoded_column": {
      "latitude": "29.941598882154363",
      "longitude": "-90.11131662974273"
    }
  },
  {
    "service_request": "2022-942455",
    "request_type": "Trash/Recycling",
    "request_reason": "Order Trash Cart",
    "date_created": "2022-11-11T15:53:09.000",
    "date_modified": "2022-11-11T15:53:10.000",
    "request_status": "Pending",
    "responsible_agency": "Department of Sanitation",
    "final_address": "14451 Sai Gon Dr",
    "address_councildis": "E",
    "status": "Assigned to Contractor",
    "contractor": "Waste Pro",
    "rowid": "942455",
    "final_x": "3730439.49798",
    "final_y": "563342.593376",
    "longitude": "-89.91229336039466",
    "latitude": "30.041418436519333",
    "geocoded_column": {
      "latitude": "30.041418436519333",
      "longitude": "-89.91229336039466"
    }
  },
  {
    "service_request": "2022-942454",
    "request_type": "Trash/Recycling",
    "request_reason": "MIssed Recycling Pick-Up",
    "date_created": "2022-11-11T15:53:02.000",
    "date_modified": "2022-11-11T15:53:03.000",
    "request_status": "Pending",
    "responsible_agency": "Department of Sanitation",
    "final_address": "4039 State Street Dr, New Orleans, Louisiana, 70125",
    "address_councildis": "B",
    "status": "Assigned to Contractor",
    "contractor": "Richards Disposal",
    "rowid": "942454",
    "final_x": "3668304.70542",
    "final_y": "530469.888898",
    "longitude": "-90.10977185468568",
    "latitude": "29.953002265783212",
    "geocoded_column": {
      "latitude": "29.953002265783212",
      "longitude": "-90.10977185468568"
    }
  },
  {
    "service_request": "2022-942453",
    "request_type": "Trash/Recycling",
    "request_reason": "MIssed Recycling Pick-Up",
    "date_created": "2022-11-11T15:52:14.000",
    "date_modified": "2022-11-11T15:52:15.000",
    "request_status": "Pending",
    "responsible_agency": "Department of Sanitation",
    "final_address": "State Street Dr, New Orleans, Louisiana, 70125",
    "address_councildis": "B",
    "status": "Assigned to Contractor",
    "contractor": "Richards Disposal",
    "rowid": "942453",
    "final_x": "3668186.39898",
    "final_y": "530086.313473",
    "longitude": "-90.11015834479075",
    "latitude": "29.951951031935682",
    "geocoded_column": {
      "latitude": "29.951951031935682",
      "longitude": "-90.11015834479075"
    }
  },
  {
    "service_request": "2022-942452",
    "request_type": "Trash/Recycling",
    "request_reason": "Missed Trash Pick-Up",
    "date_created": "2022-11-11T15:52:10.000",
    "date_modified": "2022-11-11T15:52:11.000",
    "request_status": "Pending",
    "responsible_agency": "Department of Sanitation",
    "final_address": "6120 Erin Dr",
    "address_councildis": "E",
    "status": "Assigned to Contractor",
    "contractor": "Waste Pro",
    "rowid": "942452",
    "final_x": "3696014.91005",
    "final_y": "558552.270812",
    "longitude": "-90.02126029034103",
    "latitude": "30.02937583679078",
    "geocoded_column": {
      "latitude": "30.02937583679078",
      "longitude": "-90.02126029034103"
    }
  },
  {
    "service_request": "2022-942451",
    "request_type": "Trash/Recycling",
    "request_reason": "MIssed Recycling Pick-Up",
    "date_created": "2022-11-11T15:51:03.000",
    "date_modified": "2022-11-11T15:51:04.000",
    "request_status": "Pending",
    "responsible_agency": "Department of Sanitation",
    "final_address": "4072 State Street Dr, New Orleans, Louisiana, 70125",
    "address_councildis": "B",
    "status": "Assigned to Contractor",
    "contractor": "Richards Disposal",
    "rowid": "942451",
    "final_x": "3668233.31969",
    "final_y": "530506.583618",
    "longitude": "-90.109996023198",
    "latitude": "29.953105260071304",
    "geocoded_column": {
      "latitude": "29.953105260071304",
      "longitude": "-90.109996023198"
    }
  },
  {
    "service_request": "2022-942450",
    "request_type": "Roads/Drainage",
    "request_reason": "Bicycle Hazardous Incident Reporting",
    "date_created": "2022-11-11T15:50:34.000",
    "date_modified": "2022-11-11T15:50:34.000",
    "request_status": "Pending",
    "responsible_agency": "Health Department",
    "final_address": "5861 Macarthur Blvd",
    "address_councildis": "C",
    "status": "Pending",
    "rowid": "942450",
    "final_x": "3705121.04587",
    "final_y": "519062.145975",
    "longitude": "-89.99394397922369",
    "latitude": "29.920502649183724",
    "geocoded_column": {
      "latitude": "29.920502649183724",
      "longitude": "-89.99394397922369"
    }
  },
  {
    "service_request": "2022-942449",
    "request_type": "Traffic Signals/Signs/Striping/Streetlights",
    "request_reason": "Street Light Outage/Malfunction",
    "date_created": "2022-11-11T15:49:58.000",
    "date_modified": "2022-11-11T15:49:58.000",
    "request_status": "Pending",
    "responsible_agency": "Department of Public Works",
    "final_address": "3117 Robert St",
    "address_councildis": "B",
    "status": "Pending",
    "contractor": "Legacy Professional Services",
    "rowid": "942449",
    "final_x": "3668948.84417",
    "final_y": "526853.570686",
    "longitude": "-90.10786006432717",
    "latitude": "29.943039640521846",
    "geocoded_column": {
      "latitude": "29.943039640521846",
      "longitude": "-90.10786006432717"
    }
  },
  {
    "service_request": "2022-942448",
    "request_type": "Trash/Recycling",
    "request_reason": "Order Recycling Cart",
    "date_created": "2022-11-11T15:49:40.000",
    "date_modified": "2022-11-11T15:49:40.000",
    "request_status": "Pending",
    "responsible_agency": "Department of Sanitation",
    "final_address": "2062 Sere St",
    "address_councildis": "D",
    "status": "Pending",
    "rowid": "942448",
    "final_x": "3683309.83144",
    "final_y": "545770.58824",
    "longitude": "-90.06185621225045",
    "latitude": "29.994624762049803",
    "geocoded_column": {
      "latitude": "29.994624762049803",
      "longitude": "-90.06185621225045"
    }
  },
  {
    "service_request": "2022-942447",
    "request_type": "Roads/Drainage",
    "request_reason": "Bicycle Hazardous Incident Reporting",
    "date_created": "2022-11-11T15:47:07.000",
    "date_modified": "2022-11-11T15:47:07.000",
    "request_status": "Pending",
    "responsible_agency": "Health Department",
    "final_address": "5147 Macarthur Blvd",
    "address_councildis": "C",
    "status": "Pending",
    "rowid": "942447",
    "final_x": "3703037.99434",
    "final_y": "519871.2622",
    "longitude": "-90.00048944332634",
    "latitude": "29.922794227162672",
    "geocoded_column": {
      "latitude": "29.922794227162672",
      "longitude": "-90.00048944332634"
    }
  },
  {
    "service_request": "2022-942446",
    "request_type": "Trash/Recycling",
    "request_reason": "MIssed Recycling Pick-Up",
    "date_created": "2022-11-11T15:46:48.000",
    "date_modified": "2022-11-11T15:46:48.000",
    "request_status": "Pending",
    "responsible_agency": "Department of Sanitation",
    "final_address": "1512 Audubon St",
    "address_councildis": "A",
    "status": "Assigned to Contractor",
    "contractor": "Richards Disposal",
    "rowid": "942446",
    "final_x": "3665060.85274",
    "final_y": "527354.346751",
    "longitude": "-90.12011872023237",
    "latitude": "29.9445303779126",
    "geocoded_column": {
      "latitude": "29.9445303779126",
      "longitude": "-90.12011872023237"
    }
  },
  {
    "service_request": "2022-942445",
    "request_type": "Trash/Recycling",
    "request_reason": "Order Recycling Cart",
    "date_created": "2022-11-11T15:45:32.000",
    "date_modified": "2022-11-11T15:45:33.000",
    "request_status": "Pending",
    "responsible_agency": "Department of Sanitation",
    "final_address": "7240 Claridge Ct",
    "address_councildis": "E",
    "status": "Pending",
    "rowid": "942445",
    "final_x": "3704722.3811",
    "final_y": "560918.808862",
    "longitude": "-89.99365764929934",
    "latitude": "30.035605859191318",
    "geocoded_column": {
      "latitude": "30.035605859191318",
      "longitude": "-89.99365764929934"
    }
  },
  {
    "service_request": "2022-942444",
    "request_type": "Trash/Recycling",
    "request_reason": "Request a Large Item Pick Up",
    "date_created": "2022-11-11T15:45:29.000",
    "date_modified": "2022-11-11T15:45:30.000",
    "request_status": "Pending",
    "responsible_agency": "Department of Sanitation",
    "final_address": "202 River Oaks Dr",
    "address_councildis": "C",
    "status": "Assigned to Contractor",
    "contractor": "Richards Disposal",
    "rowid": "942444",
    "final_x": "3701643.91985",
    "final_y": "523274.555899",
    "longitude": "-90.0047653958975",
    "latitude": "29.932196622170288",
    "geocoded_column": {
      "latitude": "29.932196622170288",
      "longitude": "-90.0047653958975"
    }
  },
  {
    "service_request": "2022-942443",
    "request_type": "Traffic Signals/Signs/Striping/Streetlights",
    "request_reason": "Additional signage",
    "date_created": "2022-11-11T15:44:12.000",
    "date_modified": "2022-11-11T15:44:12.000",
    "request_status": "Pending",
    "responsible_agency": "Department of Public Works",
    "final_address": "1902 St Bernard Ave",
    "address_councildis": "D",
    "status": "Pending",
    "rowid": "942443",
    "final_x": "3681524.95215",
    "final_y": "538843.166921",
    "longitude": "-90.06773612470646",
    "latitude": "29.975631122228073",
    "geocoded_column": {
      "latitude": "29.975631122228073",
      "longitude": "-90.06773612470646"
    }
  },
  {
    "service_request": "2022-942442",
    "request_type": "Trash/Recycling",
    "request_reason": "Order Recycling Cart",
    "date_created": "2022-11-11T15:43:29.000",
    "date_modified": "2022-11-11T15:43:29.000",
    "request_status": "Pending",
    "responsible_agency": "Department of Sanitation",
    "final_address": "4730 San Marco Rd",
    "address_councildis": "E",
    "status": "Pending",
    "rowid": "942442",
    "final_x": "3763476.00298",
    "final_y": "572681.595305",
    "longitude": "-89.80749599654786",
    "latitude": "30.065928506299848",
    "geocoded_column": {
      "latitude": "30.065928506299848",
      "longitude": "-89.80749599654786"
    }
  },
  {
    "service_request": "2022-942441",
    "request_type": "Trash/Recycling",
    "request_reason": "MIssed Recycling Pick-Up",
    "date_created": "2022-11-11T15:40:31.000",
    "date_modified": "2022-11-11T15:40:32.000",
    "request_status": "Pending",
    "responsible_agency": "Department of Sanitation",
    "final_address": "1388 Camp St, New Orleans, Louisiana, 70130",
    "address_councildis": "B",
    "status": "Assigned to Contractor",
    "contractor": "Richards Disposal",
    "rowid": "942441",
    "final_x": "3680028.4708",
    "final_y": "524661.761788",
    "longitude": "-90.07295508536109",
    "latitude": "29.936682417573795",
    "geocoded_column": {
      "latitude": "29.936682417573795",
      "longitude": "-90.07295508536109"
    }
  },
  {
    "service_request": "2022-942440",
    "request_type": "Trash/Recycling",
    "request_reason": "Order Recycling Cart",
    "date_created": "2022-11-11T15:36:02.000",
    "date_modified": "2022-11-11T15:36:02.000",
    "request_status": "Pending",
    "responsible_agency": "Department of Sanitation",
    "final_address": "6347 Milne Blvd",
    "address_councildis": "A",
    "status": "Pending",
    "rowid": "942440",
    "final_x": "3667388.85837",
    "final_y": "549906.24066",
    "longitude": "-90.1120095631919",
    "latitude": "30.006472539844054",
    "geocoded_column": {
      "latitude": "30.006472539844054",
      "longitude": "-90.1120095631919"
    }
  },
  {
    "service_request": "2022-942439",
    "request_type": "Trash/Recycling",
    "request_reason": "Missed Trash Pick-Up",
    "date_created": "2022-11-11T15:35:51.000",
    "date_modified": "2022-11-11T15:35:52.000",
    "request_status": "Pending",
    "responsible_agency": "Department of Sanitation",
    "final_address": "7000 Manchester St",
    "address_councildis": "E",
    "status": "Assigned to Contractor",
    "contractor": "Waste Pro",
    "rowid": "942439",
    "final_x": "3698950.00874",
    "final_y": "560018.787293",
    "longitude": "-90.01193205437833",
    "latitude": "30.033315452729585",
    "geocoded_column": {
      "latitude": "30.033315452729585",
      "longitude": "-90.01193205437833"
    }
  },
  {
    "service_request": "2022-942438",
    "request_type": "Trash/Recycling",
    "request_reason": "Order Recycling Cart",
    "date_created": "2022-11-11T15:35:04.000",
    "date_modified": "2022-11-11T15:35:05.000",
    "request_status": "Pending",
    "responsible_agency": "Department of Sanitation",
    "final_address": "7000 Manchester St",
    "address_councildis": "E",
    "status": "Pending",
    "rowid": "942438",
    "final_x": "3698950.00874",
    "final_y": "560018.787293",
    "longitude": "-90.01193205437833",
    "latitude": "30.033315452729585",
    "geocoded_column": {
      "latitude": "30.033315452729585",
      "longitude": "-90.01193205437833"
    }
  },
  {
    "service_request": "2022-942436",
    "request_type": "Trash/Recycling",
    "request_reason": "Missed Trash Pick-Up",
    "date_created": "2022-11-11T15:31:42.000",
    "date_modified": "2022-11-11T15:31:45.000",
    "request_status": "Pending",
    "responsible_agency": "Department of Sanitation",
    "final_address": "1388 Camp St, New Orleans, Louisiana, 70130",
    "address_councildis": "B",
    "status": "Assigned to Contractor",
    "contractor": "Richards Disposal",
    "rowid": "942436",
    "final_x": "3680028.4708",
    "final_y": "524661.761788",
    "longitude": "-90.07295508536109",
    "latitude": "29.936682417573795",
    "geocoded_column": {
      "latitude": "29.936682417573795",
      "longitude": "-90.07295508536109"
    }
  },
  {
    "service_request": "2022-942435",
    "request_type": "Trash/Recycling",
    "request_reason": "Missed Trash Pick-Up",
    "date_created": "2022-11-11T15:31:24.000",
    "date_modified": "2022-11-11T15:31:25.000",
    "request_status": "Pending",
    "responsible_agency": "Department of Sanitation",
    "final_address": "3714 Meadow Park Ln",
    "address_councildis": "C",
    "status": "Assigned to Contractor",
    "contractor": "Richards Disposal",
    "rowid": "942435",
    "final_x": "3703793.04657",
    "final_y": "510753.532719",
    "longitude": "-89.99844135507485",
    "latitude": "29.897699415978202",
    "geocoded_column": {
      "latitude": "29.897699415978202",
      "longitude": "-89.99844135507485"
    }
  },
  {
    "service_request": "2022-942434",
    "request_type": "Roads/Drainage",
    "request_reason": "Bicycle Hazardous Incident Reporting",
    "date_created": "2022-11-11T15:30:29.000",
    "date_modified": "2022-11-11T15:30:29.000",
    "request_status": "Pending",
    "responsible_agency": "Health Department",
    "final_address": "5415 Macarthur Blvd",
    "address_councildis": "C",
    "status": "Pending",
    "rowid": "942434",
    "final_x": "3704111.2234",
    "final_y": "519457.368247",
    "longitude": "-89.99711694449041",
    "latitude": "29.921621792105256",
    "geocoded_column": {
      "latitude": "29.921621792105256",
      "longitude": "-89.99711694449041"
    }
  },
  {
    "service_request": "2022-942433",
    "request_type": "Trash/Recycling",
    "request_reason": "Order Recycling Cart",
    "date_created": "2022-11-11T15:28:56.000",
    "date_modified": "2022-11-11T15:28:56.000",
    "request_status": "Pending",
    "responsible_agency": "Department of Sanitation",
    "final_address": "2412 State St",
    "address_councildis": "A",
    "status": "Pending",
    "rowid": "942433",
    "final_x": "3666681.97108",
    "final_y": "525576.753661",
    "longitude": "-90.11506002724458",
    "latitude": "29.939595273049484",
    "geocoded_column": {
      "latitude": "29.939595273049484",
      "longitude": "-90.11506002724458"
    }
  },
  {
    "service_request": "2022-942432",
    "request_type": "Trash/Recycling",
    "request_reason": "Missed Trash Pick-Up",
    "date_created": "2022-11-11T15:27:00.000",
    "date_modified": "2022-11-11T15:27:00.000",
    "request_status": "Pending",
    "responsible_agency": "Department of Sanitation",
    "final_address": "4639 Read Blvd",
    "address_councildis": "E",
    "status": "Assigned to Contractor",
    "contractor": "Waste Pro",
    "rowid": "942432",
    "final_x": "3712909.57234",
    "final_y": "555577.998937",
    "longitude": "-89.96798606383032",
    "latitude": "30.02065500923311",
    "geocoded_column": {
      "latitude": "30.02065500923311",
      "longitude": "-89.96798606383032"
    }
  },
  {
    "service_request": "2022-942431",
    "request_type": "Trash/Recycling",
    "request_reason": "Order Recycling Cart",
    "date_created": "2022-11-11T15:24:15.000",
    "date_modified": "2022-11-11T15:24:15.000",
    "request_status": "Pending",
    "responsible_agency": "Department of Sanitation",
    "final_address": "925 Bartholomew St",
    "address_councildis": "C",
    "status": "Pending",
    "rowid": "942431",
    "final_x": "3691684.26384",
    "final_y": "534700.107974",
    "longitude": "-90.03579849689534",
    "latitude": "29.963926720945384",
    "geocoded_column": {
      "latitude": "29.963926720945384",
      "longitude": "-90.03579849689534"
    }
  },
  {
    "service_request": "2022-942430",
    "request_type": "Trash/Recycling",
    "request_reason": "Return Trash Cart",
    "date_created": "2022-11-11T15:24:07.000",
    "date_modified": "2022-11-11T15:24:07.000",
    "request_status": "Pending",
    "responsible_agency": "Department of Sanitation",
    "final_address": "145 10Th St",
    "address_councildis": "A",
    "status": "Assigned to Contractor",
    "contractor": "IV Waste",
    "rowid": "942430",
    "final_x": "3665685.73895",
    "final_y": "547552.429394",
    "longitude": "-90.11746907860375",
    "latitude": "30.000050176563505",
    "geocoded_column": {
      "latitude": "30.000050176563505",
      "longitude": "-90.11746907860375"
    }
  },
  {
    "service_request": "2022-942429",
    "request_type": "Roads/Drainage",
    "request_reason": "Pothole",
    "date_created": "2022-11-11T15:23:43.000",
    "date_modified": "2022-11-11T15:23:44.000",
    "request_status": "Pending",
    "responsible_agency": "Department of Public Works",
    "final_address": "11000 BLK Zenith St",
    "address_councildis": "E",
    "status": "Pending",
    "rowid": "942429",
    "final_x": "3710815.81357",
    "final_y": "565577.630443",
    "longitude": "-89.97422688927003",
    "latitude": "30.048218454398572",
    "geocoded_column": {
      "latitude": "30.048218454398572",
      "longitude": "-89.97422688927003"
    }
  },
  {
    "service_request": "2022-942428",
    "request_type": "Property Maintenance",
    "request_reason": "Property Maintenance",
    "date_created": "2022-11-11T15:18:32.000",
    "date_modified": "2022-11-11T15:32:52.000",
    "case_close_date": "2022-11-11T09:32:52.000",
    "request_status": "Closed",
    "responsible_agency": "Department of Code Enforcement",
    "final_address": "1306 S Genois St",
    "address_councildis": "B",
    "status": "Referred to Code Enforcement",
    "rowid": "942428",
    "final_x": "3669316.08641",
    "final_y": "532396.032387",
    "longitude": "-90.10651323061578",
    "latitude": "29.958268791851786",
    "geocoded_column": {
      "latitude": "29.958268791851786",
      "longitude": "-90.10651323061578"
    }
  },
  {
    "service_request": "2022-942426",
    "request_type": "Trash/Recycling",
    "request_reason": "Order Trash Cart",
    "date_created": "2022-11-11T15:13:48.000",
    "date_modified": "2022-11-11T15:13:49.000",
    "request_status": "Pending",
    "responsible_agency": "Department of Sanitation",
    "final_address": "1374 Laharpe St",
    "address_councildis": "C",
    "status": "Assigned to Contractor",
    "contractor": "IV Waste",
    "rowid": "942426",
    "final_x": "3682509.88245",
    "final_y": "537004.060296",
    "longitude": "-90.0646897540683",
    "latitude": "29.970544267388398",
    "geocoded_column": {
      "latitude": "29.970544267388398",
      "longitude": "-90.0646897540683"
    }
  },
  {
    "service_request": "2022-942425",
    "request_type": "Trash/Recycling",
    "request_reason": "Order Trash Cart",
    "date_created": "2022-11-11T15:12:51.000",
    "date_modified": "2022-11-11T15:12:52.000",
    "request_status": "Pending",
    "responsible_agency": "Department of Sanitation",
    "final_address": "1372 Laharpe St",
    "address_councildis": "C",
    "status": "Assigned to Contractor",
    "contractor": "IV Waste",
    "rowid": "942425",
    "final_x": "3682519.30338",
    "final_y": "536996.523528",
    "longitude": "-90.06466026524252",
    "latitude": "29.970523257073626",
    "geocoded_column": {
      "latitude": "29.970523257073626",
      "longitude": "-90.06466026524252"
    }
  },
  {
    "service_request": "2022-942424",
    "request_type": "Trash/Recycling",
    "request_reason": "Order Recycling Cart",
    "date_created": "2022-11-11T15:12:41.000",
    "date_modified": "2022-11-11T15:12:41.000",
    "request_status": "Pending",
    "responsible_agency": "Department of Sanitation",
    "final_address": "5323 Dauphine St",
    "address_councildis": "E",
    "status": "Pending",
    "rowid": "942424",
    "final_x": "3696681.07178",
    "final_y": "532924.958212",
    "longitude": "-90.02008337637163",
    "latitude": "29.9588891576537",
    "geocoded_column": {
      "latitude": "29.9588891576537",
      "longitude": "-90.02008337637163"
    }
  },
  {
    "service_request": "2022-942423",
    "request_type": "Trash/Recycling",
    "request_reason": "Order Recycling Cart",
    "date_created": "2022-11-11T15:12:13.000",
    "date_modified": "2022-11-11T15:12:14.000",
    "request_status": "Pending",
    "responsible_agency": "Department of Sanitation",
    "final_address": "3521 Audubon Ct",
    "address_councildis": "B",
    "status": "Pending",
    "rowid": "942423",
    "final_x": "3669132.65729",
    "final_y": "533210.219332",
    "longitude": "-90.1070649371248",
    "latitude": "29.960512935811177",
    "geocoded_column": {
      "latitude": "29.960512935811177",
      "longitude": "-90.1070649371248"
    }
  },
  {
    "service_request": "2022-942422",
    "request_type": "Traffic Signals/Signs/Striping/Streetlights",
    "request_reason": "Street Name Sign Damaged or Missing",
    "date_created": "2022-11-11T15:08:20.000",
    "date_modified": "2022-11-11T15:08:20.000",
    "request_status": "Pending",
    "responsible_agency": "Department of Public Works",
    "final_address": "326 Harney St",
    "address_councildis": "A",
    "status": "Pending",
    "rowid": "942422",
    "final_x": "3667170.90631",
    "final_y": "547104.454353",
    "longitude": "-90.11279241774315",
    "latitude": "29.998774983638445",
    "geocoded_column": {
      "latitude": "29.998774983638445",
      "longitude": "-90.11279241774315"
    }
  },
  {
    "service_request": "2022-942420",
    "request_type": "Abandoned Vehicles",
    "request_reason": "Abandoned/Junk Vehicles",
    "date_created": "2022-11-11T15:05:40.000",
    "date_modified": "2022-11-11T15:05:41.000",
    "request_status": "Pending",
    "responsible_agency": "Department of Public Works",
    "final_address": "2317 Bienville Ave",
    "address_councildis": "B",
    "status": "Pending",
    "rowid": "942420",
    "final_x": "3677087.11362",
    "final_y": "534847.834502",
    "longitude": "-90.08188987090723",
    "latitude": "29.964779353476743",
    "geocoded_column": {
      "latitude": "29.964779353476743",
      "longitude": "-90.08188987090723"
    }
  },
  {
    "service_request": "2022-942421",
    "request_type": "Trash/Recycling",
    "request_reason": "Request a Large Item Pick Up",
    "date_created": "2022-11-11T15:05:40.000",
    "date_modified": "2022-11-11T15:06:35.000",
    "request_status": "Pending",
    "responsible_agency": "Department of Sanitation",
    "final_address": "3000 Dumaine St",
    "address_councildis": "A",
    "status": "Assigned to Contractor",
    "contractor": "Richards Disposal",
    "rowid": "942421",
    "final_x": "3676073.10158",
    "final_y": "538227.305737",
    "longitude": "-90.08497578691512",
    "latitude": "29.974102162911016",
    "geocoded_column": {
      "latitude": "29.974102162911016",
      "longitude": "-90.08497578691512"
    }
  },
  {
    "service_request": "2022-942419",
    "request_type": "Trash/Recycling",
    "request_reason": "Request a Large Item Pick Up",
    "date_created": "2022-11-11T15:03:10.000",
    "date_modified": "2022-11-11T15:03:41.000",
    "request_status": "Pending",
    "responsible_agency": "Department of Sanitation",
    "final_address": "1420 Terpsichore St",
    "address_councildis": "B",
    "status": "Assigned to Contractor",
    "contractor": "Richards Disposal",
    "rowid": "942419",
    "final_x": "3679617.6733",
    "final_y": "524815.81926",
    "longitude": "-90.07424664693501",
    "latitude": "29.937118442984104",
    "geocoded_column": {
      "latitude": "29.937118442984104",
      "longitude": "-90.07424664693501"
    }
  },
  {
    "service_request": "2022-942417",
    "request_type": "Trash/Recycling",
    "request_reason": "Order Trash Cart",
    "date_created": "2022-11-11T14:58:19.000",
    "date_modified": "2022-11-11T14:58:38.000",
    "request_status": "Pending",
    "responsible_agency": "Department of Sanitation",
    "final_address": "2132 Feliciana St",
    "address_councildis": "D",
    "status": "Assigned to Contractor",
    "contractor": "IV Waste",
    "rowid": "942417",
    "final_x": "3689727.13782",
    "final_y": "540138.083147",
    "longitude": "-90.04178533515201",
    "latitude": "29.978940030431826",
    "geocoded_column": {
      "latitude": "29.978940030431826",
      "longitude": "-90.04178533515201"
    }
  },
  {
    "service_request": "2022-942416",
    "request_type": "Trash/Recycling",
    "request_reason": "Missed Trash Pick-Up",
    "date_created": "2022-11-11T14:57:35.000",
    "date_modified": "2022-11-11T14:58:22.000",
    "request_status": "Pending",
    "responsible_agency": "Department of Sanitation",
    "final_address": "5108 Basinview Dr",
    "address_councildis": "E",
    "status": "Assigned to Contractor",
    "contractor": "Waste Pro",
    "rowid": "942416",
    "final_x": "3698539.55472",
    "final_y": "556185.234586",
    "longitude": "-90.01336867736977",
    "latitude": "30.02278766243492",
    "geocoded_column": {
      "latitude": "30.02278766243492",
      "longitude": "-90.01336867736977"
    }
  },
  {
    "service_request": "2022-942415",
    "request_type": "Trash/Recycling",
    "request_reason": "Missed Trash Pick-Up",
    "date_created": "2022-11-11T14:54:50.000",
    "date_modified": "2022-11-11T14:54:51.000",
    "request_status": "Pending",
    "responsible_agency": "Department of Sanitation",
    "final_address": "2610 Pauger St",
    "address_councildis": "D",
    "status": "Assigned to Contractor",
    "contractor": "IV Waste",
    "rowid": "942415",
    "final_x": "3683587.92111",
    "final_y": "539255.42497",
    "longitude": "-90.06120625045119",
    "latitude": "29.976701873710994",
    "geocoded_column": {
      "latitude": "29.976701873710994",
      "longitude": "-90.06120625045119"
    }
  },
  {
    "service_request": "2022-942414",
    "request_type": "Trash/Recycling",
    "request_reason": "Request a Large Item Pick Up",
    "date_created": "2022-11-11T14:52:31.000",
    "date_modified": "2022-11-11T14:52:32.000",
    "request_status": "Pending",
    "responsible_agency": "Department of Sanitation",
    "final_address": "8700 BLK Scottsdale Dr",
    "address_councildis": "E",
    "status": "Assigned to Contractor",
    "contractor": "Waste Pro",
    "rowid": "942414",
    "final_x": "3704920.80895",
    "final_y": "561815.729503",
    "longitude": "-89.99299743191268",
    "latitude": "30.03806565777603",
    "geocoded_column": {
      "latitude": "30.03806565777603",
      "longitude": "-89.99299743191268"
    }
  },
  {
    "service_request": "2022-942413",
    "request_type": "Trash/Recycling",
    "request_reason": "Missed Trash Pick-Up",
    "date_created": "2022-11-11T14:49:51.000",
    "date_modified": "2022-11-11T14:49:52.000",
    "request_status": "Pending",
    "responsible_agency": "Department of Sanitation",
    "final_address": "6510 E Hermes St",
    "address_councildis": "D",
    "status": "Assigned to Contractor",
    "contractor": "Waste Pro",
    "rowid": "942413",
    "final_x": "3697886.61027",
    "final_y": "555338.098265",
    "longitude": "-90.0154626063056",
    "latitude": "30.020479025355318",
    "geocoded_column": {
      "latitude": "30.020479025355318",
      "longitude": "-90.0154626063056"
    }
  },
  {
    "service_request": "2022-942412",
    "request_type": "Trash/Recycling",
    "request_reason": "Replace Trash Cart",
    "date_created": "2022-11-11T14:48:38.000",
    "date_modified": "2022-11-11T14:48:39.000",
    "request_status": "Pending",
    "responsible_agency": "Department of Sanitation",
    "final_address": "3305 Saint Philip St, New Orleans, Louisiana, 70119",
    "status": "Assigned to Contractor",
    "rowid": "942412",
    "longitude": "0.0",
    "latitude": "0.0",
    "geocoded_column": {
      "latitude": "0.0",
      "longitude": "0.0"
    }
  },
  {
    "service_request": "2022-942411",
    "request_type": "Trash/Recycling",
    "request_reason": "Replace Trash Cart",
    "date_created": "2022-11-11T14:48:00.000",
    "date_modified": "2022-11-11T14:48:01.000",
    "request_status": "Pending",
    "responsible_agency": "Department of Sanitation",
    "final_address": "1727 Arabella St, New Orleans, Louisiana, 70115",
    "address_councildis": "A",
    "status": "Assigned to Contractor",
    "contractor": "Richards Disposal",
    "rowid": "942411",
    "final_x": "3666839.13133",
    "final_y": "522691.621562",
    "longitude": "-90.11466072640563",
    "latitude": "29.93165748635366",
    "geocoded_column": {
      "latitude": "29.93165748635366",
      "longitude": "-90.11466072640563"
    }
  },
  {
    "service_request": "2022-942410",
    "request_type": "Roads/Drainage",
    "request_reason": "Debris in Roadway",
    "date_created": "2022-11-11T14:47:51.000",
    "date_modified": "2022-11-11T14:47:51.000",
    "request_status": "Pending",
    "responsible_agency": "Department of Public Works",
    "final_address": "Gordon Street & Saint Claude Avenue",
    "address_councildis": "E",
    "status": "Pending",
    "rowid": "942410",
    "final_x": "3699153.28874",
    "final_y": "533439.329733",
    "longitude": "-90.01225806179744",
    "latitude": "29.96022535568926",
    "geocoded_column": {
      "latitude": "29.96022535568926",
      "longitude": "-90.01225806179744"
    }
  },