[
  {
    "service_request": "2022-906398",
    "request_type": "Roads/Drainage",
    "request_reason": "Street Flooding / Drainage",
    "date_created": "2022-08-04T00:53:15.000",
    "date_modified": "2022-08-04T00:53:15.000",
    "request_status": "Pending",
    "responsible_agency": "Department of Public Works",
    "final_address": "4015 Ulloa St",
    "address_councildis": "A",
    "status": "Pending",
    "rowid": "906398",
    "final_x": "3669964.54945",
    "final_y": "536293.755335",
    "longitude": "-90.1043335432278",
    "latitude": "29.96896712653616",
    "geocoded_column": {
      "latitude": "29.96896712653616",
      "longitude": "-90.1043335432278"
    }
  },
  {
    "service_request": "2022-906397",
    "request_type": "Property Maintenance",
    "request_reason": "Property Maintenance",
    "date_created": "2022-08-04T00:32:12.000",
    "date_modified": "2022-08-04T00:32:12.000",
    "request_status": "Pending",
    "responsible_agency": "Department of Code Enforcement",
    "final_address": "4033 Ulloa St",
    "address_councildis": "A",
    "status": "Pending",
    "rowid": "906397",
    "final_x": "3669846.41178",
    "final_y": "536380.004679",
    "longitude": "-90.10470371024121",
    "latitude": "29.969207766966615",
    "geocoded_column": {
      "latitude": "29.969207766966615",
      "longitude": "-90.10470371024121"
    }
  },
  {
    "service_request": "2022-906396",
    "request_type": "Property Maintenance",
    "request_reason": "Property Maintenance",
    "date_created": "2022-08-04T00:28:05.000",
    "date_modified": "2022-08-04T00:28:05.000",
    "request_status": "Pending",
    "responsible_agency": "Department of Code Enforcement",
    "final_address": "4051 Ulloa St",
    "address_councildis": "A",
    "status": "Pending",
    "rowid": "906396",
    "final_x": "3669728.7483",
    "final_y": "536466.891271",
    "longitude": "-90.10507235993298",
    "latitude": "29.969450144589867",
    "geocoded_column": {
      "latitude": "29.969450144589867",
      "longitude": "-90.10507235993298"
    }
  },
  {
    "service_request": "2022-906395",
    "request_type": "Property Maintenance",
    "request_reason": "Property Maintenance",
    "date_created": "2022-08-04T00:26:09.000",
    "date_modified": "2022-08-04T00:26:09.000",
    "request_status": "Pending",
    "responsible_agency": "Department of Code Enforcement",
    "final_address": "4052 Ulloa St",
    "address_councildis": "A",
    "status": "Pending",
    "rowid": "906395",
    "final_x": "3669677.65748",
    "final_y": "536391.234887",
    "longitude": "-90.10523627017909",
    "latitude": "29.96924362063183",
    "geocoded_column": {
      "latitude": "29.96924362063183",
      "longitude": "-90.10523627017909"
    }
  },
  {
    "service_request": "2022-906394",
    "request_type": "Property Maintenance",
    "request_reason": "Property Maintenance",
    "date_created": "2022-08-04T00:25:47.000",
    "date_modified": "2022-08-04T00:25:47.000",
    "request_status": "Pending",
    "responsible_agency": "Department of Code Enforcement",
    "final_address": "2601 Philip St",
    "address_councildis": "B",
    "status": "Pending",
    "rowid": "906394",
    "final_x": "3675156.55483",
    "final_y": "526404.793662",
    "longitude": "-90.08827616760917",
    "latitude": "29.941621637326588",
    "geocoded_column": {
      "latitude": "29.941621637326588",
      "longitude": "-90.08827616760917"
    }
  },
  {
    "service_request": "2022-906393",
    "request_type": "Property Maintenance",
    "request_reason": "Property Maintenance",
    "date_created": "2022-08-04T00:25:15.000",
    "date_modified": "2022-08-04T00:25:15.000",
    "request_status": "Pending",
    "responsible_agency": "Department of Code Enforcement",
    "final_address": "4044 Ulloa St",
    "address_councildis": "A",
    "status": "Pending",
    "rowid": "906393",
    "final_x": "3669728.88967",
    "final_y": "536366.720263",
    "longitude": "-90.10507530450072",
    "latitude": "29.969174703683215",
    "geocoded_column": {
      "latitude": "29.969174703683215",
      "longitude": "-90.10507530450072"
    }
  },
  {
    "service_request": "2022-906392",
    "request_type": "Trash/Recycling",
    "request_reason": "Request a Large Item Pick Up",
    "date_created": "2022-08-03T23:41:11.000",
    "date_modified": "2022-08-03T23:41:12.000",
    "request_status": "Pending",
    "responsible_agency": "Department of Sanitation",
    "final_address": "5817 Providence Pl",
    "address_councildis": "D",
    "status": "Assigned to Contractor",
    "contractor": "Metro Disposal",
    "rowid": "906392",
    "final_x": "3688323.76316",
    "final_y": "554734.43356",
    "longitude": "-90.04569965967916",
    "latitude": "30.019118124660263",
    "geocoded_column": {
      "latitude": "30.019118124660263",
      "longitude": "-90.04569965967916"
    }
  },
  {
    "service_request": "2022-906391",
    "request_type": "Roads/Drainage",
    "request_reason": "Catch Basin - Clogged",
    "date_created": "2022-08-03T23:34:20.000",
    "date_modified": "2022-08-03T23:34:20.000",
    "request_status": "Pending",
    "responsible_agency": "Department of Public Works",
    "final_address": "2630 Dreux Ave",
    "address_councildis": "D",
    "status": "Pending",
    "rowid": "906391",
    "final_x": "3686962.40502",
    "final_y": "552206.29615",
    "longitude": "-90.05009052969942",
    "latitude": "30.01220867207121",
    "geocoded_column": {
      "latitude": "30.01220867207121",
      "longitude": "-90.05009052969942"
    }
  },
  {
    "service_request": "2022-906390",
    "request_type": "Parks & Parkways",
    "request_reason": "Request Tree Service (Right of Way/Public Property)",
    "date_created": "2022-08-03T23:21:17.000",
    "date_modified": "2022-08-03T23:21:17.000",
    "request_status": "Pending",
    "responsible_agency": "Department of Parks & Parkway",
    "final_address": "4619 Hauck Dr",
    "address_councildis": "E",
    "status": "Pending",
    "rowid": "906390",
    "final_x": "3714699.14923",
    "final_y": "556056.337881",
    "longitude": "-89.96231351170887",
    "latitude": "30.021911497820827",
    "geocoded_column": {
      "latitude": "30.021911497820827",
      "longitude": "-89.96231351170887"
    }
  },
  {
    "service_request": "2022-906389",
    "request_type": "Roads/Drainage",
    "request_reason": "Man hole cover issue",
    "date_created": "2022-08-03T23:04:22.000",
    "date_modified": "2022-08-03T23:04:22.000",
    "request_status": "Pending",
    "responsible_agency": "Department of Public Works",
    "final_address": "3443 Esplanade Ave",
    "address_councildis": "A",
    "status": "Pending",
    "rowid": "906389",
    "final_x": "3674954.47605",
    "final_y": "541610.733708",
    "longitude": "-90.08839256856447",
    "latitude": "29.98343889283848",
    "geocoded_column": {
      "latitude": "29.98343889283848",
      "longitude": "-90.08839256856447"
    }
  },
  {
    "service_request": "2022-906388",
    "request_type": "EMS",
    "request_reason": "EMS Complaint",
    "date_created": "2022-08-03T22:51:48.000",
    "date_modified": "2022-08-03T22:54:02.000",
    "request_status": "Pending",
    "responsible_agency": "Emergency Medical Services",
    "final_address": "CANAL ST & CONVENTION CENTER BLVD",
    "address_councildis": "B",
    "status": "Pending",
    "rowid": "906388",
    "final_x": "3682611.7",
    "final_y": "529527.28",
    "longitude": "-90.06462964670948",
    "latitude": "29.949982577545665",
    "geocoded_column": {
      "latitude": "29.949982577545665",
      "longitude": "-90.06462964670948"
    }
  },
  {
    "service_request": "2022-906387",
    "request_type": "Health Related Questions",
    "request_reason": "Noise Ordinance Complaint",
    "date_created": "2022-08-03T22:28:31.000",
    "date_modified": "2022-08-03T22:28:31.000",
    "request_status": "Pending",
    "responsible_agency": "Health Department",
    "final_address": "1143 St Bernard Ave",
    "address_councildis": "C",
    "status": "Pending",
    "rowid": "906387",
    "final_x": "3683179.03061",
    "final_y": "536078.892359",
    "longitude": "-90.06260891131107",
    "latitude": "29.96797998737953",
    "geocoded_column": {
      "latitude": "29.96797998737953",
      "longitude": "-90.06260891131107"
    }
  },
  {
    "service_request": "2022-906386",
    "request_type": "Trash/Recycling",
    "request_reason": "Order Trash Cart",
    "date_created": "2022-08-03T22:22:14.000",
    "date_modified": "2022-08-03T22:22:15.000",
    "request_status": "Pending",
    "responsible_agency": "Department of Sanitation",
    "final_address": "2036 Gallier St",
    "address_councildis": "D",
    "status": "Assigned to Contractor",
    "contractor": "Metro Disposal",
    "rowid": "906386",
    "final_x": "3691325.08208",
    "final_y": "539338.392266",
    "longitude": "-90.03676701537982",
    "latitude": "29.976691543447334",
    "geocoded_column": {
      "latitude": "29.976691543447334",
      "longitude": "-90.03676701537982"
    }
  },
  {
    "service_request": "2022-906385",
    "request_type": "Roads/Drainage",
    "request_reason": "Debris in Roadway",
    "date_created": "2022-08-03T22:21:22.000",
    "date_modified": "2022-08-03T22:21:22.000",
    "request_status": "Pending",
    "responsible_agency": "Department of Public Works",
    "final_address": "N GALVEZ ST & GALLIER ST",
    "address_councildis": "D",
    "status": "Pending",
    "rowid": "906385",
    "final_x": "3691401.7",
    "final_y": "539403.98",
    "longitude": "-90.03652268870272",
    "latitude": "29.97686950230807",
    "geocoded_column": {
      "latitude": "29.97686950230807",
      "longitude": "-90.03652268870272"
    }
  },
  {
    "service_request": "2022-906384",
    "request_type": "Mosquito, Termite & Rodent Control",
    "request_reason": "Mosquito Complaint",
    "date_created": "2022-08-03T22:20:31.000",
    "date_modified": "2022-08-03T22:20:32.000",
    "request_status": "Pending",
    "responsible_agency": "Mosquito, Termite & Rodent Control Board",
    "final_address": "2036 Gallier St",
    "address_councildis": "D",
    "status": "Pending",
    "rowid": "906384",
    "final_x": "3691325.08208",
    "final_y": "539338.392266",
    "longitude": "-90.03676701537982",
    "latitude": "29.976691543447334",
    "geocoded_column": {
      "latitude": "29.976691543447334",
      "longitude": "-90.03676701537982"
    }
  },
  {
    "service_request": "2022-906383",
    "request_type": "Traffic Signals/Signs/Striping/Streetlights",
    "request_reason": "Street Light Outage/Malfunction",
    "date_created": "2022-08-03T22:13:17.000",
    "date_modified": "2022-08-03T22:13:18.000",
    "request_status": "Pending",
    "responsible_agency": "Department of Public Works",
    "final_address": "4817 America St",
    "address_councildis": "E",
    "status": "Pending",
    "contractor": "Royal Engineering",
    "rowid": "906383",
    "final_x": "3699786.93252",
    "final_y": "554883.12668",
    "longitude": "-90.0094748105431",
    "latitude": "30.019167793345098",
    "geocoded_column": {
      "latitude": "30.019167793345098",
      "longitude": "-90.0094748105431"
    }
  },
  {
    "service_request": "2022-906382",
    "request_type": "Roads/Drainage",
    "request_reason": "Man hole cover issue",
    "date_created": "2022-08-03T22:11:14.000",
    "date_modified": "2022-08-03T22:11:14.000",
    "request_status": "Pending",
    "responsible_agency": "Department of Public Works",
    "final_address": "CHAPELLE ST & VICKSBURG ST",
    "address_councildis": "A",
    "status": "Pending",
    "rowid": "906382",
    "final_x": "3669357.3",
    "final_y": "552637.58",
    "longitude": "-90.10569828867997",
    "latitude": "30.01392492598768",
    "geocoded_column": {
      "latitude": "30.01392492598768",
      "longitude": "-90.10569828867997"
    }
  },
  {
    "service_request": "2022-906380",
    "request_type": "Property Maintenance",
    "request_reason": "Property Maintenance",
    "date_created": "2022-08-03T21:43:57.000",
    "date_modified": "2022-08-03T21:43:57.000",
    "request_status": "Pending",
    "responsible_agency": "Department of Code Enforcement",
    "final_address": "719 Lyons St",
    "address_councildis": "B",
    "status": "Pending",
    "rowid": "906380",
    "final_x": "3669397.40788",
    "final_y": "518031.899062",
    "longitude": "-90.1067419846722",
    "latitude": "29.918769667314837",
    "geocoded_column": {
      "latitude": "29.918769667314837",
      "longitude": "-90.1067419846722"
    }
  },
  {
    "service_request": "2022-906378",
    "request_type": "Health Related Questions",
    "request_reason": "Noise Ordinance Complaint",
    "date_created": "2022-08-03T21:39:49.000",
    "date_modified": "2022-08-03T21:39:49.000",
    "request_status": "Pending",
    "responsible_agency": "Health Department",
    "final_address": "1143 St Bernard Ave",
    "address_councildis": "C",
    "status": "Pending",
    "rowid": "906378",
    "final_x": "3683179.03061",
    "final_y": "536078.892359",
    "longitude": "-90.06260891131107",
    "latitude": "29.96797998737953",
    "geocoded_column": {
      "latitude": "29.96797998737953",
      "longitude": "-90.06260891131107"
    }
  },
  {
    "service_request": "2022-906377",
    "request_type": "Trash/Recycling",
    "request_reason": "Missed Trash Pick-Up",
    "date_created": "2022-08-03T21:34:03.000",
    "date_modified": "2022-08-03T21:34:03.000",
    "request_status": "Pending",
    "responsible_agency": "Department of Sanitation",
    "final_address": "3003 Pine St",
    "address_councildis": "B",
    "status": "Assigned to Contractor",
    "contractor": "Richards Disposal",
    "rowid": "906377",
    "final_x": "3667555.245",
    "final_y": "532077.748611",
    "longitude": "-90.11208421952237",
    "latitude": "29.95744533757146",
    "geocoded_column": {
      "latitude": "29.95744533757146",
      "longitude": "-90.11208421952237"
    }
  },
  {
    "service_request": "2022-906376",
    "request_type": "Trash/Recycling",
    "request_reason": "Repair Trash Cart",
    "date_created": "2022-08-03T21:29:50.000",
    "date_modified": "2022-08-03T21:29:51.000",
    "request_status": "Pending",
    "responsible_agency": "Department of Sanitation",
    "final_address": "3003 Pine St",
    "address_councildis": "B",
    "status": "Assigned to Contractor",
    "contractor": "Richards Disposal",
    "rowid": "906376",
    "final_x": "3667555.245",
    "final_y": "532077.748611",
    "longitude": "-90.11208421952237",
    "latitude": "29.95744533757146",
    "geocoded_column": {
      "latitude": "29.95744533757146",
      "longitude": "-90.11208421952237"
    }
  },
  {
    "service_request": "2022-906375",
    "request_type": "Property Maintenance",
    "request_reason": "Property Maintenance",
    "date_created": "2022-08-03T21:27:23.000",
    "date_modified": "2022-08-03T21:27:23.000",
    "request_status": "Pending",
    "responsible_agency": "Department of Code Enforcement",
    "final_address": "2041 S Chippewa St",
    "address_councildis": "B",
    "status": "Pending",
    "rowid": "906375",
    "final_x": "3680305.19963",
    "final_y": "521052.262841",
    "longitude": "-90.07220685898443",
    "latitude": "29.92674911111749",
    "geocoded_column": {
      "latitude": "29.92674911111749",
      "longitude": "-90.07220685898443"
    }
  },
  {
    "service_request": "2022-906374",
    "request_type": "Abandoned Vehicles",
    "request_reason": "Vehicle Blocking Your Driveway",
    "date_created": "2022-08-03T21:26:26.000",
    "date_modified": "2022-08-03T21:26:26.000",
    "request_status": "Pending",
    "responsible_agency": "Department of Public Works",
    "final_address": "7119 Northgate Dr",
    "address_councildis": "E",
    "status": "Pending",
    "rowid": "906374",
    "final_x": "3713774.87122",
    "final_y": "565127.135458",
    "longitude": "-89.9648916676513",
    "latitude": "30.046882938030688",
    "geocoded_column": {
      "latitude": "30.046882938030688",
      "longitude": "-89.9648916676513"
    }
  },
  {
    "service_request": "2022-906373",
    "request_type": "Property Maintenance",
    "request_reason": "Property Maintenance",
    "date_created": "2022-08-03T21:24:16.000",
    "date_modified": "2022-08-03T21:24:16.000",
    "request_status": "Pending",
    "responsible_agency": "Department of Code Enforcement",
    "final_address": "2041 S Chippewa St",
    "address_councildis": "B",
    "status": "Pending",
    "rowid": "906373",
    "final_x": "3680305.19963",
    "final_y": "521052.262841",
    "longitude": "-90.07220685898443",
    "latitude": "29.92674911111749",
    "geocoded_column": {
      "latitude": "29.92674911111749",
      "longitude": "-90.07220685898443"
    }
  },
  {
    "service_request": "2022-906372",
    "request_type": "Trash/Recycling",
    "request_reason": "Repair Trash Cart",
    "date_created": "2022-08-03T21:22:38.000",
    "date_modified": "2022-08-03T21:22:39.000",
    "request_status": "Pending",
    "responsible_agency": "Department of Sanitation",
    "final_address": "200 River Oaks Dr",
    "address_councildis": "C",
    "status": "Assigned to Contractor",
    "contractor": "Richards Disposal",
    "rowid": "906372",
    "final_x": "3701645.8346",
    "final_y": "523354.105915",
    "longitude": "-90.00475643945006",
    "latitude": "29.93241529600989",
    "geocoded_column": {
      "latitude": "29.93241529600989",
      "longitude": "-90.00475643945006"
    }
  },
  {
    "service_request": "2022-906371",
    "request_type": "Property Maintenance",
    "request_reason": "Property Maintenance",
    "date_created": "2022-08-03T21:19:36.000",
    "date_modified": "2022-08-03T21:19:36.000",
    "request_status": "Pending",
    "responsible_agency": "Department of Code Enforcement",
    "final_address": "2045 S Chippewa St",
    "address_councildis": "B",
    "status": "Pending",
    "rowid": "906371",
    "final_x": "3680300.54267",
    "final_y": "521036.119609",
    "longitude": "-90.07222212061116",
    "latitude": "29.926704863448744",
    "geocoded_column": {
      "latitude": "29.926704863448744",
      "longitude": "-90.07222212061116"
    }
  },
  {
    "service_request": "2022-906369",
    "request_type": "Traffic Signals/Signs/Striping/Streetlights",
    "request_reason": "Street Light Outage/Malfunction",
    "date_created": "2022-08-03T20:51:33.000",
    "date_modified": "2022-08-03T20:51:34.000",
    "request_status": "Pending",
    "responsible_agency": "Department of Public Works",
    "final_address": "119 Fremont St",
    "address_councildis": "A",
    "status": "Pending",
    "contractor": "Royal Engineering",
    "rowid": "906369",
    "final_x": "3666785.477",
    "final_y": "549994.261332",
    "longitude": "-90.11391284570519",
    "latitude": "30.006732236076335",
    "geocoded_column": {
      "latitude": "30.006732236076335",
      "longitude": "-90.11391284570519"
    }
  },
  {
    "service_request": "2022-906368",
    "request_type": "Roads/Drainage",
    "request_reason": "Street Flooding / Drainage",
    "date_created": "2022-08-03T20:47:26.000",
    "date_modified": "2022-08-03T20:47:26.000",
    "request_status": "Pending",
    "responsible_agency": "Department of Public Works",
    "final_address": "2309 New Orleans St",
    "address_councildis": "D",
    "status": "Pending",
    "rowid": "906368",
    "final_x": "3682082.94607",
    "final_y": "540606.392459",
    "longitude": "-90.06591223049737",
    "latitude": "29.980462419852746",
    "geocoded_column": {
      "latitude": "29.980462419852746",
      "longitude": "-90.06591223049737"
    }
  },
  {
    "service_request": "2022-906366",
    "request_type": "Property Maintenance",
    "request_reason": "Property Maintenance",
    "date_created": "2022-08-03T20:04:38.000",
    "date_modified": "2022-08-03T20:04:38.000",
    "request_status": "Pending",
    "responsible_agency": "Department of Code Enforcement",
    "final_address": "1316 Marigny St",
    "address_councildis": "C",
    "status": "Pending",
    "rowid": "906366",
    "final_x": "3685308.9062",
    "final_y": "537216.31732",
    "longitude": "-90.05584265498345",
    "latitude": "29.971042391497726",
    "geocoded_column": {
      "latitude": "29.971042391497726",
      "longitude": "-90.05584265498345"
    }
  },
  {
    "service_request": "2022-906365",
    "request_type": "Safety & Permits",
    "request_reason": "Licenses & Permits",
    "date_created": "2022-08-03T20:04:05.000",
    "date_modified": "2022-08-03T20:04:05.000",
    "request_status": "Pending",
    "responsible_agency": "Safety and Permits",
    "status": "Pending",
    "rowid": "906365",
    "longitude": "0.0",
    "latitude": "0.0",
    "geocoded_column": {
      "latitude": "0.0",
      "longitude": "0.0"
    }
  },
  {
    "service_request": "2022-906364",
    "request_type": "Property Maintenance",
    "request_reason": "Property Maintenance",
    "date_created": "2022-08-03T19:51:16.000",
    "date_modified": "2022-08-03T19:51:16.000",
    "request_status": "Pending",
    "responsible_agency": "Department of Code Enforcement",
    "final_address": "1314 Marigny St",
    "address_councildis": "C",
    "status": "Pending",
    "rowid": "906364",
    "final_x": "3685309.61071",
    "final_y": "537200.096904",
    "longitude": "-90.05584100117046",
    "latitude": "29.970997769406587",
    "geocoded_column": {
      "latitude": "29.970997769406587",
      "longitude": "-90.05584100117046"
    }
  },
  {
    "service_request": "2022-906363",
    "request_type": "Property Maintenance",
    "request_reason": "Property Maintenance",
    "date_created": "2022-08-03T19:50:20.000",
    "date_modified": "2022-08-03T19:50:20.000",
    "request_status": "Pending",
    "responsible_agency": "Department of Code Enforcement",
    "final_address": "1314 Marigny St",
    "address_councildis": "C",
    "status": "Pending",
    "rowid": "906363",
    "final_x": "3685309.61071",
    "final_y": "537200.096904",
    "longitude": "-90.05584100117046",
    "latitude": "29.970997769406587",
    "geocoded_column": {
      "latitude": "29.970997769406587",
      "longitude": "-90.05584100117046"
    }
  },
  {
    "service_request": "2022-906362",
    "request_type": "Trash/Recycling",
    "request_reason": "Request a Large Item Pick Up",
    "date_created": "2022-08-03T19:46:24.000",
    "date_modified": "2022-08-03T19:46:25.000",
    "request_status": "Pending",
    "responsible_agency": "Department of Sanitation",
    "final_address": "3830 Red Cypress Dr",
    "address_councildis": "C",
    "status": "Assigned to Contractor",
    "contractor": "Richards Disposal",
    "rowid": "906362",
    "final_x": "3703878.98961",
    "final_y": "512338.183473",
    "longitude": "-89.9981118633465",
    "latitude": "29.90205391614095",
    "geocoded_column": {
      "latitude": "29.90205391614095",
      "longitude": "-89.9981118633465"
    }
  },
  {
    "service_request": "2022-906361",
    "request_type": "Trash/Recycling",
    "request_reason": "Illegal Dumping",
    "date_created": "2022-08-03T19:40:12.000",
    "date_modified": "2022-08-03T19:40:12.000",
    "request_status": "Pending",
    "responsible_agency": "Department of Code Enforcement",
    "final_address": "N RAMPART ST & ST LOUIS ST",
    "address_councildis": "C",
    "status": "Pending",
    "rowid": "906361",
    "final_x": "3680943.9",
    "final_y": "532744.38",
    "longitude": "-90.06978365106",
    "latitude": "29.958879185214794",
    "geocoded_column": {
      "latitude": "29.958879185214794",
      "longitude": "-90.06978365106"
    }
  },
  {
    "service_request": "2022-906360",
    "request_type": "Trash/Recycling",
    "request_reason": "Missed Trash Pick-Up",
    "date_created": "2022-08-03T19:33:21.000",
    "date_modified": "2022-08-03T19:33:21.000",
    "request_status": "Pending",
    "responsible_agency": "Department of Sanitation",
    "final_address": "7828 Mercier St",
    "address_councildis": "E",
    "status": "Assigned to Contractor",
    "contractor": "Metro Disposal",
    "rowid": "906360",
    "final_x": "3710972.83921",
    "final_y": "567137.170212",
    "longitude": "-89.97367211454346",
    "latitude": "30.052501435261128",
    "geocoded_column": {
      "latitude": "30.052501435261128",
      "longitude": "-89.97367211454346"
    }
  },
  {
    "service_request": "2022-906359",
    "request_type": "Roads/Drainage",
    "request_reason": "Street Flooding / Drainage",
    "date_created": "2022-08-03T19:29:26.000",
    "date_modified": "2022-08-03T19:29:27.000",
    "request_status": "Pending",
    "responsible_agency": "Department of Public Works",
    "final_address": "6135 Catina St",
    "address_councildis": "A",
    "status": "Pending",
    "rowid": "906359",
    "final_x": "3666900.32833",
    "final_y": "548430.595666",
    "longitude": "-90.11360258490949",
    "latitude": "30.002429336636297",
    "geocoded_column": {
      "latitude": "30.002429336636297",
      "longitude": "-90.11360258490949"
    }
  },
  {
    "service_request": "2022-906358",
    "request_type": "Traffic Signals/Signs/Striping/Streetlights",
    "request_reason": "Request for Stop Sign",
    "date_created": "2022-08-03T19:28:46.000",
    "date_modified": "2022-08-03T19:28:46.000",
    "request_status": "Pending",
    "responsible_agency": "Department of Public Works",
    "final_address": "2103 Broadway St",
    "address_councildis": "A",
    "status": "Pending",
    "rowid": "906358",
    "final_x": "3666016.27207",
    "final_y": "529162.391616",
    "longitude": "-90.1170415744594",
    "latitude": "29.94947406686008",
    "geocoded_column": {
      "latitude": "29.94947406686008",
      "longitude": "-90.1170415744594"
    }
  },
  {
    "service_request": "2022-906357",
    "request_type": "Trash/Recycling",
    "request_reason": "Request a Large Item Pick Up",
    "date_created": "2022-08-03T19:14:29.000",
    "date_modified": "2022-08-03T19:14:29.000",
    "request_status": "Pending",
    "responsible_agency": "Department of Sanitation",
    "final_address": "1442 St Mary St A",
    "address_councildis": "B",
    "status": "Assigned to Contractor",
    "contractor": "Richards Disposal",
    "rowid": "906357",
    "final_x": "3678789.27554",
    "final_y": "523792.425787",
    "longitude": "-90.07689737506966",
    "latitude": "29.93432945148578",
    "geocoded_column": {
      "latitude": "29.93432945148578",
      "longitude": "-90.07689737506966"
    }
  },
  {
    "service_request": "2022-906356",
    "request_type": "Roads/Drainage",
    "request_reason": "Catch Basin - Clogged",
    "date_created": "2022-08-03T19:10:43.000",
    "date_modified": "2022-08-03T19:10:43.000",
    "request_status": "Pending",
    "responsible_agency": "Department of Public Works",
    "final_address": "1640 S Carrollton Ave",
    "address_councildis": "A",
    "status": "Pending",
    "rowid": "906356",
    "final_x": "3663087.17568",
    "final_y": "529654.986113",
    "longitude": "-90.12627370780291",
    "latitude": "29.950913710500185",
    "geocoded_column": {
      "latitude": "29.950913710500185",
      "longitude": "-90.12627370780291"
    }
  },
  {
    "service_request": "2022-906355",
    "request_type": "Roads/Drainage",
    "request_reason": "Debris in Roadway",
    "date_created": "2022-08-03T19:05:43.000",
    "date_modified": "2022-08-03T19:05:43.000",
    "request_status": "Pending",
    "responsible_agency": "Department of Public Works",
    "final_address": "7821 Hickory St",
    "address_councildis": "A",
    "status": "Pending",
    "rowid": "906355",
    "final_x": "3664098.096",
    "final_y": "529332.833665",
    "longitude": "-90.12309246136586",
    "latitude": "29.94999857450035",
    "geocoded_column": {
      "latitude": "29.94999857450035",
      "longitude": "-90.12309246136586"
    }
  },
  {
    "service_request": "2022-906352",
    "request_type": "Roads/Drainage",
    "request_reason": "Catch Basin - Clogged",
    "date_created": "2022-08-03T18:52:21.000",
    "date_modified": "2022-08-03T18:52:21.000",
    "request_status": "Pending",
    "responsible_agency": "Department of Public Works",
    "final_address": "6500 Memphis St",
    "address_councildis": "A",
    "status": "Pending",
    "rowid": "906352",
    "final_x": "3669409.81108",
    "final_y": "550702.770005",
    "longitude": "-90.10559787922817",
    "latitude": "30.008603332105125",
    "geocoded_column": {
      "latitude": "30.008603332105125",
      "longitude": "-90.10559787922817"
    }
  },
  {
    "service_request": "2022-906351",
    "request_type": "Roads/Drainage",
    "request_reason": "Street Flooding / Drainage",
    "date_created": "2022-08-03T18:48:57.000",
    "date_modified": "2022-08-03T18:48:57.000",
    "request_status": "Pending",
    "responsible_agency": "Department of Public Works",
    "final_address": "6467 Memphis St",
    "address_councildis": "A",
    "status": "Pending",
    "rowid": "906351",
    "final_x": "3669557.99073",
    "final_y": "550501.685268",
    "longitude": "-90.10513654029843",
    "latitude": "30.00804605313825",
    "geocoded_column": {
      "latitude": "30.00804605313825",
      "longitude": "-90.10513654029843"
    }
  },
  {
    "service_request": "2022-906350",
    "request_type": "Trash/Recycling",
    "request_reason": "MIssed Recycling Pick-Up",
    "date_created": "2022-08-03T18:40:27.000",
    "date_modified": "2022-08-03T18:40:28.000",
    "request_status": "Pending",
    "responsible_agency": "Department of Sanitation",
    "final_address": "1010 Richard St",
    "address_councildis": "B",
    "status": "Assigned to Contractor",
    "contractor": "Richards Disposal",
    "rowid": "906350",
    "final_x": "3680294.7828",
    "final_y": "523028.569275",
    "longitude": "-90.07217107660475",
    "latitude": "29.93218362006363",
    "geocoded_column": {
      "latitude": "29.93218362006363",
      "longitude": "-90.07217107660475"
    }
  },
  {
    "service_request": "2022-906349",
    "request_type": "Property Maintenance",
    "request_reason": "Property Maintenance",
    "date_created": "2022-08-03T18:36:06.000",
    "date_modified": "2022-08-03T18:36:06.000",
    "request_status": "Pending",
    "responsible_agency": "Department of Code Enforcement",
    "final_address": "4018 Baudin St",
    "address_councildis": "A",
    "status": "Pending",
    "rowid": "906349",
    "final_x": "3670352.41505",
    "final_y": "536843.02356",
    "longitude": "-90.1030900107391",
    "latitude": "29.970465985226035",
    "geocoded_column": {
      "latitude": "29.970465985226035",
      "longitude": "-90.1030900107391"
    }
  },
  {
    "service_request": "2022-906348",
    "request_type": "Property Maintenance",
    "request_reason": "Property Maintenance",
    "date_created": "2022-08-03T18:34:57.000",
    "date_modified": "2022-08-03T18:34:57.000",
    "request_status": "Pending",
    "responsible_agency": "Department of Code Enforcement",
    "final_address": "2509 Memorial Park Dr",
    "address_councildis": "C",
    "status": "Pending",
    "rowid": "906348",
    "final_x": "3692667.34697",
    "final_y": "521156.961721",
    "longitude": "-90.03317930093436",
    "latitude": "29.92665709085535",
    "geocoded_column": {
      "latitude": "29.92665709085535",
      "longitude": "-90.03317930093436"
    }
  },
  {
    "service_request": "2022-906347",
    "request_type": "Property Maintenance",
    "request_reason": "Property Maintenance",
    "date_created": "2022-08-03T18:34:35.000",
    "date_modified": "2022-08-03T18:36:00.000",
    "request_status": "Pending",
    "responsible_agency": "Department of Code Enforcement",
    "final_address": "4301 S Claiborne Ave",
    "address_councildis": "B",
    "rowid": "906347",
    "final_x": "3670682.17857",
    "final_y": "526013.046206",
    "longitude": "-90.10241599535952",
    "latitude": "29.940677384267975",
    "geocoded_column": {
      "latitude": "29.940677384267975",
      "longitude": "-90.10241599535952"
    }
  },
  {
    "service_request": "2022-906346",
    "request_type": "Property Maintenance",
    "request_reason": "Property Maintenance",
    "date_created": "2022-08-03T18:33:50.000",
    "date_modified": "2022-08-03T18:33:50.000",
    "request_status": "Pending",
    "responsible_agency": "Department of Code Enforcement",
    "final_address": "4025 Baudin St",
    "address_councildis": "A",
    "status": "Pending",
    "rowid": "906346",
    "final_x": "3670391.15047",
    "final_y": "536917.054408",
    "longitude": "-90.10296516910648",
    "latitude": "29.970668401595805",
    "geocoded_column": {
      "latitude": "29.970668401595805",
      "longitude": "-90.10296516910648"
    }
  },
  {
    "service_request": "2022-906345",
    "request_type": "Abandoned Vehicles",
    "request_reason": "Abandoned/Junk Vehicles",
    "date_created": "2022-08-03T18:32:59.000",
    "date_modified": "2022-08-03T18:32:59.000",
    "request_status": "Pending",
    "responsible_agency": "Department of Public Works",
    "final_address": "3025 Bienville Ave",
    "address_councildis": "B",
    "status": "Pending",
    "rowid": "906345",
    "final_x": "3674674.54068",
    "final_y": "536679.064967",
    "longitude": "-90.08944584920847",
    "latitude": "29.96988684906901",
    "geocoded_column": {
      "latitude": "29.96988684906901",
      "longitude": "-90.08944584920847"
    }
  },
  {
    "service_request": "2022-906344",
    "request_type": "Traffic Signals/Signs/Striping/Streetlights",
    "request_reason": "Street Light Outage/Malfunction",
    "date_created": "2022-08-03T18:32:43.000",
    "date_modified": "2022-08-03T18:32:43.000",
    "request_status": "Pending",
    "responsible_agency": "Department of Public Works",
    "final_address": "1461 Magazine St",
    "address_councildis": "B",
    "status": "Pending",
    "contractor": "Royal Engineering",
    "rowid": "906344",
    "final_x": "3680202.78491",
    "final_y": "524023.150652",
    "longitude": "-90.0724269539209",
    "latitude": "29.934921174757065",
    "geocoded_column": {
      "latitude": "29.934921174757065",
      "longitude": "-90.0724269539209"
    }
  },
  {
    "service_request": "2022-906343",
    "request_type": "Trash/Recycling",
    "request_reason": "MIssed Recycling Pick-Up",
    "date_created": "2022-08-03T18:31:47.000",
    "date_modified": "2022-08-03T18:31:48.000",
    "request_status": "Pending",
    "responsible_agency": "Department of Sanitation",
    "final_address": "1461 Magazine St",
    "address_councildis": "B",
    "status": "Assigned to Contractor",
    "contractor": "Richards Disposal",
    "rowid": "906343",
    "final_x": "3680202.78491",
    "final_y": "524023.150652",
    "longitude": "-90.0724269539209",
    "latitude": "29.934921174757065",
    "geocoded_column": {
      "latitude": "29.934921174757065",
      "longitude": "-90.0724269539209"
    }
  },
  {
    "service_request": "2022-906341",
    "request_type": "Traffic Signals/Signs/Striping/Streetlights",
    "request_reason": "Street Light Outage/Malfunction",
    "date_created": "2022-08-03T18:30:41.000",
    "date_modified": "2022-08-03T18:30:42.000",
    "request_status": "Pending",
    "responsible_agency": "Department of Public Works",
    "final_address": "6029 Perrier St",
    "address_councildis": "A",
    "status": "Pending",
    "contractor": "Royal Engineering",
    "rowid": "906341",
    "final_x": "3664913.01357",
    "final_y": "520649.840057",
    "longitude": "-90.12080949402394",
    "latitude": "29.92609941945013",
    "geocoded_column": {
      "latitude": "29.92609941945013",
      "longitude": "-90.12080949402394"
    }
  },
  {
    "service_request": "2022-906340",
    "request_type": "Trash/Recycling",
    "request_reason": "Request a Large Item Pick Up",
    "date_created": "2022-08-03T18:29:09.000",
    "date_modified": "2022-08-03T18:29:10.000",
    "request_status": "Pending",
    "responsible_agency": "Department of Sanitation",
    "final_address": "7516 Hurst St",
    "address_councildis": "A",
    "status": "Assigned to Contractor",
    "contractor": "Richards Disposal",
    "rowid": "906340",
    "final_x": "3661053.58067",
    "final_y": "524412.09382",
    "longitude": "-90.13286824450091",
    "latitude": "29.936556171801467",
    "geocoded_column": {
      "latitude": "29.936556171801467",
      "longitude": "-90.13286824450091"
    }
  },
  {
    "service_request": "2022-906339",
    "request_type": "Trash/Recycling",
    "request_reason": "Repair Trash Cart",
    "date_created": "2022-08-03T18:25:10.000",
    "date_modified": "2022-08-03T18:25:11.000",
    "request_status": "Pending",
    "responsible_agency": "Department of Sanitation",
    "final_address": "3651 Tchoupitoulas St",
    "address_councildis": "B",
    "status": "Assigned to Contractor",
    "contractor": "Richards Disposal",
    "rowid": "906339",
    "final_x": "3674182.82171",
    "final_y": "517817.968438",
    "longitude": "-90.0916442245426",
    "latitude": "29.918039702540565",
    "geocoded_column": {
      "latitude": "29.918039702540565",
      "longitude": "-90.0916442245426"
    }
  },
  {
    "service_request": "2022-906338",
    "request_type": "Roads/Drainage",
    "request_reason": "Damaged Sidewalk",
    "date_created": "2022-08-03T18:23:55.000",
    "date_modified": "2022-08-03T18:23:55.000",
    "request_status": "Pending",
    "responsible_agency": "Department of Public Works",
    "final_address": "4942 Bundy Rd",
    "address_councildis": "E",
    "status": "Pending",
    "rowid": "906338",
    "final_x": "3709047.57796",
    "final_y": "556892.072794",
    "longitude": "-89.98013967008764",
    "latitude": "30.024394166843155",
    "geocoded_column": {
      "latitude": "30.024394166843155",
      "longitude": "-89.98013967008764"
    }
  },
  {
    "service_request": "2022-906337",
    "request_type": "Trash/Recycling",
    "request_reason": "MIssed Recycling Pick-Up",
    "date_created": "2022-08-03T18:10:15.000",
    "date_modified": "2022-08-03T18:10:16.000",
    "request_status": "Pending",
    "responsible_agency": "Department of Sanitation",
    "final_address": "1220 St Mary St",
    "address_councildis": "B",
    "status": "Assigned to Contractor",
    "contractor": "Richards Disposal",
    "rowid": "906337",
    "final_x": "3679310.04309",
    "final_y": "523206.615611",
    "longitude": "-90.07527363248904",
    "latitude": "29.932702954491248",
    "geocoded_column": {
      "latitude": "29.932702954491248",
      "longitude": "-90.07527363248904"
    }
  },
  {
    "service_request": "2022-906336",
    "request_type": "Trash/Recycling",
    "request_reason": "Dead Animal Pick Up",
    "date_created": "2022-08-03T18:06:37.000",
    "date_modified": "2022-08-03T18:06:37.000",
    "request_status": "Pending",
    "responsible_agency": "Department of Sanitation",
    "final_address": "6948 Neptune Ct",
    "address_councildis": "E",
    "status": "Assigned to Contractor",
    "contractor": "Metro Disposal",
    "rowid": "906336",
    "final_x": "3702037.28317",
    "final_y": "558454.800924",
    "longitude": "-90.00223342930748",
    "latitude": "30.028916841108682",
    "geocoded_column": {
      "latitude": "30.028916841108682",
      "longitude": "-90.00223342930748"
    }
  },
  {
    "service_request": "2022-906335",
    "request_type": "Property Maintenance",
    "request_reason": "Property Maintenance",
    "date_created": "2022-08-03T18:05:56.000",
    "date_modified": "2022-08-03T18:05:56.000",
    "request_status": "Pending",
    "responsible_agency": "Department of Code Enforcement",
    "final_address": "2414 Danneel St",
    "address_councildis": "B",
    "status": "Pending",
    "rowid": "906335",
    "final_x": "3676064.26625",
    "final_y": "524305.394172",
    "longitude": "-90.08548252067017",
    "latitude": "29.935821826418113",
    "geocoded_column": {
      "latitude": "29.935821826418113",
      "longitude": "-90.08548252067017"
    }
  },
  {
    "service_request": "2022-906334",
    "request_type": "Roads/Drainage",
    "request_reason": "Debris in Roadway",
    "date_created": "2022-08-03T17:56:22.000",
    "date_modified": "2022-08-03T17:56:23.000",
    "request_status": "Pending",
    "responsible_agency": "Department of Public Works",
    "final_address": "800 BLK Melpomene St",
    "address_councildis": "B",
    "status": "Pending",
    "rowid": "906334",
    "final_x": "3681649.19277",
    "final_y": "524603.127091",
    "longitude": "-90.06784044180259",
    "latitude": "29.93647207298302",
    "geocoded_column": {
      "latitude": "29.93647207298302",
      "longitude": "-90.06784044180259"
    }
  },
  {
    "service_request": "2022-906333",
    "request_type": "Trash/Recycling",
    "request_reason": "MIssed Recycling Pick-Up",
    "date_created": "2022-08-03T17:44:59.000",
    "date_modified": "2022-08-03T17:44:59.000",
    "request_status": "Pending",
    "responsible_agency": "Department of Sanitation",
    "final_address": "918 Sixth St",
    "address_councildis": "B",
    "status": "Assigned to Contractor",
    "contractor": "Richards Disposal",
    "rowid": "906333",
    "final_x": "3676890.08565",
    "final_y": "520025.410936",
    "longitude": "-90.0830228316674",
    "latitude": "29.924028511906265",
    "geocoded_column": {
      "latitude": "29.924028511906265",
      "longitude": "-90.0830228316674"
    }
  },
  {
    "service_request": "2022-906332",
    "request_type": "Trash/Recycling",
    "request_reason": "Request a Large Item Pick Up",
    "date_created": "2022-08-03T17:42:37.000",
    "date_modified": "2022-08-03T17:44:01.000",
    "request_status": "Pending",
    "responsible_agency": "Department of Sanitation",
    "final_address": "4000 S Robertson St",
    "address_councildis": "B",
    "status": "Assigned to Contractor",
    "contractor": "Richards Disposal",
    "rowid": "906332",
    "final_x": "3671786.57185",
    "final_y": "524477.865596",
    "longitude": "-90.09898144132941",
    "latitude": "29.936423467930634",
    "geocoded_column": {
      "latitude": "29.936423467930634",
      "longitude": "-90.09898144132941"
    }
  },
  {
    "service_request": "2022-906331",
    "request_type": "Trash/Recycling",
    "request_reason": "Request a Large Item Pick Up",
    "date_created": "2022-08-03T17:38:22.000",
    "date_modified": "2022-08-03T17:38:23.000",
    "request_status": "Pending",
    "responsible_agency": "Department of Sanitation",
    "final_address": "5516 Dauphine St",
    "address_councildis": "E",
    "status": "Assigned to Contractor",
    "contractor": "Metro Disposal",
    "rowid": "906331",
    "final_x": "3697555.75952",
    "final_y": "532620.609668",
    "longitude": "-90.01733238695968",
    "latitude": "29.958024713093863",
    "geocoded_column": {
      "latitude": "29.958024713093863",
      "longitude": "-90.01733238695968"
    }
  },
  {
    "service_request": "2022-906330",
    "request_type": "Trash/Recycling",
    "request_reason": "Start Trash Service",
    "date_created": "2022-08-03T17:31:41.000",
    "date_modified": "2022-08-03T17:31:41.000",
    "request_status": "Pending",
    "responsible_agency": "Department of Sanitation",
    "final_address": "2628 Calhoun St",
    "address_councildis": "A",
    "status": "Assigned to Contractor",
    "contractor": "Richards Disposal",
    "rowid": "906330",
    "final_x": "3666362.19911",
    "final_y": "526568.368766",
    "longitude": "-90.11603633595551",
    "latitude": "29.942331240728247",
    "geocoded_column": {
      "latitude": "29.942331240728247",
      "longitude": "-90.11603633595551"
    }
  },
  {
    "service_request": "2022-906329",
    "request_type": "Traffic Signals/Signs/Striping/Streetlights",
    "request_reason": "Street Light Outage/Malfunction",
    "date_created": "2022-08-03T17:21:53.000",
    "date_modified": "2022-08-03T17:21:54.000",
    "request_status": "Pending",
    "responsible_agency": "Department of Public Works",
    "final_address": "3720 General Pershing St ",
    "address_councildis": "B",
    "status": "Pending",
    "contractor": "Royal Engineering",
    "rowid": "906329",
    "final_x": "3670465.09236",
    "final_y": "528371.200512",
    "longitude": "-90.1030214358913",
    "latitude": "29.94716795136435",
    "geocoded_column": {
      "latitude": "29.94716795136435",
      "longitude": "-90.1030214358913"
    }
  },
  {
    "service_request": "2022-906328",
    "request_type": "Property Maintenance",
    "request_reason": "Property Maintenance",
    "date_created": "2022-08-03T17:20:09.000",
    "date_modified": "2022-08-03T17:20:09.000",
    "request_status": "Pending",
    "responsible_agency": "Department of Code Enforcement",
    "final_address": "4409 Eden St",
    "address_councildis": "B",
    "status": "Pending",
    "rowid": "906328",
    "final_x": "3669919.50094",
    "final_y": "530702.337986",
    "longitude": "-90.10466515487335",
    "latitude": "29.953593912389938",
    "geocoded_column": {
      "latitude": "29.953593912389938",
      "longitude": "-90.10466515487335"
    }
  },
  {
    "service_request": "2022-906326",
    "request_type": "Trash/Recycling",
    "request_reason": "Order Trash Cart",
    "date_created": "2022-08-03T17:12:16.000",
    "date_modified": "2022-08-03T17:12:17.000",
    "request_status": "Pending",
    "responsible_agency": "Department of Sanitation",
    "final_address": "New Orleans,LA",
    "status": "Assigned to Contractor",
    "rowid": "906326",
    "longitude": "0.0",
    "latitude": "0.0",
    "geocoded_column": {
      "latitude": "0.0",
      "longitude": "0.0"
    }
  },
  {
    "service_request": "2022-906325",
    "request_type": "Traffic Signals/Signs/Striping/Streetlights",
    "request_reason": "Street Light Outage/Malfunction",
    "date_created": "2022-08-03T17:11:16.000",
    "date_modified": "2022-08-03T17:11:16.000",
    "request_status": "Pending",
    "responsible_agency": "Department of Public Works",
    "final_address": "MARCONI DR & AZALEA LN",
    "address_councildis": "D",
    "status": "Pending",
    "contractor": "Royal Engineering",
    "rowid": "906325",
    "final_x": "3672375.2",
    "final_y": "557452.68",
    "longitude": "-90.09599896480984",
    "latitude": "30.027075475986067",
    "geocoded_column": {
      "latitude": "30.027075475986067",
      "longitude": "-90.09599896480984"
    }
  },
  {
    "service_request": "2022-906324",
    "request_type": "Traffic Signals/Signs/Striping/Streetlights",
    "request_reason": "Street Light Outage/Malfunction",
    "date_created": "2022-08-03T17:10:23.000",
    "date_modified": "2022-08-03T17:10:24.000",
    "request_status": "Pending",
    "responsible_agency": "Department of Public Works",
    "final_address": "MARCONI DR & AZALEA LN",
    "address_councildis": "D",
    "status": "Pending",
    "contractor": "Royal Engineering",
    "rowid": "906324",
    "final_x": "3672375.2",
    "final_y": "557452.68",
    "longitude": "-90.09599896480984",
    "latitude": "30.027075475986067",
    "geocoded_column": {
      "latitude": "30.027075475986067",
      "longitude": "-90.09599896480984"
    }
  },
  {
    "service_request": "2022-906323",
    "request_type": "Trash/Recycling",
    "request_reason": "MIssed Recycling Pick-Up",
    "date_created": "2022-08-03T17:10:05.000",
    "date_modified": "2022-08-03T17:10:06.000",
    "request_status": "Pending",
    "responsible_agency": "Department of Sanitation",
    "final_address": "550 Philip St",
    "address_councildis": "B",
    "status": "Assigned to Contractor",
    "contractor": "Richards Disposal",
    "rowid": "906323",
    "final_x": "3679645.58824",
    "final_y": "520350.031352",
    "longitude": "-90.07431343130152",
    "latitude": "29.924838149324717",
    "geocoded_column": {
      "latitude": "29.924838149324717",
      "longitude": "-90.07431343130152"
    }
  },
  {
    "service_request": "2022-906322",
    "request_type": "Traffic Signals/Signs/Striping/Streetlights",
    "request_reason": "Street Light Outage/Malfunction",
    "date_created": "2022-08-03T17:03:30.000",
    "date_modified": "2022-08-03T17:04:36.000",
    "request_status": "Pending",
    "responsible_agency": "Department of Public Works",
    "final_address": "722 Turquoise St",
    "address_councildis": "D",
    "status": "Pending",
    "contractor": "Royal Engineering",
    "rowid": "906322",
    "final_x": "3670072.89332",
    "final_y": "555117.240345",
    "longitude": "-90.10335327517292",
    "latitude": "30.020722011561055",
    "geocoded_column": {
      "latitude": "30.020722011561055",
      "longitude": "-90.10335327517292"
    }
  },
  {
    "service_request": "2022-906321",
    "request_type": "Trash/Recycling",
    "request_reason": "MIssed Recycling Pick-Up",
    "date_created": "2022-08-03T17:01:38.000",
    "date_modified": "2022-08-03T17:01:39.000",
    "request_status": "Pending",
    "responsible_agency": "Department of Sanitation",
    "final_address": "234 S Norman C Francis Pkwy, New Orleans, Louisiana, 70119",
    "status": "Assigned to Contractor",
    "rowid": "906321",
    "longitude": "0.0",
    "latitude": "0.0",
    "geocoded_column": {
      "latitude": "0.0",
      "longitude": "0.0"
    }
  },
  {
    "service_request": "2022-906320",
    "request_type": "Roads/Drainage",
    "request_reason": "Service Cut",
    "date_created": "2022-08-03T17:01:02.000",
    "date_modified": "2022-08-03T17:01:03.000",
    "request_status": "Pending",
    "responsible_agency": "Department of Public Works",
    "final_address": "4800 BLK Louisa Dr",
    "address_councildis": "D",
    "status": "Pending",
    "rowid": "906320",
    "final_x": "3690826.24823",
    "final_y": "551370.017782",
    "longitude": "-90.03791288102671",
    "latitude": "30.00978966811483",
    "geocoded_column": {
      "latitude": "30.00978966811483",
      "longitude": "-90.03791288102671"
    }
  },
  {
    "service_request": "2022-906319",
    "request_type": "Roads/Drainage",
    "request_reason": "Pothole",
    "date_created": "2022-08-03T16:56:50.000",
    "date_modified": "2022-08-03T16:56:50.000",
    "request_status": "Pending",
    "responsible_agency": "Department of Public Works",
    "final_address": "12215 Willow Dr",
    "address_councildis": "C",
    "status": "Pending",
    "rowid": "906319",
    "final_x": "3728445.31136",
    "final_y": "511629.09272",
    "longitude": "-89.92061059342124",
    "latitude": "29.899294183446383",
    "geocoded_column": {
      "latitude": "29.899294183446383",
      "longitude": "-89.92061059342124"
    }
  },
  {
    "service_request": "2022-906318",
    "request_type": "Trash/Recycling",
    "request_reason": "Missed Trash Pick-Up",
    "date_created": "2022-08-03T16:55:10.000",
    "date_modified": "2022-08-03T16:55:11.000",
    "request_status": "Pending",
    "responsible_agency": "Department of Sanitation",
    "final_address": "700 BLK Saint Mary St",
    "address_councildis": "B",
    "status": "Assigned to Contractor",
    "contractor": "Richards Disposal",
    "rowid": "906318",
    "final_x": "3680637.9461",
    "final_y": "521848.24743",
    "longitude": "-90.07112878965472",
    "latitude": "29.92892773340622",
    "geocoded_column": {
      "latitude": "29.92892773340622",
      "longitude": "-90.07112878965472"
    }
  },
  {
    "service_request": "2022-906317",
    "request_type": "Mosquito, Termite & Rodent Control",
    "request_reason": "Mosquito Complaint",
    "date_created": "2022-08-03T16:53:21.000",
    "date_modified": "2022-08-03T16:53:22.000",
    "request_status": "Pending",
    "responsible_agency": "Mosquito, Termite & Rodent Control Board",
    "final_address": "6208 Bertha Dr",
    "address_councildis": "D",
    "status": "Pending",
    "rowid": "906317",
    "final_x": "3678605.59202",
    "final_y": "555848.861657",
    "longitude": "-90.07636709951662",
    "latitude": "30.02247909739619",
    "geocoded_column": {
      "latitude": "30.02247909739619",
      "longitude": "-90.07636709951662"
    }
  },
  {
    "service_request": "2022-906316",
    "request_type": "Trash/Recycling",
    "request_reason": "Replace Trash Cart",
    "date_created": "2022-08-03T16:52:16.000",
    "date_modified": "2022-08-03T16:52:17.000",
    "request_status": "Pending",
    "responsible_agency": "Department of Sanitation",
    "final_address": "721 Upperline St",
    "address_councildis": "B",
    "status": "Assigned to Contractor",
    "contractor": "Richards Disposal",
    "rowid": "906316",
    "final_x": "3669062.88814",
    "final_y": "518077.874614",
    "longitude": "-90.10779634001662",
    "latitude": "29.918905927791354",
    "geocoded_column": {
      "latitude": "29.918905927791354",
      "longitude": "-90.10779634001662"
    }
  },
  {
    "service_request": "2022-906315",
    "request_type": "Trash/Recycling",
    "request_reason": "Missed Trash Pick-Up",
    "date_created": "2022-08-03T16:49:57.000",
    "date_modified": "2022-08-03T16:49:58.000",
    "request_status": "Pending",
    "responsible_agency": "Department of Sanitation",
    "final_address": "2921 Pine St",
    "address_councildis": "B",
    "status": "Assigned to Contractor",
    "contractor": "Richards Disposal",
    "rowid": "906315",
    "final_x": "3667418.15988",
    "final_y": "531900.411395",
    "longitude": "-90.11252306111359",
    "latitude": "29.95696173515855",
    "geocoded_column": {
      "latitude": "29.95696173515855",
      "longitude": "-90.11252306111359"
    }
  },
  {
    "service_request": "2022-906314",
    "request_type": "Trash/Recycling",
    "request_reason": "Repair Trash Cart",
    "date_created": "2022-08-03T16:39:22.000",
    "date_modified": "2022-08-03T16:39:23.000",
    "request_status": "Pending",
    "responsible_agency": "Department of Sanitation",
    "final_address": "428 S Scott St",
    "address_councildis": "B",
    "status": "Assigned to Contractor",
    "contractor": "Richards Disposal",
    "rowid": "906314",
    "final_x": "3670900.997",
    "final_y": "536605.234247",
    "longitude": "-90.1013655964122",
    "latitude": "29.969795937878768",
    "geocoded_column": {
      "latitude": "29.969795937878768",
      "longitude": "-90.1013655964122"
    }
  },
  {
    "service_request": "2022-906313",
    "request_type": "Trash/Recycling",
    "request_reason": "MIssed Recycling Pick-Up",
    "date_created": "2022-08-03T16:32:36.000",
    "date_modified": "2022-08-03T16:32:37.000",
    "request_status": "Pending",
    "responsible_agency": "Department of Sanitation",
    "final_address": "610 Soraparu St",
    "address_councildis": "B",
    "status": "Assigned to Contractor",
    "contractor": "Richards Disposal",
    "rowid": "906313",
    "final_x": "3679276.94274",
    "final_y": "520225.52908",
    "longitude": "-90.07548143784187",
    "latitude": "29.92450694127319",
    "geocoded_column": {
      "latitude": "29.92450694127319",
      "longitude": "-90.07548143784187"
    }
  },
  {
    "service_request": "2022-906311",
    "request_type": "Trash/Recycling",
    "request_reason": "Return Trash Cart",
    "date_created": "2022-08-03T16:27:49.000",
    "date_modified": "2022-08-03T16:27:50.000",
    "request_status": "Pending",
    "responsible_agency": "Department of Sanitation",
    "final_address": "614 Esplanade Ave",
    "address_councildis": "C",
    "status": "Assigned to Contractor",
    "contractor": "Empire Services",
    "rowid": "906311",
    "final_x": "3684193.25231",
    "final_y": "534226.798277",
    "longitude": "-90.05947099322388",
    "latitude": "29.962856401929088",
    "geocoded_column": {
      "latitude": "29.962856401929088",
      "longitude": "-90.05947099322388"
    }
  },
  {
    "service_request": "2022-906312",
    "request_type": "Trash/Recycling",
    "request_reason": "Replace Trash Cart",
    "date_created": "2022-08-03T16:27:49.000",
    "date_modified": "2022-08-03T16:27:50.000",
    "request_status": "Pending",
    "responsible_agency": "Department of Sanitation",
    "final_address": "2749 Audubon St",
    "address_councildis": "B",
    "status": "Assigned to Contractor",
    "contractor": "Richards Disposal",
    "rowid": "906312",
    "final_x": "3667473.97908",
    "final_y": "530974.543618",
    "longitude": "-90.11237795355937",
    "latitude": "29.95441426672744",
    "geocoded_column": {
      "latitude": "29.95441426672744",
      "longitude": "-90.11237795355937"
    }
  },
  {
    "service_request": "2022-906310",
    "request_type": "Trash/Recycling",
    "request_reason": "Return Trash Cart",
    "date_created": "2022-08-03T16:25:42.000",
    "date_modified": "2022-08-03T16:26:22.000",
    "case_close_date": "2022-03-15T19:00:00.000",
    "request_status": "Closed",
    "responsible_agency": "Department of Sanitation",
    "final_address": "614 Esplanade Ave",
    "address_councildis": "C",
    "contractor": "Empire Services",
    "contractor_action": "Completed",
    "rowid": "906310",
    "final_x": "3684193.25231",
    "final_y": "534226.798277",
    "longitude": "-90.05947099322388",
    "latitude": "29.962856401929088",
    "geocoded_column": {
      "latitude": "29.962856401929088",
      "longitude": "-90.05947099322388"
    }
  },
  {
    "service_request": "2022-906309",
    "request_type": "Trash/Recycling",
    "request_reason": "Order Recycling Cart",
    "date_created": "2022-08-03T16:25:25.000",
    "date_modified": "2022-08-03T16:25:25.000",
    "request_status": "Pending",
    "responsible_agency": "Department of Sanitation",
    "final_address": "1406 Arts St",
    "address_councildis": "C",
    "status": "Pending",
    "rowid": "906309",
    "final_x": "3687089.56457",
    "final_y": "537661.927496",
    "longitude": "-90.05020335544829",
    "latitude": "29.972212955942464",
    "geocoded_column": {
      "latitude": "29.972212955942464",
      "longitude": "-90.05020335544829"
    }
  },
  {
    "service_request": "2022-906308",
    "request_type": "Trash/Recycling",
    "request_reason": "Request a Large Item Pick Up",
    "date_created": "2022-08-03T16:25:15.000",
    "date_modified": "2022-08-03T16:25:16.000",
    "request_status": "Pending",
    "responsible_agency": "Department of Sanitation",
    "final_address": "5826 S Robertson St",
    "address_councildis": "A",
    "status": "Assigned to Contractor",
    "contractor": "Richards Disposal",
    "rowid": "906308",
    "final_x": "3666710.28621",
    "final_y": "524587.479612",
    "longitude": "-90.1150038408161",
    "latitude": "29.936874258606082",
    "geocoded_column": {
      "latitude": "29.936874258606082",
      "longitude": "-90.1150038408161"
    }
  },
  {
    "service_request": "2022-906307",
    "request_type": "Trash/Recycling",
    "request_reason": "Repair Trash Cart",
    "date_created": "2022-08-03T16:22:47.000",
    "date_modified": "2022-08-03T16:22:48.000",
    "request_status": "Pending",
    "responsible_agency": "Department of Sanitation",
    "final_address": "918 Amelia St",
    "address_councildis": "B",
    "status": "Assigned to Contractor",
    "contractor": "Richards Disposal",
    "rowid": "906307",
    "final_x": "3673746.82472",
    "final_y": "518540.401207",
    "longitude": "-90.09299574790337",
    "latitude": "29.920039146161066",
    "geocoded_column": {
      "latitude": "29.920039146161066",
      "longitude": "-90.09299574790337"
    }
  },
  {
    "service_request": "2022-906306",
    "request_type": "Roads/Drainage",
    "request_reason": "Pothole",
    "date_created": "2022-08-03T16:21:06.000",
    "date_modified": "2022-08-03T16:21:06.000",
    "request_status": "Pending",
    "responsible_agency": "Department of Public Works",
    "final_address": "6530 Pontchartrain Blvd, New Orleans, Louisiana, 70124",
    "address_councildis": "A",
    "status": "Pending",
    "rowid": "906306",
    "final_x": "3666202.03085",
    "final_y": "551575.747285",
    "longitude": "-90.11570301836039",
    "latitude": "30.01109783176945",
    "geocoded_column": {
      "latitude": "30.01109783176945",
      "longitude": "-90.11570301836039"
    }
  },
  {
    "service_request": "2022-906305",
    "request_type": "Mosquito, Termite & Rodent Control",
    "request_reason": "Rodent Complaint (Rats)",
    "date_created": "2022-08-03T16:21:00.000",
    "date_modified": "2022-08-03T16:21:02.000",
    "request_status": "Pending",
    "responsible_agency": "Mosquito, Termite & Rodent Control Board",
    "final_address": "813 Elmira Ave",
    "address_councildis": "C",
    "status": "Pending",
    "rowid": "906305",
    "final_x": "3688108.75254",
    "final_y": "528580.88352",
    "longitude": "-90.04730647828026",
    "latitude": "29.94721180851233",
    "geocoded_column": {
      "latitude": "29.94721180851233",
      "longitude": "-90.04730647828026"
    }
  },
  {
    "service_request": "2022-906304",
    "request_type": "Trash/Recycling",
    "request_reason": "Illegal Dumping",
    "date_created": "2022-08-03T16:19:08.000",
    "date_modified": "2022-08-03T16:19:08.000",
    "request_status": "Pending",
    "responsible_agency": "Department of Sanitation",
    "final_address": "21 Vivian Ct",
    "address_councildis": "C",
    "status": "Pending",
    "rowid": "906304",
    "final_x": "3702240.47133",
    "final_y": "521255.524537",
    "longitude": "-90.00295615807947",
    "latitude": "29.926625954395135",
    "geocoded_column": {
      "latitude": "29.926625954395135",
      "longitude": "-90.00295615807947"
    }
  },
  {
    "service_request": "2022-906301",
    "request_type": "Roads/Drainage",
    "request_reason": "Pothole",
    "date_created": "2022-08-03T16:17:24.000",
    "date_modified": "2022-08-03T16:17:25.000",
    "request_status": "Pending",
    "responsible_agency": "Department of Public Works",
    "final_address": "2500 BLK Pauger St",
    "address_councildis": "D",
    "status": "Pending",
    "rowid": "906301",
    "final_x": "3683652.1986",
    "final_y": "538973.554715",
    "longitude": "-90.06101312740977",
    "latitude": "29.975924866539764",
    "geocoded_column": {
      "latitude": "29.975924866539764",
      "longitude": "-90.06101312740977"
    }
  },
  {
    "service_request": "2022-906300",
    "request_type": "Trash/Recycling",
    "request_reason": "Request a Large Item Pick Up",
    "date_created": "2022-08-03T16:16:17.000",
    "date_modified": "2022-08-03T16:16:18.000",
    "request_status": "Pending",
    "responsible_agency": "Department of Sanitation",
    "final_address": "5821 S Johnson St",
    "address_councildis": "A",
    "status": "Assigned to Contractor",
    "contractor": "Richards Disposal",
    "rowid": "906300",
    "final_x": "3667593.43098",
    "final_y": "527266.196863",
    "longitude": "-90.11212556724753",
    "latitude": "29.944214019084324",
    "geocoded_column": {
      "latitude": "29.944214019084324",
      "longitude": "-90.11212556724753"
    }
  },
  {
    "service_request": "2022-906299",
    "request_type": "Trash/Recycling",
    "request_reason": "Replace Trash Cart",
    "date_created": "2022-08-03T16:15:02.000",
    "date_modified": "2022-08-03T16:57:02.000",
    "request_status": "Pending",
    "responsible_agency": "Department of Sanitation",
    "final_address": "New Orleans,LA",
    "address_councildis": "A",
    "status": "Assigned to Contractor",
    "contractor": "Richards Disposal",
    "rowid": "906299",
    "final_x": "3660436.07494",
    "final_y": "529406.610625",
    "longitude": "-90.13465279548441",
    "latitude": "29.95030728230111",
    "geocoded_column": {
      "latitude": "29.95030728230111",
      "longitude": "-90.13465279548441"
    }
  },
  {
    "service_request": "2022-906298",
    "request_type": "Trash/Recycling",
    "request_reason": "Illegal Dumping",
    "date_created": "2022-08-03T16:10:29.000",
    "date_modified": "2022-08-03T16:10:30.000",
    "request_status": "Pending",
    "responsible_agency": "Department of Sanitation",
    "final_address": "MISTLETOE ST & PEACH ST",
    "address_councildis": "A",
    "status": "Pending",
    "rowid": "906298",
    "final_x": "3665790.9",
    "final_y": "538335.68",
    "longitude": "-90.117445829572",
    "latitude": "29.974704170174668",
    "geocoded_column": {
      "latitude": "29.974704170174668",
      "longitude": "-90.117445829572"
    }
  },
  {
    "service_request": "2022-906297",
    "request_type": "Property Maintenance",
    "request_reason": "Property Maintenance",
    "date_created": "2022-08-03T16:04:07.000",
    "date_modified": "2022-08-03T16:04:07.000",
    "request_status": "Pending",
    "responsible_agency": "Department of Code Enforcement",
    "final_address": "1124 Reynes St",
    "address_councildis": "E",
    "status": "Pending",
    "rowid": "906297",
    "final_x": "3695965.67581",
    "final_y": "534560.889157",
    "longitude": "-90.02228329763956",
    "latitude": "29.963409914805233",
    "geocoded_column": {
      "latitude": "29.963409914805233",
      "longitude": "-90.02228329763956"
    }
  },
  {
    "service_request": "2022-906296",
    "request_type": "Traffic Signals/Signs/Striping/Streetlights",
    "request_reason": "Street Light Outage/Malfunction",
    "date_created": "2022-08-03T15:56:31.000",
    "date_modified": "2022-08-03T15:56:32.000",
    "request_status": "Pending",
    "responsible_agency": "Department of Public Works",
    "final_address": "1010 Port St",
    "address_councildis": "C",
    "status": "Pending",
    "contractor": "Royal Engineering",
    "rowid": "906296",
    "final_x": "3687304.71433",
    "final_y": "536053.416519",
    "longitude": "-90.04958079145497",
    "latitude": "29.967783486682986",
    "geocoded_column": {
      "latitude": "29.967783486682986",
      "longitude": "-90.04958079145497"
    }
  },
  {
    "service_request": "2022-906295",
    "request_type": "Property Maintenance",
    "request_reason": "Property Maintenance",
    "date_created": "2022-08-03T15:55:52.000",
    "date_modified": "2022-08-03T15:55:52.000",
    "request_status": "Pending",
    "responsible_agency": "Department of Code Enforcement",
    "final_address": "3005 N Claiborne Ave",
    "address_councildis": "D",
    "status": "Pending",
    "rowid": "906295",
    "final_x": "3688991.55753",
    "final_y": "538054.952393",
    "longitude": "-90.04418259357315",
    "latitude": "29.97323493457048",
    "geocoded_column": {
      "latitude": "29.97323493457048",
      "longitude": "-90.04418259357315"
    }
  },
  {
    "service_request": "2022-906294",
    "request_type": "Property Maintenance",
    "request_reason": "Property Maintenance",
    "date_created": "2022-08-03T15:51:55.000",
    "date_modified": "2022-08-03T15:54:14.000",
    "case_close_date": "2022-08-03T10:54:14.000",
    "request_status": "Closed",
    "responsible_agency": "Department of Code Enforcement",
    "final_address": "5652 Tullis Dr",
    "address_councildis": "C",
    "status": "Referred to Code Enforcement",
    "rowid": "906294",
    "final_x": "3704864.25297",
    "final_y": "512547.035569",
    "longitude": "-89.99499474792049",
    "latitude": "29.90259658249449",
    "geocoded_column": {
      "latitude": "29.90259658249449",
      "longitude": "-89.99499474792049"
    }
  },
  {
    "service_request": "2022-906293",
    "request_type": "Trash/Recycling",
    "request_reason": "Request a Large Item Pick Up",
    "date_created": "2022-08-03T15:51:31.000",
    "date_modified": "2022-08-03T15:51:32.000",
    "request_status": "Pending",
    "responsible_agency": "Department of Sanitation",
    "final_address": "750 S Norman C Francis Prkwy",
    "address_councildis": "B",
    "status": "Assigned to Contractor",
    "contractor": "Richards Disposal",
    "rowid": "906293",
    "final_x": "3671632.49409",
    "final_y": "534352.496773",
    "longitude": "-90.09913208549945",
    "latitude": "29.96358001928335",
    "geocoded_column": {
      "latitude": "29.96358001928335",
      "longitude": "-90.09913208549945"
    }
  },
  {
    "service_request": "2022-906292",
    "request_type": "Trash/Recycling",
    "request_reason": "Request a Large Item Pick Up",
    "date_created": "2022-08-03T15:51:15.000",
    "date_modified": "2022-08-03T15:51:16.000",
    "request_status": "Pending",
    "responsible_agency": "Department of Sanitation",
    "final_address": "71 Lakewood Estates Dr",
    "address_councildis": "C",
    "status": "Assigned to Contractor",
    "contractor": "Richards Disposal",
    "rowid": "906292",
    "final_x": "3701618.11364",
    "final_y": "512636.146673",
    "longitude": "-90.00523612556628",
    "latitude": "29.90294546238684",
    "geocoded_column": {
      "latitude": "29.90294546238684",
      "longitude": "-90.00523612556628"
    }
  },
  {
    "service_request": "2022-906291",
    "request_type": "Trash/Recycling",
    "request_reason": "Request a Large Item Pick Up",
    "date_created": "2022-08-03T15:50:16.000",
    "date_modified": "2022-08-03T15:50:17.000",
    "request_status": "Pending",
    "responsible_agency": "Department of Sanitation",
    "final_address": "6402 Franklin Ave",
    "address_councildis": "D",
    "status": "Assigned to Contractor",
    "contractor": "Metro Disposal",
    "rowid": "906291",
    "final_x": "3686209.67132",
    "final_y": "556796.788634",
    "longitude": "-90.05230659345769",
    "latitude": "30.024853990896105",
    "geocoded_column": {
      "latitude": "30.024853990896105",
      "longitude": "-90.05230659345769"
    }
  },
  {
    "service_request": "2022-906290",
    "request_type": "Traffic Signals/Signs/Striping/Streetlights",
    "request_reason": "Street Light Outage/Malfunction",
    "date_created": "2022-08-03T15:39:46.000",
    "date_modified": "2022-08-03T15:39:47.000",
    "request_status": "Pending",
    "responsible_agency": "Department of Public Works",
    "final_address": "9214 Stroelitz St",
    "address_councildis": "A",
    "status": "Pending",
    "contractor": "Royal Engineering",
    "rowid": "906290",
    "final_x": "3664909.5449",
    "final_y": "537588.452424",
    "longitude": "-90.1202543633635",
    "latitude": "29.972675229171315",
    "geocoded_column": {
      "latitude": "29.972675229171315",
      "longitude": "-90.1202543633635"
    }
  },
  {
    "service_request": "2022-906289",
    "request_type": "Property Maintenance",
    "request_reason": "Property Maintenance",
    "date_created": "2022-08-03T15:37:45.000",
    "date_modified": "2022-08-03T15:52:45.000",
    "case_close_date": "2022-08-03T10:52:45.000",
    "request_status": "Closed",
    "responsible_agency": "Department of Code Enforcement",
    "final_address": "8118 Burthe St, New Orleans, Louisiana, 70118",
    "address_councildis": "A",
    "status": "Referred to Code Enforcement",
    "rowid": "906289",
    "final_x": "3661126.08256",
    "final_y": "527665.425983",
    "longitude": "-90.1325317161274",
    "latitude": "29.945499715085198",
    "geocoded_column": {
      "latitude": "29.945499715085198",
      "longitude": "-90.1325317161274"
    }
  },
  {
    "service_request": "2022-906288",
    "request_type": "Roads/Drainage",
    "request_reason": "Pothole",
    "date_created": "2022-08-03T15:35:21.000",
    "date_modified": "2022-08-03T15:35:21.000",
    "request_status": "Pending",
    "responsible_agency": "Department of Public Works",
    "final_address": "901 Louisiana Ave, New Orleans, Louisiana, 70115",
    "address_councildis": "B",
    "status": "Pending",
    "rowid": "906288",
    "final_x": "3675422.73825",
    "final_y": "519039.790391",
    "longitude": "-90.08768855363991",
    "latitude": "29.921362317040032",
    "geocoded_column": {
      "latitude": "29.921362317040032",
      "longitude": "-90.08768855363991"
    }
  },
  {
    "service_request": "2022-906287",
    "request_type": "Trash/Recycling",
    "request_reason": "Request a Large Item Pick Up",
    "date_created": "2022-08-03T15:34:22.000",
    "date_modified": "2022-08-03T15:34:23.000",
    "request_status": "Pending",
    "responsible_agency": "Department of Sanitation",
    "final_address": "3515 N Claiborne Ave",
    "address_councildis": "D",
    "status": "Assigned to Contractor",
    "contractor": "Metro Disposal",
    "rowid": "906287",
    "final_x": "3691060.39894",
    "final_y": "537543.223688",
    "longitude": "-90.03766707434649",
    "latitude": "29.9717636988118",
    "geocoded_column": {
      "latitude": "29.9717636988118",
      "longitude": "-90.03766707434649"
    }
  },
  {
    "service_request": "2022-906286",
    "request_type": "Property Maintenance",
    "request_reason": "Property Maintenance",
    "date_created": "2022-08-03T15:31:30.000",
    "date_modified": "2022-08-03T16:02:42.000",
    "case_close_date": "2022-08-03T11:02:42.000",
    "request_status": "Closed",
    "responsible_agency": "Department of Code Enforcement",
    "final_address": "11700 Morrison Rd",
    "address_councildis": "E",
    "status": "Referred to Code Enforcement",
    "rowid": "906286",
    "final_x": "3713226.46795",
    "final_y": "566298.776355",
    "longitude": "-89.96658072710648",
    "latitude": "30.050122471734742",
    "geocoded_column": {
      "latitude": "30.050122471734742",
      "longitude": "-89.96658072710648"
    }
  },
  {
    "service_request": "2022-906285",
    "request_type": "Trash/Recycling",
    "request_reason": "Order Trash Cart",
    "date_created": "2022-08-03T15:30:26.000",
    "date_modified": "2022-08-03T15:30:27.000",
    "request_status": "Pending",
    "responsible_agency": "Department of Sanitation",
    "final_address": "1301 Milton St",
    "address_councildis": "D",
    "status": "Assigned to Contractor",
    "contractor": "Metro Disposal",
    "rowid": "906285",
    "final_x": "3677414.59848",
    "final_y": "546108.045456",
    "longitude": "-90.08046689136447",
    "latitude": "29.995731205005153",
    "geocoded_column": {
      "latitude": "29.995731205005153",
      "longitude": "-90.08046689136447"
    }
  },
  {
    "service_request": "2022-906283",
    "request_type": "Traffic Signals/Signs/Striping/Streetlights",
    "request_reason": "Traffic Sign Missing/Damaged",
    "date_created": "2022-08-03T15:22:39.000",
    "date_modified": "2022-08-03T16:59:43.000",
    "case_close_date": "2022-08-02T19:00:00.000",
    "request_status": "Pending",
    "responsible_agency": "Department of Public Works",
    "final_address": "Riviera Ave, New Orleans, Louisiana, 70122",
    "address_councildis": "D",
    "rowid": "906283",
    "final_x": "3677738.9",
    "final_y": "550862.58",
    "longitude": "-90.07927807449938",
    "latitude": "30.008794734092827",
    "geocoded_column": {
      "latitude": "30.008794734092827",
      "longitude": "-90.07927807449938"
    }
  },
  {
    "service_request": "2022-906282",
    "request_type": "Trash/Recycling",
    "request_reason": "Replace Trash Cart",
    "date_created": "2022-08-03T15:21:19.000",
    "date_modified": "2022-08-03T15:21:20.000",
    "request_status": "Pending",
    "responsible_agency": "Department of Sanitation",
    "final_address": "3608 Baronne St",
    "address_councildis": "B",
    "status": "Assigned to Contractor",
    "contractor": "Richards Disposal",
    "rowid": "906282",
    "final_x": "3673168.00872",
    "final_y": "521903.555386",
    "longitude": "-90.09470803968412",
    "latitude": "29.929303956761252",
    "geocoded_column": {
      "latitude": "29.929303956761252",
      "longitude": "-90.09470803968412"
    }
  },
  {
    "service_request": "2022-906281",
    "request_type": "Trash/Recycling",
    "request_reason": "Illegal Dumping",
    "date_created": "2022-08-03T15:18:22.000",
    "date_modified": "2022-08-03T15:18:22.000",
    "request_status": "Pending",
    "responsible_agency": "Department of Sanitation",
    "final_address": "5649 Tullis Dr",
    "address_councildis": "C",
    "status": "Pending",
    "rowid": "906281",
    "final_x": "3704975.02775",
    "final_y": "512396.742193",
    "longitude": "-89.99465069064544",
    "latitude": "29.90217976870583",
    "geocoded_column": {
      "latitude": "29.90217976870583",
      "longitude": "-89.99465069064544"
    }
  },
  {
    "service_request": "2022-906280",
    "request_type": "Trash/Recycling",
    "request_reason": "Repair Trash Cart",
    "date_created": "2022-08-03T15:14:03.000",
    "date_modified": "2022-08-03T16:53:34.000",
    "request_status": "Pending",
    "responsible_agency": "Department of Sanitation",
    "final_address": "New Orleans,LA",
    "address_councildis": "A",
    "status": "Assigned to Contractor",
    "contractor": "Richards Disposal",
    "rowid": "906280",
    "final_x": "3665292.21504",
    "final_y": "523816.947963",
    "longitude": "-90.1195065515265",
    "latitude": "29.934796924848385",
    "geocoded_column": {
      "latitude": "29.934796924848385",
      "longitude": "-90.1195065515265"
    }
  },
  {
    "service_request": "2022-906279",
    "request_type": "Traffic Signals/Signs/Striping/Streetlights",
    "request_reason": "Traffic Signal Malfunctioning/Damaged",
    "date_created": "2022-08-03T15:13:12.000",
    "date_modified": "2022-08-03T15:13:14.000",
    "request_status": "Pending",
    "responsible_agency": "Department of Public Works",
    "final_address": "JULIA ST & MAGAZINE ST",
    "address_councildis": "B",
    "status": "Pending",
    "rowid": "906279",
    "final_x": "3681185.3",
    "final_y": "527834.78",
    "longitude": "-90.06919241020636",
    "latitude": "29.94537212062184",
    "geocoded_column": {
      "latitude": "29.94537212062184",
      "longitude": "-90.06919241020636"
    }
  },
  {
    "service_request": "2022-906277",
    "request_type": "Abandoned Vehicles",
    "request_reason": "Abandoned/Junk Vehicles",
    "date_created": "2022-08-03T15:09:26.000",
    "date_modified": "2022-08-03T15:09:27.000",
    "request_status": "Pending",
    "responsible_agency": "Department of Public Works",
    "final_address": "ST ANTHONY AVE & ROBERT E LEE BLVD",
    "address_councildis": "D",
    "status": "Pending",
    "rowid": "906277",
    "final_x": "3681973.2",
    "final_y": "555645.28",
    "longitude": "-90.06573338912385",
    "latitude": "30.021817315420137",
    "geocoded_column": {
      "latitude": "30.021817315420137",
      "longitude": "-90.06573338912385"
    }
  },
  {
    "service_request": "2022-906276",
    "request_type": "Trash/Recycling",
    "request_reason": "Request a Large Item Pick Up",
    "date_created": "2022-08-03T15:06:24.000",
    "date_modified": "2022-08-03T15:06:25.000",
    "request_status": "Pending",
    "responsible_agency": "Department of Sanitation",
    "final_address": "209 34th St, New Orleans, Louisiana, 70124",
    "address_councildis": "A",
    "status": "Assigned to Contractor",
    "contractor": "Metro Disposal",
    "rowid": "906276",
    "final_x": "3665580.81165",
    "final_y": "551392.748373",
    "longitude": "-90.11767184036836",
    "latitude": "30.01061278541581",
    "geocoded_column": {
      "latitude": "30.01061278541581",
      "longitude": "-90.11767184036836"
    }
  },
  {
    "service_request": "2022-906275",
    "request_type": "Roads/Drainage",
    "request_reason": "Street Flooding / Drainage",
    "date_created": "2022-08-03T15:06:19.000",
    "date_modified": "2022-08-03T15:06:19.000",
    "request_status": "Pending",
    "responsible_agency": "Department of Public Works",
    "final_address": "1831 Elysian Fields Ave",
    "address_councildis": "D",
    "status": "Pending",
    "rowid": "906275",
    "final_x": "3684902.29218",
    "final_y": "539119.222666",
    "longitude": "-90.0570598563659",
    "latitude": "29.976287175785025",
    "geocoded_column": {
      "latitude": "29.976287175785025",
      "longitude": "-90.0570598563659"
    }
  },
  {
    "service_request": "2022-906274",
    "request_type": "Trash/Recycling",
    "request_reason": "Request a Large Item Pick Up",
    "date_created": "2022-08-03T15:04:32.000",
    "date_modified": "2022-08-03T15:04:33.000",
    "request_status": "Pending",
    "responsible_agency": "Department of Sanitation",
    "final_address": "209 34th St, New Orleans, Louisiana, 70124",
    "address_councildis": "A",
    "status": "Assigned to Contractor",
    "contractor": "Metro Disposal",
    "rowid": "906274",
    "final_x": "3665580.81165",
    "final_y": "551392.748373",
    "longitude": "-90.11767184036836",
    "latitude": "30.01061278541581",
    "geocoded_column": {
      "latitude": "30.01061278541581",
      "longitude": "-90.11767184036836"
    }
  },
  {
    "service_request": "2022-906273",
    "request_type": "Trash/Recycling",
    "request_reason": "Missed Trash Pick-Up",
    "date_created": "2022-08-03T14:57:56.000",
    "date_modified": "2022-08-03T14:57:57.000",
    "request_status": "Pending",
    "responsible_agency": "Department of Sanitation",
    "final_address": "1525 Aline St",
    "address_councildis": "B",
    "status": "Assigned to Contractor",
    "contractor": "Richards Disposal",
    "rowid": "906273",
    "final_x": "3673918.5972",
    "final_y": "521084.039097",
    "longitude": "-90.09236658799759",
    "latitude": "29.927028220068124",
    "geocoded_column": {
      "latitude": "29.927028220068124",
      "longitude": "-90.09236658799759"
    }
  },
  {
    "service_request": "2022-906272",
    "request_type": "Roads/Drainage",
    "request_reason": "Pothole",
    "date_created": "2022-08-03T14:49:49.000",
    "date_modified": "2022-08-03T14:49:49.000",
    "request_status": "Pending",
    "responsible_agency": "Department of Public Works",
    "final_address": "456 Audubon St",
    "address_councildis": "A",
    "status": "Pending",
    "rowid": "906272",
    "final_x": "3662378.33114",
    "final_y": "523439.967355",
    "longitude": "-90.12871819715049",
    "latitude": "29.93384490175097",
    "geocoded_column": {
      "latitude": "29.93384490175097",
      "longitude": "-90.12871819715049"
    }
  },
  {
    "service_request": "2022-906271",
    "request_type": "Trash/Recycling",
    "request_reason": "Request a Large Item Pick Up",
    "date_created": "2022-08-03T14:47:46.000",
    "date_modified": "2022-08-03T14:47:46.000",
    "request_status": "Pending",
    "responsible_agency": "Department of Sanitation",
    "final_address": "2300 General Pershing St",
    "address_councildis": "B",
    "status": "Assigned to Contractor",
    "contractor": "Richards Disposal",
    "rowid": "906271",
    "final_x": "3670956.05761",
    "final_y": "523419.928827",
    "longitude": "-90.10163931360023",
    "latitude": "29.933539057518978",
    "geocoded_column": {
      "latitude": "29.933539057518978",
      "longitude": "-90.10163931360023"
    }
  },
  {
    "service_request": "2022-906270",
    "request_type": "Property Maintenance",
    "request_reason": "Property Maintenance",
    "date_created": "2022-08-03T14:45:57.000",
    "date_modified": "2022-08-03T14:49:42.000",
    "case_close_date": "2022-08-03T09:49:42.000",
    "request_status": "Closed",
    "responsible_agency": "Department of Code Enforcement",
    "final_address": "6700 Cindy Pl",
    "address_councildis": "E",
    "status": "Referred to Code Enforcement",
    "rowid": "906270",
    "final_x": "3707199.446",
    "final_y": "558627.075036",
    "longitude": "-89.98591491844806",
    "latitude": "30.02922462809095",
    "geocoded_column": {
      "latitude": "30.02922462809095",
      "longitude": "-89.98591491844806"
    }
  },
  {
    "service_request": "2022-906269",
    "request_type": "Trash/Recycling",
    "request_reason": "Order Recycling Cart",
    "date_created": "2022-08-03T14:44:32.000",
    "date_modified": "2022-08-03T14:44:32.000",
    "request_status": "Pending",
    "responsible_agency": "Department of Sanitation",
    "final_address": "1907 Marengo St",
    "address_councildis": "B",
    "status": "Pending",
    "rowid": "906269",
    "final_x": "3671904.87297",
    "final_y": "522148.071738",
    "longitude": "-90.09868721255789",
    "latitude": "29.930013782239445",
    "geocoded_column": {
      "latitude": "29.930013782239445",
      "longitude": "-90.09868721255789"
    }
  },
  {
    "service_request": "2022-906267",
    "request_type": "Trash/Recycling",
    "request_reason": "Order Recycling Cart",
    "date_created": "2022-08-03T14:43:46.000",
    "date_modified": "2022-08-03T14:43:47.000",
    "request_status": "Pending",
    "responsible_agency": "Department of Sanitation",
    "final_address": "1907 Marengo St",
    "address_councildis": "B",
    "status": "Pending",
    "rowid": "906267",
    "final_x": "3671904.87297",
    "final_y": "522148.071738",
    "longitude": "-90.09868721255789",
    "latitude": "29.930013782239445",
    "geocoded_column": {
      "latitude": "29.930013782239445",
      "longitude": "-90.09868721255789"
    }
  },
  {
    "service_request": "2022-906266",
    "request_type": "Roads/Drainage",
    "request_reason": "Street Flooding / Drainage",
    "date_created": "2022-08-03T14:43:06.000",
    "date_modified": "2022-08-03T14:43:06.000",
    "request_status": "Pending",
    "responsible_agency": "Department of Public Works",
    "final_address": "1600 Poydras St",
    "address_councildis": "B",
    "status": "Pending",
    "rowid": "906266",
    "final_x": "3677475.02587",
    "final_y": "530222.841729",
    "longitude": "-90.0808245197731",
    "latitude": "29.95205052631306",
    "geocoded_column": {
      "latitude": "29.95205052631306",
      "longitude": "-90.0808245197731"
    }
  },
  {
    "service_request": "2022-906265",
    "request_type": "Trash/Recycling",
    "request_reason": "Missed Trash Pick-Up",
    "date_created": "2022-08-03T14:41:09.000",
    "date_modified": "2022-08-03T14:41:10.000",
    "request_status": "Pending",
    "responsible_agency": "Department of Sanitation",
    "final_address": "2020 Burdette St",
    "address_councildis": "A",
    "status": "Assigned to Contractor",
    "contractor": "Richards Disposal",
    "rowid": "906265",
    "final_x": "3664785.72954",
    "final_y": "529852.574657",
    "longitude": "-90.12090390821015",
    "latitude": "29.95140770582443",
    "geocoded_column": {
      "latitude": "29.95140770582443",
      "longitude": "-90.12090390821015"
    }
  },
  {
    "service_request": "2022-906264",
    "request_type": "Trash/Recycling",
    "request_reason": "Order Trash Cart",
    "date_created": "2022-08-03T14:40:14.000",
    "date_modified": "2022-08-03T14:40:15.000",
    "request_status": "Pending",
    "responsible_agency": "Department of Sanitation",
    "final_address": "337 W Harrison Ave",
    "address_councildis": "A",
    "status": "Assigned to Contractor",
    "contractor": "Metro Disposal",
    "rowid": "906264",
    "final_x": "3664875.75162",
    "final_y": "549753.209876",
    "longitude": "-90.11995425843251",
    "latitude": "30.00612517239918",
    "geocoded_column": {
      "latitude": "30.00612517239918",
      "longitude": "-90.11995425843251"
    }
  },
  {
    "service_request": "2022-906263",
    "request_type": "Roads/Drainage",
    "request_reason": "Catch Basin - Clogged",
    "date_created": "2022-08-03T14:36:38.000",
    "date_modified": "2022-08-03T14:36:38.000",
    "request_status": "Pending",
    "responsible_agency": "Department of Public Works",
    "final_address": "1400 Poydras St",
    "address_councildis": "B",
    "status": "Pending",
    "rowid": "906263",
    "final_x": "3678328.17621",
    "final_y": "529924.516801",
    "longitude": "-90.07814098915847",
    "latitude": "29.951204562520278",
    "geocoded_column": {
      "latitude": "29.951204562520278",
      "longitude": "-90.07814098915847"
    }
  },
  {
    "service_request": "2022-906262",
    "request_type": "Trash/Recycling",
    "request_reason": "Request a Large Item Pick Up",
    "date_created": "2022-08-03T14:35:05.000",
    "date_modified": "2022-08-03T14:35:06.000",
    "request_status": "Pending",
    "responsible_agency": "Department of Sanitation",
    "final_address": "632 Ninth St",
    "address_councildis": "B",
    "status": "Assigned to Contractor",
    "contractor": "Richards Disposal",
    "rowid": "906262",
    "final_x": "3676684.36718",
    "final_y": "518735.275703",
    "longitude": "-90.0837166256185",
    "latitude": "29.92048722719636",
    "geocoded_column": {
      "latitude": "29.92048722719636",
      "longitude": "-90.0837166256185"
    }
  },
  {
    "service_request": "2022-906261",
    "request_type": "Abandoned Vehicles",
    "request_reason": "Abandoned/Junk Vehicles",
    "date_created": "2022-08-03T14:32:47.000",
    "date_modified": "2022-08-03T14:39:12.000",
    "request_status": "Pending",
    "responsible_agency": "Department of Public Works",
    "final_address": "1306 Pacific Ave",
    "address_councildis": "C",
    "status": "Pending",
    "rowid": "906261",
    "final_x": "3688412.09839",
    "final_y": "526698.078462",
    "longitude": "-90.0464154699488",
    "latitude": "29.942025371308386",
    "geocoded_column": {
      "latitude": "29.942025371308386",
      "longitude": "-90.0464154699488"
    }
  },
  {
    "service_request": "2022-906260",
    "request_type": "Trash/Recycling",
    "request_reason": "Request a Large Item Pick Up",
    "date_created": "2022-08-03T14:31:18.000",
    "date_modified": "2022-08-03T14:31:19.000",
    "request_status": "Pending",
    "responsible_agency": "Department of Sanitation",
    "final_address": "415 Socrates St, New Orleans, Louisiana, 70114",
    "address_councildis": "C",
    "status": "Assigned to Contractor",
    "contractor": "Richards Disposal",
    "rowid": "906260",
    "final_x": "3686807.14178",
    "final_y": "526355.438462",
    "longitude": "-90.05149475108507",
    "latitude": "29.941132694045432",
    "geocoded_column": {
      "latitude": "29.941132694045432",
      "longitude": "-90.05149475108507"
    }
  },
  {
    "service_request": "2022-906259",
    "request_type": "Trash/Recycling",
    "request_reason": "Request a Large Item Pick Up",
    "date_created": "2022-08-03T14:27:43.000",
    "date_modified": "2022-08-03T14:27:44.000",
    "request_status": "Pending",
    "responsible_agency": "Department of Sanitation",
    "final_address": "3314 Constance St",
    "address_councildis": "B",
    "status": "Assigned to Contractor",
    "contractor": "Richards Disposal",
    "rowid": "906259",
    "final_x": "3675431.99016",
    "final_y": "519359.984631",
    "longitude": "-90.08764836156823",
    "latitude": "29.922242471662983",
    "geocoded_column": {
      "latitude": "29.922242471662983",
      "longitude": "-90.08764836156823"
    }
  },
  {
    "service_request": "2022-906258",
    "request_type": "Trash/Recycling",
    "request_reason": "Illegal Dumping",
    "date_created": "2022-08-03T14:25:55.000",
    "date_modified": "2022-08-03T14:25:55.000",
    "request_status": "Pending",
    "responsible_agency": "Department of Sanitation",
    "final_address": "9241 Dwyer Rd",
    "address_councildis": "E",
    "status": "Pending",
    "rowid": "906258",
    "final_x": "3708928.86635",
    "final_y": "557159.797787",
    "longitude": "-89.98050478629922",
    "latitude": "30.025134160053984",
    "geocoded_column": {
      "latitude": "30.025134160053984",
      "longitude": "-89.98050478629922"
    }
  },
  {
    "service_request": "2022-906257",
    "request_type": "Trash/Recycling",
    "request_reason": "Replace Trash Cart",
    "date_created": "2022-08-03T14:24:51.000",
    "date_modified": "2022-08-03T14:36:38.000",
    "request_status": "Pending",
    "responsible_agency": "Department of Sanitation",
    "final_address": "1826 Fern St",
    "address_councildis": "A",
    "status": "Assigned to Contractor",
    "contractor": "Richards Disposal",
    "rowid": "906257",
    "final_x": "3664069.21357",
    "final_y": "529600.574273",
    "longitude": "-90.12317472870518",
    "latitude": "29.95073561350452",
    "geocoded_column": {
      "latitude": "29.95073561350452",
      "longitude": "-90.12317472870518"
    }
  },
  {
    "service_request": "2022-906256",
    "request_type": "Trash/Recycling",
    "request_reason": "Request a Large Item Pick Up",
    "date_created": "2022-08-03T14:22:50.000",
    "date_modified": "2022-08-03T14:22:51.000",
    "request_status": "Pending",
    "responsible_agency": "Department of Sanitation",
    "final_address": "1222 Frenchmen St",
    "address_councildis": "C",
    "status": "Assigned to Contractor",
    "contractor": "Metro Disposal",
    "rowid": "906256",
    "final_x": "3684510.02377",
    "final_y": "536832.931464",
    "longitude": "-90.05837909912964",
    "latitude": "29.97001267975877",
    "geocoded_column": {
      "latitude": "29.97001267975877",
      "longitude": "-90.05837909912964"
    }
  },
  {
    "service_request": "2022-906255",
    "request_type": "Abandoned Vehicles",
    "request_reason": "Abandoned/Junk Vehicles",
    "date_created": "2022-08-03T14:20:12.000",
    "date_modified": "2022-08-03T14:20:12.000",
    "request_status": "Pending",
    "responsible_agency": "Department of Public Works",
    "final_address": "13123 N Interstate 10 Service Rd",
    "address_councildis": "E",
    "status": "Pending",
    "rowid": "906255",
    "final_x": "3718298.12172",
    "final_y": "567913.663269",
    "longitude": "-89.9504896729805",
    "latitude": "30.054395433243684",
    "geocoded_column": {
      "latitude": "30.054395433243684",
      "longitude": "-89.9504896729805"
    }
  },
  {
    "service_request": "2022-906254",
    "request_type": "Traffic Signals/Signs/Striping/Streetlights",
    "request_reason": "Street Light Outage/Malfunction",
    "date_created": "2022-08-03T14:16:59.000",
    "date_modified": "2022-08-03T14:17:00.000",
    "request_status": "Pending",
    "responsible_agency": "Department of Public Works",
    "final_address": "2446 Mercedes Blvd",
    "address_councildis": "C",
    "status": "Pending",
    "contractor": "Royal Engineering",
    "rowid": "906254",
    "final_x": "3698128.25962",
    "final_y": "521986.932986",
    "longitude": "-90.01591066463432",
    "latitude": "29.928767718618168",
    "geocoded_column": {
      "latitude": "29.928767718618168",
      "longitude": "-90.01591066463432"
    }
  },
  {
    "service_request": "2022-906253",
    "request_type": "Roads/Drainage",
    "request_reason": "Accessibility Ramps, Curbs and Sidewalk Repair",
    "date_created": "2022-08-03T14:16:33.000",
    "date_modified": "2022-08-03T14:16:33.000",
    "request_status": "Pending",
    "responsible_agency": "Department of Public Works",
    "final_address": "5700 Crowder Blvd",
    "address_councildis": "E",
    "status": "Pending",
    "rowid": "906253",
    "final_x": "3705062.42065",
    "final_y": "557854.943195",
    "longitude": "-89.99269635649384",
    "latitude": "30.02717049048631",
    "geocoded_column": {
      "latitude": "30.02717049048631",
      "longitude": "-89.99269635649384"
    }
  },
  {
    "service_request": "2022-906252",
    "request_type": "Trash/Recycling",
    "request_reason": "Replace Trash Cart",
    "date_created": "2022-08-03T14:15:05.000",
    "date_modified": "2022-08-03T14:15:06.000",
    "request_status": "Pending",
    "responsible_agency": "Department of Sanitation",
    "final_address": "1225 Leonidas St, New Orleans, Louisiana, 70118",
    "address_councildis": "A",
    "status": "Assigned to Contractor",
    "contractor": "Richards Disposal",
    "rowid": "906252",
    "final_x": "3660828.70291",
    "final_y": "529708.553857",
    "longitude": "-90.13340309161296",
    "latitude": "29.9511262297782",
    "geocoded_column": {
      "latitude": "29.9511262297782",
      "longitude": "-90.13340309161296"
    }
  },
  {
    "service_request": "2022-906251",
    "request_type": "Roads/Drainage",
    "request_reason": "Accessibility Ramps, Curbs and Sidewalk Repair",
    "date_created": "2022-08-03T14:13:24.000",
    "date_modified": "2022-08-03T14:13:24.000",
    "request_status": "Pending",
    "responsible_agency": "Department of Public Works",
    "final_address": "5700 Read Blvd",
    "address_councildis": "E",
    "status": "Pending",
    "rowid": "906251",
    "final_x": "3710002.44875",
    "final_y": "560091.278045",
    "longitude": "-89.97700281937084",
    "latitude": "30.033159679139082",
    "geocoded_column": {
      "latitude": "30.033159679139082",
      "longitude": "-89.97700281937084"
    }
  },
  {
    "service_request": "2022-906250",
    "request_type": "Trash/Recycling",
    "request_reason": "Repair Recycling Cart",
    "date_created": "2022-08-03T14:13:00.000",
    "date_modified": "2022-08-03T14:13:00.000",
    "request_status": "Pending",
    "responsible_agency": "Department of Sanitation",
    "final_address": "836 Toledano St",
    "address_councildis": "B",
    "status": "Pending",
    "rowid": "906250",
    "final_x": "3675641.94555",
    "final_y": "519028.940663",
    "longitude": "-90.0869969843622",
    "latitude": "29.92132592946336",
    "geocoded_column": {
      "latitude": "29.92132592946336",
      "longitude": "-90.0869969843622"
    }
  },
  {
    "service_request": "2022-906248",
    "request_type": "Abandoned Vehicles",
    "request_reason": "Abandoned/Junk Vehicles",
    "date_created": "2022-08-03T14:09:29.000",
    "date_modified": "2022-08-03T14:09:29.000",
    "request_status": "Pending",
    "responsible_agency": "Department of Public Works",
    "final_address": "301 N Claiborne Ave",
    "address_councildis": "B",
    "status": "Pending",
    "rowid": "906248",
    "final_x": "3678827.7467",
    "final_y": "533535.966853",
    "longitude": "-90.07643850952215",
    "latitude": "29.961119775816208",
    "geocoded_column": {
      "latitude": "29.961119775816208",
      "longitude": "-90.07643850952215"
    }
  },
  {
    "service_request": "2022-906247",
    "request_type": "Traffic Signals/Signs/Striping/Streetlights",
    "request_reason": "Street Light Outage/Malfunction",
    "date_created": "2022-08-03T14:06:51.000",
    "date_modified": "2022-08-03T14:06:52.000",
    "request_status": "Pending",
    "responsible_agency": "Department of Public Works",
    "final_address": "5030 Warren Dr",
    "address_councildis": "E",
    "status": "Pending",
    "contractor": "Royal Engineering",
    "rowid": "906247",
    "final_x": "3713250.76875",
    "final_y": "557644.020507",
    "longitude": "-89.96683014478842",
    "latitude": "30.02632456974141",
    "geocoded_column": {
      "latitude": "30.02632456974141",
      "longitude": "-89.96683014478842"
    }
  },
  {
    "service_request": "2022-906246",
    "request_type": "Roads/Drainage",
    "request_reason": "Pothole",
    "date_created": "2022-08-03T14:04:08.000",
    "date_modified": "2022-08-03T14:04:08.000",
    "request_status": "Pending",
    "responsible_agency": "Department of Public Works",
    "final_address": "1400 BLK Piety St",
    "address_councildis": "C",
    "status": "Pending",
    "rowid": "906246",
    "final_x": "3690161.44083",
    "final_y": "537090.768126",
    "longitude": "-90.04052223564028",
    "latitude": "29.97054752518818",
    "geocoded_column": {
      "latitude": "29.97054752518818",
      "longitude": "-90.04052223564028"
    }
  },