[
  {
    "service_request": "2024-1148145",
    "request_type": "Street and Traffic Signs",
    "request_reason": "Street Name Sign Damaged or Missing",
    "date_created": "2024-11-12T22:43:25.000",
    "date_modified": "2024-11-12T22:43:25.000",
    "request_status": "Pending",
    "responsible_agency": "Department of Public Works",
    "final_address": "South Genois Street & Tulane Avenue",
    "address_councildis": "B",
    "status": "Pending",
    "rowid": "1148145",
    "final_x": "3671200.08846",
    "final_y": "535354.334534",
    "longitude": "-90.10046354073366",
    "latitude": "29.96634753774554",
    "geocoded_column": {
      "latitude": "29.96634753774554",
      "longitude": "-90.10046354073366"
    }
  },
  {
    "service_request": "2024-1148144",
    "request_type": "Roads and Streets",
    "request_reason": "Pothole",
    "date_created": "2024-11-12T22:38:04.000",
    "date_modified": "2024-11-12T22:38:04.000",
    "request_status": "Pending",
    "responsible_agency": "Department of Public Works",
    "final_address": "1923 Columbus St",
    "address_councildis": "D",
    "status": "Pending",
    "rowid": "1148144",
    "final_x": "3680743.09832",
    "final_y": "537986.921737",
    "longitude": "-90.07023524458833",
    "latitude": "29.973300466117706",
    "geocoded_column": {
      "latitude": "29.973300466117706",
      "longitude": "-90.07023524458833"
    }
  },
  {
    "service_request": "2024-1148143",
    "request_type": "Street and Traffic Signs",
    "request_reason": "Street Name Sign Damaged or Missing",
    "date_created": "2024-11-12T22:32:57.000",
    "date_modified": "2024-11-12T22:32:57.000",
    "request_status": "Pending",
    "responsible_agency": "Department of Public Works",
    "final_address": "GENERAL TAYLOR & WILLOW ST",
    "address_councildis": "B",
    "status": "Pending",
    "rowid": "1148143",
    "final_x": "3671575.6",
    "final_y": "525553.58",
    "longitude": "-90.0996109233008",
    "latitude": "29.939387581170305",
    "geocoded_column": {
      "latitude": "29.939387581170305",
      "longitude": "-90.0996109233008"
    }
  },
  {
    "service_request": "2024-1148142",
    "request_type": "Street and Traffic Signs",
    "request_reason": "Street Name Sign Damaged or Missing",
    "date_created": "2024-11-12T22:32:22.000",
    "date_modified": "2024-11-12T22:32:22.000",
    "request_status": "Pending",
    "responsible_agency": "Department of Public Works",
    "final_address": "CADIZ ST & WILLOW ST",
    "address_councildis": "B",
    "status": "Pending",
    "rowid": "1148142",
    "final_x": "3669647.6",
    "final_y": "525366.58",
    "longitude": "-90.10570421317037",
    "latitude": "29.938930330416248",
    "geocoded_column": {
      "latitude": "29.938930330416248",
      "longitude": "-90.10570421317037"
    }
  },
  {
    "service_request": "2024-1148141",
    "request_type": "Streetlights",
    "request_reason": "Streetlight Outage/Malfunction",
    "date_created": "2024-11-12T21:40:12.000",
    "date_modified": "2024-11-12T21:40:13.000",
    "request_status": "Pending",
    "responsible_agency": "Department of Public Works",
    "final_address": "6970 Vicksburg St",
    "address_councildis": "A",
    "status": "Pending",
    "contractor": "Legacy Professional Services",
    "rowid": "1148141",
    "final_x": "3669377.21722",
    "final_y": "553859.418903",
    "longitude": "-90.10559399711593",
    "latitude": "30.017283964124235",
    "geocoded_column": {
      "latitude": "30.017283964124235",
      "longitude": "-90.10559399711593"
    }
  },
  {
    "service_request": "2024-1148140",
    "request_type": "Trash/Recycling",
    "request_reason": "Replace Trash Cart",
    "date_created": "2024-11-12T21:16:07.000",
    "date_modified": "2024-11-12T21:16:08.000",
    "request_status": "Pending",
    "responsible_agency": "Department of Sanitation",
    "final_address": "5529 Willow St",
    "address_councildis": "A",
    "status": "Assigned to Contractor",
    "contractor": "IV Waste",
    "rowid": "1148140",
    "final_x": "3667664.09191",
    "final_y": "525459.809469",
    "longitude": "-90.11196326214862",
    "latitude": "29.939244965402906",
    "geocoded_column": {
      "latitude": "29.939244965402906",
      "longitude": "-90.11196326214862"
    }
  },
  {
    "service_request": "2024-1148139",
    "request_type": "Streetlights",
    "request_reason": "Streetlight Outage/Malfunction",
    "date_created": "2024-11-12T20:21:07.000",
    "date_modified": "2024-11-12T20:21:08.000",
    "request_status": "Pending",
    "responsible_agency": "Department of Public Works",
    "final_address": "3730 Clermont Dr",
    "address_councildis": "D",
    "status": "Pending",
    "contractor": "Legacy Professional Services",
    "rowid": "1148139",
    "final_x": "3685484.19375",
    "final_y": "546247.210512",
    "longitude": "-90.05497088191703",
    "latitude": "29.99586878063454",
    "geocoded_column": {
      "latitude": "29.99586878063454",
      "longitude": "-90.05497088191703"
    }
  },
  {
    "service_request": "2024-1148138",
    "request_type": "Trash/Recycling",
    "request_reason": "Request a Large Item Pick Up",
    "date_created": "2024-11-12T20:08:46.000",
    "date_modified": "2024-11-12T20:08:47.000",
    "request_status": "Pending",
    "responsible_agency": "Department of Sanitation",
    "final_address": "614 Esplanade Ave, New Orleans, Louisiana, 70116",
    "address_councildis": "C",
    "status": "Assigned to Contractor",
    "contractor": "Empire Services",
    "rowid": "1148138",
    "final_x": "3684193.25231",
    "final_y": "534226.798277",
    "longitude": "-90.05947099322388",
    "latitude": "29.962856401929088",
    "geocoded_column": {
      "latitude": "29.962856401929088",
      "longitude": "-90.05947099322388"
    }
  },
  {
    "service_request": "2024-1148137",
    "request_type": "Roads and Streets",
    "request_reason": "Abandoned Service Cut",
    "date_created": "2024-11-12T20:01:42.000",
    "date_modified": "2024-11-12T20:01:42.000",
    "request_status": "Pending",
    "responsible_agency": "Department of Public Works",
    "final_address": "1477 N Prieur St",
    "address_councildis": "D",
    "status": "Pending",
    "rowid": "1148137",
    "final_x": "3680799.63189",
    "final_y": "537801.444552",
    "longitude": "-90.07006315823145",
    "latitude": "29.97278875423917",
    "geocoded_column": {
      "latitude": "29.97278875423917",
      "longitude": "-90.07006315823145"
    }
  },
  {
    "service_request": "2024-1148136",
    "request_type": "Traffic Signals",
    "request_reason": "Traffic Signal Malfunctioning or Damaged",
    "date_created": "2024-11-12T20:00:19.000",
    "date_modified": "2024-11-12T20:00:19.000",
    "request_status": "Pending",
    "responsible_agency": "Department of Public Works",
    "final_address": "0 General De Gaulle Dr",
    "address_councildis": "C",
    "status": "Pending",
    "rowid": "1148136",
    "final_x": "3697018.31735",
    "final_y": "519731.228088",
    "longitude": "-90.01949615286618",
    "latitude": "29.922600343135908",
    "geocoded_column": {
      "latitude": "29.922600343135908",
      "longitude": "-90.01949615286618"
    }
  },
  {
    "service_request": "2024-1148135",
    "request_type": "Traffic Safety",
    "request_reason": "Request for Traffic Calming due to Speeding",
    "date_created": "2024-11-12T19:55:33.000",
    "date_modified": "2024-11-12T19:55:33.000",
    "request_status": "Pending",
    "responsible_agency": "Department of Public Works",
    "final_address": "1477 N Prieur St",
    "address_councildis": "D",
    "status": "Pending",
    "rowid": "1148135",
    "final_x": "3680799.63189",
    "final_y": "537801.444552",
    "longitude": "-90.07006315823145",
    "latitude": "29.97278875423917",
    "geocoded_column": {
      "latitude": "29.97278875423917",
      "longitude": "-90.07006315823145"
    }
  },
  {
    "service_request": "2024-1148134",
    "request_type": "General Services",
    "request_reason": "General Service Request",
    "date_created": "2024-11-12T19:50:19.000",
    "date_modified": "2024-11-12T19:50:19.000",
    "request_status": "Pending",
    "responsible_agency": "Orleans Parish Communication District",
    "final_address": "1700 BLK Opelousas Ave",
    "address_councildis": "C",
    "status": "Pending",
    "rowid": "1148134",
    "final_x": "3690703.49979",
    "final_y": "528964.315875",
    "longitude": "-90.03910023555949",
    "latitude": "29.948185784928498",
    "geocoded_column": {
      "latitude": "29.948185784928498",
      "longitude": "-90.03910023555949"
    }
  },
  {
    "service_request": "2024-1148133",
    "request_type": "Trash/Recycling",
    "request_reason": "Request a Large Item Pick Up",
    "date_created": "2024-11-12T19:45:29.000",
    "date_modified": "2024-11-12T19:45:30.000",
    "request_status": "Pending",
    "responsible_agency": "Department of Sanitation",
    "final_address": "4603 Arts St",
    "address_councildis": "D",
    "status": "Assigned to Contractor",
    "contractor": "IV Waste",
    "rowid": "1148133",
    "final_x": "3686075.61398",
    "final_y": "549639.599188",
    "longitude": "-90.05298289541811",
    "latitude": "30.00517846870325",
    "geocoded_column": {
      "latitude": "30.00517846870325",
      "longitude": "-90.05298289541811"
    }
  },
  {
    "service_request": "2024-1148132",
    "request_type": "Streetlights",
    "request_reason": "Streetlight Outage/Malfunction",
    "date_created": "2024-11-12T19:42:29.000",
    "date_modified": "2024-11-12T19:42:30.000",
    "request_status": "Pending",
    "responsible_agency": "Department of Public Works",
    "final_address": "4256 Joycelyn Dr",
    "address_councildis": "C",
    "status": "Pending",
    "contractor": "Legacy Professional Services",
    "rowid": "1148132",
    "final_x": "3708253.58347",
    "final_y": "515005.993971",
    "longitude": "-89.98420685859895",
    "latitude": "29.909248584565965",
    "geocoded_column": {
      "latitude": "29.909248584565965",
      "longitude": "-89.98420685859895"
    }
  },
  {
    "service_request": "2024-1148131",
    "request_type": "Streetlights",
    "request_reason": "Streetlight Outage/Malfunction",
    "date_created": "2024-11-12T19:40:26.000",
    "date_modified": "2024-11-12T19:40:27.000",
    "request_status": "Pending",
    "responsible_agency": "Department of Public Works",
    "final_address": "2757 Danbury Dr",
    "address_councildis": "C",
    "status": "Pending",
    "contractor": "Legacy Professional Services",
    "rowid": "1148131",
    "final_x": "3703588.9955",
    "final_y": "520521.711608",
    "longitude": "-89.99872624869938",
    "latitude": "29.924565102963733",
    "geocoded_column": {
      "latitude": "29.924565102963733",
      "longitude": "-89.99872624869938"
    }
  },
  {
    "service_request": "2024-1148130",
    "request_type": "Trash/Recycling",
    "request_reason": "Request a Large Item Pick Up",
    "date_created": "2024-11-12T19:20:18.000",
    "date_modified": "2024-11-12T19:20:19.000",
    "request_status": "Pending",
    "responsible_agency": "Department of Sanitation",
    "final_address": "528 Wilkinson St",
    "address_councildis": "C",
    "status": "Assigned to Contractor",
    "contractor": "Empire Services",
    "rowid": "1148130",
    "final_x": "3682813.99996",
    "final_y": "531969.598979",
    "longitude": "-90.06390545946424",
    "latitude": "29.956691965349734",
    "geocoded_column": {
      "latitude": "29.956691965349734",
      "longitude": "-90.06390545946424"
    }
  },
  {
    "service_request": "2024-1148129",
    "request_type": "Streetlights",
    "request_reason": "Streetlight Outage/Malfunction",
    "date_created": "2024-11-12T19:19:06.000",
    "date_modified": "2024-11-12T19:19:07.000",
    "request_status": "Pending",
    "responsible_agency": "Department of Public Works",
    "final_address": "4843 Camelot Dr",
    "address_councildis": "E",
    "status": "Pending",
    "contractor": "Legacy Professional Services",
    "rowid": "1148129",
    "final_x": "3708368.66443",
    "final_y": "556348.463258",
    "longitude": "-89.98230514893471",
    "latitude": "30.02292148108789",
    "geocoded_column": {
      "latitude": "30.02292148108789",
      "longitude": "-89.98230514893471"
    }
  },
  {
    "service_request": "2024-1148128",
    "request_type": "Streetlights",
    "request_reason": "Streetlight Outage/Malfunction",
    "date_created": "2024-11-12T18:37:51.000",
    "date_modified": "2024-11-12T18:37:52.000",
    "request_status": "Pending",
    "responsible_agency": "Department of Public Works",
    "final_address": "4429 S Liberty St",
    "address_councildis": "B",
    "status": "Pending",
    "contractor": "Legacy Professional Services",
    "rowid": "1148128",
    "final_x": "3670311.06625",
    "final_y": "523357.326459",
    "longitude": "-90.1036776423614",
    "latitude": "29.93338596936739",
    "geocoded_column": {
      "latitude": "29.93338596936739",
      "longitude": "-90.1036776423614"
    }
  },
  {
    "service_request": "2024-1148127",
    "request_type": "Streetlights",
    "request_reason": "Streetlight Outage/Malfunction",
    "date_created": "2024-11-12T18:29:34.000",
    "date_modified": "2024-11-12T18:29:35.000",
    "request_status": "Pending",
    "responsible_agency": "Department of Public Works",
    "final_address": "6600 Harbourview Dr",
    "address_councildis": "E",
    "status": "Pending",
    "contractor": "Legacy Professional Services",
    "rowid": "1148127",
    "final_x": "3699055.88125",
    "final_y": "555932.524185",
    "longitude": "-90.01174642384804",
    "latitude": "30.022076440689467",
    "geocoded_column": {
      "latitude": "30.022076440689467",
      "longitude": "-90.01174642384804"
    }
  },
  {
    "service_request": "2024-1148126",
    "request_type": "Trash/Recycling",
    "request_reason": "Request a Large Item Pick Up",
    "date_created": "2024-11-12T18:17:36.000",
    "date_modified": "2024-11-12T18:17:37.000",
    "request_status": "Pending",
    "responsible_agency": "Department of Sanitation",
    "final_address": "4603 Arts St",
    "address_councildis": "D",
    "status": "Assigned to Contractor",
    "contractor": "IV Waste",
    "rowid": "1148126",
    "final_x": "3686075.61398",
    "final_y": "549639.599188",
    "longitude": "-90.05298289541811",
    "latitude": "30.00517846870325",
    "geocoded_column": {
      "latitude": "30.00517846870325",
      "longitude": "-90.05298289541811"
    }
  },
  {
    "service_request": "2024-1148125",
    "request_type": "Trash/Recycling",
    "request_reason": "Replace Trash Cart",
    "date_created": "2024-11-12T18:16:06.000",
    "date_modified": "2024-11-12T18:16:06.000",
    "request_status": "Pending",
    "responsible_agency": "Department of Sanitation",
    "final_address": "3017 Chestnut St",
    "address_councildis": "B",
    "status": "Assigned to Contractor",
    "contractor": "IV Waste",
    "rowid": "1148125",
    "final_x": "3675807.84904",
    "final_y": "520920.802873",
    "longitude": "-90.08640831366708",
    "latitude": "29.926522977139406",
    "geocoded_column": {
      "latitude": "29.926522977139406",
      "longitude": "-90.08640831366708"
    }
  },
  {
    "service_request": "2024-1148124",
    "request_type": "Streetlights",
    "request_reason": "Streetlight Outage/Malfunction",
    "date_created": "2024-11-12T18:07:23.000",
    "date_modified": "2024-11-12T18:07:24.000",
    "request_status": "Pending",
    "responsible_agency": "Department of Public Works",
    "final_address": "1200 BLK S Carrollton Ave",
    "address_councildis": "A",
    "status": "Pending",
    "contractor": "Legacy Professional Services",
    "rowid": "1148124",
    "final_x": "3662106.27418",
    "final_y": "528480.923797",
    "longitude": "-90.12940986516702",
    "latitude": "29.947713791998126",
    "geocoded_column": {
      "latitude": "29.947713791998126",
      "longitude": "-90.12940986516702"
    }
  },
  {
    "service_request": "2024-1148123",
    "request_type": "Streetlights",
    "request_reason": "Streetlight Outage/Malfunction",
    "date_created": "2024-11-12T18:05:22.000",
    "date_modified": "2024-11-12T18:05:23.000",
    "request_status": "Pending",
    "responsible_agency": "Department of Public Works",
    "final_address": "3017 Chestnut St",
    "address_councildis": "B",
    "status": "Pending",
    "contractor": "Legacy Professional Services",
    "rowid": "1148123",
    "final_x": "3675807.84904",
    "final_y": "520920.802873",
    "longitude": "-90.08640831366708",
    "latitude": "29.926522977139406",
    "geocoded_column": {
      "latitude": "29.926522977139406",
      "longitude": "-90.08640831366708"
    }
  },
  {
    "service_request": "2024-1148122",
    "request_type": "Streetlights",
    "request_reason": "Streetlight Outage/Malfunction",
    "date_created": "2024-11-12T18:01:32.000",
    "date_modified": "2024-11-12T18:01:33.000",
    "request_status": "Pending",
    "responsible_agency": "Department of Public Works",
    "final_address": "3960 Laurel St",
    "address_councildis": "B",
    "status": "Pending",
    "contractor": "Legacy Professional Services",
    "rowid": "1148122",
    "final_x": "3672759.85486",
    "final_y": "518125.341302",
    "longitude": "-90.09612528861126",
    "latitude": "29.918927203358678",
    "geocoded_column": {
      "latitude": "29.918927203358678",
      "longitude": "-90.09612528861126"
    }
  },
  {
    "service_request": "2024-1148121",
    "request_type": "Abandoned Vehicles",
    "request_reason": "Abandoned/Junk Vehicles",
    "date_created": "2024-11-12T17:51:13.000",
    "date_modified": "2024-11-12T17:51:13.000",
    "request_status": "Pending",
    "responsible_agency": "Department of Public Works",
    "final_address": "1910 N Rampart St",
    "address_councildis": "C",
    "status": "Pending",
    "rowid": "1148121",
    "final_x": "3684010.57737",
    "final_y": "535825.721287",
    "longitude": "-90.05999174628495",
    "latitude": "29.96725847162101",
    "geocoded_column": {
      "latitude": "29.96725847162101",
      "longitude": "-90.05999174628495"
    }
  },
  {
    "service_request": "2024-1148120",
    "request_type": "Traffic Signals",
    "request_reason": "Traffic Signal Malfunctioning or Damaged",
    "date_created": "2024-11-12T17:49:35.000",
    "date_modified": "2024-11-12T17:49:35.000",
    "request_status": "Pending",
    "responsible_agency": "Department of Public Works",
    "final_address": "NAPOLEON AVE & MAGNOLIA ST",
    "address_councildis": "B",
    "status": "Pending",
    "rowid": "1148120",
    "final_x": "3670505.2",
    "final_y": "524746.48",
    "longitude": "-90.10301768416616",
    "latitude": "29.937199963751222",
    "geocoded_column": {
      "latitude": "29.937199963751222",
      "longitude": "-90.10301768416616"
    }
  },
  {
    "service_request": "2024-1148119",
    "request_type": "Streetlights",
    "request_reason": "Streetlight Outage/Malfunction",
    "date_created": "2024-11-12T17:45:57.000",
    "date_modified": "2024-11-12T17:45:58.000",
    "request_status": "Pending",
    "responsible_agency": "Department of Public Works",
    "final_address": "816 Eliza St",
    "address_councildis": "C",
    "status": "Pending",
    "contractor": "Legacy Professional Services",
    "rowid": "1148119",
    "final_x": "3688023.37411",
    "final_y": "529945.144833",
    "longitude": "-90.04752771304753",
    "latitude": "29.950965694905683",
    "geocoded_column": {
      "latitude": "29.950965694905683",
      "longitude": "-90.04752771304753"
    }
  },
  {
    "service_request": "2024-1148118",
    "request_type": "Trash/Recycling",
    "request_reason": "Replace Trash Cart",
    "date_created": "2024-11-12T17:40:55.000",
    "date_modified": "2024-11-12T17:40:56.000",
    "request_status": "Pending",
    "responsible_agency": "Department of Sanitation",
    "final_address": "3528 Clematis St",
    "address_councildis": "D",
    "status": "Assigned to Contractor",
    "contractor": "IV Waste",
    "rowid": "1148118",
    "final_x": "3686403.68834",
    "final_y": "545946.01384",
    "longitude": "-90.05207691939151",
    "latitude": "29.995012359009692",
    "geocoded_column": {
      "latitude": "29.995012359009692",
      "longitude": "-90.05207691939151"
    }
  },
  {
    "service_request": "2024-1148117",
    "request_type": "Trash/Recycling",
    "request_reason": "Order Trash Cart",
    "date_created": "2024-11-12T17:40:09.000",
    "date_modified": "2024-11-12T17:40:10.000",
    "request_status": "Pending",
    "responsible_agency": "Department of Sanitation",
    "final_address": "1015 Orleans Ave",
    "address_councildis": "C",
    "status": "Assigned to Contractor",
    "contractor": "Empire Services",
    "rowid": "1148117",
    "final_x": "3681703.08495",
    "final_y": "533359.924932",
    "longitude": "-90.06736486378695",
    "latitude": "29.960548682671277",
    "geocoded_column": {
      "latitude": "29.960548682671277",
      "longitude": "-90.06736486378695"
    }
  },
  {
    "service_request": "2024-1148116",
    "request_type": "Trash/Recycling",
    "request_reason": "Order Trash Cart",
    "date_created": "2024-11-12T17:38:39.000",
    "date_modified": "2024-11-12T17:38:40.000",
    "request_status": "Pending",
    "responsible_agency": "Department of Sanitation",
    "final_address": "1017 Orleans Ave",
    "address_councildis": "C",
    "status": "Assigned to Contractor",
    "contractor": "Empire Services",
    "rowid": "1148116",
    "final_x": "3681691.77596",
    "final_y": "533365.816068",
    "longitude": "-90.0674003697587",
    "latitude": "29.96056522483962",
    "geocoded_column": {
      "latitude": "29.96056522483962",
      "longitude": "-90.0674003697587"
    }
  },
  {
    "service_request": "2024-1148115",
    "request_type": "Drainage",
    "request_reason": "Street Flooding",
    "date_created": "2024-11-12T17:33:49.000",
    "date_modified": "2024-11-12T17:33:49.000",
    "request_status": "Pending",
    "responsible_agency": "Department of Public Works",
    "final_address": "7022 Hickory St",
    "address_councildis": "A",
    "status": "Pending",
    "rowid": "1148115",
    "final_x": "3665724.10317",
    "final_y": "527966.290623",
    "longitude": "-90.11800414332197",
    "latitude": "29.946193700136856",
    "geocoded_column": {
      "latitude": "29.946193700136856",
      "longitude": "-90.11800414332197"
    }
  },
  {
    "service_request": "2024-1148114",
    "request_type": "Trash/Recycling",
    "request_reason": "Return Trash Cart",
    "date_created": "2024-11-12T17:30:04.000",
    "date_modified": "2024-11-12T17:30:05.000",
    "request_status": "Pending",
    "responsible_agency": "Department of Sanitation",
    "final_address": "4116 Eve St",
    "address_councildis": "B",
    "status": "Assigned to Contractor",
    "contractor": "IV Waste",
    "rowid": "1148114",
    "final_x": "3670787.33153",
    "final_y": "530422.391426",
    "longitude": "-90.1019344032672",
    "latitude": "29.952798535665753",
    "geocoded_column": {
      "latitude": "29.952798535665753",
      "longitude": "-90.1019344032672"
    }
  },
  {
    "service_request": "2024-1148113",
    "request_type": "Street and Traffic Signs",
    "request_reason": "Stop Sign Missing or Damaged",
    "date_created": "2024-11-12T17:24:39.000",
    "date_modified": "2024-11-12T17:24:39.000",
    "request_status": "Pending",
    "responsible_agency": "Department of Public Works",
    "final_address": "3400 BLK Livingston St",
    "address_councildis": "A",
    "status": "Pending",
    "rowid": "1148113",
    "final_x": "3663720.39988",
    "final_y": "537621.893376",
    "longitude": "-90.12400880425275",
    "latitude": "29.97280174327778",
    "geocoded_column": {
      "latitude": "29.97280174327778",
      "longitude": "-90.12400880425275"
    }
  },
  {
    "service_request": "2024-1148112",
    "request_type": "Trash/Recycling",
    "request_reason": "Request a Large Item Pick Up",
    "date_created": "2024-11-12T17:00:50.000",
    "date_modified": "2024-11-12T17:00:51.000",
    "request_status": "Pending",
    "responsible_agency": "Department of Sanitation",
    "final_address": "7538 Devine Ave",
    "address_councildis": "E",
    "status": "Assigned to Contractor",
    "contractor": "Waste Pro",
    "rowid": "1148112",
    "final_x": "3705682.49361",
    "final_y": "562868.003232",
    "longitude": "-89.990551364312",
    "latitude": "30.04093447436728",
    "geocoded_column": {
      "latitude": "30.04093447436728",
      "longitude": "-89.990551364312"
    }
  },
  {
    "service_request": "2024-1148111",
    "request_type": "Trash/Recycling",
    "request_reason": "Request a Large Item Pick Up",
    "date_created": "2024-11-12T16:51:37.000",
    "date_modified": "2024-11-12T16:51:38.000",
    "request_status": "Pending",
    "responsible_agency": "Department of Sanitation",
    "final_address": "1315 Fern St",
    "address_councildis": "A",
    "status": "Assigned to Contractor",
    "contractor": "IV Waste",
    "rowid": "1148111",
    "final_x": "3662888.99162",
    "final_y": "528176.285376",
    "longitude": "-90.12694863298958",
    "latitude": "29.94685349773006",
    "geocoded_column": {
      "latitude": "29.94685349773006",
      "longitude": "-90.12694863298958"
    }
  },
  {
    "service_request": "2024-1148110",
    "request_type": "Trash/Recycling",
    "request_reason": "Replace Recycling Cart",
    "date_created": "2024-11-12T16:48:47.000",
    "date_modified": "2024-11-12T16:48:48.000",
    "request_status": "Pending",
    "responsible_agency": "Department of Sanitation",
    "final_address": "700 St Philip St",
    "address_councildis": "C",
    "status": "Pending",
    "rowid": "1148110",
    "final_x": "3683195.75317",
    "final_y": "533341.714628",
    "longitude": "-90.06265195980747",
    "latitude": "29.960453179940775",
    "geocoded_column": {
      "latitude": "29.960453179940775",
      "longitude": "-90.06265195980747"
    }
  },
  {
    "service_request": "2024-1148109",
    "request_type": "Trash/Recycling",
    "request_reason": "Request a Large Item Pick Up",
    "date_created": "2024-11-12T16:44:34.000",
    "date_modified": "2024-11-12T16:44:35.000",
    "request_status": "Pending",
    "responsible_agency": "Department of Sanitation",
    "final_address": "5521 S Eastover Dr",
    "address_councildis": "E",
    "status": "Assigned to Contractor",
    "contractor": "Waste Pro",
    "rowid": "1148109",
    "final_x": "3719429.31641",
    "final_y": "561832.660959",
    "longitude": "-89.9471467918438",
    "latitude": "30.03763758795301",
    "geocoded_column": {
      "latitude": "30.03763758795301",
      "longitude": "-89.9471467918438"
    }
  },
  {
    "service_request": "2024-1148108",
    "request_type": "Drainage",
    "request_reason": "Catch Basin Clogged",
    "date_created": "2024-11-12T16:38:49.000",
    "date_modified": "2024-11-12T16:38:49.000",
    "request_status": "Pending",
    "responsible_agency": "Department of Public Works",
    "final_address": "1801 Canal St",
    "address_councildis": "B",
    "status": "Pending",
    "rowid": "1148108",
    "final_x": "3678145.27304",
    "final_y": "533178.841412",
    "longitude": "-90.07860598676818",
    "latitude": "29.96015836848709",
    "geocoded_column": {
      "latitude": "29.96015836848709",
      "longitude": "-90.07860598676818"
    }
  },
  {
    "service_request": "2024-1148107",
    "request_type": "Trash/Recycling",
    "request_reason": "Request a Large Item Pick Up",
    "date_created": "2024-11-12T16:36:17.000",
    "date_modified": "2024-11-12T16:36:18.000",
    "request_status": "Pending",
    "responsible_agency": "Department of Sanitation",
    "final_address": "1924 Shalett St",
    "address_councildis": "C",
    "status": "Assigned to Contractor",
    "contractor": "Richards Disposal",
    "rowid": "1148107",
    "final_x": "3694276.65245",
    "final_y": "523293.634939",
    "longitude": "-90.02802234947158",
    "latitude": "29.932481907120884",
    "geocoded_column": {
      "latitude": "29.932481907120884",
      "longitude": "-90.02802234947158"
    }
  },
  {
    "service_request": "2024-1148106",
    "request_type": "Abandoned Vehicles",
    "request_reason": "Abandoned/Junk Vehicles",
    "date_created": "2024-11-12T16:27:57.000",
    "date_modified": "2024-11-12T16:27:57.000",
    "request_status": "Pending",
    "responsible_agency": "Department of Public Works",
    "final_address": "534 S Telemachus St",
    "address_councildis": "B",
    "status": "Pending",
    "rowid": "1148106",
    "final_x": "3671222.32423",
    "final_y": "535861.903943",
    "longitude": "-90.10037607274316",
    "latitude": "29.967742525683168",
    "geocoded_column": {
      "latitude": "29.967742525683168",
      "longitude": "-90.10037607274316"
    }
  },
  {
    "service_request": "2024-1148105",
    "request_type": "Property Maintenance",
    "request_reason": "Property Maintenance",
    "date_created": "2024-11-12T16:27:05.000",
    "date_modified": "2024-11-12T16:27:05.000",
    "request_status": "Pending",
    "responsible_agency": "Department of Code Enforcement",
    "final_address": "5355 Baccich St",
    "address_councildis": "D",
    "status": "Pending",
    "rowid": "1148105",
    "final_x": "3687731.65532",
    "final_y": "552767.921686",
    "longitude": "-90.04764022952381",
    "latitude": "30.01372922535538",
    "geocoded_column": {
      "latitude": "30.01372922535538",
      "longitude": "-90.04764022952381"
    }
  },
  {
    "service_request": "2024-1148104",
    "request_type": "Mosquito, Termite & Rodent Control",
    "request_reason": "Mosquito Complaint",
    "date_created": "2024-11-12T16:25:32.000",
    "date_modified": "2024-11-12T16:25:33.000",
    "request_status": "Pending",
    "responsible_agency": "Mosquito, Termite & Rodent Control Board",
    "final_address": "5530 New England Dr",
    "address_councildis": "E",
    "status": "Pending",
    "rowid": "1148104",
    "final_x": "3723625.88582",
    "final_y": "563753.894689",
    "longitude": "-89.93381065186179",
    "latitude": "30.042779928847647",
    "geocoded_column": {
      "latitude": "30.042779928847647",
      "longitude": "-89.93381065186179"
    }
  },
  {
    "service_request": "2024-1148103",
    "request_type": "Streetlights",
    "request_reason": "Streetlight Outage/Malfunction",
    "date_created": "2024-11-12T16:25:06.000",
    "date_modified": "2024-11-12T16:25:07.000",
    "request_status": "Pending",
    "responsible_agency": "Department of Public Works",
    "final_address": "1501 Napoleon Ave",
    "address_councildis": "B",
    "status": "Pending",
    "contractor": "Legacy Professional Services",
    "rowid": "1148103",
    "final_x": "3670970.04583",
    "final_y": "520612.199864",
    "longitude": "-90.10169042938571",
    "latitude": "29.925818290073597",
    "geocoded_column": {
      "latitude": "29.925818290073597",
      "longitude": "-90.10169042938571"
    }
  },
  {
    "service_request": "2024-1148102",
    "request_type": "Trash/Recycling",
    "request_reason": "Request a Large Item Pick Up",
    "date_created": "2024-11-12T16:25:02.000",
    "date_modified": "2024-11-12T16:25:03.000",
    "request_status": "Pending",
    "responsible_agency": "Department of Sanitation",
    "final_address": "5198 De Montluzin St",
    "address_councildis": "D",
    "status": "Assigned to Contractor",
    "contractor": "IV Waste",
    "rowid": "1148102",
    "final_x": "3686980.87062",
    "final_y": "552100.477206",
    "longitude": "-90.05003593331193",
    "latitude": "30.01191714014734",
    "geocoded_column": {
      "latitude": "30.01191714014734",
      "longitude": "-90.05003593331193"
    }
  },
  {
    "service_request": "2024-1148101",
    "request_type": "Trash/Recycling",
    "request_reason": "Request a Large Item Pick Up",
    "date_created": "2024-11-12T16:18:11.000",
    "date_modified": "2024-11-12T16:18:12.000",
    "request_status": "Pending",
    "responsible_agency": "Department of Sanitation",
    "final_address": "724 Gallier St",
    "address_councildis": "C",
    "status": "Assigned to Contractor",
    "contractor": "IV Waste",
    "rowid": "1148101",
    "final_x": "3690107.53014",
    "final_y": "534341.881669",
    "longitude": "-90.04079041892834",
    "latitude": "29.962990723954636",
    "geocoded_column": {
      "latitude": "29.962990723954636",
      "longitude": "-90.04079041892834"
    }
  },
  {
    "service_request": "2024-1148100",
    "request_type": "Roads and Streets",
    "request_reason": "Debris in Driving Lanes",
    "date_created": "2024-11-12T16:17:03.000",
    "date_modified": "2024-11-12T16:17:04.000",
    "request_status": "Pending",
    "responsible_agency": "Department of Public Works",
    "final_address": "ELYSIAN FIELDS AVE & I 610 W",
    "address_councildis": "D",
    "status": "Pending",
    "rowid": "1148100",
    "final_x": "3684394.0",
    "final_y": "544639.28",
    "longitude": "-90.05847122150196",
    "latitude": "29.991480943716812",
    "geocoded_column": {
      "latitude": "29.991480943716812",
      "longitude": "-90.05847122150196"
    }
  },
  {
    "service_request": "2024-1148099",
    "request_type": "Property Maintenance",
    "request_reason": "Property Maintenance",
    "date_created": "2024-11-12T16:11:10.000",
    "date_modified": "2024-11-12T16:11:10.000",
    "request_status": "Pending",
    "responsible_agency": "Department of Code Enforcement",
    "final_address": "2000 Lakeshore Dr",
    "address_councildis": "D",
    "status": "Pending",
    "rowid": "1148099",
    "final_x": "3679964.44911",
    "final_y": "558698.106844",
    "longitude": "-90.07197433154148",
    "latitude": "30.03027241857845",
    "geocoded_column": {
      "latitude": "30.03027241857845",
      "longitude": "-90.07197433154148"
    }
  },
  {
    "service_request": "2024-1148098",
    "request_type": "Roads and Streets",
    "request_reason": "Pothole",
    "date_created": "2024-11-12T16:02:32.000",
    "date_modified": "2024-11-12T16:02:32.000",
    "request_status": "Pending",
    "responsible_agency": "Department of Public Works",
    "final_address": "3127 Dauphine St, New Orleans, Louisiana, 70117",
    "address_councildis": "C",
    "status": "Pending",
    "rowid": "1148098",
    "final_x": "3688938.95657",
    "final_y": "534828.517254",
    "longitude": "-90.04446333403554",
    "latitude": "29.964364996072092",
    "geocoded_column": {
      "latitude": "29.964364996072092",
      "longitude": "-90.04446333403554"
    }
  },
  {
    "service_request": "2024-1148097",
    "request_type": "Roads and Streets",
    "request_reason": "Pothole",
    "date_created": "2024-11-12T16:00:56.000",
    "date_modified": "2024-11-12T16:00:56.000",
    "request_status": "Pending",
    "responsible_agency": "Department of Public Works",
    "final_address": "901 Poland Ave",
    "address_councildis": "C",
    "status": "Pending",
    "rowid": "1148097",
    "final_x": "3692912.7023",
    "final_y": "534227.378245",
    "longitude": "-90.0319361742049",
    "latitude": "29.96258857372489",
    "geocoded_column": {
      "latitude": "29.96258857372489",
      "longitude": "-90.0319361742049"
    }
  },
  {
    "service_request": "2024-1148096",
    "request_type": "Traffic Signals",
    "request_reason": "Traffic Signal Malfunctioning or Damaged",
    "date_created": "2024-11-12T15:59:05.000",
    "date_modified": "2024-11-12T15:59:06.000",
    "request_status": "Pending",
    "responsible_agency": "Department of Public Works",
    "final_address": "NAPOLEON AVE & MAGNOLIA ST",
    "address_councildis": "B",
    "status": "Pending",
    "rowid": "1148096",
    "final_x": "3670505.2",
    "final_y": "524746.48",
    "longitude": "-90.10301768416616",
    "latitude": "29.937199963751222",
    "geocoded_column": {
      "latitude": "29.937199963751222",
      "longitude": "-90.10301768416616"
    }
  },
  {
    "service_request": "2024-1148095",
    "request_type": "Roads and Streets",
    "request_reason": "Curb Damage",
    "date_created": "2024-11-12T15:57:21.000",
    "date_modified": "2024-11-12T15:57:21.000",
    "request_status": "Pending",
    "responsible_agency": "Department of Public Works",
    "final_address": "2222 Delachaise St",
    "address_councildis": "B",
    "status": "Pending",
    "rowid": "1148095",
    "final_x": "3672870.04008",
    "final_y": "523518.347131",
    "longitude": "-90.0955936079025",
    "latitude": "29.93375296573086",
    "geocoded_column": {
      "latitude": "29.93375296573086",
      "longitude": "-90.0955936079025"
    }
  },
  {
    "service_request": "2024-1148094",
    "request_type": "Traffic Signals",
    "request_reason": "Traffic Signal Malfunctioning or Damaged",
    "date_created": "2024-11-12T15:53:45.000",
    "date_modified": "2024-11-12T15:59:49.000",
    "request_status": "Pending",
    "responsible_agency": "Department of Public Works",
    "final_address": "CHEF MENTEUR HWY & DALE ST",
    "address_councildis": "E",
    "status": "Pending",
    "rowid": "1148094",
    "final_x": "3699724.2",
    "final_y": "551982.28",
    "longitude": "-90.00977889450225",
    "latitude": "30.011193557350975",
    "geocoded_column": {
      "latitude": "30.011193557350975",
      "longitude": "-90.00977889450225"
    }
  },
  {
    "service_request": "2024-1148093",
    "request_type": "Trash/Recycling",
    "request_reason": "Repair Recycling Cart",
    "date_created": "2024-11-12T15:52:02.000",
    "date_modified": "2024-11-12T15:52:04.000",
    "request_status": "Pending",
    "responsible_agency": "Department of Sanitation",
    "final_address": "3024 Laurel St",
    "address_councildis": "B",
    "status": "Pending",
    "rowid": "1148093",
    "final_x": "3676610.03733",
    "final_y": "519618.073016",
    "longitude": "-90.08392086582751",
    "latitude": "29.922916863789595",
    "geocoded_column": {
      "latitude": "29.922916863789595",
      "longitude": "-90.08392086582751"
    }
  },
  {
    "service_request": "2024-1148092",
    "request_type": "Trash/Recycling",
    "request_reason": "Repair Trash Cart",
    "date_created": "2024-11-12T15:50:01.000",
    "date_modified": "2024-11-12T15:50:02.000",
    "request_status": "Pending",
    "responsible_agency": "Department of Sanitation",
    "final_address": "3024 Laurel St",
    "address_councildis": "B",
    "status": "Assigned to Contractor",
    "contractor": "IV Waste",
    "rowid": "1148092",
    "final_x": "3676610.03733",
    "final_y": "519618.073016",
    "longitude": "-90.08392086582751",
    "latitude": "29.922916863789595",
    "geocoded_column": {
      "latitude": "29.922916863789595",
      "longitude": "-90.08392086582751"
    }
  },
  {
    "service_request": "2024-1148091",
    "request_type": "Property Maintenance",
    "request_reason": "Property Maintenance",
    "date_created": "2024-11-12T15:49:00.000",
    "date_modified": "2024-11-12T15:49:00.000",
    "request_status": "Pending",
    "responsible_agency": "Department of Code Enforcement",
    "final_address": "1903 Old Prieur St",
    "address_councildis": "D",
    "status": "Pending",
    "rowid": "1148091",
    "final_x": "3682222.43266",
    "final_y": "539660.514378",
    "longitude": "-90.06550472767994",
    "latitude": "29.977857342140414",
    "geocoded_column": {
      "latitude": "29.977857342140414",
      "longitude": "-90.06550472767994"
    }
  },
  {
    "service_request": "2024-1148090",
    "request_type": "Trash/Recycling",
    "request_reason": "Illegal Dumping",
    "date_created": "2024-11-12T15:48:43.000",
    "date_modified": "2024-11-12T15:48:44.000",
    "request_status": "Pending",
    "responsible_agency": "Department of Sanitation",
    "final_address": "4300 Duplessis St",
    "address_councildis": "D",
    "status": "Pending",
    "rowid": "1148090",
    "final_x": "3678224.70075",
    "final_y": "548042.609682",
    "longitude": "-90.07784088831436",
    "latitude": "30.001026192258312",
    "geocoded_column": {
      "latitude": "30.001026192258312",
      "longitude": "-90.07784088831436"
    }
  },
  {
    "service_request": "2024-1148089",
    "request_type": "Trash/Recycling",
    "request_reason": "Replace Recycling Cart",
    "date_created": "2024-11-12T15:41:41.000",
    "date_modified": "2024-11-12T15:41:41.000",
    "request_status": "Pending",
    "responsible_agency": "Department of Sanitation",
    "final_address": "5632 St Bernard Ave",
    "address_councildis": "D",
    "status": "Pending",
    "rowid": "1148089",
    "final_x": "3676774.21691",
    "final_y": "552992.737559",
    "longitude": "-90.08225234652944",
    "latitude": "30.014680899844233",
    "geocoded_column": {
      "latitude": "30.014680899844233",
      "longitude": "-90.08225234652944"
    }
  },
  {
    "service_request": "2024-1148088",
    "request_type": "Trash/Recycling",
    "request_reason": "Replace Recycling Cart",
    "date_created": "2024-11-12T15:41:16.000",
    "date_modified": "2024-11-12T15:41:16.000",
    "request_status": "Pending",
    "responsible_agency": "Department of Sanitation",
    "final_address": "3024 Laurel St",
    "address_councildis": "B",
    "status": "Pending",
    "rowid": "1148088",
    "final_x": "3676610.03733",
    "final_y": "519618.073016",
    "longitude": "-90.08392086582751",
    "latitude": "29.922916863789595",
    "geocoded_column": {
      "latitude": "29.922916863789595",
      "longitude": "-90.08392086582751"
    }
  },
  {
    "service_request": "2024-1148087",
    "request_type": "Drainage",
    "request_reason": "Catch Basin Clogged",
    "date_created": "2024-11-12T15:31:33.000",
    "date_modified": "2024-11-12T15:31:34.000",
    "request_status": "Pending",
    "responsible_agency": "Department of Public Works",
    "final_address": "3305 Chestnut St",
    "address_councildis": "B",
    "status": "Pending",
    "rowid": "1148087",
    "final_x": "3675028.4395",
    "final_y": "520477.706232",
    "longitude": "-90.08888388819318",
    "latitude": "29.925327903238923",
    "geocoded_column": {
      "latitude": "29.925327903238923",
      "longitude": "-90.08888388819318"
    }
  },
  {
    "service_request": "2024-1148086",
    "request_type": "Trash/Recycling",
    "request_reason": "Return Trash Cart",
    "date_created": "2024-11-12T15:30:52.000",
    "date_modified": "2024-11-12T15:30:53.000",
    "request_status": "Pending",
    "responsible_agency": "Department of Sanitation",
    "final_address": "4148 Bienville Ave",
    "address_councildis": "A",
    "status": "Assigned to Contractor",
    "contractor": "IV Waste",
    "rowid": "1148086",
    "final_x": "3671213.75483",
    "final_y": "539156.619466",
    "longitude": "-90.10029116874931",
    "latitude": "29.976802136156806",
    "geocoded_column": {
      "latitude": "29.976802136156806",
      "longitude": "-90.10029116874931"
    }
  },
  {
    "service_request": "2024-1148085",
    "request_type": "Trash/Recycling",
    "request_reason": "Request a Large Item Pick Up",
    "date_created": "2024-11-12T15:29:56.000",
    "date_modified": "2024-11-12T15:29:57.000",
    "request_status": "Pending",
    "responsible_agency": "Department of Sanitation",
    "final_address": "901 Porteous St",
    "address_councildis": "A",
    "status": "Assigned to Contractor",
    "contractor": "IV Waste",
    "rowid": "1148085",
    "final_x": "3670296.16058",
    "final_y": "551299.520789",
    "longitude": "-90.10277736183275",
    "latitude": "30.010218043777957",
    "geocoded_column": {
      "latitude": "30.010218043777957",
      "longitude": "-90.10277736183275"
    }
  },
  {
    "service_request": "2024-1148084",
    "request_type": "Trash/Recycling",
    "request_reason": "Request a Large Item Pick Up",
    "date_created": "2024-11-12T15:28:40.000",
    "date_modified": "2024-11-12T15:28:41.000",
    "request_status": "Pending",
    "responsible_agency": "Department of Sanitation",
    "final_address": "2724 Calhoun St",
    "address_councildis": "A",
    "status": "Assigned to Contractor",
    "contractor": "IV Waste",
    "rowid": "1148084",
    "final_x": "3666486.86407",
    "final_y": "526837.087998",
    "longitude": "-90.1156337231951",
    "latitude": "29.94306648987642",
    "geocoded_column": {
      "latitude": "29.94306648987642",
      "longitude": "-90.1156337231951"
    }
  },
  {
    "service_request": "2024-1148083",
    "request_type": "Trash/Recycling",
    "request_reason": "Dead Animal Pick Up",
    "date_created": "2024-11-12T15:27:27.000",
    "date_modified": "2024-11-12T15:27:29.000",
    "request_status": "Pending",
    "responsible_agency": "Department of Sanitation",
    "final_address": "2053 Leboeuf St",
    "address_councildis": "C",
    "status": "Assigned to Contractor",
    "contractor": "Richards Disposal",
    "rowid": "1148083",
    "final_x": "3689554.48579",
    "final_y": "522932.243195",
    "longitude": "-90.0429426143851",
    "latitude": "29.93163527174721",
    "geocoded_column": {
      "latitude": "29.93163527174721",
      "longitude": "-90.0429426143851"
    }
  },
  {
    "service_request": "2024-1148082",
    "request_type": "Trash/Recycling",
    "request_reason": "Order Recycling Cart",
    "date_created": "2024-11-12T15:26:45.000",
    "date_modified": "2024-11-12T15:26:45.000",
    "request_status": "Pending",
    "responsible_agency": "Department of Sanitation",
    "final_address": "412 Abalon Ct",
    "address_councildis": "C",
    "status": "Pending",
    "rowid": "1148082",
    "final_x": "3689414.13699",
    "final_y": "530102.543041",
    "longitude": "-90.04313080177975",
    "latitude": "29.951355500064576",
    "geocoded_column": {
      "latitude": "29.951355500064576",
      "longitude": "-90.04313080177975"
    }
  },
  {
    "service_request": "2024-1148081",
    "request_type": "Trash/Recycling",
    "request_reason": "Request a Large Item Pick Up",
    "date_created": "2024-11-12T15:25:17.000",
    "date_modified": "2024-11-12T15:25:18.000",
    "request_status": "Pending",
    "responsible_agency": "Department of Sanitation",
    "final_address": "1133 Tricou St",
    "address_councildis": "E",
    "status": "Assigned to Contractor",
    "contractor": "Waste Pro",
    "rowid": "1148081",
    "final_x": "3700292.13476",
    "final_y": "533326.645188",
    "longitude": "-90.00866596294551",
    "latitude": "29.959879360991188",
    "geocoded_column": {
      "latitude": "29.959879360991188",
      "longitude": "-90.00866596294551"
    }
  },
  {
    "service_request": "2024-1148080",
    "request_type": "Trash/Recycling",
    "request_reason": "Illegal Dumping",
    "date_created": "2024-11-12T15:18:50.000",
    "date_modified": "2024-11-12T15:18:51.000",
    "request_status": "Pending",
    "responsible_agency": "Department of Sanitation",
    "final_address": "7008 Crowder Blvd",
    "address_councildis": "E",
    "status": "Pending",
    "rowid": "1148080",
    "final_x": "3704365.70206",
    "final_y": "559483.213853",
    "longitude": "-89.99483780424933",
    "latitude": "30.0316699962335",
    "geocoded_column": {
      "latitude": "30.0316699962335",
      "longitude": "-89.99483780424933"
    }
  },
  {
    "service_request": "2024-1148079",
    "request_type": "Safety & Permits",
    "request_reason": "Licenses & Permits",
    "date_created": "2024-11-12T15:16:06.000",
    "date_modified": "2024-11-12T15:16:08.000",
    "request_status": "Pending",
    "responsible_agency": "Safety and Permits",
    "final_address": "1414 Audubon St",
    "address_councildis": "A",
    "status": "Pending",
    "rowid": "1148079",
    "final_x": "3664845.59975",
    "final_y": "527032.599294",
    "longitude": "-90.12080908960104",
    "latitude": "29.943651940735702",
    "geocoded_column": {
      "latitude": "29.943651940735702",
      "longitude": "-90.12080908960104"
    }
  },
  {
    "service_request": "2024-1148078",
    "request_type": "Trash/Recycling",
    "request_reason": "Request a Large Item Pick Up",
    "date_created": "2024-11-12T15:16:00.000",
    "date_modified": "2024-11-12T15:16:01.000",
    "request_status": "Pending",
    "responsible_agency": "Department of Sanitation",
    "final_address": "4502 Prytania St",
    "address_councildis": "B",
    "status": "Assigned to Contractor",
    "contractor": "IV Waste",
    "rowid": "1148078",
    "final_x": "3670461.29012",
    "final_y": "520233.03148",
    "longitude": "-90.1033092719137",
    "latitude": "29.924790724753944",
    "geocoded_column": {
      "latitude": "29.924790724753944",
      "longitude": "-90.1033092719137"
    }
  },
  {
    "service_request": "2024-1148077",
    "request_type": "Mosquito, Termite & Rodent Control",
    "request_reason": "Rodent Complaint (Rats)",
    "date_created": "2024-11-12T15:14:52.000",
    "date_modified": "2024-11-12T15:14:53.000",
    "request_status": "Pending",
    "responsible_agency": "Mosquito, Termite & Rodent Control Board",
    "final_address": "2700 Tulane Ave",
    "address_councildis": "B",
    "status": "Pending",
    "rowid": "1148077",
    "final_x": "3673969.52104",
    "final_y": "533787.066053",
    "longitude": "-90.0917713338198",
    "latitude": "29.961955851912233",
    "geocoded_column": {
      "latitude": "29.961955851912233",
      "longitude": "-90.0917713338198"
    }
  },
  {
    "service_request": "2024-1148076",
    "request_type": "Trash/Recycling",
    "request_reason": "Request a Large Item Pick Up",
    "date_created": "2024-11-12T15:12:48.000",
    "date_modified": "2024-11-12T15:12:49.000",
    "request_status": "Pending",
    "responsible_agency": "Department of Sanitation",
    "final_address": "13489 Wales St",
    "address_councildis": "E",
    "status": "Assigned to Contractor",
    "contractor": "Waste Pro",
    "rowid": "1148076",
    "final_x": "3716473.81144",
    "final_y": "571194.433",
    "longitude": "-89.9561311989266",
    "latitude": "30.06347660274028",
    "geocoded_column": {
      "latitude": "30.06347660274028",
      "longitude": "-89.9561311989266"
    }
  },
  {
    "service_request": "2024-1148075",
    "request_type": "Streetlights",
    "request_reason": "Streetlight Outage/Malfunction",
    "date_created": "2024-11-12T15:06:48.000",
    "date_modified": "2024-11-12T15:07:13.000",
    "request_status": "Pending",
    "responsible_agency": "Department of Public Works",
    "final_address": "5830 Fontainebleau Dr",
    "address_councildis": "A",
    "status": "Pending",
    "contractor": "Legacy Professional Services",
    "rowid": "1148075",
    "final_x": "3668251.77127",
    "final_y": "529790.575553",
    "longitude": "-90.1099618991512",
    "latitude": "29.95113593026505",
    "geocoded_column": {
      "latitude": "29.95113593026505",
      "longitude": "-90.1099618991512"
    }
  },
  {
    "service_request": "2024-1148074",
    "request_type": "Trash/Recycling",
    "request_reason": "Return Recycling Cart",
    "date_created": "2024-11-12T15:01:24.000",
    "date_modified": "2024-11-12T15:01:24.000",
    "request_status": "Pending",
    "responsible_agency": "Department of Sanitation",
    "final_address": "5862 Marcia Ave",
    "address_councildis": "A",
    "status": "Pending",
    "rowid": "1148074",
    "final_x": "3664714.02567",
    "final_y": "546828.160401",
    "longitude": "-90.12056299946171",
    "latitude": "29.998087000855246",
    "geocoded_column": {
      "latitude": "29.998087000855246",
      "longitude": "-90.12056299946171"
    }
  },
  {
    "service_request": "2024-1148073",
    "request_type": "Healthy Homes",
    "request_reason": "Healthy Homes",
    "date_created": "2024-11-12T15:01:17.000",
    "date_modified": "2024-11-12T15:48:28.000",
    "case_close_date": "2024-11-12T09:48:28.000",
    "request_status": "Closed",
    "responsible_agency": "Department of Code Enforcement",
    "final_address": "1019 First St",
    "address_councildis": "B",
    "status": "Referred to Code Enforcement",
    "rowid": "1148073",
    "final_x": "3678215.57557",
    "final_y": "521345.824121",
    "longitude": "-90.07879309510294",
    "latitude": "29.927619382415706",
    "geocoded_column": {
      "latitude": "29.927619382415706",
      "longitude": "-90.07879309510294"
    }
  },
  {
    "service_request": "2024-1148072",
    "request_type": "Safety & Permits",
    "request_reason": "Licenses & Permits",
    "date_created": "2024-11-12T15:00:16.000",
    "date_modified": "2024-11-12T15:00:17.000",
    "request_status": "Pending",
    "responsible_agency": "Safety and Permits",
    "final_address": "1019 First St",
    "address_councildis": "B",
    "status": "Pending",
    "rowid": "1148072",
    "final_x": "3678215.57557",
    "final_y": "521345.824121",
    "longitude": "-90.07879309510294",
    "latitude": "29.927619382415706",
    "geocoded_column": {
      "latitude": "29.927619382415706",
      "longitude": "-90.07879309510294"
    }
  },
  {
    "service_request": "2024-1148071",
    "request_type": "Trash/Recycling",
    "request_reason": "Request a Large Item Pick Up",
    "date_created": "2024-11-12T14:55:05.000",
    "date_modified": "2024-11-12T14:55:06.000",
    "request_status": "Pending",
    "responsible_agency": "Department of Sanitation",
    "final_address": "2521 Jonquil St",
    "address_councildis": "D",
    "status": "Assigned to Contractor",
    "contractor": "IV Waste",
    "rowid": "1148071",
    "final_x": "3686503.79484",
    "final_y": "547215.860945",
    "longitude": "-90.05171582832727",
    "latitude": "29.998500903369397",
    "geocoded_column": {
      "latitude": "29.998500903369397",
      "longitude": "-90.05171582832727"
    }
  },
  {
    "service_request": "2024-1148070",
    "request_type": "Trash/Recycling",
    "request_reason": "Order Trash Cart",
    "date_created": "2024-11-12T14:53:27.000",
    "date_modified": "2024-11-12T14:53:28.000",
    "request_status": "Pending",
    "responsible_agency": "Department of Sanitation",
    "final_address": "2405 Mazant St",
    "address_councildis": "D",
    "status": "Assigned to Contractor",
    "contractor": "IV Waste",
    "rowid": "1148070",
    "final_x": "3693388.53398",
    "final_y": "540202.775307",
    "longitude": "-90.03021897470545",
    "latitude": "29.979003924957876",
    "geocoded_column": {
      "latitude": "29.979003924957876",
      "longitude": "-90.03021897470545"
    }
  },
  {
    "service_request": "2024-1148069",
    "request_type": "Streetlights",
    "request_reason": "Streetlight Outage/Malfunction",
    "date_created": "2024-11-12T14:50:03.000",
    "date_modified": "2024-11-12T14:50:04.000",
    "request_status": "Pending",
    "responsible_agency": "Department of Public Works",
    "final_address": "1844 Moss St",
    "address_councildis": "A",
    "status": "Pending",
    "contractor": "Legacy Professional Services",
    "rowid": "1148069",
    "final_x": "3675353.45077",
    "final_y": "543481.011982",
    "longitude": "-90.0870681451968",
    "latitude": "29.98856958561825",
    "geocoded_column": {
      "latitude": "29.98856958561825",
      "longitude": "-90.0870681451968"
    }
  },
  {
    "service_request": "2024-1148068",
    "request_type": "Drainage",
    "request_reason": "Street Flooding",
    "date_created": "2024-11-12T14:48:55.000",
    "date_modified": "2024-11-12T14:48:55.000",
    "request_status": "Pending",
    "responsible_agency": "Department of Public Works",
    "final_address": "1400 BLK Harrison Ave",
    "address_councildis": "D",
    "status": "Pending",
    "rowid": "1148068",
    "final_x": "3678175.33423",
    "final_y": "547614.280215",
    "longitude": "-90.07801166535394",
    "latitude": "29.999849925225856",
    "geocoded_column": {
      "latitude": "29.999849925225856",
      "longitude": "-90.07801166535394"
    }
  },
  {
    "service_request": "2024-1148067",
    "request_type": "Abandoned Vehicles",
    "request_reason": "Abandoned/Junk Vehicles",
    "date_created": "2024-11-12T14:48:35.000",
    "date_modified": "2024-11-12T14:48:36.000",
    "request_status": "Pending",
    "responsible_agency": "Department of Public Works",
    "final_address": "S DERBIGNY ST & MARTIN LUTHER KING JR BLVD",
    "address_councildis": "B",
    "status": "Pending",
    "rowid": "1148067",
    "final_x": "3674740.1",
    "final_y": "528306.78",
    "longitude": "-90.08952581728816",
    "latitude": "29.94686390968573",
    "geocoded_column": {
      "latitude": "29.94686390968573",
      "longitude": "-90.08952581728816"
    }
  },
  {
    "service_request": "2024-1148066",
    "request_type": "Drainage",
    "request_reason": "Catch Basin Clogged",
    "date_created": "2024-11-12T14:47:50.000",
    "date_modified": "2024-11-12T14:47:50.000",
    "request_status": "Pending",
    "responsible_agency": "Department of Public Works",
    "final_address": "5919 Chef Menteur Hwy",
    "address_councildis": "D",
    "status": "Pending",
    "rowid": "1148066",
    "final_x": "3696521.82256",
    "final_y": "551705.913109",
    "longitude": "-90.01990645051472",
    "latitude": "30.010534973495616",
    "geocoded_column": {
      "latitude": "30.010534973495616",
      "longitude": "-90.01990645051472"
    }
  },
  {
    "service_request": "2024-1148065",
    "request_type": "Trash/Recycling",
    "request_reason": "Request a Large Item Pick Up",
    "date_created": "2024-11-12T14:47:46.000",
    "date_modified": "2024-11-12T14:47:47.000",
    "request_status": "Pending",
    "responsible_agency": "Department of Sanitation",
    "final_address": "2040 Hendee St",
    "address_councildis": "C",
    "status": "Assigned to Contractor",
    "contractor": "Richards Disposal",
    "rowid": "1148065",
    "final_x": "3690584.64323",
    "final_y": "523032.085563",
    "longitude": "-90.03968697857114",
    "latitude": "29.931877865034338",
    "geocoded_column": {
      "latitude": "29.931877865034338",
      "longitude": "-90.03968697857114"
    }
  },
  {
    "service_request": "2024-1148064",
    "request_type": "Streetlights",
    "request_reason": "Streetlight Outage/Malfunction",
    "date_created": "2024-11-12T14:47:38.000",
    "date_modified": "2024-11-12T14:47:39.000",
    "request_status": "Pending",
    "responsible_agency": "Department of Public Works",
    "final_address": "1844 Moss St",
    "address_councildis": "A",
    "status": "Pending",
    "contractor": "Legacy Professional Services",
    "rowid": "1148064",
    "final_x": "3675353.45077",
    "final_y": "543481.011982",
    "longitude": "-90.0870681451968",
    "latitude": "29.98856958561825",
    "geocoded_column": {
      "latitude": "29.98856958561825",
      "longitude": "-90.0870681451968"
    }
  },
  {
    "service_request": "2024-1148063",
    "request_type": "Trash/Recycling",
    "request_reason": "Return Recycling Cart",
    "date_created": "2024-11-12T14:46:16.000",
    "date_modified": "2024-11-12T14:46:17.000",
    "request_status": "Pending",
    "responsible_agency": "Department of Sanitation",
    "final_address": "4909 Perrier St",
    "address_councildis": "B",
    "status": "Pending",
    "rowid": "1148063",
    "final_x": "3668951.45396",
    "final_y": "519917.748984",
    "longitude": "-90.10808598113816",
    "latitude": "29.923968277288022",
    "geocoded_column": {
      "latitude": "29.923968277288022",
      "longitude": "-90.10808598113816"
    }
  },
  {
    "service_request": "2024-1148062",
    "request_type": "Trash/Recycling",
    "request_reason": "Replace Trash Cart",
    "date_created": "2024-11-12T14:45:40.000",
    "date_modified": "2024-11-12T14:45:41.000",
    "request_status": "Pending",
    "responsible_agency": "Department of Sanitation",
    "final_address": "1610 First St",
    "address_councildis": "B",
    "status": "Assigned to Contractor",
    "contractor": "IV Waste",
    "rowid": "1148062",
    "final_x": "3676869.66862",
    "final_y": "523262.326203",
    "longitude": "-90.08297578299579",
    "latitude": "29.932929588857792",
    "geocoded_column": {
      "latitude": "29.932929588857792",
      "longitude": "-90.08297578299579"
    }
  },
  {
    "service_request": "2024-1148061",
    "request_type": "Roads and Streets",
    "request_reason": "Pothole",
    "date_created": "2024-11-12T14:42:27.000",
    "date_modified": "2024-11-12T14:42:28.000",
    "request_status": "Pending",
    "responsible_agency": "Department of Public Works",
    "final_address": "4635 Bundy Rd",
    "address_councildis": "E",
    "status": "Pending",
    "rowid": "1148061",
    "final_x": "3709533.96721",
    "final_y": "555105.112345",
    "longitude": "-89.97866953650895",
    "latitude": "30.019464920772673",
    "geocoded_column": {
      "latitude": "30.019464920772673",
      "longitude": "-89.97866953650895"
    }
  },
  {
    "service_request": "2024-1148060",
    "request_type": "Streetlights",
    "request_reason": "Streetlight Outage/Malfunction",
    "date_created": "2024-11-12T14:39:47.000",
    "date_modified": "2024-11-12T14:39:48.000",
    "request_status": "Pending",
    "responsible_agency": "Department of Public Works",
    "final_address": "1844 Moss St",
    "address_councildis": "A",
    "status": "Pending",
    "contractor": "Legacy Professional Services",
    "rowid": "1148060",
    "final_x": "3675353.45077",
    "final_y": "543481.011982",
    "longitude": "-90.0870681451968",
    "latitude": "29.98856958561825",
    "geocoded_column": {
      "latitude": "29.98856958561825",
      "longitude": "-90.0870681451968"
    }
  },
  {
    "service_request": "2024-1148059",
    "request_type": "Trash/Recycling",
    "request_reason": "Order Second Trash Cart",
    "date_created": "2024-11-12T14:38:49.000",
    "date_modified": "2024-11-12T14:38:50.000",
    "request_status": "Pending",
    "responsible_agency": "Department of Sanitation",
    "final_address": "7612 Michigan St",
    "address_councildis": "E",
    "status": "Assigned to Contractor",
    "contractor": "Waste Pro",
    "rowid": "1148059",
    "final_x": "3711813.72805",
    "final_y": "566383.044387",
    "longitude": "-89.97104267244717",
    "latitude": "30.05040043293978",
    "geocoded_column": {
      "latitude": "30.05040043293978",
      "longitude": "-89.97104267244717"
    }
  },
  {
    "service_request": "2024-1148058",
    "request_type": "Trash/Recycling",
    "request_reason": "Repair Trash Cart",
    "date_created": "2024-11-12T14:37:59.000",
    "date_modified": "2024-11-12T14:38:00.000",
    "request_status": "Pending",
    "responsible_agency": "Department of Sanitation",
    "final_address": "7612 Michigan St",
    "address_councildis": "E",
    "status": "Assigned to Contractor",
    "contractor": "Waste Pro",
    "rowid": "1148058",
    "final_x": "3711813.72805",
    "final_y": "566383.044387",
    "longitude": "-89.97104267244717",
    "latitude": "30.05040043293978",
    "geocoded_column": {
      "latitude": "30.05040043293978",
      "longitude": "-89.97104267244717"
    }
  },
  {
    "service_request": "2024-1148057",
    "request_type": "Streetlights",
    "request_reason": "Streetlight Outage/Malfunction",
    "date_created": "2024-11-12T14:37:30.000",
    "date_modified": "2024-11-12T14:37:31.000",
    "request_status": "Pending",
    "responsible_agency": "Department of Public Works",
    "final_address": "1844 Moss St",
    "address_councildis": "A",
    "status": "Pending",
    "contractor": "Legacy Professional Services",
    "rowid": "1148057",
    "final_x": "3675353.45077",
    "final_y": "543481.011982",
    "longitude": "-90.0870681451968",
    "latitude": "29.98856958561825",
    "geocoded_column": {
      "latitude": "29.98856958561825",
      "longitude": "-90.0870681451968"
    }
  },
  {
    "service_request": "2024-1148056",
    "request_type": "Trash/Recycling",
    "request_reason": "Request a Large Item Pick Up",
    "date_created": "2024-11-12T14:35:29.000",
    "date_modified": "2024-11-12T14:35:30.000",
    "request_status": "Pending",
    "responsible_agency": "Department of Sanitation",
    "final_address": "1325 Governor Nicholls St",
    "address_councildis": "C",
    "status": "Assigned to Contractor",
    "contractor": "IV Waste",
    "rowid": "1148056",
    "final_x": "3681820.4966",
    "final_y": "535466.299078",
    "longitude": "-90.06692058742148",
    "latitude": "29.966336922897145",
    "geocoded_column": {
      "latitude": "29.966336922897145",
      "longitude": "-90.06692058742148"
    }
  },
  {
    "service_request": "2024-1148055",
    "request_type": "Streetlights",
    "request_reason": "Streetlight Outage/Malfunction",
    "date_created": "2024-11-12T14:27:51.000",
    "date_modified": "2024-11-12T14:27:52.000",
    "request_status": "Pending",
    "responsible_agency": "Department of Public Works",
    "final_address": "307 Henry Clay Ave",
    "address_councildis": "A",
    "status": "Pending",
    "contractor": "Legacy Professional Services",
    "rowid": "1148055",
    "final_x": "3663231.02714",
    "final_y": "517979.95007",
    "longitude": "-90.12620785122093",
    "latitude": "29.91880688845604",
    "geocoded_column": {
      "latitude": "29.91880688845604",
      "longitude": "-90.12620785122093"
    }
  },
  {
    "service_request": "2024-1148054",
    "request_type": "Trash/Recycling",
    "request_reason": "Order Recycling Cart",
    "date_created": "2024-11-12T14:26:25.000",
    "date_modified": "2024-11-12T14:26:25.000",
    "request_status": "Pending",
    "responsible_agency": "Department of Sanitation",
    "final_address": "600 N Lopez St",
    "address_councildis": "A",
    "status": "Pending",
    "rowid": "1148054",
    "final_x": "3675060.23054",
    "final_y": "537721.57268",
    "longitude": "-90.08819202574117",
    "latitude": "29.972741872681475",
    "geocoded_column": {
      "latitude": "29.972741872681475",
      "longitude": "-90.08819202574117"
    }
  },
  {
    "service_request": "2024-1148053",
    "request_type": "Trash/Recycling",
    "request_reason": "Repair Recycling Cart",
    "date_created": "2024-11-12T14:24:10.000",
    "date_modified": "2024-11-12T14:24:11.000",
    "request_status": "Pending",
    "responsible_agency": "Department of Sanitation",
    "final_address": "8119 Oak St",
    "address_councildis": "A",
    "status": "Pending",
    "rowid": "1148053",
    "final_x": "3661863.68237",
    "final_y": "528517.147136",
    "longitude": "-90.13017462602147",
    "latitude": "29.947820400958737",
    "geocoded_column": {
      "latitude": "29.947820400958737",
      "longitude": "-90.13017462602147"
    }
  },
  {
    "service_request": "2024-1148052",
    "request_type": "Trash/Recycling",
    "request_reason": "Request a Large Item Pick Up",
    "date_created": "2024-11-12T14:23:49.000",
    "date_modified": "2024-11-12T14:23:50.000",
    "request_status": "Pending",
    "responsible_agency": "Department of Sanitation",
    "final_address": "1212 Forstall St",
    "address_councildis": "E",
    "status": "Assigned to Contractor",
    "contractor": "Waste Pro",
    "rowid": "1148052",
    "final_x": "3696346.95907",
    "final_y": "534688.817478",
    "longitude": "-90.02107462673737",
    "latitude": "29.963749671208532",
    "geocoded_column": {
      "latitude": "29.963749671208532",
      "longitude": "-90.02107462673737"
    }
  },
  {
    "service_request": "2024-1148051",
    "request_type": "Trash/Recycling",
    "request_reason": "Missed Trash Pick-Up",
    "date_created": "2024-11-12T14:22:20.000",
    "date_modified": "2024-11-12T16:34:57.000",
    "case_close_date": "2024-11-12T10:34:57.000",
    "request_status": "Closed",
    "responsible_agency": "Department of Sanitation",
    "final_address": "9930 E Rockton Cir",
    "address_councildis": "E",
    "status": "Invalid Request",
    "contractor": "Waste Pro",
    "contractor_action": "Invalid Pick-Up",
    "rowid": "1148051",
    "final_x": "3708608.03076",
    "final_y": "562702.971552",
    "longitude": "-89.98131189526949",
    "latitude": "30.040386111473406",
    "geocoded_column": {
      "latitude": "30.040386111473406",
      "longitude": "-89.98131189526949"
    }
  },
  {
    "service_request": "2024-1148050",
    "request_type": "Abandoned Vehicles",
    "request_reason": "Abandoned/Junk Vehicles",
    "date_created": "2024-11-12T14:18:44.000",
    "date_modified": "2024-11-12T14:18:44.000",
    "request_status": "Pending",
    "responsible_agency": "Department of Public Works",
    "final_address": "1729 Laharpe St",
    "address_councildis": "D",
    "status": "Pending",
    "rowid": "1148050",
    "final_x": "3681473.47381",
    "final_y": "537888.691721",
    "longitude": "-90.06793199785254",
    "latitude": "29.973008209393694",
    "geocoded_column": {
      "latitude": "29.973008209393694",
      "longitude": "-90.06793199785254"
    }
  },
  {
    "service_request": "2024-1148049",
    "request_type": "Mosquito, Termite & Rodent Control",
    "request_reason": "Mosquito Complaint",
    "date_created": "2024-11-12T14:18:31.000",
    "date_modified": "2024-11-12T14:23:58.000",
    "request_status": "Pending",
    "responsible_agency": "Mosquito, Termite & Rodent Control Board",
    "final_address": "3400 BLK Bienville Ave",
    "address_councildis": "B",
    "status": "Pending",
    "rowid": "1148049",
    "final_x": "3673484.17695",
    "final_y": "537529.591723",
    "longitude": "-90.09317606637765",
    "latitude": "29.97226098768992",
    "geocoded_column": {
      "latitude": "29.97226098768992",
      "longitude": "-90.09317606637765"
    }
  },
  {
    "service_request": "2024-1148048",
    "request_type": "Abandoned Vehicles",
    "request_reason": "Abandoned/Junk Vehicles",
    "date_created": "2024-11-12T14:16:24.000",
    "date_modified": "2024-11-12T14:16:24.000",
    "request_status": "Pending",
    "responsible_agency": "Department of Public Works",
    "final_address": "1729 Laharpe St",
    "address_councildis": "D",
    "status": "Pending",
    "rowid": "1148048",
    "final_x": "3681473.47381",
    "final_y": "537888.691721",
    "longitude": "-90.06793199785254",
    "latitude": "29.973008209393694",
    "geocoded_column": {
      "latitude": "29.973008209393694",
      "longitude": "-90.06793199785254"
    }
  },
  {
    "service_request": "2024-1148047",
    "request_type": "Abandoned Vehicles",
    "request_reason": "Abandoned/Junk Vehicles",
    "date_created": "2024-11-12T14:13:57.000",
    "date_modified": "2024-11-12T14:13:57.000",
    "request_status": "Pending",
    "responsible_agency": "Department of Public Works",
    "final_address": "167 30Th St",
    "address_councildis": "A",
    "status": "Pending",
    "rowid": "1148047",
    "final_x": "3665587.19079",
    "final_y": "550562.629204",
    "longitude": "-90.1176795107548",
    "latitude": "30.0083300604296",
    "geocoded_column": {
      "latitude": "30.0083300604296",
      "longitude": "-90.1176795107548"
    }
  },
  {
    "service_request": "2024-1148046",
    "request_type": "Trash/Recycling",
    "request_reason": "Replace Trash Cart",
    "date_created": "2024-11-12T14:04:14.000",
    "date_modified": "2024-11-12T14:04:15.000",
    "request_status": "Pending",
    "responsible_agency": "Department of Sanitation",
    "final_address": "3233 Banks St",
    "address_councildis": "B",
    "status": "Assigned to Contractor",
    "contractor": "IV Waste",
    "rowid": "1148046",
    "final_x": "3672960.63156",
    "final_y": "535492.249414",
    "longitude": "-90.09489905731338",
    "latitude": "29.96667455410855",
    "geocoded_column": {
      "latitude": "29.96667455410855",
      "longitude": "-90.09489905731338"
    }
  },
  {
    "service_request": "2024-1148045",
    "request_type": "Roads and Streets",
    "request_reason": "Pothole",
    "date_created": "2024-11-12T14:00:20.000",
    "date_modified": "2024-11-12T14:00:21.000",
    "request_status": "Pending",
    "responsible_agency": "Department of Public Works",
    "final_address": "6300 Canal Blvd",
    "address_councildis": "A",
    "status": "Pending",
    "rowid": "1148045",
    "final_x": "3668554.48321",
    "final_y": "549388.901651",
    "longitude": "-90.10834451990824",
    "latitude": "30.00501582456717",
    "geocoded_column": {
      "latitude": "30.00501582456717",
      "longitude": "-90.10834451990824"
    }
  },
  {
    "service_request": "2024-1148044",
    "request_type": "Streetlights",
    "request_reason": "Streetlight Outage/Malfunction",
    "date_created": "2024-11-12T13:58:33.000",
    "date_modified": "2024-11-12T13:58:35.000",
    "request_status": "Pending",
    "responsible_agency": "Department of Public Works",
    "final_address": "GRAVIER ST & S GAYOSO ST",
    "address_councildis": "B",
    "status": "Pending",
    "contractor": "Legacy Professional Services",
    "rowid": "1148044",
    "final_x": "3672870.1",
    "final_y": "533926.38",
    "longitude": "-90.0952383873891",
    "latitude": "29.962371628619717",
    "geocoded_column": {
      "latitude": "29.962371628619717",
      "longitude": "-90.0952383873891"
    }
  },
  {
    "service_request": "2024-1148043",
    "request_type": "Health Related Request",
    "request_reason": "Homeless Encampment Complaint",
    "date_created": "2024-11-12T13:57:53.000",
    "date_modified": "2024-11-12T13:57:54.000",
    "request_status": "Pending",
    "responsible_agency": "Health Department",
    "final_address": "535 S Tonti St",
    "address_councildis": "B",
    "status": "Pending",
    "rowid": "1148043",
    "final_x": "3675294.43976",
    "final_y": "532872.244996",
    "longitude": "-90.08761884845691",
    "latitude": "29.959400860653506",
    "geocoded_column": {
      "latitude": "29.959400860653506",
      "longitude": "-90.08761884845691"
    }
  },
  {
    "service_request": "2024-1148042",
    "request_type": "Property Maintenance",
    "request_reason": "Property Maintenance",
    "date_created": "2024-11-12T13:56:11.000",
    "date_modified": "2024-11-12T13:56:12.000",
    "request_status": "Pending",
    "responsible_agency": "Department of Code Enforcement",
    "final_address": "6000 Bullard Ave",
    "address_councildis": "E",
    "status": "Pending",
    "rowid": "1148042",
    "final_x": "3714876.25311",
    "final_y": "563881.658913",
    "longitude": "-89.96145788051206",
    "latitude": "30.043422170200817",
    "geocoded_column": {
      "latitude": "30.043422170200817",
      "longitude": "-89.96145788051206"
    }
  },
  {
    "service_request": "2024-1148041",
    "request_type": "Drainage",
    "request_reason": "Drainage Manhole Cover Missing or Damaged",
    "date_created": "2024-11-12T13:52:22.000",
    "date_modified": "2024-11-12T13:52:23.000",
    "request_status": "Pending",
    "responsible_agency": "Department of Public Works",
    "final_address": "3927 Peach Tree Ct",
    "address_councildis": "C",
    "status": "Pending",
    "rowid": "1148041",
    "final_x": "3704409.2625",
    "final_y": "512676.502961",
    "longitude": "-89.99642590428618",
    "latitude": "29.902967178527803",
    "geocoded_column": {
      "latitude": "29.902967178527803",
      "longitude": "-89.99642590428618"
    }
  },
  {
    "service_request": "2024-1148040",
    "request_type": "Roads and Streets",
    "request_reason": "Street Subsidence (Sinking)",
    "date_created": "2024-11-12T13:50:52.000",
    "date_modified": "2024-11-12T13:50:53.000",
    "request_status": "Pending",
    "responsible_agency": "Department of Public Works",
    "final_address": "3927 Peach Tree Ct",
    "address_councildis": "C",
    "status": "Pending",
    "rowid": "1148040",
    "final_x": "3704409.2625",
    "final_y": "512676.502961",
    "longitude": "-89.99642590428618",
    "latitude": "29.902967178527803",
    "geocoded_column": {
      "latitude": "29.902967178527803",
      "longitude": "-89.99642590428618"
    }
  },
  {
    "service_request": "2024-1148039",
    "request_type": "Streetlights",
    "request_reason": "Streetlight Outage/Malfunction",
    "date_created": "2024-11-12T13:46:59.000",
    "date_modified": "2024-11-12T13:47:00.000",
    "request_status": "Pending",
    "responsible_agency": "Department of Public Works",
    "final_address": "1936 S Carrollton Ave",
    "address_councildis": "A",
    "status": "Pending",
    "contractor": "Legacy Professional Services",
    "rowid": "1148039",
    "final_x": "3663805.61997",
    "final_y": "530442.67725",
    "longitude": "-90.12397896327734",
    "latitude": "29.953058776656835",
    "geocoded_column": {
      "latitude": "29.953058776656835",
      "longitude": "-90.12397896327734"
    }
  },
  {
    "service_request": "2024-1148038",
    "request_type": "Trash/Recycling",
    "request_reason": "Request a Large Item Pick Up",
    "date_created": "2024-11-12T13:46:19.000",
    "date_modified": "2024-11-12T13:46:20.000",
    "request_status": "Pending",
    "responsible_agency": "Department of Sanitation",
    "final_address": "1801 Andry St",
    "address_councildis": "E",
    "status": "Assigned to Contractor",
    "contractor": "Waste Pro",
    "rowid": "1148038",
    "final_x": "3697940.7169",
    "final_y": "536606.802631",
    "longitude": "-90.01597209202166",
    "latitude": "29.968973161261086",
    "geocoded_column": {
      "latitude": "29.968973161261086",
      "longitude": "-90.01597209202166"
    }
  },
  {
    "service_request": "2024-1148037",
    "request_type": "Trash/Recycling",
    "request_reason": "Order Trash Cart",
    "date_created": "2024-11-12T13:43:44.000",
    "date_modified": "2024-11-12T13:43:46.000",
    "request_status": "Pending",
    "responsible_agency": "Department of Sanitation",
    "final_address": "1800 Andry St A",
    "address_councildis": "E",
    "status": "Assigned to Contractor",
    "contractor": "Waste Pro",
    "rowid": "1148037",
    "final_x": "3697860.23255",
    "final_y": "536624.958343",
    "longitude": "-90.0162256064056",
    "latitude": "29.969025627027865",
    "geocoded_column": {
      "latitude": "29.969025627027865",
      "longitude": "-90.0162256064056"
    }
  },
  {
    "service_request": "2024-1148036",
    "request_type": "Trash/Recycling",
    "request_reason": "Order Trash Cart",
    "date_created": "2024-11-12T13:39:54.000",
    "date_modified": "2024-11-12T14:08:56.000",
    "request_status": "Pending",
    "responsible_agency": "Department of Sanitation",
    "final_address": "6464 Oakland Dr",
    "address_councildis": "A",
    "status": "Assigned to Contractor",
    "contractor": "IV Waste",
    "rowid": "1148036",
    "final_x": "3666953.69351",
    "final_y": "540111.452299",
    "longitude": "-90.11371373164992",
    "latitude": "29.97955296939371",
    "geocoded_column": {
      "latitude": "29.97955296939371",
      "longitude": "-90.11371373164992"
    }
  },
  {
    "service_request": "2024-1148035",
    "request_type": "Streetlights",
    "request_reason": "Streetlight Outage/Malfunction",
    "date_created": "2024-11-12T13:39:44.000",
    "date_modified": "2024-11-12T13:39:45.000",
    "request_status": "Pending",
    "responsible_agency": "Department of Public Works",
    "final_address": "5938 Mandeville St",
    "address_councildis": "D",
    "status": "Pending",
    "contractor": "Legacy Professional Services",
    "rowid": "1148035",
    "final_x": "3684241.52713",
    "final_y": "554971.450392",
    "longitude": "-90.05858976304678",
    "latitude": "30.019895338693445",
    "geocoded_column": {
      "latitude": "30.019895338693445",
      "longitude": "-90.05858976304678"
    }
  },
  {
    "service_request": "2024-1148034",
    "request_type": "Trash/Recycling",
    "request_reason": "Repair Recycling Cart",
    "date_created": "2024-11-12T13:39:10.000",
    "date_modified": "2024-11-12T13:39:10.000",
    "request_status": "Pending",
    "responsible_agency": "Department of Sanitation",
    "final_address": "11161 S Idlewood Ct",
    "address_councildis": "E",
    "status": "Pending",
    "rowid": "1148034",
    "final_x": "3716353.30808",
    "final_y": "559512.465757",
    "longitude": "-89.95695568118933",
    "latitude": "30.031359945479057",
    "geocoded_column": {
      "latitude": "30.031359945479057",
      "longitude": "-89.95695568118933"
    }
  },
  {
    "service_request": "2024-1148033",
    "request_type": "Safety & Permits",
    "request_reason": "Construction permit",
    "date_created": "2024-11-12T13:33:21.000",
    "date_modified": "2024-11-12T13:33:21.000",
    "request_status": "Pending",
    "responsible_agency": "Safety and Permits",
    "final_address": "1823 Marais St",
    "address_councildis": "C",
    "status": "Pending",
    "rowid": "1148033",
    "final_x": "3683681.06345",
    "final_y": "536597.960583",
    "longitude": "-90.06100527433433",
    "latitude": "29.969391927145153",
    "geocoded_column": {
      "latitude": "29.969391927145153",
      "longitude": "-90.06100527433433"
    }
  },
  {
    "service_request": "2024-1148032",
    "request_type": "Trash/Recycling",
    "request_reason": "Request a Large Item Pick Up",
    "date_created": "2024-11-12T13:20:46.000",
    "date_modified": "2024-11-12T13:20:47.000",
    "request_status": "Pending",
    "responsible_agency": "Department of Sanitation",
    "final_address": "4769 Sherwood Dr",
    "address_councildis": "E",
    "status": "Assigned to Contractor",
    "contractor": "Waste Pro",
    "rowid": "1148032",
    "final_x": "3718060.67468",
    "final_y": "557055.41481",
    "longitude": "-89.9516540215596",
    "latitude": "30.02454753891973",
    "geocoded_column": {
      "latitude": "30.02454753891973",
      "longitude": "-89.9516540215596"
    }
  },
  {
    "service_request": "2024-1148031",
    "request_type": "Trash/Recycling",
    "request_reason": "Replace Trash Cart",
    "date_created": "2024-11-12T13:18:21.000",
    "date_modified": "2024-11-12T13:18:22.000",
    "request_status": "Pending",
    "responsible_agency": "Department of Sanitation",
    "final_address": "2627 Jourdan Ave",
    "address_councildis": "E",
    "status": "Assigned to Contractor",
    "contractor": "Waste Pro",
    "rowid": "1148031",
    "final_x": "3696716.49079",
    "final_y": "540328.562571",
    "longitude": "-90.01970351181897",
    "latitude": "29.97924530770744",
    "geocoded_column": {
      "latitude": "29.97924530770744",
      "longitude": "-90.01970351181897"
    }
  },
  {
    "service_request": "2024-1148030",
    "request_type": "Alley Ways",
    "request_reason": "Alley Way Regrading",
    "date_created": "2024-11-12T13:15:31.000",
    "date_modified": "2024-11-12T13:15:31.000",
    "request_status": "Pending",
    "responsible_agency": "Department of Public Works",
    "final_address": "6839 Colbert St",
    "address_councildis": "A",
    "status": "Pending",
    "rowid": "1148030",
    "final_x": "3667992.99508",
    "final_y": "553075.834519",
    "longitude": "-90.10999402739387",
    "latitude": "30.015170092422316",
    "geocoded_column": {
      "latitude": "30.015170092422316",
      "longitude": "-90.10999402739387"
    }
  },
  {
    "service_request": "2024-1148029",
    "request_type": "Streetlights",
    "request_reason": "Streetlight Outage/Malfunction",
    "date_created": "2024-11-12T13:14:05.000",
    "date_modified": "2024-11-12T13:14:06.000",
    "request_status": "Pending",
    "responsible_agency": "Department of Public Works",
    "final_address": "1326 Tricou St",
    "address_councildis": "E",
    "status": "Pending",
    "contractor": "Legacy Professional Services",
    "rowid": "1148029",
    "final_x": "3700460.73898",
    "final_y": "533965.816517",
    "longitude": "-90.00811020833022",
    "latitude": "29.961631493097862",
    "geocoded_column": {
      "latitude": "29.961631493097862",
      "longitude": "-90.00811020833022"
    }
  },
  {
    "service_request": "2024-1148028",
    "request_type": "Trash/Recycling",
    "request_reason": "Request a Large Item Pick Up",
    "date_created": "2024-11-12T13:14:02.000",
    "date_modified": "2024-11-12T13:14:03.000",
    "request_status": "Pending",
    "responsible_agency": "Department of Sanitation",
    "final_address": "2627 Jourdan Ave",
    "address_councildis": "E",
    "status": "Assigned to Contractor",
    "contractor": "Waste Pro",
    "rowid": "1148028",
    "final_x": "3696716.49079",
    "final_y": "540328.562571",
    "longitude": "-90.01970351181897",
    "latitude": "29.97924530770744",
    "geocoded_column": {
      "latitude": "29.97924530770744",
      "longitude": "-90.01970351181897"
    }
  },
  {
    "service_request": "2024-1148027",
    "request_type": "Abandoned Vehicles",
    "request_reason": "Abandoned/Junk Vehicles",
    "date_created": "2024-11-12T13:09:33.000",
    "date_modified": "2024-11-12T13:09:34.000",
    "request_status": "Pending",
    "responsible_agency": "Department of Public Works",
    "final_address": "919 Bartholomew St",
    "address_councildis": "C",
    "status": "Pending",
    "rowid": "1148027",
    "final_x": "3691674.64457",
    "final_y": "534663.240262",
    "longitude": "-90.03583019188137",
    "latitude": "29.96382564718524",
    "geocoded_column": {
      "latitude": "29.96382564718524",
      "longitude": "-90.03583019188137"
    }
  },
  {
    "service_request": "2024-1148026",
    "request_type": "Abandoned Vehicles",
    "request_reason": "Abandoned/Junk Vehicles",
    "date_created": "2024-11-12T12:58:15.000",
    "date_modified": "2024-11-12T13:02:24.000",
    "request_status": "Pending",
    "responsible_agency": "Department of Public Works",
    "final_address": "CARONDELET ST & EUTERPE ST",
    "address_councildis": "B",
    "status": "Pending",
    "rowid": "1148026",
    "final_x": "3678489.5",
    "final_y": "525265.38",
    "longitude": "-90.07779280515274",
    "latitude": "29.93838862541601",
    "geocoded_column": {
      "latitude": "29.93838862541601",
      "longitude": "-90.07779280515274"
    }
  },
  {
    "service_request": "2024-1148025",
    "request_type": "Parks & Parkways",
    "request_reason": "Request Tree Service (Right of Way/Public Property)",
    "date_created": "2024-11-12T12:49:05.000",
    "date_modified": "2024-11-12T12:49:05.000",
    "request_status": "Pending",
    "responsible_agency": "Department of Parks & Parkway",
    "final_address": "4134 Orleans Ave",
    "address_councildis": "A",
    "status": "Pending",
    "rowid": "1148025",
    "final_x": "3672365.12513",
    "final_y": "540238.056459",
    "longitude": "-90.0966179081195",
    "latitude": "29.979741601416478",
    "geocoded_column": {
      "latitude": "29.979741601416478",
      "longitude": "-90.0966179081195"
    }
  },
  {
    "service_request": "2024-1148024",
    "request_type": "Property Maintenance",
    "request_reason": "Property Maintenance",
    "date_created": "2024-11-12T12:47:47.000",
    "date_modified": "2024-11-12T12:47:47.000",
    "request_status": "Pending",
    "responsible_agency": "Department of Code Enforcement",
    "final_address": "1019 First St",
    "address_councildis": "B",
    "status": "Pending",
    "rowid": "1148024",
    "final_x": "3678215.57557",
    "final_y": "521345.824121",
    "longitude": "-90.07879309510294",
    "latitude": "29.927619382415706",
    "geocoded_column": {
      "latitude": "29.927619382415706",
      "longitude": "-90.07879309510294"
    }
  },
  {
    "service_request": "2024-1148023",
    "request_type": "Abandoned Vehicles",
    "request_reason": "Abandoned/Junk Vehicles",
    "date_created": "2024-11-12T12:47:02.000",
    "date_modified": "2024-11-12T12:48:46.000",
    "request_status": "Pending",
    "responsible_agency": "Department of Public Works",
    "final_address": "1528 Joliet St",
    "address_councildis": "A",
    "status": "Pending",
    "rowid": "1148023",
    "final_x": "3661755.16922",
    "final_y": "530317.914946",
    "longitude": "-90.13045755926701",
    "latitude": "29.952775066973718",
    "geocoded_column": {
      "latitude": "29.952775066973718",
      "longitude": "-90.13045755926701"
    }
  },
  {
    "service_request": "2024-1148022",
    "request_type": "Parks & Parkways",
    "request_reason": "Request Tree Service (Right of Way/Public Property)",
    "date_created": "2024-11-12T12:46:11.000",
    "date_modified": "2024-11-12T12:46:11.000",
    "request_status": "Pending",
    "responsible_agency": "Department of Parks & Parkway",
    "final_address": "4134 Orleans Ave",
    "address_councildis": "A",
    "status": "Pending",
    "rowid": "1148022",
    "final_x": "3672365.12513",
    "final_y": "540238.056459",
    "longitude": "-90.0966179081195",
    "latitude": "29.979741601416478",
    "geocoded_column": {
      "latitude": "29.979741601416478",
      "longitude": "-90.0966179081195"
    }
  },
  {
    "service_request": "2024-1148021",
    "request_type": "Abandoned Vehicles",
    "request_reason": "Abandoned/Junk Vehicles",
    "date_created": "2024-11-12T12:44:22.000",
    "date_modified": "2024-11-12T12:44:22.000",
    "request_status": "Pending",
    "responsible_agency": "Department of Public Works",
    "final_address": "2620 Cleveland Ave",
    "address_councildis": "B",
    "status": "Pending",
    "rowid": "1148021",
    "final_x": "3675358.83752",
    "final_y": "534467.364101",
    "longitude": "-90.08736072350239",
    "latitude": "29.963784976481424",
    "geocoded_column": {
      "latitude": "29.963784976481424",
      "longitude": "-90.08736072350239"
    }
  },
  {
    "service_request": "2024-1148020",
    "request_type": "Trash/Recycling",
    "request_reason": "Request a Large Item Pick Up",
    "date_created": "2024-11-12T12:43:32.000",
    "date_modified": "2024-11-12T12:43:33.000",
    "request_status": "Pending",
    "responsible_agency": "Department of Sanitation",
    "final_address": "5951 Eastover Dr",
    "address_councildis": "E",
    "status": "Assigned to Contractor",
    "contractor": "Waste Pro",
    "rowid": "1148020",
    "final_x": "3719033.12434",
    "final_y": "564882.67645",
    "longitude": "-89.94828232873496",
    "latitude": "30.046037058225796",
    "geocoded_column": {
      "latitude": "30.046037058225796",
      "longitude": "-89.94828232873496"
    }
  },
  {
    "service_request": "2024-1148019",
    "request_type": "Trash/Recycling",
    "request_reason": "Request a Large Item Pick Up",
    "date_created": "2024-11-12T12:41:54.000",
    "date_modified": "2024-11-12T12:41:55.000",
    "request_status": "Pending",
    "responsible_agency": "Department of Sanitation",
    "final_address": "334 Broadway St",
    "address_councildis": "A",
    "status": "Assigned to Contractor",
    "contractor": "IV Waste",
    "rowid": "1148019",
    "final_x": "3661585.68838",
    "final_y": "522741.624698",
    "longitude": "-90.13124367637386",
    "latitude": "29.931947568263265",
    "geocoded_column": {
      "latitude": "29.931947568263265",
      "longitude": "-90.13124367637386"
    }
  },
  {
    "service_request": "2024-1148018",
    "request_type": "Trash/Recycling",
    "request_reason": "Request a Large Item Pick Up",
    "date_created": "2024-11-12T12:39:00.000",
    "date_modified": "2024-11-12T12:39:01.000",
    "request_status": "Pending",
    "responsible_agency": "Department of Sanitation",
    "final_address": "2430 Annette St",
    "address_councildis": "D",
    "status": "Assigned to Contractor",
    "contractor": "IV Waste",
    "rowid": "1148018",
    "final_x": "3682696.34191",
    "final_y": "541208.27342",
    "longitude": "-90.06395380513959",
    "latitude": "29.982098711568927",
    "geocoded_column": {
      "latitude": "29.982098711568927",
      "longitude": "-90.06395380513959"
    }
  },
  {
    "service_request": "2024-1148017",
    "request_type": "Trash/Recycling",
    "request_reason": "Replace Trash Cart",
    "date_created": "2024-11-12T12:38:58.000",
    "date_modified": "2024-11-12T12:38:59.000",
    "request_status": "Pending",
    "responsible_agency": "Department of Sanitation",
    "final_address": "5218 Conti St",
    "address_councildis": "A",
    "status": "Assigned to Contractor",
    "contractor": "IV Waste",
    "rowid": "1148017",
    "final_x": "3668469.0642",
    "final_y": "541744.437004",
    "longitude": "-90.10887245248489",
    "latitude": "29.983998686809652",
    "geocoded_column": {
      "latitude": "29.983998686809652",
      "longitude": "-90.10887245248489"
    }
  },
  {
    "service_request": "2024-1148016",
    "request_type": "Abandoned Vehicles",
    "request_reason": "Abandoned/Junk Vehicles",
    "date_created": "2024-11-12T12:34:52.000",
    "date_modified": "2024-11-12T12:34:52.000",
    "request_status": "Pending",
    "responsible_agency": "Department of Public Works",
    "final_address": "2017 General Pershing St",
    "address_councildis": "B",
    "status": "Pending",
    "rowid": "1148016",
    "final_x": "3671132.20135",
    "final_y": "522503.39737",
    "longitude": "-90.1011143517225",
    "latitude": "29.931013683548763",
    "geocoded_column": {
      "latitude": "29.931013683548763",
      "longitude": "-90.1011143517225"
    }
  },
  {
    "service_request": "2024-1148015",
    "request_type": "Trash/Recycling",
    "request_reason": "Request a Large Item Pick Up",
    "date_created": "2024-11-12T12:34:34.000",
    "date_modified": "2024-11-12T12:34:36.000",
    "request_status": "Pending",
    "responsible_agency": "Department of Sanitation",
    "final_address": "925 Louisa St",
    "address_councildis": "C",
    "status": "Assigned to Contractor",
    "contractor": "IV Waste",
    "rowid": "1148015",
    "final_x": "3689441.88508",
    "final_y": "535263.892742",
    "longitude": "-90.04285964650481",
    "latitude": "29.96554656194871",
    "geocoded_column": {
      "latitude": "29.96554656194871",
      "longitude": "-90.04285964650481"
    }
  },
  {
    "service_request": "2024-1148014",
    "request_type": "Trash/Recycling",
    "request_reason": "Request a Large Item Pick Up",
    "date_created": "2024-11-12T12:32:58.000",
    "date_modified": "2024-11-12T12:32:59.000",
    "request_status": "Pending",
    "responsible_agency": "Department of Sanitation",
    "final_address": "925 Louisa St",
    "address_councildis": "C",
    "status": "Assigned to Contractor",
    "contractor": "IV Waste",
    "rowid": "1148014",
    "final_x": "3689441.88508",
    "final_y": "535263.892742",
    "longitude": "-90.04285964650481",
    "latitude": "29.96554656194871",
    "geocoded_column": {
      "latitude": "29.96554656194871",
      "longitude": "-90.04285964650481"
    }
  },
  {
    "service_request": "2024-1148013",
    "request_type": "Trash/Recycling",
    "request_reason": "Request a Large Item Pick Up",
    "date_created": "2024-11-12T12:31:25.000",
    "date_modified": "2024-11-12T12:31:25.000",
    "request_status": "Pending",
    "responsible_agency": "Department of Sanitation",
    "final_address": "3916 Sullen Pl",
    "address_councildis": "C",
    "status": "Assigned to Contractor",
    "contractor": "Richards Disposal",
    "rowid": "1148013",
    "final_x": "3707601.00561",
    "final_y": "516548.647861",
    "longitude": "-89.9862092500534",
    "latitude": "29.91351146078815",
    "geocoded_column": {
      "latitude": "29.91351146078815",
      "longitude": "-89.9862092500534"
    }
  },
  {
    "service_request": "2024-1148012",
    "request_type": "Trash/Recycling",
    "request_reason": "Request a Large Item Pick Up",
    "date_created": "2024-11-12T12:31:20.000",
    "date_modified": "2024-11-12T12:31:21.000",
    "request_status": "Pending",
    "responsible_agency": "Department of Sanitation",
    "final_address": "925 Louisa St",
    "address_councildis": "C",
    "status": "Assigned to Contractor",
    "contractor": "IV Waste",
    "rowid": "1148012",
    "final_x": "3689441.88508",
    "final_y": "535263.892742",
    "longitude": "-90.04285964650481",
    "latitude": "29.96554656194871",
    "geocoded_column": {
      "latitude": "29.96554656194871",
      "longitude": "-90.04285964650481"
    }
  },
  {
    "service_request": "2024-1148011",
    "request_type": "Streetlights",
    "request_reason": "Streetlight Outage/Malfunction",
    "date_created": "2024-11-12T12:30:30.000",
    "date_modified": "2024-11-12T12:30:31.000",
    "request_status": "Pending",
    "responsible_agency": "Department of Public Works",
    "final_address": "6200 BLK S Claiborne Ave",
    "address_councildis": "A",
    "status": "Pending",
    "contractor": "Legacy Professional Services",
    "rowid": "1148011",
    "final_x": "3667084.00569",
    "final_y": "527629.139411",
    "longitude": "-90.11372177595507",
    "latitude": "29.945226912827575",
    "geocoded_column": {
      "latitude": "29.945226912827575",
      "longitude": "-90.11372177595507"
    }
  },
  {
    "service_request": "2024-1148010",
    "request_type": "Trash/Recycling",
    "request_reason": "Order Recycling Cart",
    "date_created": "2024-11-12T12:28:44.000",
    "date_modified": "2024-11-12T12:28:44.000",
    "request_status": "Pending",
    "responsible_agency": "Department of Sanitation",
    "final_address": "410 Vallette St",
    "address_councildis": "C",
    "status": "Pending",
    "rowid": "1148010",
    "final_x": "3687582.3613",
    "final_y": "530253.075009",
    "longitude": "-90.04890930710762",
    "latitude": "29.951825997615032",
    "geocoded_column": {
      "latitude": "29.951825997615032",
      "longitude": "-90.04890930710762"
    }
  },
  {
    "service_request": "2024-1148009",
    "request_type": "Abandoned Vehicles",
    "request_reason": "Abandoned/Junk Vehicles",
    "date_created": "2024-11-12T12:24:44.000",
    "date_modified": "2024-11-12T12:26:26.000",
    "request_status": "Pending",
    "responsible_agency": "Department of Public Works",
    "final_address": "921 Bartholomew St",
    "address_councildis": "C",
    "status": "Pending",
    "rowid": "1148009",
    "final_x": "3691676.81468",
    "final_y": "534671.48679",
    "longitude": "-90.03582304402238",
    "latitude": "29.963848254674563",
    "geocoded_column": {
      "latitude": "29.963848254674563",
      "longitude": "-90.03582304402238"
    }
  },
  {
    "service_request": "2024-1148008",
    "request_type": "Graffiti Removal",
    "request_reason": "Graffiti Removal",
    "date_created": "2024-11-12T12:24:29.000",
    "date_modified": "2024-11-12T12:24:29.000",
    "request_status": "Pending",
    "responsible_agency": "Department of Code Enforcement",
    "final_address": "DUMAINE ST & MOSS ST",
    "address_councildis": "A",
    "status": "Pending",
    "rowid": "1148008",
    "final_x": "3674482.5",
    "final_y": "539565.48",
    "longitude": "-90.08995341743724",
    "latitude": "29.977829238658742",
    "geocoded_column": {
      "latitude": "29.977829238658742",
      "longitude": "-90.08995341743724"
    }
  },