[
  {
    "service_request": "2023-1020271",
    "request_type": "Property Maintenance",
    "request_reason": "Property Maintenance",
    "date_created": "2023-07-25T00:08:07.000",
    "date_modified": "2023-07-25T00:08:07.000",
    "request_status": "Pending",
    "responsible_agency": "Department of Code Enforcement",
    "final_address": "5113 E Nemours St",
    "address_councildis": "E",
    "status": "Pending",
    "rowid": "1020271",
    "final_x": "3727048.54675",
    "final_y": "562783.650144",
    "longitude": "-89.92303156708601",
    "latitude": "30.039996769914925",
    "geocoded_column": {
      "latitude": "30.039996769914925",
      "longitude": "-89.92303156708601"
    }
  },
  {
    "service_request": "2023-1020270",
    "request_type": "Roads/Drainage",
    "request_reason": "Pothole",
    "date_created": "2023-07-24T23:51:25.000",
    "date_modified": "2023-07-24T23:51:25.000",
    "request_status": "Pending",
    "responsible_agency": "Department of Public Works",
    "final_address": "1216 Milan St",
    "address_councildis": "B",
    "status": "Pending",
    "rowid": "1020270",
    "final_x": "3671646.51252",
    "final_y": "520048.424248",
    "longitude": "-90.0995741836057",
    "latitude": "29.924248076522314",
    "geocoded_column": {
      "latitude": "29.924248076522314",
      "longitude": "-90.0995741836057"
    }
  },
  {
    "service_request": "2023-1020269",
    "request_type": "Roads/Drainage",
    "request_reason": "Pothole",
    "date_created": "2023-07-24T23:45:34.000",
    "date_modified": "2023-07-24T23:45:34.000",
    "request_status": "Pending",
    "responsible_agency": "Department of Public Works",
    "final_address": "1114 General Pershing St",
    "address_councildis": "B",
    "status": "Pending",
    "rowid": "1020269",
    "final_x": "3671282.0059",
    "final_y": "519690.239352",
    "longitude": "-90.10073696943361",
    "latitude": "29.923273969038448",
    "geocoded_column": {
      "latitude": "29.923273969038448",
      "longitude": "-90.10073696943361"
    }
  },
  {
    "service_request": "2023-1020268",
    "request_type": "Roads/Drainage",
    "request_reason": "Pothole",
    "date_created": "2023-07-24T23:42:03.000",
    "date_modified": "2023-07-24T23:42:03.000",
    "request_status": "Pending",
    "responsible_agency": "Department of Public Works",
    "final_address": "1419 General Pershing St",
    "address_councildis": "B",
    "status": "Pending",
    "rowid": "1020268",
    "final_x": "3671361.78433",
    "final_y": "520550.771576",
    "longitude": "-90.10045591150714",
    "latitude": "29.925637797976027",
    "geocoded_column": {
      "latitude": "29.925637797976027",
      "longitude": "-90.10045591150714"
    }
  },
  {
    "service_request": "2023-1020267",
    "request_type": "Trash/Recycling",
    "request_reason": "Replace Trash Cart",
    "date_created": "2023-07-24T22:55:21.000",
    "date_modified": "2023-07-24T22:55:22.000",
    "request_status": "Pending",
    "responsible_agency": "Department of Sanitation",
    "final_address": "440 Millaudon St",
    "address_councildis": "A",
    "status": "Assigned to Contractor",
    "contractor": "Richards Disposal",
    "rowid": "1020267",
    "final_x": "3662047.29587",
    "final_y": "524917.913468",
    "longitude": "-90.12971425500784",
    "latitude": "29.93791835189131",
    "geocoded_column": {
      "latitude": "29.93791835189131",
      "longitude": "-90.12971425500784"
    }
  },
  {
    "service_request": "2023-1020266",
    "request_type": "Traffic Signals/Signs/Striping/Streetlights",
    "request_reason": "Street Light Outage/Malfunction",
    "date_created": "2023-07-24T22:53:26.000",
    "date_modified": "2023-07-24T22:53:27.000",
    "request_status": "Pending",
    "responsible_agency": "Department of Public Works",
    "final_address": "10900 Kinneil Rd",
    "address_councildis": "E",
    "status": "Assigned to Contractor",
    "contractor": "Legacy Professional Services",
    "rowid": "1020266",
    "final_x": "3711331.37669",
    "final_y": "564124.623905",
    "longitude": "-89.97265196275715",
    "latitude": "30.04420644779643",
    "geocoded_column": {
      "latitude": "30.04420644779643",
      "longitude": "-89.97265196275715"
    }
  },
  {
    "service_request": "2023-1020264",
    "request_type": "Trash/Recycling",
    "request_reason": "Replace Trash Cart",
    "date_created": "2023-07-24T22:32:51.000",
    "date_modified": "2023-07-24T22:37:53.000",
    "request_status": "Pending",
    "responsible_agency": "Department of Sanitation",
    "final_address": "5934 Annunciation St",
    "address_councildis": "A",
    "status": "Assigned to Contractor",
    "contractor": "Richards Disposal",
    "rowid": "1020264",
    "final_x": "3664570.63853",
    "final_y": "517719.421046",
    "longitude": "-90.12198807069457",
    "latitude": "29.91805164170748",
    "geocoded_column": {
      "latitude": "29.91805164170748",
      "longitude": "-90.12198807069457"
    }
  },
  {
    "service_request": "2023-1020263",
    "request_type": "Property Maintenance",
    "request_reason": "Property Maintenance",
    "date_created": "2023-07-24T22:00:39.000",
    "date_modified": "2023-07-24T22:00:39.000",
    "request_status": "Pending",
    "responsible_agency": "Department of Code Enforcement",
    "final_address": "13933 Explorers Ave",
    "address_councildis": "E",
    "status": "Pending",
    "rowid": "1020263",
    "final_x": "3726288.88819",
    "final_y": "570352.294375",
    "longitude": "-89.92513833389398",
    "latitude": "30.060833057589694",
    "geocoded_column": {
      "latitude": "30.060833057589694",
      "longitude": "-89.92513833389398"
    }
  },
  {
    "service_request": "2023-1020262",
    "request_type": "Roads/Drainage",
    "request_reason": "Catch Basin - Clogged",
    "date_created": "2023-07-24T22:00:18.000",
    "date_modified": "2023-07-24T22:00:18.000",
    "request_status": "Pending",
    "responsible_agency": "Department of Public Works",
    "final_address": "8333 Jeannette St",
    "address_councildis": "A",
    "status": "Pending",
    "rowid": "1020262",
    "final_x": "3661933.34554",
    "final_y": "529872.838721",
    "longitude": "-90.12990971486317",
    "latitude": "29.95154610626974",
    "geocoded_column": {
      "latitude": "29.95154610626974",
      "longitude": "-90.12990971486317"
    }
  },
  {
    "service_request": "2023-1020261",
    "request_type": "Trash/Recycling",
    "request_reason": "Replace Recycling Cart",
    "date_created": "2023-07-24T21:58:52.000",
    "date_modified": "2023-07-24T21:58:52.000",
    "request_status": "Pending",
    "responsible_agency": "Department of Sanitation",
    "final_address": "2220 Barracks St",
    "address_councildis": "D",
    "status": "Pending",
    "rowid": "1020261",
    "final_x": "3679503.52155",
    "final_y": "537530.285448",
    "longitude": "-90.07416592759908",
    "latitude": "29.972082387272767",
    "geocoded_column": {
      "latitude": "29.972082387272767",
      "longitude": "-90.07416592759908"
    }
  },
  {
    "service_request": "2023-1020260",
    "request_type": "Property Maintenance",
    "request_reason": "Property Maintenance",
    "date_created": "2023-07-24T21:57:11.000",
    "date_modified": "2023-07-24T21:57:11.000",
    "request_status": "Pending",
    "responsible_agency": "Department of Code Enforcement",
    "final_address": "13933 Explorers Ave",
    "address_councildis": "E",
    "status": "Pending",
    "rowid": "1020260",
    "final_x": "3726288.88819",
    "final_y": "570352.294375",
    "longitude": "-89.92513833389398",
    "latitude": "30.060833057589694",
    "geocoded_column": {
      "latitude": "30.060833057589694",
      "longitude": "-89.92513833389398"
    }
  },
  {
    "service_request": "2023-1020259",
    "request_type": "Parks & Parkways",
    "request_reason": "Request Tree Service (Right of Way/Public Property)",
    "date_created": "2023-07-24T21:34:37.000",
    "date_modified": "2023-07-24T21:34:37.000",
    "request_status": "Pending",
    "responsible_agency": "Department of Parks & Parkway",
    "final_address": "100 BLK Veterans Blvd",
    "address_councildis": "A",
    "status": "Pending",
    "rowid": "1020259",
    "final_x": "3665423.14878",
    "final_y": "547399.28327",
    "longitude": "-90.1183037476594",
    "latitude": "29.999636736296644",
    "geocoded_column": {
      "latitude": "29.999636736296644",
      "longitude": "-90.1183037476594"
    }
  },
  {
    "service_request": "2023-1020255",
    "request_type": "Trash/Recycling",
    "request_reason": "Request a Large Item Pick Up",
    "date_created": "2023-07-24T21:05:18.000",
    "date_modified": "2023-07-24T21:05:19.000",
    "request_status": "Pending",
    "responsible_agency": "Department of Sanitation",
    "final_address": "17 St Claude Ct",
    "address_councildis": "E",
    "status": "Assigned to Contractor",
    "contractor": "Waste Pro",
    "rowid": "1020255",
    "final_x": "3697505.41309",
    "final_y": "533625.117189",
    "longitude": "-90.01745493947236",
    "latitude": "29.960788342769465",
    "geocoded_column": {
      "latitude": "29.960788342769465",
      "longitude": "-90.01745493947236"
    }
  },
  {
    "service_request": "2023-1020254",
    "request_type": "Abandoned Vehicles",
    "request_reason": "Abandoned/Junk Vehicles",
    "date_created": "2023-07-24T21:03:46.000",
    "date_modified": "2023-07-24T21:03:46.000",
    "request_status": "Pending",
    "responsible_agency": "Department of Public Works",
    "final_address": "1436 France St",
    "address_councildis": "D",
    "status": "Pending",
    "rowid": "1020254",
    "final_x": "3692681.09648",
    "final_y": "536540.385223",
    "longitude": "-90.03258463479055",
    "latitude": "29.968955758337053",
    "geocoded_column": {
      "latitude": "29.968955758337053",
      "longitude": "-90.03258463479055"
    }
  },
  {
    "service_request": "2023-1020253",
    "request_type": "Traffic Signals/Signs/Striping/Streetlights",
    "request_reason": "Street Light Outage/Malfunction",
    "date_created": "2023-07-24T21:00:42.000",
    "date_modified": "2023-07-24T21:00:43.000",
    "request_status": "Pending",
    "responsible_agency": "Department of Public Works",
    "final_address": "6854 General Haig St",
    "address_councildis": "A",
    "status": "Assigned to Contractor",
    "contractor": "Legacy Professional Services",
    "rowid": "1020253",
    "final_x": "3670957.52987",
    "final_y": "552940.598935",
    "longitude": "-90.1006320666859",
    "latitude": "30.01471088208776",
    "geocoded_column": {
      "latitude": "30.01471088208776",
      "longitude": "-90.1006320666859"
    }
  },
  {
    "service_request": "2023-1020252",
    "request_type": "Roads/Drainage",
    "request_reason": "Street Flooding / Drainage",
    "date_created": "2023-07-24T20:57:29.000",
    "date_modified": "2023-07-24T20:57:29.000",
    "request_status": "Pending",
    "responsible_agency": "Department of Public Works",
    "final_address": "427 S Lopez St",
    "address_councildis": "B",
    "status": "Pending",
    "rowid": "1020252",
    "final_x": "3672955.25876",
    "final_y": "535088.066566",
    "longitude": "-90.0949298197953",
    "latitude": "29.965563346803236",
    "geocoded_column": {
      "latitude": "29.965563346803236",
      "longitude": "-90.0949298197953"
    }
  },
  {
    "service_request": "2023-1020251",
    "request_type": "Trash/Recycling",
    "request_reason": "Missed Trash Pick-Up",
    "date_created": "2023-07-24T20:40:20.000",
    "date_modified": "2023-07-24T20:40:20.000",
    "request_status": "Pending",
    "responsible_agency": "Department of Sanitation",
    "final_address": "4903 Palace St",
    "address_councildis": "E",
    "status": "Assigned to Contractor",
    "contractor": "Waste Pro",
    "rowid": "1020251",
    "final_x": "3729213.60314",
    "final_y": "562474.869343",
    "longitude": "-89.91620148398741",
    "latitude": "30.03907430319302",
    "geocoded_column": {
      "latitude": "30.03907430319302",
      "longitude": "-89.91620148398741"
    }
  },
  {
    "service_request": "2023-1020250",
    "request_type": "Trash/Recycling",
    "request_reason": "Illegal Dumping",
    "date_created": "2023-07-24T20:26:01.000",
    "date_modified": "2023-07-24T20:26:01.000",
    "request_status": "Pending",
    "responsible_agency": "Department of Sanitation",
    "final_address": "3100 Washington Ave",
    "address_councildis": "B",
    "status": "Pending",
    "rowid": "1020250",
    "final_x": "3672864.48468",
    "final_y": "527051.758846",
    "longitude": "-90.09549064141855",
    "latitude": "29.943468862516337",
    "geocoded_column": {
      "latitude": "29.943468862516337",
      "longitude": "-90.09549064141855"
    }
  },
  {
    "service_request": "2023-1020249",
    "request_type": "Property Maintenance",
    "request_reason": "Property Maintenance",
    "date_created": "2023-07-24T20:20:13.000",
    "date_modified": "2023-07-24T20:20:13.000",
    "request_status": "Pending",
    "responsible_agency": "Department of Code Enforcement",
    "final_address": "1438 Strand Ct",
    "address_councildis": "E",
    "status": "Pending",
    "rowid": "1020249",
    "final_x": "3699858.9112",
    "final_y": "534748.29863",
    "longitude": "-90.0099821310415",
    "latitude": "29.96380216419895",
    "geocoded_column": {
      "latitude": "29.96380216419895",
      "longitude": "-90.0099821310415"
    }
  },
  {
    "service_request": "2023-1020248",
    "request_type": "Trash/Recycling",
    "request_reason": "Order Recycling Cart",
    "date_created": "2023-07-24T20:16:45.000",
    "date_modified": "2023-07-24T20:16:45.000",
    "request_status": "Pending",
    "responsible_agency": "Department of Sanitation",
    "final_address": "716 Brooklyn Ave",
    "address_councildis": "C",
    "status": "Pending",
    "rowid": "1020248",
    "final_x": "3686160.78665",
    "final_y": "528852.906048",
    "longitude": "-90.05344733597614",
    "latitude": "29.948019749767422",
    "geocoded_column": {
      "latitude": "29.948019749767422",
      "longitude": "-90.05344733597614"
    }
  },
  {
    "service_request": "2023-1020247",
    "request_type": "Trash/Recycling",
    "request_reason": "Replace Trash Cart",
    "date_created": "2023-07-24T20:12:14.000",
    "date_modified": "2023-07-24T20:12:15.000",
    "request_status": "Pending",
    "responsible_agency": "Department of Sanitation",
    "final_address": "421 S Genois St",
    "address_councildis": "B",
    "status": "Assigned to Contractor",
    "contractor": "Richards Disposal",
    "rowid": "1020247",
    "final_x": "3671661.44308",
    "final_y": "536029.731207",
    "longitude": "-90.09898361079348",
    "latitude": "29.968190994729735",
    "geocoded_column": {
      "latitude": "29.968190994729735",
      "longitude": "-90.09898361079348"
    }
  },
  {
    "service_request": "2023-1020246",
    "request_type": "Trash/Recycling",
    "request_reason": "Missed Trash Pick-Up",
    "date_created": "2023-07-24T20:06:24.000",
    "date_modified": "2023-07-24T20:06:25.000",
    "request_status": "Pending",
    "responsible_agency": "Department of Sanitation",
    "final_address": "13056 Laval St, New Orleans, Louisiana, 70129",
    "address_councildis": "E",
    "status": "Assigned to Contractor",
    "contractor": "Waste Pro",
    "rowid": "1020246",
    "final_x": "3723995.74566",
    "final_y": "562389.665951",
    "longitude": "-89.9326944643854",
    "latitude": "30.039016435992693",
    "geocoded_column": {
      "latitude": "30.039016435992693",
      "longitude": "-89.9326944643854"
    }
  },
  {
    "service_request": "2023-1020245",
    "request_type": "Utility Poles",
    "request_reason": "Utility Pole Leaning",
    "date_created": "2023-07-24T19:56:50.000",
    "date_modified": "2023-07-24T19:56:54.000",
    "request_status": "Pending",
    "responsible_agency": "Utility Company Collective",
    "final_address": "RACE ST & CONSTANCE ST",
    "address_councildis": "B",
    "status": "Pending",
    "rowid": "1020245",
    "final_x": "3680563.1",
    "final_y": "523755.58",
    "longitude": "-90.07129874736098",
    "latitude": "29.934174536575313",
    "geocoded_column": {
      "latitude": "29.934174536575313",
      "longitude": "-90.07129874736098"
    }
  },
  {
    "service_request": "2023-1020244",
    "request_type": "Abandoned Vehicles",
    "request_reason": "Abandoned/Junk Vehicles",
    "date_created": "2023-07-24T19:39:37.000",
    "date_modified": "2023-07-24T19:39:37.000",
    "request_status": "Pending",
    "responsible_agency": "Department of Public Works",
    "final_address": "415 St Maurice Ave",
    "address_councildis": "E",
    "status": "Pending",
    "rowid": "1020244",
    "final_x": "3698974.15933",
    "final_y": "530938.099906",
    "longitude": "-90.01291472849591",
    "latitude": "29.953353537885175",
    "geocoded_column": {
      "latitude": "29.953353537885175",
      "longitude": "-90.01291472849591"
    }
  },
  {
    "service_request": "2023-1020243",
    "request_type": "Trash/Recycling",
    "request_reason": "Missed Trash Pick-Up",
    "date_created": "2023-07-24T19:35:50.000",
    "date_modified": "2023-07-24T19:35:51.000",
    "request_status": "Pending",
    "responsible_agency": "Department of Sanitation",
    "final_address": "10 Five Oaks Dr",
    "address_councildis": "C",
    "status": "Assigned to Contractor",
    "contractor": "Richards Disposal",
    "rowid": "1020243",
    "final_x": "3699354.46",
    "final_y": "525863.676413",
    "longitude": "-90.01189869159073",
    "latitude": "29.939388598214542",
    "geocoded_column": {
      "latitude": "29.939388598214542",
      "longitude": "-90.01189869159073"
    }
  },
  {
    "service_request": "2023-1020242",
    "request_type": "Traffic Signals/Signs/Striping/Streetlights",
    "request_reason": "Additional signage",
    "date_created": "2023-07-24T19:30:37.000",
    "date_modified": "2023-07-24T19:30:37.000",
    "request_status": "Pending",
    "responsible_agency": "Department of Public Works",
    "final_address": "3801 Tchoupitoulas St",
    "address_councildis": "B",
    "status": "Pending",
    "rowid": "1020242",
    "final_x": "3673671.26804",
    "final_y": "517749.470262",
    "longitude": "-90.09326126339094",
    "latitude": "29.917866587178136",
    "geocoded_column": {
      "latitude": "29.917866587178136",
      "longitude": "-90.09326126339094"
    }
  },
  {
    "service_request": "2023-1020240",
    "request_type": "Trash/Recycling",
    "request_reason": "Repair Trash Cart",
    "date_created": "2023-07-24T19:15:30.000",
    "date_modified": "2023-07-24T19:15:31.000",
    "request_status": "Pending",
    "responsible_agency": "Department of Sanitation",
    "final_address": "4915 Baronne St",
    "address_councildis": "B",
    "status": "Assigned to Contractor",
    "contractor": "Richards Disposal",
    "rowid": "1020240",
    "final_x": "3668931.70606",
    "final_y": "521467.982137",
    "longitude": "-90.10809599222344",
    "latitude": "29.928231506360753",
    "geocoded_column": {
      "latitude": "29.928231506360753",
      "longitude": "-90.10809599222344"
    }
  },
  {
    "service_request": "2023-1020239",
    "request_type": "Trash/Recycling",
    "request_reason": "Illegal Dumping",
    "date_created": "2023-07-24T18:49:31.000",
    "date_modified": "2023-07-24T18:49:31.000",
    "request_status": "Pending",
    "responsible_agency": "Department of Sanitation",
    "final_address": "1800 Lapeyrouse St",
    "address_councildis": "D",
    "status": "Pending",
    "rowid": "1020239",
    "final_x": "3681552.44584",
    "final_y": "538213.605961",
    "longitude": "-90.06767125456373",
    "latitude": "29.973899212814658",
    "geocoded_column": {
      "latitude": "29.973899212814658",
      "longitude": "-90.06767125456373"
    }
  },
  {
    "service_request": "2023-1020238",
    "request_type": "Trash/Recycling",
    "request_reason": "Replace Trash Cart",
    "date_created": "2023-07-24T18:41:39.000",
    "date_modified": "2023-07-24T18:41:39.000",
    "request_status": "Pending",
    "responsible_agency": "Department of Sanitation",
    "final_address": "3212 Danneel St",
    "address_councildis": "B",
    "status": "Assigned to Contractor",
    "contractor": "Richards Disposal",
    "rowid": "1020238",
    "final_x": "3674108.79611",
    "final_y": "523038.870267",
    "longitude": "-90.09169931079143",
    "latitude": "29.93239770828291",
    "geocoded_column": {
      "latitude": "29.93239770828291",
      "longitude": "-90.09169931079143"
    }
  },
  {
    "service_request": "2023-1020236",
    "request_type": "Trash/Recycling",
    "request_reason": "MIssed Recycling Pick-Up",
    "date_created": "2023-07-24T18:39:04.000",
    "date_modified": "2023-07-24T18:39:05.000",
    "request_status": "Pending",
    "responsible_agency": "Department of Sanitation",
    "final_address": "7501 Jonlee Dr",
    "address_councildis": "E",
    "status": "Assigned to Contractor",
    "contractor": "Waste Pro",
    "rowid": "1020236",
    "final_x": "3717604.06962",
    "final_y": "569965.811366",
    "longitude": "-89.952605226929",
    "latitude": "30.060061003473713",
    "geocoded_column": {
      "latitude": "30.060061003473713",
      "longitude": "-89.952605226929"
    }
  },
  {
    "service_request": "2023-1020235",
    "request_type": "Abandoned Vehicles",
    "request_reason": "Abandoned/Junk Vehicles",
    "date_created": "2023-07-24T18:30:21.000",
    "date_modified": "2023-07-24T18:30:21.000",
    "request_status": "Pending",
    "responsible_agency": "Department of Public Works",
    "final_address": "1442 Desire St",
    "address_councildis": "C",
    "status": "Pending",
    "rowid": "1020235",
    "final_x": "3690513.39625",
    "final_y": "537164.79348",
    "longitude": "-90.03940808344004",
    "latitude": "29.970740145273265",
    "geocoded_column": {
      "latitude": "29.970740145273265",
      "longitude": "-90.03940808344004"
    }
  },
  {
    "service_request": "2023-1020234",
    "request_type": "Abandoned Vehicles",
    "request_reason": "Abandoned/Junk Vehicles",
    "date_created": "2023-07-24T18:28:32.000",
    "date_modified": "2023-07-24T18:28:32.000",
    "request_status": "Pending",
    "responsible_agency": "Department of Public Works",
    "final_address": "1442 Desire St",
    "address_councildis": "C",
    "status": "Pending",
    "rowid": "1020234",
    "final_x": "3690513.39625",
    "final_y": "537164.79348",
    "longitude": "-90.03940808344004",
    "latitude": "29.970740145273265",
    "geocoded_column": {
      "latitude": "29.970740145273265",
      "longitude": "-90.03940808344004"
    }
  },
  {
    "service_request": "2023-1020233",
    "request_type": "Trash/Recycling",
    "request_reason": "Order Recycling Cart",
    "date_created": "2023-07-24T18:12:59.000",
    "date_modified": "2023-07-24T18:12:59.000",
    "request_status": "Pending",
    "responsible_agency": "Department of Sanitation",
    "final_address": "113 English Turn Dr",
    "address_councildis": "C",
    "status": "Pending",
    "rowid": "1020233",
    "final_x": "3720882.01414",
    "final_y": "512226.095793",
    "longitude": "-89.94445616755196",
    "latitude": "29.901189968481614",
    "geocoded_column": {
      "latitude": "29.901189968481614",
      "longitude": "-89.94445616755196"
    }
  },
  {
    "service_request": "2023-1020232",
    "request_type": "Trash/Recycling",
    "request_reason": "Request a Large Item Pick Up",
    "date_created": "2023-07-24T18:11:53.000",
    "date_modified": "2023-07-24T18:11:54.000",
    "request_status": "Pending",
    "responsible_agency": "Department of Sanitation",
    "final_address": "1943 Tennessee St",
    "address_councildis": "E",
    "status": "Assigned to Contractor",
    "contractor": "Waste Pro",
    "rowid": "1020232",
    "final_x": "3696659.64035",
    "final_y": "537641.650312",
    "longitude": "-90.01998033614576",
    "latitude": "29.97185905790134",
    "geocoded_column": {
      "latitude": "29.97185905790134",
      "longitude": "-90.01998033614576"
    }
  },
  {
    "service_request": "2023-1020231",
    "request_type": "Trash/Recycling",
    "request_reason": "MIssed Recycling Pick-Up",
    "date_created": "2023-07-24T18:11:23.000",
    "date_modified": "2023-07-24T18:11:23.000",
    "request_status": "Pending",
    "responsible_agency": "Department of Sanitation",
    "final_address": "4500 BLK Pitt St",
    "address_councildis": "B",
    "status": "Assigned to Contractor",
    "contractor": "Richards Disposal",
    "rowid": "1020231",
    "final_x": "3670304.23908",
    "final_y": "520514.289796",
    "longitude": "-90.10379550440994",
    "latitude": "29.925568730237828",
    "geocoded_column": {
      "latitude": "29.925568730237828",
      "longitude": "-90.10379550440994"
    }
  },
  {
    "service_request": "2023-1020230",
    "request_type": "Roads/Drainage",
    "request_reason": "Pothole",
    "date_created": "2023-07-24T18:08:42.000",
    "date_modified": "2023-07-24T18:08:43.000",
    "request_status": "Pending",
    "responsible_agency": "Department of Public Works",
    "final_address": "9040 Hayne Blvd",
    "address_councildis": "E",
    "status": "Pending",
    "rowid": "1020230",
    "final_x": "3704901.99364",
    "final_y": "564325.816865",
    "longitude": "-89.99296410070346",
    "latitude": "30.044968010802375",
    "geocoded_column": {
      "latitude": "30.044968010802375",
      "longitude": "-89.99296410070346"
    }
  },
  {
    "service_request": "2023-1020229",
    "request_type": "Health Related Request",
    "request_reason": "Noise Ordinance Complaint",
    "date_created": "2023-07-24T18:02:05.000",
    "date_modified": "2023-07-24T18:02:05.000",
    "request_status": "Pending",
    "responsible_agency": "Health Department",
    "final_address": "700 BLK Franklin Ave",
    "address_councildis": "C",
    "status": "Pending",
    "rowid": "1020229",
    "final_x": "3686836.35497",
    "final_y": "535346.472074",
    "longitude": "-90.05108486359123",
    "latitude": "29.965854055430402",
    "geocoded_column": {
      "latitude": "29.965854055430402",
      "longitude": "-90.05108486359123"
    }
  },
  {
    "service_request": "2023-1020228",
    "request_type": "Trash/Recycling",
    "request_reason": "Replace Trash Cart",
    "date_created": "2023-07-24T17:57:38.000",
    "date_modified": "2023-07-24T17:57:39.000",
    "request_status": "Pending",
    "responsible_agency": "Department of Sanitation",
    "final_address": "5037 Danneel St",
    "address_councildis": "B",
    "status": "Assigned to Contractor",
    "contractor": "Richards Disposal",
    "rowid": "1020228",
    "final_x": "3668506.70062",
    "final_y": "522234.496506",
    "longitude": "-90.10941179805243",
    "latitude": "29.9303516658216",
    "geocoded_column": {
      "latitude": "29.9303516658216",
      "longitude": "-90.10941179805243"
    }
  },
  {
    "service_request": "2023-1020227",
    "request_type": "Roads/Drainage",
    "request_reason": "Leaking Hydrant",
    "date_created": "2023-07-24T17:31:40.000",
    "date_modified": "2023-07-24T17:33:10.000",
    "request_status": "Pending",
    "responsible_agency": "Department of Public Works",
    "final_address": "New Orleans,LA",
    "address_councildis": "B",
    "rowid": "1020227",
    "final_x": "3678035.9",
    "final_y": "521022.28",
    "longitude": "-90.07937146486867",
    "latitude": "29.92673514940224",
    "geocoded_column": {
      "latitude": "29.92673514940224",
      "longitude": "-90.07937146486867"
    }
  },
  {
    "service_request": "2023-1020226",
    "request_type": "Trash/Recycling",
    "request_reason": "Missed Trash Pick-Up",
    "date_created": "2023-07-24T17:20:57.000",
    "date_modified": "2023-07-24T17:21:56.000",
    "request_status": "Pending",
    "responsible_agency": "Department of Sanitation",
    "final_address": "New Orleans,LA",
    "address_councildis": "A",
    "status": "Assigned to Contractor",
    "contractor": "Richards Disposal",
    "rowid": "1020226",
    "final_x": "3663520.02093",
    "final_y": "530552.136514",
    "longitude": "-90.12487711925492",
    "latitude": "29.953368039450446",
    "geocoded_column": {
      "latitude": "29.953368039450446",
      "longitude": "-90.12487711925492"
    }
  },
  {
    "service_request": "2023-1020225",
    "request_type": "Traffic Signals/Signs/Striping/Streetlights",
    "request_reason": "Striping/Road Surface Markings",
    "date_created": "2023-07-24T17:16:11.000",
    "date_modified": "2023-07-24T17:16:12.000",
    "request_status": "Pending",
    "responsible_agency": "Department of Public Works",
    "final_address": "N RAMPART ST & TOULOUSE ST",
    "address_councildis": "C",
    "status": "Pending",
    "rowid": "1020225",
    "final_x": "3681165.9",
    "final_y": "533028.78",
    "longitude": "-90.06907272289246",
    "latitude": "29.959654455258974",
    "geocoded_column": {
      "latitude": "29.959654455258974",
      "longitude": "-90.06907272289246"
    }
  },
  {
    "service_request": "2023-1020224",
    "request_type": "Utility Poles",
    "request_reason": "Utility Pole Leaning",
    "date_created": "2023-07-24T17:14:14.000",
    "date_modified": "2023-07-24T17:14:16.000",
    "request_status": "Pending",
    "responsible_agency": "Utility Company Collective",
    "final_address": "3405 Royal St",
    "address_councildis": "C",
    "status": "Pending",
    "rowid": "1020224",
    "final_x": "3689881.11644",
    "final_y": "534240.459077",
    "longitude": "-90.04150901406362",
    "latitude": "29.962718867948315",
    "geocoded_column": {
      "latitude": "29.962718867948315",
      "longitude": "-90.04150901406362"
    }
  },
  {
    "service_request": "2023-1020223",
    "request_type": "Utility Poles",
    "request_reason": "Utility Pole Leaning",
    "date_created": "2023-07-24T17:14:11.000",
    "date_modified": "2023-07-24T17:14:13.000",
    "request_status": "Pending",
    "responsible_agency": "Utility Company Collective",
    "final_address": "3405 Royal St",
    "address_councildis": "C",
    "status": "Pending",
    "rowid": "1020223",
    "final_x": "3689881.11644",
    "final_y": "534240.459077",
    "longitude": "-90.04150901406362",
    "latitude": "29.962718867948315",
    "geocoded_column": {
      "latitude": "29.962718867948315",
      "longitude": "-90.04150901406362"
    }
  },
  {
    "service_request": "2023-1020222",
    "request_type": "Trash/Recycling",
    "request_reason": "Replace Trash Cart",
    "date_created": "2023-07-24T17:12:29.000",
    "date_modified": "2023-07-24T17:12:30.000",
    "request_status": "Pending",
    "responsible_agency": "Department of Sanitation",
    "final_address": "3803 Palmyra St",
    "address_councildis": "A",
    "status": "Assigned to Contractor",
    "contractor": "Richards Disposal",
    "rowid": "1020222",
    "final_x": "3671568.51719",
    "final_y": "537024.281544",
    "longitude": "-90.09924324796944",
    "latitude": "29.970928425832355",
    "geocoded_column": {
      "latitude": "29.970928425832355",
      "longitude": "-90.09924324796944"
    }
  },
  {
    "service_request": "2023-1020221",
    "request_type": "Trash/Recycling",
    "request_reason": "Request a Large Item Pick Up",
    "date_created": "2023-07-24T17:10:01.000",
    "date_modified": "2023-07-24T17:11:54.000",
    "request_status": "Pending",
    "responsible_agency": "Department of Sanitation",
    "final_address": "23 Park Timbers Dr",
    "address_councildis": "C",
    "status": "Assigned to Contractor",
    "contractor": "Richards Disposal",
    "rowid": "1020221",
    "final_x": "3699175.14032",
    "final_y": "517801.182262",
    "longitude": "-90.01275818309111",
    "latitude": "29.917225198666788",
    "geocoded_column": {
      "latitude": "29.917225198666788",
      "longitude": "-90.01275818309111"
    }
  },
  {
    "service_request": "2023-1020220",
    "request_type": "Traffic Signals/Signs/Striping/Streetlights",
    "request_reason": "Street Light Outage/Malfunction",
    "date_created": "2023-07-24T17:04:23.000",
    "date_modified": "2023-07-24T17:04:23.000",
    "request_status": "Pending",
    "responsible_agency": "Department of Public Works",
    "final_address": "9031 Bunker Hill Rd",
    "address_councildis": "E",
    "status": "Assigned to Contractor",
    "contractor": "Legacy Professional Services",
    "rowid": "1020220",
    "final_x": "3706320.94212",
    "final_y": "561824.358431",
    "longitude": "-89.9885723720645",
    "latitude": "30.038044276506092",
    "geocoded_column": {
      "latitude": "30.038044276506092",
      "longitude": "-89.9885723720645"
    }
  },
  {
    "service_request": "2023-1020219",
    "request_type": "Trash/Recycling",
    "request_reason": "Stop Trash Service",
    "date_created": "2023-07-24T16:58:49.000",
    "date_modified": "2023-07-24T16:58:49.000",
    "request_status": "Pending",
    "responsible_agency": "Department of Sanitation",
    "final_address": "2417 Milan St",
    "address_councildis": "B",
    "status": "Assigned to Contractor",
    "contractor": "Richards Disposal",
    "rowid": "1020219",
    "final_x": "3671338.69543",
    "final_y": "523940.962492",
    "longitude": "-90.10041364528091",
    "latitude": "29.934960416785195",
    "geocoded_column": {
      "latitude": "29.934960416785195",
      "longitude": "-90.10041364528091"
    }
  },
  {
    "service_request": "2023-1020218",
    "request_type": "Traffic Signals/Signs/Striping/Streetlights",
    "request_reason": "Striping/Road Surface Markings",
    "date_created": "2023-07-24T16:58:25.000",
    "date_modified": "2023-07-24T16:58:25.000",
    "request_status": "Pending",
    "responsible_agency": "Department of Public Works",
    "final_address": "2343 Prytania St",
    "address_councildis": "B",
    "status": "Pending",
    "rowid": "1020218",
    "final_x": "3677281.27502",
    "final_y": "522926.885179",
    "longitude": "-90.08168793872933",
    "latitude": "29.931994879128844",
    "geocoded_column": {
      "latitude": "29.931994879128844",
      "longitude": "-90.08168793872933"
    }
  },
  {
    "service_request": "2023-1020217",
    "request_type": "Traffic Signals/Signs/Striping/Streetlights",
    "request_reason": "Street Light Outage/Malfunction",
    "date_created": "2023-07-24T16:58:24.000",
    "date_modified": "2023-07-24T16:58:24.000",
    "request_status": "Pending",
    "responsible_agency": "Department of Public Works",
    "final_address": "4317 Cartier Ave",
    "address_councildis": "D",
    "status": "Assigned to Contractor",
    "contractor": "Legacy Professional Services",
    "rowid": "1020217",
    "final_x": "3678078.89314",
    "final_y": "548251.61557",
    "longitude": "-90.07829427464966",
    "latitude": "30.001605276369606",
    "geocoded_column": {
      "latitude": "30.001605276369606",
      "longitude": "-90.07829427464966"
    }
  },
  {
    "service_request": "2023-1020216",
    "request_type": "Trash/Recycling",
    "request_reason": "Request a Large Item Pick Up",
    "date_created": "2023-07-24T16:57:00.000",
    "date_modified": "2023-07-24T16:57:01.000",
    "request_status": "Pending",
    "responsible_agency": "Department of Sanitation",
    "final_address": "2417 Milan St",
    "address_councildis": "B",
    "status": "Assigned to Contractor",
    "contractor": "Richards Disposal",
    "rowid": "1020216",
    "final_x": "3671338.69543",
    "final_y": "523940.962492",
    "longitude": "-90.10041364528091",
    "latitude": "29.934960416785195",
    "geocoded_column": {
      "latitude": "29.934960416785195",
      "longitude": "-90.10041364528091"
    }
  },
  {
    "service_request": "2023-1020213",
    "request_type": "Trash/Recycling",
    "request_reason": "Request a Large Item Pick Up",
    "date_created": "2023-07-24T16:48:35.000",
    "date_modified": "2023-07-24T16:48:35.000",
    "request_status": "Pending",
    "responsible_agency": "Department of Sanitation",
    "final_address": "1334 Bartholomew St",
    "address_councildis": "D",
    "status": "Assigned to Contractor",
    "contractor": "IV Waste",
    "rowid": "1020213",
    "final_x": "3692020.01737",
    "final_y": "536332.253319",
    "longitude": "-90.03467980744881",
    "latitude": "29.96840408736077",
    "geocoded_column": {
      "latitude": "29.96840408736077",
      "longitude": "-90.03467980744881"
    }
  },
  {
    "service_request": "2023-1020212",
    "request_type": "Trash/Recycling",
    "request_reason": "Order Recycling Cart",
    "date_created": "2023-07-24T16:47:45.000",
    "date_modified": "2023-07-24T16:47:45.000",
    "request_status": "Pending",
    "responsible_agency": "Department of Sanitation",
    "final_address": "3301 Kabel Dr",
    "address_councildis": "C",
    "status": "Pending",
    "rowid": "1020212",
    "final_x": "3700539.56964",
    "final_y": "519084.496631",
    "longitude": "-90.0084046489459",
    "latitude": "29.920710565354987",
    "geocoded_column": {
      "latitude": "29.920710565354987",
      "longitude": "-90.0084046489459"
    }
  },
  {
    "service_request": "2023-1020211",
    "request_type": "Trash/Recycling",
    "request_reason": "Illegal Dumping",
    "date_created": "2023-07-24T16:47:05.000",
    "date_modified": "2023-07-24T16:47:05.000",
    "request_status": "Pending",
    "responsible_agency": "Department of Sanitation",
    "final_address": "8800 BLK Airline Hwy",
    "address_councildis": "A",
    "status": "Pending",
    "rowid": "1020211",
    "final_x": "3666193.54094",
    "final_y": "537196.270211",
    "longitude": "-90.11621240879273",
    "latitude": "29.97155941893635",
    "geocoded_column": {
      "latitude": "29.97155941893635",
      "longitude": "-90.11621240879273"
    }
  },
  {
    "service_request": "2023-1020210",
    "request_type": "Trash/Recycling",
    "request_reason": "Order Recycling Cart",
    "date_created": "2023-07-24T16:43:45.000",
    "date_modified": "2023-07-24T16:43:45.000",
    "request_status": "Pending",
    "responsible_agency": "Department of Sanitation",
    "final_address": "2519 Somerset Dr",
    "address_councildis": "C",
    "status": "Pending",
    "rowid": "1020210",
    "final_x": "3702826.62993",
    "final_y": "521728.500538",
    "longitude": "-90.00108846978262",
    "latitude": "29.92790774820216",
    "geocoded_column": {
      "latitude": "29.92790774820216",
      "longitude": "-90.00108846978262"
    }
  },
  {
    "service_request": "2023-1020209",
    "request_type": "Roads/Drainage",
    "request_reason": "Catch Basin - Broken/Damage",
    "date_created": "2023-07-24T16:42:11.000",
    "date_modified": "2023-07-24T16:42:11.000",
    "request_status": "Pending",
    "responsible_agency": "Department of Public Works",
    "final_address": "5900 Michoud Blvd",
    "address_councildis": "E",
    "status": "Pending",
    "rowid": "1020209",
    "final_x": "3724500.2599",
    "final_y": "566154.432035",
    "longitude": "-89.930954464775",
    "latitude": "30.049351016169854",
    "geocoded_column": {
      "latitude": "30.049351016169854",
      "longitude": "-89.930954464775"
    }
  },
  {
    "service_request": "2023-1020208",
    "request_type": "Traffic Signals/Signs/Striping/Streetlights",
    "request_reason": "Street Name Sign Damaged or Missing",
    "date_created": "2023-07-24T16:41:44.000",
    "date_modified": "2023-07-24T16:41:44.000",
    "request_status": "Pending",
    "responsible_agency": "Department of Public Works",
    "final_address": "2973 Sabine St",
    "address_councildis": "C",
    "status": "Pending",
    "rowid": "1020208",
    "final_x": "3693500.68809",
    "final_y": "519163.305143",
    "longitude": "-90.0306202318079",
    "latitude": "29.921149181936187",
    "geocoded_column": {
      "latitude": "29.921149181936187",
      "longitude": "-90.0306202318079"
    }
  },
  {
    "service_request": "2023-1020207",
    "request_type": "Roads/Drainage",
    "request_reason": "Catch Basin - Broken/Damage",
    "date_created": "2023-07-24T16:41:13.000",
    "date_modified": "2023-07-24T16:41:13.000",
    "request_status": "Pending",
    "responsible_agency": "Department of Public Works",
    "final_address": "5900 Michoud Blvd",
    "address_councildis": "E",
    "status": "Pending",
    "rowid": "1020207",
    "final_x": "3724500.2599",
    "final_y": "566154.432035",
    "longitude": "-89.930954464775",
    "latitude": "30.049351016169854",
    "geocoded_column": {
      "latitude": "30.049351016169854",
      "longitude": "-89.930954464775"
    }
  },
  {
    "service_request": "2023-1020206",
    "request_type": "Roads/Drainage",
    "request_reason": "Catch Basin - Broken/Damage",
    "date_created": "2023-07-24T16:38:35.000",
    "date_modified": "2023-07-24T16:38:35.000",
    "request_status": "Pending",
    "responsible_agency": "Department of Public Works",
    "final_address": "5900 Michoud Blvd",
    "address_councildis": "E",
    "status": "Pending",
    "rowid": "1020206",
    "final_x": "3724500.2599",
    "final_y": "566154.432035",
    "longitude": "-89.930954464775",
    "latitude": "30.049351016169854",
    "geocoded_column": {
      "latitude": "30.049351016169854",
      "longitude": "-89.930954464775"
    }
  },
  {
    "service_request": "2023-1020205",
    "request_type": "Abandoned Vehicles",
    "request_reason": "Abandoned/Junk Vehicles",
    "date_created": "2023-07-24T16:33:44.000",
    "date_modified": "2023-07-24T16:33:44.000",
    "request_status": "Pending",
    "responsible_agency": "Department of Public Works",
    "final_address": "10200 BLK Almonaster Ave",
    "address_councildis": "E",
    "status": "Inspected",
    "rowid": "1020205",
    "final_x": "3714488.88923",
    "final_y": "551896.847109",
    "longitude": "-89.96313503455288",
    "latitude": "30.010481447366526",
    "geocoded_column": {
      "latitude": "30.010481447366526",
      "longitude": "-89.96313503455288"
    }
  },
  {
    "service_request": "2023-1020204",
    "request_type": "Trash/Recycling",
    "request_reason": "Missed Trash Pick-Up",
    "date_created": "2023-07-24T16:32:25.000",
    "date_modified": "2023-07-24T16:32:26.000",
    "request_status": "Pending",
    "responsible_agency": "Department of Sanitation",
    "final_address": "15 Petit Bayou Ln",
    "address_councildis": "E",
    "status": "Assigned to Contractor",
    "contractor": "Waste Pro",
    "rowid": "1020204",
    "final_x": "3724929.0455",
    "final_y": "564026.405217",
    "longitude": "-89.92968165085618",
    "latitude": "30.043485390706312",
    "geocoded_column": {
      "latitude": "30.043485390706312",
      "longitude": "-89.92968165085618"
    }
  },
  {
    "service_request": "2023-1020203",
    "request_type": "Property Maintenance",
    "request_reason": "Property Maintenance",
    "date_created": "2023-07-24T16:29:37.000",
    "date_modified": "2023-07-24T16:29:37.000",
    "request_status": "Pending",
    "responsible_agency": "Department of Code Enforcement",
    "final_address": "3701 Indiana St",
    "address_councildis": "C",
    "status": "Pending",
    "rowid": "1020203",
    "final_x": "3693172.59139",
    "final_y": "519854.273016",
    "longitude": "-90.0316311046249",
    "latitude": "29.923059363581107",
    "geocoded_column": {
      "latitude": "29.923059363581107",
      "longitude": "-90.0316311046249"
    }
  },
  {
    "service_request": "2023-1020202",
    "request_type": "Property Maintenance",
    "request_reason": "Property Maintenance",
    "date_created": "2023-07-24T16:24:41.000",
    "date_modified": "2023-07-24T16:24:42.000",
    "request_status": "Pending",
    "responsible_agency": "Department of Code Enforcement",
    "final_address": "6585 Wuerpel St",
    "address_councildis": "A",
    "status": "Pending",
    "rowid": "1020202",
    "final_x": "3667186.02823",
    "final_y": "551550.426197",
    "longitude": "-90.11259501797674",
    "latitude": "30.010999419355777",
    "geocoded_column": {
      "latitude": "30.010999419355777",
      "longitude": "-90.11259501797674"
    }
  },
  {
    "service_request": "2023-1020201",
    "request_type": "Trash/Recycling",
    "request_reason": "Request a Large Item Pick Up",
    "date_created": "2023-07-24T16:22:25.000",
    "date_modified": "2023-07-24T16:22:26.000",
    "request_status": "Pending",
    "responsible_agency": "Department of Sanitation",
    "final_address": "2124 Upperline St",
    "address_councildis": "B",
    "status": "Assigned to Contractor",
    "contractor": "Richards Disposal",
    "rowid": "1020201",
    "final_x": "3669088.31662",
    "final_y": "522676.421306",
    "longitude": "-90.10756079714189",
    "latitude": "29.931549722592",
    "geocoded_column": {
      "latitude": "29.931549722592",
      "longitude": "-90.10756079714189"
    }
  },
  {
    "service_request": "2023-1020199",
    "request_type": "Roads/Drainage",
    "request_reason": "Street Flooding / Drainage",
    "date_created": "2023-07-24T16:21:15.000",
    "date_modified": "2023-07-24T16:21:15.000",
    "request_status": "Pending",
    "responsible_agency": "Department of Public Works",
    "final_address": "247 Opal St Apt D",
    "address_councildis": "D",
    "status": "Pending",
    "rowid": "1020199",
    "final_x": "3667412.40634",
    "final_y": "555615.867033",
    "longitude": "-90.11174286231748",
    "latitude": "30.022171315296795",
    "geocoded_column": {
      "latitude": "30.022171315296795",
      "longitude": "-90.11174286231748"
    }
  },
  {
    "service_request": "2023-1020198",
    "request_type": "Trash/Recycling",
    "request_reason": "MIssed Recycling Pick-Up",
    "date_created": "2023-07-24T16:21:09.000",
    "date_modified": "2023-07-24T16:21:09.000",
    "request_status": "Pending",
    "responsible_agency": "Department of Sanitation",
    "final_address": "3100 Monroe St",
    "address_councildis": "A",
    "status": "Assigned to Contractor",
    "contractor": "Richards Disposal",
    "rowid": "1020198",
    "final_x": "3664964.75271",
    "final_y": "534883.101062",
    "longitude": "-90.12017046623276",
    "latitude": "29.965234800534574",
    "geocoded_column": {
      "latitude": "29.965234800534574",
      "longitude": "-90.12017046623276"
    }
  },
  {
    "service_request": "2023-1020197",
    "request_type": "Trash/Recycling",
    "request_reason": "Repair Trash Cart",
    "date_created": "2023-07-24T16:10:50.000",
    "date_modified": "2023-07-24T16:10:51.000",
    "request_status": "Pending",
    "responsible_agency": "Department of Sanitation",
    "final_address": "4338 Kennon Ave",
    "address_councildis": "D",
    "status": "Assigned to Contractor",
    "contractor": "IV Waste",
    "rowid": "1020197",
    "final_x": "3677412.27291",
    "final_y": "548336.445586",
    "longitude": "-90.08039726511379",
    "latitude": "30.001858588521973",
    "geocoded_column": {
      "latitude": "30.001858588521973",
      "longitude": "-90.08039726511379"
    }
  },
  {
    "service_request": "2023-1020196",
    "request_type": "Trash/Recycling",
    "request_reason": "Return Recycling Cart",
    "date_created": "2023-07-24T16:08:45.000",
    "date_modified": "2023-07-24T16:08:45.000",
    "request_status": "Pending",
    "responsible_agency": "Department of Sanitation",
    "final_address": "7400 Dalewood Rd",
    "address_councildis": "E",
    "status": "Pending",
    "rowid": "1020196",
    "final_x": "3700112.82218",
    "final_y": "559678.814621",
    "longitude": "-90.00826989057227",
    "latitude": "30.032343736472466",
    "geocoded_column": {
      "latitude": "30.032343736472466",
      "longitude": "-90.00826989057227"
    }
  },
  {
    "service_request": "2023-1020194",
    "request_type": "Trash/Recycling",
    "request_reason": "Repair Trash Cart",
    "date_created": "2023-07-24T16:06:28.000",
    "date_modified": "2023-07-24T16:06:28.000",
    "request_status": "Pending",
    "responsible_agency": "Department of Sanitation",
    "final_address": "7400 Dalewood Rd",
    "address_councildis": "E",
    "status": "Assigned to Contractor",
    "contractor": "Waste Pro",
    "rowid": "1020194",
    "final_x": "3700112.82218",
    "final_y": "559678.814621",
    "longitude": "-90.00826989057227",
    "latitude": "30.032343736472466",
    "geocoded_column": {
      "latitude": "30.032343736472466",
      "longitude": "-90.00826989057227"
    }
  },
  {
    "service_request": "2023-1020193",
    "request_type": "Trash/Recycling",
    "request_reason": "Order Recycling Cart",
    "date_created": "2023-07-24T16:04:59.000",
    "date_modified": "2023-07-24T16:04:59.000",
    "request_status": "Pending",
    "responsible_agency": "Department of Sanitation",
    "final_address": "1816 Mardi Gras Blvd",
    "address_councildis": "C",
    "status": "Pending",
    "rowid": "1020193",
    "final_x": "3690842.61846",
    "final_y": "525358.286589",
    "longitude": "-90.0387896155421",
    "latitude": "29.938266117499712",
    "geocoded_column": {
      "latitude": "29.938266117499712",
      "longitude": "-90.0387896155421"
    }
  },
  {
    "service_request": "2023-1020192",
    "request_type": "Trash/Recycling",
    "request_reason": "MIssed Recycling Pick-Up",
    "date_created": "2023-07-24T16:03:38.000",
    "date_modified": "2023-07-24T16:03:38.000",
    "request_status": "Pending",
    "responsible_agency": "Department of Sanitation",
    "final_address": "1021 Wiltz Ln",
    "address_councildis": "C",
    "status": "Assigned to Contractor",
    "contractor": "Richards Disposal",
    "rowid": "1020192",
    "final_x": "3697478.56074",
    "final_y": "527376.684351",
    "longitude": "-90.01776627347283",
    "latitude": "29.94360819648244",
    "geocoded_column": {
      "latitude": "29.94360819648244",
      "longitude": "-90.01776627347283"
    }
  },
  {
    "service_request": "2023-1020191",
    "request_type": "Trash/Recycling",
    "request_reason": "Request a Large Item Pick Up",
    "date_created": "2023-07-24T15:59:59.000",
    "date_modified": "2023-07-24T16:00:00.000",
    "request_status": "Pending",
    "responsible_agency": "Department of Sanitation",
    "final_address": "3641 Rue Delphine",
    "address_councildis": "C",
    "status": "Assigned to Contractor",
    "contractor": "Richards Disposal",
    "rowid": "1020191",
    "final_x": "3702982.19966",
    "final_y": "517182.111605",
    "longitude": "-90.00076428263161",
    "latitude": "29.91540177289044",
    "geocoded_column": {
      "latitude": "29.91540177289044",
      "longitude": "-90.00076428263161"
    }
  },
  {
    "service_request": "2023-1020190",
    "request_type": "Trash/Recycling",
    "request_reason": "Order Recycling Cart",
    "date_created": "2023-07-24T15:56:51.000",
    "date_modified": "2023-07-24T15:56:51.000",
    "request_status": "Pending",
    "responsible_agency": "Department of Sanitation",
    "final_address": "1415 Murl St",
    "address_councildis": "C",
    "status": "Pending",
    "rowid": "1020190",
    "final_x": "3695357.44048",
    "final_y": "526338.783294",
    "longitude": "-90.02450060689537",
    "latitude": "29.940821119903042",
    "geocoded_column": {
      "latitude": "29.940821119903042",
      "longitude": "-90.02450060689537"
    }
  },
  {
    "service_request": "2023-1020189",
    "request_type": "Trash/Recycling",
    "request_reason": "Request a Large Item Pick Up",
    "date_created": "2023-07-24T15:56:45.000",
    "date_modified": "2023-07-24T15:56:45.000",
    "request_status": "Pending",
    "responsible_agency": "Department of Sanitation",
    "final_address": "5900 BLK Dorothea St",
    "address_councildis": "D",
    "status": "Assigned to Contractor",
    "contractor": "Waste Pro",
    "rowid": "1020189",
    "final_x": "3695266.46409",
    "final_y": "557098.629029",
    "longitude": "-90.02367785410715",
    "latitude": "30.025402418872247",
    "geocoded_column": {
      "latitude": "30.025402418872247",
      "longitude": "-90.02367785410715"
    }
  },
  {
    "service_request": "2023-1020188",
    "request_type": "Trash/Recycling",
    "request_reason": "Start Trash Service",
    "date_created": "2023-07-24T15:55:01.000",
    "date_modified": "2023-07-24T15:55:01.000",
    "request_status": "Pending",
    "responsible_agency": "Department of Sanitation",
    "final_address": "6100 Bellaire Dr",
    "address_councildis": "A",
    "status": "Assigned to Contractor",
    "contractor": "IV Waste",
    "rowid": "1020188",
    "final_x": "3664231.65453",
    "final_y": "548237.201362",
    "longitude": "-90.12203975682858",
    "latitude": "30.001975409862766",
    "geocoded_column": {
      "latitude": "30.001975409862766",
      "longitude": "-90.12203975682858"
    }
  },
  {
    "service_request": "2023-1020186",
    "request_type": "Roads/Drainage",
    "request_reason": "Debris in Roadway",
    "date_created": "2023-07-24T15:53:20.000",
    "date_modified": "2023-07-24T15:53:21.000",
    "request_status": "Pending",
    "responsible_agency": "Department of Public Works",
    "final_address": "MAYO RD & MORRISON RD",
    "address_councildis": "E",
    "status": "Pending",
    "rowid": "1020186",
    "final_x": "3701154.7",
    "final_y": "559646.78",
    "longitude": "-90.00497867630587",
    "latitude": "30.03222248395621",
    "geocoded_column": {
      "latitude": "30.03222248395621",
      "longitude": "-90.00497867630587"
    }
  },
  {
    "service_request": "2023-1020185",
    "request_type": "Trash/Recycling",
    "request_reason": "Order Recycling Cart",
    "date_created": "2023-07-24T15:49:37.000",
    "date_modified": "2023-07-24T15:49:38.000",
    "request_status": "Pending",
    "responsible_agency": "Department of Sanitation",
    "final_address": "7800 Shubrick Ave",
    "address_councildis": "E",
    "status": "Pending",
    "rowid": "1020185",
    "final_x": "3706491.23012",
    "final_y": "564091.852897",
    "longitude": "-89.98795008597854",
    "latitude": "30.044273490770745",
    "geocoded_column": {
      "latitude": "30.044273490770745",
      "longitude": "-89.98795008597854"
    }
  },
  {
    "service_request": "2023-1020184",
    "request_type": "Traffic Signals/Signs/Striping/Streetlights",
    "request_reason": "Street Name Sign Damaged or Missing",
    "date_created": "2023-07-24T15:49:28.000",
    "date_modified": "2023-07-24T15:49:28.000",
    "request_status": "Pending",
    "responsible_agency": "Department of Public Works",
    "final_address": "1201 S Saratoga St",
    "address_councildis": "B",
    "status": "Pending",
    "rowid": "1020184",
    "final_x": "3678018.28219",
    "final_y": "527389.836415",
    "longitude": "-90.07920707716819",
    "latitude": "29.944244366698346",
    "geocoded_column": {
      "latitude": "29.944244366698346",
      "longitude": "-90.07920707716819"
    }
  },
  {
    "service_request": "2023-1020183",
    "request_type": "Roads/Drainage",
    "request_reason": "Man hole cover issue",
    "date_created": "2023-07-24T15:46:04.000",
    "date_modified": "2023-07-24T15:46:04.000",
    "request_status": "Pending",
    "responsible_agency": "Department of Public Works",
    "final_address": "1200 BLK S Saratoga St",
    "address_councildis": "B",
    "status": "Pending",
    "rowid": "1020183",
    "final_x": "3677966.25099",
    "final_y": "527248.10999",
    "longitude": "-90.07937625142209",
    "latitude": "29.943856231842375",
    "geocoded_column": {
      "latitude": "29.943856231842375",
      "longitude": "-90.07937625142209"
    }
  },
  {
    "service_request": "2023-1020182",
    "request_type": "Trash/Recycling",
    "request_reason": "Request a Large Item Pick Up",
    "date_created": "2023-07-24T15:41:14.000",
    "date_modified": "2023-07-24T15:41:14.000",
    "request_status": "Pending",
    "responsible_agency": "Department of Sanitation",
    "final_address": "726 S Lopez St",
    "address_councildis": "B",
    "status": "Assigned to Contractor",
    "contractor": "Richards Disposal",
    "rowid": "1020182",
    "final_x": "3672238.19495",
    "final_y": "533998.336005",
    "longitude": "-90.0972314063837",
    "latitude": "29.962588242640226",
    "geocoded_column": {
      "latitude": "29.962588242640226",
      "longitude": "-90.0972314063837"
    }
  },
  {
    "service_request": "2023-1020181",
    "request_type": "Trash/Recycling",
    "request_reason": "Request a Large Item Pick Up",
    "date_created": "2023-07-24T15:38:52.000",
    "date_modified": "2023-07-24T15:38:52.000",
    "request_status": "Pending",
    "responsible_agency": "Department of Sanitation",
    "final_address": "2418 New York St",
    "address_councildis": "D",
    "status": "Assigned to Contractor",
    "contractor": "IV Waste",
    "rowid": "1020181",
    "final_x": "3685089.60418",
    "final_y": "556544.124378",
    "longitude": "-90.05585471656545",
    "latitude": "30.024193641506052",
    "geocoded_column": {
      "latitude": "30.024193641506052",
      "longitude": "-90.05585471656545"
    }
  },
  {
    "service_request": "2023-1020180",
    "request_type": "Trash/Recycling",
    "request_reason": "Illegal Dumping",
    "date_created": "2023-07-24T15:38:48.000",
    "date_modified": "2023-07-24T15:38:48.000",
    "request_status": "Pending",
    "responsible_agency": "Department of Sanitation",
    "final_address": "6138 Fleur-De-Lis Dr",
    "address_councildis": "A",
    "status": "Pending",
    "rowid": "1020180",
    "final_x": "3665124.76224",
    "final_y": "548522.89621",
    "longitude": "-90.11920875510312",
    "latitude": "30.00273498194023",
    "geocoded_column": {
      "latitude": "30.00273498194023",
      "longitude": "-90.11920875510312"
    }
  },
  {
    "service_request": "2023-1020179",
    "request_type": "Trash/Recycling",
    "request_reason": "Request a Large Item Pick Up",
    "date_created": "2023-07-24T15:38:21.000",
    "date_modified": "2023-07-24T15:38:22.000",
    "request_status": "Pending",
    "responsible_agency": "Department of Sanitation",
    "final_address": "820 Red Allen Way",
    "address_councildis": "C",
    "status": "Assigned to Contractor",
    "contractor": "Richards Disposal",
    "rowid": "1020179",
    "final_x": "3687993.28649",
    "final_y": "528772.594048",
    "longitude": "-90.0476642555652",
    "latitude": "29.947742509847988",
    "geocoded_column": {
      "latitude": "29.947742509847988",
      "longitude": "-90.0476642555652"
    }
  },
  {
    "service_request": "2023-1020178",
    "request_type": "Trash/Recycling",
    "request_reason": "MIssed Recycling Pick-Up",
    "date_created": "2023-07-24T15:36:41.000",
    "date_modified": "2023-07-24T15:36:41.000",
    "request_status": "Pending",
    "responsible_agency": "Department of Sanitation",
    "final_address": "2111 Erato St",
    "address_councildis": "B",
    "status": "Assigned to Contractor",
    "contractor": "Richards Disposal",
    "rowid": "1020178",
    "final_x": "3677803.81576",
    "final_y": "527172.648959",
    "longitude": "-90.07989171002914",
    "latitude": "29.943653625889663",
    "geocoded_column": {
      "latitude": "29.943653625889663",
      "longitude": "-90.07989171002914"
    }
  },
  {
    "service_request": "2023-1020177",
    "request_type": "Trash/Recycling",
    "request_reason": "Request a Large Item Pick Up",
    "date_created": "2023-07-24T15:34:27.000",
    "date_modified": "2023-07-24T15:34:27.000",
    "request_status": "Pending",
    "responsible_agency": "Department of Sanitation",
    "final_address": "411 Eliza St",
    "address_councildis": "C",
    "status": "Assigned to Contractor",
    "contractor": "Richards Disposal",
    "rowid": "1020177",
    "final_x": "3686749.0095",
    "final_y": "529697.821441",
    "longitude": "-90.05156024131114",
    "latitude": "29.95032489952229",
    "geocoded_column": {
      "latitude": "29.95032489952229",
      "longitude": "-90.05156024131114"
    }
  },
  {
    "service_request": "2023-1020176",
    "request_type": "Trash/Recycling",
    "request_reason": "Replace Trash Cart",
    "date_created": "2023-07-24T15:26:02.000",
    "date_modified": "2023-07-24T15:26:03.000",
    "request_status": "Pending",
    "responsible_agency": "Department of Sanitation",
    "final_address": "1408 Michael St",
    "address_councildis": "C",
    "status": "Assigned to Contractor",
    "contractor": "Richards Disposal",
    "rowid": "1020176",
    "final_x": "3697222.5208",
    "final_y": "525933.056573",
    "longitude": "-90.01862695078137",
    "latitude": "29.93964680198547",
    "geocoded_column": {
      "latitude": "29.93964680198547",
      "longitude": "-90.01862695078137"
    }
  },
  {
    "service_request": "2023-1020175",
    "request_type": "Trash/Recycling",
    "request_reason": "Request a Large Item Pick Up",
    "date_created": "2023-07-24T15:25:12.000",
    "date_modified": "2023-07-24T15:25:12.000",
    "request_status": "Pending",
    "responsible_agency": "Department of Sanitation",
    "final_address": "4901 Perelli Dr",
    "address_councildis": "E",
    "status": "Assigned to Contractor",
    "contractor": "Waste Pro",
    "rowid": "1020175",
    "final_x": "3711706.26565",
    "final_y": "556970.295194",
    "longitude": "-89.97173584072611",
    "latitude": "30.024522646685334",
    "geocoded_column": {
      "latitude": "30.024522646685334",
      "longitude": "-89.97173584072611"
    }
  },
  {
    "service_request": "2023-1020174",
    "request_type": "Abandoned Vehicles",
    "request_reason": "Abandoned/Junk Vehicles",
    "date_created": "2023-07-24T15:24:52.000",
    "date_modified": "2023-07-24T15:26:28.000",
    "request_status": "Pending",
    "responsible_agency": "Department of Public Works",
    "final_address": "5784 Warrington Dr",
    "address_councildis": "D",
    "status": "Pending",
    "rowid": "1020174",
    "final_x": "3680653.01205",
    "final_y": "554503.5174",
    "longitude": "-90.06994461543704",
    "latitude": "30.01871797660871",
    "geocoded_column": {
      "latitude": "30.01871797660871",
      "longitude": "-90.06994461543704"
    }
  },
  {
    "service_request": "2023-1020173",
    "request_type": "Trash/Recycling",
    "request_reason": "Request a Large Item Pick Up",
    "date_created": "2023-07-24T15:22:15.000",
    "date_modified": "2023-07-24T15:22:15.000",
    "request_status": "Pending",
    "responsible_agency": "Department of Sanitation",
    "final_address": "3525 Audubon Ct",
    "address_councildis": "B",
    "status": "Assigned to Contractor",
    "contractor": "Richards Disposal",
    "rowid": "1020173",
    "final_x": "3669146.75092",
    "final_y": "533240.06266",
    "longitude": "-90.10701942356681",
    "latitude": "29.960594580353472",
    "geocoded_column": {
      "latitude": "29.960594580353472",
      "longitude": "-90.10701942356681"
    }
  },
  {
    "service_request": "2023-1020172",
    "request_type": "Trash/Recycling",
    "request_reason": "Order Trash Cart",
    "date_created": "2023-07-24T15:19:46.000",
    "date_modified": "2023-07-24T15:20:37.000",
    "request_status": "Pending",
    "responsible_agency": "Department of Sanitation",
    "final_address": "7124 Downman Rd",
    "address_councildis": "D",
    "status": "Assigned to Contractor",
    "contractor": "Waste Pro",
    "rowid": "1020172",
    "final_x": "3695079.70819",
    "final_y": "556645.334042",
    "longitude": "-90.02428433607885",
    "latitude": "30.024161897472055",
    "geocoded_column": {
      "latitude": "30.024161897472055",
      "longitude": "-90.02428433607885"
    }
  },
  {
    "service_request": "2023-1020171",
    "request_type": "Trash/Recycling",
    "request_reason": "Request a Large Item Pick Up",
    "date_created": "2023-07-24T15:17:12.000",
    "date_modified": "2023-07-24T15:17:12.000",
    "request_status": "Pending",
    "responsible_agency": "Department of Sanitation",
    "final_address": "3026 Robert St",
    "address_councildis": "B",
    "status": "Assigned to Contractor",
    "contractor": "Richards Disposal",
    "rowid": "1020171",
    "final_x": "3668824.71425",
    "final_y": "526483.243326",
    "longitude": "-90.10826447481786",
    "latitude": "29.942025009960354",
    "geocoded_column": {
      "latitude": "29.942025009960354",
      "longitude": "-90.10826447481786"
    }
  },
  {
    "service_request": "2023-1020170",
    "request_type": "Roads/Drainage",
    "request_reason": "Pothole",
    "date_created": "2023-07-24T15:15:52.000",
    "date_modified": "2023-07-24T15:15:52.000",
    "request_status": "Pending",
    "responsible_agency": "Department of Public Works",
    "final_address": "900 BLK Brooks St",
    "address_councildis": "A",
    "status": "Pending",
    "rowid": "1020170",
    "final_x": "3670375.57752",
    "final_y": "546440.172983",
    "longitude": "-90.10269134061735",
    "latitude": "29.99685418922226",
    "geocoded_column": {
      "latitude": "29.99685418922226",
      "longitude": "-90.10269134061735"
    }
  },
  {
    "service_request": "2023-1020169",
    "request_type": "Trash/Recycling",
    "request_reason": "Replace Trash Cart",
    "date_created": "2023-07-24T15:13:16.000",
    "date_modified": "2023-07-24T15:43:38.000",
    "request_status": "Pending",
    "responsible_agency": "Department of Sanitation",
    "final_address": "New Orleans,LA",
    "address_councildis": "E",
    "status": "Assigned to Contractor",
    "contractor": "Waste Pro",
    "rowid": "1020169",
    "final_x": "3702261.05898",
    "final_y": "559521.644701",
    "longitude": "-90.00148712643261",
    "latitude": "30.03184309786002",
    "geocoded_column": {
      "latitude": "30.03184309786002",
      "longitude": "-90.00148712643261"
    }
  },
  {
    "service_request": "2023-1020168",
    "request_type": "Traffic Signals/Signs/Striping/Streetlights",
    "request_reason": "Street Light Outage/Malfunction",
    "date_created": "2023-07-24T15:11:48.000",
    "date_modified": "2023-07-24T15:11:49.000",
    "request_status": "Pending",
    "responsible_agency": "Department of Public Works",
    "status": "Assigned to Contractor",
    "contractor": "Legacy Professional Services",
    "rowid": "1020168",
    "longitude": "0.0",
    "latitude": "0.0",
    "geocoded_column": {
      "latitude": "0.0",
      "longitude": "0.0"
    }
  },
  {
    "service_request": "2023-1020167",
    "request_type": "Trash/Recycling",
    "request_reason": "Request a Large Item Pick Up",
    "date_created": "2023-07-24T15:07:25.000",
    "date_modified": "2023-07-24T15:07:25.000",
    "request_status": "Pending",
    "responsible_agency": "Department of Sanitation",
    "final_address": "411 Eliza St, New Orleans, Louisiana, 70114",
    "address_councildis": "C",
    "status": "Assigned to Contractor",
    "contractor": "Richards Disposal",
    "rowid": "1020167",
    "final_x": "3689971.8943",
    "final_y": "529772.633921",
    "longitude": "-90.0413814291232",
    "latitude": "29.95043108320431",
    "geocoded_column": {
      "latitude": "29.95043108320431",
      "longitude": "-90.0413814291232"
    }
  },
  {
    "service_request": "2023-1020166",
    "request_type": "Trash/Recycling",
    "request_reason": "Repair Trash Cart",
    "date_created": "2023-07-24T15:06:29.000",
    "date_modified": "2023-07-24T15:06:30.000",
    "request_status": "Pending",
    "responsible_agency": "Department of Sanitation",
    "final_address": "416 N Johnson St",
    "address_councildis": "B",
    "status": "Assigned to Contractor",
    "contractor": "Richards Disposal",
    "rowid": "1020166",
    "final_x": "3678097.24616",
    "final_y": "534664.702086",
    "longitude": "-90.07870627053339",
    "latitude": "29.964245427858963",
    "geocoded_column": {
      "latitude": "29.964245427858963",
      "longitude": "-90.07870627053339"
    }
  },
  {
    "service_request": "2023-1020165",
    "request_type": "Trash/Recycling",
    "request_reason": "Request a Large Item Pick Up",
    "date_created": "2023-07-24T15:04:51.000",
    "date_modified": "2023-07-24T15:04:52.000",
    "request_status": "Pending",
    "responsible_agency": "Department of Sanitation",
    "final_address": "1423 Desire St",
    "address_councildis": "C",
    "status": "Assigned to Contractor",
    "contractor": "IV Waste",
    "rowid": "1020165",
    "final_x": "3690542.04009",
    "final_y": "536982.252424",
    "longitude": "-90.03932413332235",
    "latitude": "29.97023733230354",
    "geocoded_column": {
      "latitude": "29.97023733230354",
      "longitude": "-90.03932413332235"
    }
  },
  {
    "service_request": "2023-1020164",
    "request_type": "Property Maintenance",
    "request_reason": "Property Maintenance",
    "date_created": "2023-07-24T15:04:50.000",
    "date_modified": "2023-07-24T15:04:50.000",
    "request_status": "Pending",
    "responsible_agency": "Department of Code Enforcement",
    "final_address": "7115 Sycamore St",
    "address_councildis": "A",
    "status": "Pending",
    "rowid": "1020164",
    "final_x": "3666319.01306",
    "final_y": "529367.540801",
    "longitude": "-90.11607880024482",
    "latitude": "29.950029320896704",
    "geocoded_column": {
      "latitude": "29.950029320896704",
      "longitude": "-90.11607880024482"
    }
  },
  {
    "service_request": "2023-1020163",
    "request_type": "Property Maintenance",
    "request_reason": "Property Maintenance",
    "date_created": "2023-07-24T15:03:23.000",
    "date_modified": "2023-07-24T15:03:24.000",
    "request_status": "Pending",
    "responsible_agency": "Department of Code Enforcement",
    "final_address": "1232 Reynes St",
    "address_councildis": "E",
    "status": "Pending",
    "rowid": "1020163",
    "final_x": "3696098.72957",
    "final_y": "534896.864134",
    "longitude": "-90.0218509872168",
    "latitude": "29.96432954011877",
    "geocoded_column": {
      "latitude": "29.96432954011877",
      "longitude": "-90.0218509872168"
    }
  },
  {
    "service_request": "2023-1020162",
    "request_type": "Trash/Recycling",
    "request_reason": "MIssed Recycling Pick-Up",
    "date_created": "2023-07-24T15:02:34.000",
    "date_modified": "2023-07-24T15:02:34.000",
    "request_status": "Pending",
    "responsible_agency": "Department of Sanitation",
    "final_address": "5246 Tullis Dr",
    "address_councildis": "C",
    "status": "Assigned to Contractor",
    "contractor": "Richards Disposal",
    "rowid": "1020162",
    "final_x": "3703143.87543",
    "final_y": "511991.588016",
    "longitude": "-90.00044455348885",
    "latitude": "29.90112442943548",
    "geocoded_column": {
      "latitude": "29.90112442943548",
      "longitude": "-90.00044455348885"
    }
  },
  {
    "service_request": "2023-1020161",
    "request_type": "Trash/Recycling",
    "request_reason": "Request a Large Item Pick Up",
    "date_created": "2023-07-24T15:01:55.000",
    "date_modified": "2023-07-24T15:01:55.000",
    "request_status": "Pending",
    "responsible_agency": "Department of Sanitation",
    "final_address": "3426 Elysian Fields Ave",
    "address_councildis": "D",
    "status": "Assigned to Contractor",
    "contractor": "IV Waste",
    "rowid": "1020161",
    "final_x": "3684164.91036",
    "final_y": "545384.37512",
    "longitude": "-90.059168692222",
    "latitude": "29.99353669643361",
    "geocoded_column": {
      "latitude": "29.99353669643361",
      "longitude": "-90.059168692222"
    }
  },
  {
    "service_request": "2023-1020160",
    "request_type": "Abandoned Vehicles",
    "request_reason": "Abandoned/Junk Vehicles",
    "date_created": "2023-07-24T15:01:09.000",
    "date_modified": "2023-07-24T15:01:09.000",
    "request_status": "Pending",
    "responsible_agency": "Department of Public Works",
    "final_address": "2146 N Dorgenois St",
    "address_councildis": "D",
    "status": "Pending",
    "rowid": "1020160",
    "final_x": "3683984.67458",
    "final_y": "541384.32846",
    "longitude": "-90.05987845570898",
    "latitude": "29.982543494128834",
    "geocoded_column": {
      "latitude": "29.982543494128834",
      "longitude": "-90.05987845570898"
    }
  },
  {
    "service_request": "2023-1020159",
    "request_type": "Trash/Recycling",
    "request_reason": "Request a Large Item Pick Up",
    "date_created": "2023-07-24T15:00:11.000",
    "date_modified": "2023-07-24T15:00:12.000",
    "request_status": "Pending",
    "responsible_agency": "Department of Sanitation",
    "final_address": "3730 Clermont Dr",
    "address_councildis": "D",
    "status": "Assigned to Contractor",
    "contractor": "IV Waste",
    "rowid": "1020159",
    "final_x": "3685484.19375",
    "final_y": "546247.210512",
    "longitude": "-90.05497088191703",
    "latitude": "29.99586878063454",
    "geocoded_column": {
      "latitude": "29.99586878063454",
      "longitude": "-90.05497088191703"
    }
  },
  {
    "service_request": "2023-1020158",
    "request_type": "Health Related Request",
    "request_reason": "Noise Ordinance Complaint",
    "date_created": "2023-07-24T14:59:59.000",
    "date_modified": "2023-07-24T17:07:36.000",
    "request_status": "Pending",
    "responsible_agency": "Health Department",
    "final_address": "1014 N Rampart St",
    "address_councildis": "C",
    "status": "Pending",
    "rowid": "1020158",
    "final_x": "3682183.77749",
    "final_y": "534313.772293",
    "longitude": "-90.06581361521238",
    "latitude": "29.963156824741155",
    "geocoded_column": {
      "latitude": "29.963156824741155",
      "longitude": "-90.06581361521238"
    }
  },
  {
    "service_request": "2023-1020157",
    "request_type": "Traffic Signals/Signs/Striping/Streetlights",
    "request_reason": "Additional signage",
    "date_created": "2023-07-24T14:59:38.000",
    "date_modified": "2023-07-24T14:59:38.000",
    "request_status": "Pending",
    "responsible_agency": "Department of Public Works",
    "final_address": "ST CLAUDE AVE & REYNES ST & ST CLAUDE BRIDGE",
    "address_councildis": "E",
    "status": "Pending",
    "rowid": "1020157",
    "final_x": "3695961.4",
    "final_y": "534270.68",
    "longitude": "-90.02230728573979",
    "latitude": "29.96261207696729",
    "geocoded_column": {
      "latitude": "29.96261207696729",
      "longitude": "-90.02230728573979"
    }
  },
  {
    "service_request": "2023-1020156",
    "request_type": "Traffic Signals/Signs/Striping/Streetlights",
    "request_reason": "Additional signage",
    "date_created": "2023-07-24T14:59:22.000",
    "date_modified": "2023-07-24T14:59:23.000",
    "request_status": "Pending",
    "responsible_agency": "Department of Public Works",
    "final_address": "N CLAIBORNE AVE & REYNES ST",
    "address_councildis": "E",
    "status": "Pending",
    "rowid": "1020156",
    "final_x": "3696455.2",
    "final_y": "536008.38",
    "longitude": "-90.02068507776187",
    "latitude": "29.967374589776302",
    "geocoded_column": {
      "latitude": "29.967374589776302",
      "longitude": "-90.02068507776187"
    }
  },
  {
    "service_request": "2023-1020155",
    "request_type": "Trash/Recycling",
    "request_reason": "Replace Trash Cart",
    "date_created": "2023-07-24T14:57:03.000",
    "date_modified": "2023-07-24T14:57:04.000",
    "request_status": "Pending",
    "responsible_agency": "Department of Sanitation",
    "final_address": "6910 Colbert St",
    "address_councildis": "A",
    "status": "Assigned to Contractor",
    "contractor": "IV Waste",
    "rowid": "1020155",
    "final_x": "3667882.29978",
    "final_y": "553541.406487",
    "longitude": "-90.1103280730949",
    "latitude": "30.016453500335345",
    "geocoded_column": {
      "latitude": "30.016453500335345",
      "longitude": "-90.1103280730949"
    }
  },
  {
    "service_request": "2023-1020154",
    "request_type": "Trash/Recycling",
    "request_reason": "Request a Large Item Pick Up",
    "date_created": "2023-07-24T14:56:07.000",
    "date_modified": "2023-07-24T14:56:08.000",
    "request_status": "Pending",
    "responsible_agency": "Department of Sanitation",
    "final_address": "4217 Fontainebleau Dr",
    "address_councildis": "B",
    "status": "Assigned to Contractor",
    "contractor": "Richards Disposal",
    "rowid": "1020154",
    "final_x": "3669694.10593",
    "final_y": "529340.321793",
    "longitude": "-90.10542294672956",
    "latitude": "29.949855458162762",
    "geocoded_column": {
      "latitude": "29.949855458162762",
      "longitude": "-90.10542294672956"
    }
  },
  {
    "service_request": "2023-1020153",
    "request_type": "Trash/Recycling",
    "request_reason": "Return Trash Cart",
    "date_created": "2023-07-24T14:56:03.000",
    "date_modified": "2023-07-24T14:56:03.000",
    "request_status": "Pending",
    "responsible_agency": "Department of Sanitation",
    "final_address": "2309 Coliseum St",
    "address_councildis": "B",
    "status": "Assigned to Contractor",
    "contractor": "Richards Disposal",
    "rowid": "1020153",
    "final_x": "3677814.00277",
    "final_y": "522620.119098",
    "longitude": "-90.08001676430277",
    "latitude": "29.9311353611319",
    "geocoded_column": {
      "latitude": "29.9311353611319",
      "longitude": "-90.08001676430277"
    }
  },
  {
    "service_request": "2023-1020152",
    "request_type": "Trash/Recycling",
    "request_reason": "Replace Trash Cart",
    "date_created": "2023-07-24T14:54:02.000",
    "date_modified": "2023-07-24T14:54:03.000",
    "request_status": "Pending",
    "responsible_agency": "Department of Sanitation",
    "final_address": "324 N Bernadotte St",
    "address_councildis": "A",
    "status": "Assigned to Contractor",
    "contractor": "Richards Disposal",
    "rowid": "1020152",
    "final_x": "3669475.86356",
    "final_y": "540863.071627",
    "longitude": "-90.1057222500808",
    "latitude": "29.98154561023506",
    "geocoded_column": {
      "latitude": "29.98154561023506",
      "longitude": "-90.1057222500808"
    }
  },
  {
    "service_request": "2023-1020151",
    "request_type": "Trash/Recycling",
    "request_reason": "Request a Large Item Pick Up",
    "date_created": "2023-07-24T14:50:16.000",
    "date_modified": "2023-07-24T14:50:16.000",
    "request_status": "Pending",
    "responsible_agency": "Department of Sanitation",
    "final_address": "5101 Lafaye St",
    "address_councildis": "D",
    "status": "Assigned to Contractor",
    "contractor": "IV Waste",
    "rowid": "1020151",
    "final_x": "3687433.70505",
    "final_y": "551690.862293",
    "longitude": "-90.04861974991573",
    "latitude": "30.010776896625405",
    "geocoded_column": {
      "latitude": "30.010776896625405",
      "longitude": "-90.04861974991573"
    }
  },
  {
    "service_request": "2023-1020150",
    "request_type": "Trash/Recycling",
    "request_reason": "Replace Trash Cart",
    "date_created": "2023-07-24T14:49:49.000",
    "date_modified": "2023-07-24T14:49:50.000",
    "request_status": "Pending",
    "responsible_agency": "Department of Sanitation",
    "final_address": "4233 Fontainebleau Dr",
    "address_councildis": "B",
    "status": "Assigned to Contractor",
    "contractor": "Richards Disposal",
    "rowid": "1020150",
    "final_x": "3669594.35182",
    "final_y": "529369.643777",
    "longitude": "-90.1057369255015",
    "latitude": "29.949939023014437",
    "geocoded_column": {
      "latitude": "29.949939023014437",
      "longitude": "-90.1057369255015"
    }
  },
  {
    "service_request": "2023-1020149",
    "request_type": "Trash/Recycling",
    "request_reason": "Request a Large Item Pick Up",
    "date_created": "2023-07-24T14:45:58.000",
    "date_modified": "2023-07-24T14:45:59.000",
    "request_status": "Pending",
    "responsible_agency": "Department of Sanitation",
    "final_address": "1823 Dauphine St",
    "address_councildis": "C",
    "status": "Assigned to Contractor",
    "contractor": "IV Waste",
    "rowid": "1020149",
    "final_x": "3683892.31164",
    "final_y": "535163.937862",
    "longitude": "-90.06038844783464",
    "latitude": "29.965442408936852",
    "geocoded_column": {
      "latitude": "29.965442408936852",
      "longitude": "-90.06038844783464"
    }
  },
  {
    "service_request": "2023-1020148",
    "request_type": "Traffic Signals/Signs/Striping/Streetlights",
    "request_reason": "Additional signage",
    "date_created": "2023-07-24T14:45:05.000",
    "date_modified": "2023-07-24T14:45:05.000",
    "request_status": "Pending",
    "responsible_agency": "Department of Public Works",
    "final_address": "4254 Maple Leaf Dr",
    "address_councildis": "C",
    "status": "Pending",
    "rowid": "1020148",
    "final_x": "3706455.69572",
    "final_y": "515468.036084",
    "longitude": "-89.98986416470724",
    "latitude": "29.910577125575845",
    "geocoded_column": {
      "latitude": "29.910577125575845",
      "longitude": "-89.98986416470724"
    }
  },
  {
    "service_request": "2023-1020147",
    "request_type": "Trash/Recycling",
    "request_reason": "Request a Large Item Pick Up",
    "date_created": "2023-07-24T14:44:39.000",
    "date_modified": "2023-07-24T14:44:39.000",
    "request_status": "Pending",
    "responsible_agency": "Department of Sanitation",
    "final_address": "11412 Maxine Dr",
    "address_councildis": "E",
    "status": "Assigned to Contractor",
    "contractor": "Waste Pro",
    "rowid": "1020147",
    "final_x": "3718525.22796",
    "final_y": "560577.892958",
    "longitude": "-89.95005176416272",
    "latitude": "30.034217526536803",
    "geocoded_column": {
      "latitude": "30.034217526536803",
      "longitude": "-89.95005176416272"
    }
  },
  {
    "service_request": "2023-1020146",
    "request_type": "Property Maintenance",
    "request_reason": "Property Maintenance",
    "date_created": "2023-07-24T14:43:53.000",
    "date_modified": "2023-07-24T14:43:53.000",
    "request_status": "Pending",
    "responsible_agency": "Department of Code Enforcement",
    "final_address": "9407 Stroelitz St",
    "address_councildis": "A",
    "status": "Pending",
    "rowid": "1020146",
    "final_x": "3664559.09786",
    "final_y": "538104.627081",
    "longitude": "-90.12134390140153",
    "latitude": "29.97410473490744",
    "geocoded_column": {
      "latitude": "29.97410473490744",
      "longitude": "-90.12134390140153"
    }
  },
  {
    "service_request": "2023-1020144",
    "request_type": "Trash/Recycling",
    "request_reason": "Missed Trash Pick-Up",
    "date_created": "2023-07-24T14:43:08.000",
    "date_modified": "2023-07-24T14:43:09.000",
    "request_status": "Pending",
    "responsible_agency": "Department of Sanitation",
    "final_address": "1800 BLK Dublin St",
    "address_councildis": "A",
    "status": "Assigned to Contractor",
    "contractor": "Richards Disposal",
    "rowid": "1020144",
    "final_x": "3663240.61508",
    "final_y": "530297.848313",
    "longitude": "-90.1257678295612",
    "latitude": "29.952676928692544",
    "geocoded_column": {
      "latitude": "29.952676928692544",
      "longitude": "-90.1257678295612"
    }
  },
  {
    "service_request": "2023-1020145",
    "request_type": "Trash/Recycling",
    "request_reason": "Missed Trash Pick-Up",
    "date_created": "2023-07-24T14:43:08.000",
    "date_modified": "2023-07-24T14:43:09.000",
    "request_status": "Pending",
    "responsible_agency": "Department of Sanitation",
    "final_address": "13118 Dwyer Blvd",
    "address_councildis": "E",
    "status": "Assigned to Contractor",
    "contractor": "Waste Pro",
    "rowid": "1020145",
    "final_x": "3724198.54828",
    "final_y": "561238.55683",
    "longitude": "-89.93209804600616",
    "latitude": "30.035844541176957",
    "geocoded_column": {
      "latitude": "30.035844541176957",
      "longitude": "-89.93209804600616"
    }
  },
  {
    "service_request": "2023-1020143",
    "request_type": "Traffic Signals/Signs/Striping/Streetlights",
    "request_reason": "Street Light Outage/Malfunction",
    "date_created": "2023-07-24T14:43:07.000",
    "date_modified": "2023-07-24T14:43:08.000",
    "request_status": "Pending",
    "responsible_agency": "Department of Public Works",
    "final_address": "9438 Oleander St",
    "address_councildis": "A",
    "status": "Assigned to Contractor",
    "contractor": "Legacy Professional Services",
    "rowid": "1020143",
    "final_x": "3663132.45895",
    "final_y": "536928.646088",
    "longitude": "-90.12588871203356",
    "latitude": "29.970912591277354",
    "geocoded_column": {
      "latitude": "29.970912591277354",
      "longitude": "-90.12588871203356"
    }
  },
  {
    "service_request": "2023-1020142",
    "request_type": "Traffic Signals/Signs/Striping/Streetlights",
    "request_reason": "Additional signage",
    "date_created": "2023-07-24T14:42:44.000",
    "date_modified": "2023-07-24T14:42:44.000",
    "request_status": "Pending",
    "responsible_agency": "Department of Public Works",
    "final_address": "4254 Maple Leaf Dr",
    "address_councildis": "C",
    "status": "Pending",
    "rowid": "1020142",
    "final_x": "3706455.69572",
    "final_y": "515468.036084",
    "longitude": "-89.98986416470724",
    "latitude": "29.910577125575845",
    "geocoded_column": {
      "latitude": "29.910577125575845",
      "longitude": "-89.98986416470724"
    }
  },
  {
    "service_request": "2023-1020141",
    "request_type": "Trash/Recycling",
    "request_reason": "Request a Large Item Pick Up",
    "date_created": "2023-07-24T14:42:40.000",
    "date_modified": "2023-07-24T14:42:40.000",
    "request_status": "Pending",
    "responsible_agency": "Department of Sanitation",
    "final_address": "727 Leontine St",
    "address_councildis": "B",
    "status": "Assigned to Contractor",
    "contractor": "Richards Disposal",
    "rowid": "1020141",
    "final_x": "3667127.97223",
    "final_y": "518100.329526",
    "longitude": "-90.11390313605472",
    "latitude": "29.91902443443011",
    "geocoded_column": {
      "latitude": "29.91902443443011",
      "longitude": "-90.11390313605472"
    }
  },
  {
    "service_request": "2023-1020140",
    "request_type": "Trash/Recycling",
    "request_reason": "Return Recycling Cart",
    "date_created": "2023-07-24T14:37:40.000",
    "date_modified": "2023-07-24T14:37:40.000",
    "request_status": "Pending",
    "responsible_agency": "Department of Sanitation",
    "final_address": "324 S Norman C Francis Prkwy",
    "address_councildis": "B",
    "status": "Pending",
    "rowid": "1020140",
    "final_x": "3672716.44328",
    "final_y": "535820.313351",
    "longitude": "-90.09565901328185",
    "latitude": "29.967583874264513",
    "geocoded_column": {
      "latitude": "29.967583874264513",
      "longitude": "-90.09565901328185"
    }
  },
  {
    "service_request": "2023-1020139",
    "request_type": "Trash/Recycling",
    "request_reason": "Order Recycling Cart",
    "date_created": "2023-07-24T14:34:52.000",
    "date_modified": "2023-07-24T14:34:52.000",
    "request_status": "Pending",
    "responsible_agency": "Department of Sanitation",
    "final_address": "3502 Banks St, New Orleans, Louisiana, 70119",
    "address_councildis": "B",
    "status": "Pending",
    "rowid": "1020139",
    "final_x": "3672050.21294",
    "final_y": "536005.978631",
    "longitude": "-90.09775666561171",
    "latitude": "29.96811416182851",
    "geocoded_column": {
      "latitude": "29.96811416182851",
      "longitude": "-90.09775666561171"
    }
  },
  {
    "service_request": "2023-1020138",
    "request_type": "Trash/Recycling",
    "request_reason": "Illegal Dumping",
    "date_created": "2023-07-24T14:31:16.000",
    "date_modified": "2023-07-24T14:31:17.000",
    "request_status": "Pending",
    "responsible_agency": "Department of Sanitation",
    "final_address": "6000 BLK Bullard Ave",
    "address_councildis": "E",
    "status": "Pending",
    "rowid": "1020138",
    "final_x": "3715421.53008",
    "final_y": "564208.144009",
    "longitude": "-89.95972222426856",
    "latitude": "30.044301909801483",
    "geocoded_column": {
      "latitude": "30.044301909801483",
      "longitude": "-89.95972222426856"
    }
  },
  {
    "service_request": "2023-1020137",
    "request_type": "Trash/Recycling",
    "request_reason": "Replace Trash Cart",
    "date_created": "2023-07-24T14:26:37.000",
    "date_modified": "2023-07-24T14:26:39.000",
    "request_status": "Pending",
    "responsible_agency": "Department of Sanitation",
    "final_address": "838 N Rendon St",
    "address_councildis": "A",
    "status": "Assigned to Contractor",
    "contractor": "Richards Disposal",
    "rowid": "1020137",
    "final_x": "3675402.30312",
    "final_y": "538783.881609",
    "longitude": "-90.0870752058956",
    "latitude": "29.975652634254892",
    "geocoded_column": {
      "latitude": "29.975652634254892",
      "longitude": "-90.0870752058956"
    }
  },
  {
    "service_request": "2023-1020136",
    "request_type": "Traffic Signals/Signs/Striping/Streetlights",
    "request_reason": "Street Light Outage/Malfunction",
    "date_created": "2023-07-24T14:26:21.000",
    "date_modified": "2023-07-24T14:26:22.000",
    "request_status": "Pending",
    "responsible_agency": "Department of Public Works",
    "final_address": "6524 Colbert St",
    "address_councildis": "A",
    "status": "Assigned to Contractor",
    "contractor": "Legacy Professional Services",
    "rowid": "1020136",
    "final_x": "3667648.91073",
    "final_y": "551017.258389",
    "longitude": "-90.11115055051812",
    "latitude": "30.009519826771232",
    "geocoded_column": {
      "latitude": "30.009519826771232",
      "longitude": "-90.11115055051812"
    }
  },
  {
    "service_request": "2023-1020135",
    "request_type": "Trash/Recycling",
    "request_reason": "MIssed Recycling Pick-Up",
    "date_created": "2023-07-24T14:21:59.000",
    "date_modified": "2023-07-24T14:22:00.000",
    "request_status": "Pending",
    "responsible_agency": "Department of Sanitation",
    "final_address": "3224 Palmyra St",
    "address_councildis": "B",
    "status": "Assigned to Contractor",
    "contractor": "Richards Disposal",
    "rowid": "1020135",
    "final_x": "3673166.43374",
    "final_y": "535676.397895",
    "longitude": "-90.09424284549077",
    "latitude": "29.96717478269423",
    "geocoded_column": {
      "latitude": "29.96717478269423",
      "longitude": "-90.09424284549077"
    }
  },
  {
    "service_request": "2023-1020134",
    "request_type": "Trash/Recycling",
    "request_reason": "Return Trash Cart",
    "date_created": "2023-07-24T14:21:44.000",
    "date_modified": "2023-07-24T14:21:44.000",
    "request_status": "Pending",
    "responsible_agency": "Department of Sanitation",
    "final_address": "501 S Solomon St",
    "address_councildis": "A",
    "status": "Assigned to Contractor",
    "contractor": "Richards Disposal",
    "rowid": "1020134",
    "final_x": "3669567.03156",
    "final_y": "537438.580296",
    "longitude": "-90.1055501947795",
    "latitude": "29.972126729215",
    "geocoded_column": {
      "latitude": "29.972126729215",
      "longitude": "-90.1055501947795"
    }
  },
  {
    "service_request": "2023-1020133",
    "request_type": "Mosquito, Termite & Rodent Control",
    "request_reason": "Rodent Complaint (Rats)",
    "date_created": "2023-07-24T14:19:16.000",
    "date_modified": "2023-07-24T14:19:16.000",
    "request_status": "Pending",
    "responsible_agency": "Mosquito, Termite & Rodent Control Board",
    "final_address": "4824 Deanne St",
    "address_councildis": "D",
    "status": "Pending",
    "rowid": "1020133",
    "final_x": "3696328.90794",
    "final_y": "554568.88764",
    "longitude": "-90.0204122969041",
    "latitude": "30.018413156384618",
    "geocoded_column": {
      "latitude": "30.018413156384618",
      "longitude": "-90.0204122969041"
    }
  },
  {
    "service_request": "2023-1020132",
    "request_type": "Trash/Recycling",
    "request_reason": "Order Recycling Cart",
    "date_created": "2023-07-24T14:15:49.000",
    "date_modified": "2023-07-24T14:15:50.000",
    "request_status": "Pending",
    "responsible_agency": "Department of Sanitation",
    "final_address": "3620 Huntlee Dr",
    "address_councildis": "C",
    "status": "Pending",
    "contractor": "Richards Disposal",
    "rowid": "1020132",
    "final_x": "3701769.55402",
    "final_y": "517718.693942",
    "longitude": "-90.00457217605643",
    "latitude": "29.916915912627417",
    "geocoded_column": {
      "latitude": "29.916915912627417",
      "longitude": "-90.00457217605643"
    }
  },
  {
    "service_request": "2023-1020131",
    "request_type": "Trash/Recycling",
    "request_reason": "Repair Trash Cart",
    "date_created": "2023-07-24T14:15:30.000",
    "date_modified": "2023-07-24T14:15:31.000",
    "request_status": "Pending",
    "responsible_agency": "Department of Sanitation",
    "final_address": "3620 Huntlee Dr",
    "address_councildis": "C",
    "status": "Assigned to Contractor",
    "contractor": "Richards Disposal",
    "rowid": "1020131",
    "final_x": "3701769.55402",
    "final_y": "517718.693942",
    "longitude": "-90.00457217605643",
    "latitude": "29.916915912627417",
    "geocoded_column": {
      "latitude": "29.916915912627417",
      "longitude": "-90.00457217605643"
    }
  },
  {
    "service_request": "2023-1020130",
    "request_type": "Property Maintenance",
    "request_reason": "Property Maintenance",
    "date_created": "2023-07-24T14:13:42.000",
    "date_modified": "2023-07-24T14:13:43.000",
    "request_status": "Pending",
    "responsible_agency": "Department of Code Enforcement",
    "final_address": "N ROMAN ST & MANDEVILLE ST",
    "address_councildis": "D",
    "status": "Pending",
    "rowid": "1020130",
    "final_x": "3685570.2",
    "final_y": "538944.08",
    "longitude": "-90.05495657993242",
    "latitude": "29.975785122260923",
    "geocoded_column": {
      "latitude": "29.975785122260923",
      "longitude": "-90.05495657993242"
    }
  },
  {
    "service_request": "2023-1020129",
    "request_type": "Trash/Recycling",
    "request_reason": "Order Recycling Cart",
    "date_created": "2023-07-24T14:12:29.000",
    "date_modified": "2023-07-24T14:12:30.000",
    "request_status": "Pending",
    "responsible_agency": "Department of Sanitation",
    "final_address": "1814 Urquhart St",
    "address_councildis": "C",
    "status": "Pending",
    "rowid": "1020129",
    "final_x": "3683594.70524",
    "final_y": "536904.535624",
    "longitude": "-90.06126725164162",
    "latitude": "29.97023753870083",
    "geocoded_column": {
      "latitude": "29.97023753870083",
      "longitude": "-90.06126725164162"
    }
  },
  {
    "service_request": "2023-1020128",
    "request_type": "Roads/Drainage",
    "request_reason": "Pothole",
    "date_created": "2023-07-24T14:12:14.000",
    "date_modified": "2023-07-24T14:12:14.000",
    "request_status": "Pending",
    "responsible_agency": "Department of Public Works",
    "final_address": "MANDEVILLE ST & PRENTISS AVE",
    "address_councildis": "D",
    "status": "Pending",
    "rowid": "1020128",
    "final_x": "3684353.3",
    "final_y": "553899.58",
    "longitude": "-90.0582742841853",
    "latitude": "30.016944669211586",
    "geocoded_column": {
      "latitude": "30.016944669211586",
      "longitude": "-90.0582742841853"
    }
  },
  {
    "service_request": "2023-1020127",
    "request_type": "Trash/Recycling",
    "request_reason": "Order Trash Cart",
    "date_created": "2023-07-24T14:10:39.000",
    "date_modified": "2023-07-24T14:11:55.000",
    "request_status": "Pending",
    "responsible_agency": "Department of Sanitation",
    "final_address": "1814 Urquhart St",
    "address_councildis": "C",
    "status": "Assigned to Contractor",
    "contractor": "IV Waste",
    "rowid": "1020127",
    "final_x": "3683594.70524",
    "final_y": "536904.535624",
    "longitude": "-90.06126725164162",
    "latitude": "29.97023753870083",
    "geocoded_column": {
      "latitude": "29.97023753870083",
      "longitude": "-90.06126725164162"
    }
  },
  {
    "service_request": "2023-1020126",
    "request_type": "Parks & Parkways",
    "request_reason": "Request Tree Service (Right of Way/Public Property)",
    "date_created": "2023-07-24T14:10:08.000",
    "date_modified": "2023-07-24T14:10:08.000",
    "request_status": "Pending",
    "responsible_agency": "Department of Parks & Parkway",
    "final_address": "1600 BLK Gentilly Blvd",
    "address_councildis": "A",
    "status": "Pending",
    "rowid": "1020126",
    "final_x": "3678466.33922",
    "final_y": "540986.456857",
    "longitude": "-90.07732187465622",
    "latitude": "29.981616965282427",
    "geocoded_column": {
      "latitude": "29.981616965282427",
      "longitude": "-90.07732187465622"
    }
  },
  {
    "service_request": "2023-1020125",
    "request_type": "Traffic Signals/Signs/Striping/Streetlights",
    "request_reason": "Street Light Outage/Malfunction",
    "date_created": "2023-07-24T14:09:18.000",
    "date_modified": "2023-07-24T14:09:19.000",
    "request_status": "Pending",
    "responsible_agency": "Department of Public Works",
    "final_address": "5919 General Diaz St",
    "address_councildis": "A",
    "status": "Assigned to Contractor",
    "contractor": "Legacy Professional Services",
    "rowid": "1020125",
    "final_x": "3669547.29812",
    "final_y": "546693.402641",
    "longitude": "-90.10529926740287",
    "latitude": "29.99757491746909",
    "geocoded_column": {
      "latitude": "29.99757491746909",
      "longitude": "-90.10529926740287"
    }
  },
  {
    "service_request": "2023-1020124",
    "request_type": "Trash/Recycling",
    "request_reason": "Missed Trash Pick-Up",
    "date_created": "2023-07-24T14:09:05.000",
    "date_modified": "2023-07-24T14:09:05.000",
    "request_status": "Pending",
    "responsible_agency": "Department of Sanitation",
    "final_address": "3330 General Pershing St",
    "address_councildis": "B",
    "status": "Assigned to Contractor",
    "contractor": "Richards Disposal",
    "rowid": "1020124",
    "final_x": "3670580.05115",
    "final_y": "527172.173567",
    "longitude": "-90.10269912613624",
    "latitude": "29.943867623979262",
    "geocoded_column": {
      "latitude": "29.943867623979262",
      "longitude": "-90.10269912613624"
    }
  },
  {
    "service_request": "2023-1020123",
    "request_type": "Abandoned Vehicles",
    "request_reason": "Abandoned/Junk Vehicles",
    "date_created": "2023-07-24T14:04:43.000",
    "date_modified": "2023-07-24T14:04:43.000",
    "request_status": "Pending",
    "responsible_agency": "Department of Public Works",
    "final_address": "PLUM ST & EAGLE ST",
    "address_councildis": "A",
    "status": "Pending",
    "rowid": "1020123",
    "final_x": "3660356.4",
    "final_y": "530298.18",
    "longitude": "-90.13487492471248",
    "latitude": "29.952761104056854",
    "geocoded_column": {
      "latitude": "29.952761104056854",
      "longitude": "-90.13487492471248"
    }
  },