[
  {
    "service_request": "2024-1087108",
    "request_type": "Property Maintenance",
    "request_reason": "Property Maintenance",
    "date_created": "2024-04-22T23:00:40.000",
    "date_modified": "2024-04-22T23:00:40.000",
    "request_status": "Pending",
    "responsible_agency": "Department of Code Enforcement",
    "final_address": "8332 Chef Menteur Hwy",
    "address_councildis": "E",
    "status": "Pending",
    "rowid": "1087108",
    "final_x": "3706229.05214",
    "final_y": "553021.671191",
    "longitude": "-89.98918909588382",
    "latitude": "30.013843280626354",
    "geocoded_column": {
      "latitude": "30.013843280626354",
      "longitude": "-89.98918909588382"
    }
  },
  {
    "service_request": "2024-1087107",
    "request_type": "Property Maintenance",
    "request_reason": "Property Maintenance",
    "date_created": "2024-04-22T22:48:21.000",
    "date_modified": "2024-04-22T22:48:21.000",
    "request_status": "Pending",
    "responsible_agency": "Department of Code Enforcement",
    "final_address": "3304 Lamarque St",
    "address_councildis": "C",
    "status": "Pending",
    "rowid": "1087107",
    "final_x": "3696432.87139",
    "final_y": "526671.164158",
    "longitude": "-90.02109328294362",
    "latitude": "29.941701231243528",
    "geocoded_column": {
      "latitude": "29.941701231243528",
      "longitude": "-90.02109328294362"
    }
  },
  {
    "service_request": "2024-1087106",
    "request_type": "Trash/Recycling",
    "request_reason": "Order Trash Cart",
    "date_created": "2024-04-22T22:47:47.000",
    "date_modified": "2024-04-22T22:47:48.000",
    "request_status": "Pending",
    "responsible_agency": "Department of Sanitation",
    "final_address": "3310 Kabel Dr",
    "address_councildis": "C",
    "status": "Assigned to Contractor",
    "contractor": "Richards Disposal",
    "rowid": "1087106",
    "final_x": "3700701.84093",
    "final_y": "519013.445559",
    "longitude": "-90.0078950308809",
    "latitude": "29.92051003895938",
    "geocoded_column": {
      "latitude": "29.92051003895938",
      "longitude": "-90.0078950308809"
    }
  },
  {
    "service_request": "2024-1087105",
    "request_type": "Property Maintenance",
    "request_reason": "Property Maintenance",
    "date_created": "2024-04-22T22:45:52.000",
    "date_modified": "2024-04-22T22:45:52.000",
    "request_status": "Pending",
    "responsible_agency": "Department of Code Enforcement",
    "final_address": "3303 Lamarque St",
    "address_councildis": "C",
    "status": "Pending",
    "rowid": "1087105",
    "final_x": "3696428.89008",
    "final_y": "526567.661246",
    "longitude": "-90.02110959497826",
    "latitude": "29.941416759473466",
    "geocoded_column": {
      "latitude": "29.941416759473466",
      "longitude": "-90.02110959497826"
    }
  },
  {
    "service_request": "2024-1087104",
    "request_type": "Property Maintenance",
    "request_reason": "Property Maintenance",
    "date_created": "2024-04-22T22:43:56.000",
    "date_modified": "2024-04-22T22:43:56.000",
    "request_status": "Pending",
    "responsible_agency": "Department of Code Enforcement",
    "final_address": "3303 Lamarque St",
    "address_councildis": "C",
    "status": "Pending",
    "rowid": "1087104",
    "final_x": "3696428.89008",
    "final_y": "526567.661246",
    "longitude": "-90.02110959497826",
    "latitude": "29.941416759473466",
    "geocoded_column": {
      "latitude": "29.941416759473466",
      "longitude": "-90.02110959497826"
    }
  },
  {
    "service_request": "2024-1087103",
    "request_type": "Property Maintenance",
    "request_reason": "Property Maintenance",
    "date_created": "2024-04-22T22:42:06.000",
    "date_modified": "2024-04-22T22:42:06.000",
    "request_status": "Pending",
    "responsible_agency": "Department of Code Enforcement",
    "final_address": "3301 Lamarque St",
    "address_councildis": "C",
    "status": "Pending",
    "rowid": "1087103",
    "final_x": "3696399.45239",
    "final_y": "526569.251198",
    "longitude": "-90.0212024775144",
    "latitude": "29.941422058230504",
    "geocoded_column": {
      "latitude": "29.941422058230504",
      "longitude": "-90.0212024775144"
    }
  },
  {
    "service_request": "2024-1087102",
    "request_type": "Property Maintenance",
    "request_reason": "Property Maintenance",
    "date_created": "2024-04-22T22:33:46.000",
    "date_modified": "2024-04-22T22:33:46.000",
    "request_status": "Pending",
    "responsible_agency": "Department of Code Enforcement",
    "final_address": "4942 Rhodes Dr",
    "address_councildis": "E",
    "status": "Pending",
    "rowid": "1087102",
    "final_x": "3702350.48708",
    "final_y": "555552.158297",
    "longitude": "-90.00135034573437",
    "latitude": "30.020925685234026",
    "geocoded_column": {
      "latitude": "30.020925685234026",
      "longitude": "-90.00135034573437"
    }
  },
  {
    "service_request": "2024-1087101",
    "request_type": "Trash/Recycling",
    "request_reason": "Order Recycling Cart",
    "date_created": "2024-04-22T22:12:46.000",
    "date_modified": "2024-04-22T22:12:46.000",
    "request_status": "Pending",
    "responsible_agency": "Department of Sanitation",
    "final_address": "2524 N Tonti St",
    "address_councildis": "D",
    "status": "Pending",
    "rowid": "1087101",
    "final_x": "3686704.8454",
    "final_y": "540799.901067",
    "longitude": "-90.0513074798358",
    "latitude": "29.98085311987436",
    "geocoded_column": {
      "latitude": "29.98085311987436",
      "longitude": "-90.0513074798358"
    }
  },
  {
    "service_request": "2024-1087100",
    "request_type": "Trash/Recycling",
    "request_reason": "Order Recycling Cart",
    "date_created": "2024-04-22T22:11:57.000",
    "date_modified": "2024-04-22T22:11:57.000",
    "request_status": "Pending",
    "responsible_agency": "Department of Sanitation",
    "final_address": "2522 N Tonti St",
    "address_councildis": "D",
    "status": "Pending",
    "rowid": "1087100",
    "final_x": "3686704.8454",
    "final_y": "540847.123275",
    "longitude": "-90.05130581108256",
    "latitude": "29.98098296425414",
    "geocoded_column": {
      "latitude": "29.98098296425414",
      "longitude": "-90.05130581108256"
    }
  },
  {
    "service_request": "2024-1087099",
    "request_type": "Traffic Signals/Signs/Striping/Streetlights",
    "request_reason": "Street Name Sign Damaged or Missing",
    "date_created": "2024-04-22T21:50:22.000",
    "date_modified": "2024-04-22T21:50:22.000",
    "request_status": "Pending",
    "responsible_agency": "Department of Public Works",
    "final_address": "N RENDON ST & TOULOUSE ST",
    "address_councildis": "A",
    "status": "Pending",
    "rowid": "1087099",
    "final_x": "3674685.9",
    "final_y": "537898.68",
    "longitude": "-90.08936816032836",
    "latitude": "29.973240037041332",
    "geocoded_column": {
      "latitude": "29.973240037041332",
      "longitude": "-90.08936816032836"
    }
  },
  {
    "service_request": "2024-1087098",
    "request_type": "Trash/Recycling",
    "request_reason": "Request a Large Item Pick Up",
    "date_created": "2024-04-22T21:46:40.000",
    "date_modified": "2024-04-22T21:46:40.000",
    "request_status": "Pending",
    "responsible_agency": "Department of Sanitation",
    "final_address": "7930 Windward Ct",
    "address_councildis": "E",
    "status": "Assigned to Contractor",
    "contractor": "Waste Pro",
    "rowid": "1087098",
    "final_x": "3715072.75672",
    "final_y": "570381.221863",
    "longitude": "-89.96059076337373",
    "latitude": "30.061286836427062",
    "geocoded_column": {
      "latitude": "30.061286836427062",
      "longitude": "-89.96059076337373"
    }
  },
  {
    "service_request": "2024-1087096",
    "request_type": "Trash/Recycling",
    "request_reason": "Request a Large Item Pick Up",
    "date_created": "2024-04-22T21:35:39.000",
    "date_modified": "2024-04-22T21:35:39.000",
    "request_status": "Pending",
    "responsible_agency": "Department of Sanitation",
    "final_address": "5226 Michoud Blvd",
    "address_councildis": "E",
    "status": "Assigned to Contractor",
    "contractor": "Waste Pro",
    "rowid": "1087096",
    "final_x": "3724703.04384",
    "final_y": "562584.28976",
    "longitude": "-89.93045170288725",
    "latitude": "30.03952777966946",
    "geocoded_column": {
      "latitude": "30.03952777966946",
      "longitude": "-89.93045170288725"
    }
  },
  {
    "service_request": "2024-1087095",
    "request_type": "Trash/Recycling",
    "request_reason": "Order Recycling Cart",
    "date_created": "2024-04-22T21:34:15.000",
    "date_modified": "2024-04-22T21:34:15.000",
    "request_status": "Pending",
    "responsible_agency": "Department of Sanitation",
    "final_address": "400 Lakeshore Prkwy",
    "address_councildis": "D",
    "status": "Pending",
    "rowid": "1087095",
    "final_x": "3667865.81281",
    "final_y": "556926.420634",
    "longitude": "-90.11026600468664",
    "latitude": "30.025761572046914",
    "geocoded_column": {
      "latitude": "30.025761572046914",
      "longitude": "-90.11026600468664"
    }
  },
  {
    "service_request": "2024-1087094",
    "request_type": "Trash/Recycling",
    "request_reason": "Request a Large Item Pick Up",
    "date_created": "2024-04-22T21:30:18.000",
    "date_modified": "2024-04-22T21:30:19.000",
    "request_status": "Pending",
    "responsible_agency": "Department of Sanitation",
    "final_address": "5226 Michoud Blvd",
    "address_councildis": "E",
    "status": "Assigned to Contractor",
    "contractor": "Waste Pro",
    "rowid": "1087094",
    "final_x": "3724703.04384",
    "final_y": "562584.28976",
    "longitude": "-89.93045170288725",
    "latitude": "30.03952777966946",
    "geocoded_column": {
      "latitude": "30.03952777966946",
      "longitude": "-89.93045170288725"
    }
  },
  {
    "service_request": "2024-1087093",
    "request_type": "Roads/Drainage",
    "request_reason": "Catch Basin - Broken/Damage",
    "date_created": "2024-04-22T21:29:05.000",
    "date_modified": "2024-04-22T21:29:05.000",
    "request_status": "Pending",
    "responsible_agency": "Department of Public Works",
    "final_address": "2607 S Galvez St",
    "address_councildis": "B",
    "status": "Pending",
    "rowid": "1087093",
    "final_x": "3672610.87137",
    "final_y": "528486.747712",
    "longitude": "-90.0962424516302",
    "latitude": "29.947422142347587",
    "geocoded_column": {
      "latitude": "29.947422142347587",
      "longitude": "-90.0962424516302"
    }
  },
  {
    "service_request": "2024-1087092",
    "request_type": "Roads/Drainage",
    "request_reason": "Catch Basin - Clogged",
    "date_created": "2024-04-22T21:26:56.000",
    "date_modified": "2024-04-22T21:26:56.000",
    "request_status": "Pending",
    "responsible_agency": "Department of Public Works",
    "final_address": "8100 BLK Zimpel St",
    "address_councildis": "A",
    "status": "Pending",
    "rowid": "1087092",
    "final_x": "3661610.34538",
    "final_y": "528220.698596",
    "longitude": "-90.13098433733195",
    "latitude": "29.947012574230968",
    "geocoded_column": {
      "latitude": "29.947012574230968",
      "longitude": "-90.13098433733195"
    }
  },
  {
    "service_request": "2024-1087091",
    "request_type": "Roads/Drainage",
    "request_reason": "Catch Basin - Clogged",
    "date_created": "2024-04-22T21:23:52.000",
    "date_modified": "2024-04-22T21:23:52.000",
    "request_status": "Pending",
    "responsible_agency": "Department of Public Works",
    "final_address": "8100 BLK Zimpel St",
    "address_councildis": "A",
    "status": "Pending",
    "rowid": "1087091",
    "final_x": "3661610.34538",
    "final_y": "528220.698596",
    "longitude": "-90.13098433733195",
    "latitude": "29.947012574230968",
    "geocoded_column": {
      "latitude": "29.947012574230968",
      "longitude": "-90.13098433733195"
    }
  },
  {
    "service_request": "2024-1087090",
    "request_type": "Roads/Drainage",
    "request_reason": "Catch Basin - Clogged",
    "date_created": "2024-04-22T21:20:45.000",
    "date_modified": "2024-04-22T21:20:45.000",
    "request_status": "Pending",
    "responsible_agency": "Department of Public Works",
    "final_address": "8100 BLK Zimpel St",
    "address_councildis": "A",
    "status": "Pending",
    "rowid": "1087090",
    "final_x": "3661610.34538",
    "final_y": "528220.698596",
    "longitude": "-90.13098433733195",
    "latitude": "29.947012574230968",
    "geocoded_column": {
      "latitude": "29.947012574230968",
      "longitude": "-90.13098433733195"
    }
  },
  {
    "service_request": "2024-1087089",
    "request_type": "Roads/Drainage",
    "request_reason": "Street Flooding / Drainage",
    "date_created": "2024-04-22T21:18:13.000",
    "date_modified": "2024-04-22T21:18:13.000",
    "request_status": "Pending",
    "responsible_agency": "Department of Public Works",
    "final_address": "4930 Marseille St",
    "address_councildis": "E",
    "status": "Pending",
    "rowid": "1087089",
    "final_x": "3729582.6137",
    "final_y": "562767.115808",
    "longitude": "-89.91502389182392",
    "latitude": "30.039865305321253",
    "geocoded_column": {
      "latitude": "30.039865305321253",
      "longitude": "-89.91502389182392"
    }
  },
  {
    "service_request": "2024-1087088",
    "request_type": "Roads/Drainage",
    "request_reason": "Catch Basin - Clogged",
    "date_created": "2024-04-22T21:16:16.000",
    "date_modified": "2024-04-22T21:16:16.000",
    "request_status": "Pending",
    "responsible_agency": "Department of Public Works",
    "final_address": "8100 BLK Zimpel St",
    "address_councildis": "A",
    "status": "Pending",
    "rowid": "1087088",
    "final_x": "3661610.34538",
    "final_y": "528220.698596",
    "longitude": "-90.13098433733195",
    "latitude": "29.947012574230968",
    "geocoded_column": {
      "latitude": "29.947012574230968",
      "longitude": "-90.13098433733195"
    }
  },
  {
    "service_request": "2024-1087087",
    "request_type": "Traffic Signals/Signs/Striping/Streetlights",
    "request_reason": "Street Light Outage/Malfunction",
    "date_created": "2024-04-22T21:13:52.000",
    "date_modified": "2024-04-22T21:13:52.000",
    "request_status": "Pending",
    "responsible_agency": "Department of Public Works",
    "final_address": "5082 Kim Dr",
    "address_councildis": "E",
    "status": "Assigned to Contractor",
    "contractor": "Legacy Professional Services",
    "rowid": "1087087",
    "final_x": "3728168.9472",
    "final_y": "563475.970784",
    "longitude": "-89.91946380620162",
    "latitude": "30.04186239897781",
    "geocoded_column": {
      "latitude": "30.04186239897781",
      "longitude": "-89.91946380620162"
    }
  },
  {
    "service_request": "2024-1087086",
    "request_type": "Abandoned Vehicles",
    "request_reason": "Abandoned/Junk Vehicles",
    "date_created": "2024-04-22T21:02:12.000",
    "date_modified": "2024-04-22T21:02:12.000",
    "request_status": "Pending",
    "responsible_agency": "Department of Public Works",
    "final_address": "13413 N Nemours St",
    "address_councildis": "E",
    "status": "Pending",
    "rowid": "1087086",
    "final_x": "3725226.45171",
    "final_y": "562714.411232",
    "longitude": "-89.92879256022596",
    "latitude": "30.039867929469775",
    "geocoded_column": {
      "latitude": "30.039867929469775",
      "longitude": "-89.92879256022596"
    }
  },
  {
    "service_request": "2024-1087085",
    "request_type": "Trash/Recycling",
    "request_reason": "Request a Large Item Pick Up",
    "date_created": "2024-04-22T20:47:51.000",
    "date_modified": "2024-04-22T20:47:52.000",
    "request_status": "Pending",
    "responsible_agency": "Department of Sanitation",
    "final_address": "7530 Burke Ave",
    "address_councildis": "E",
    "status": "Assigned to Contractor",
    "contractor": "Waste Pro",
    "rowid": "1087085",
    "final_x": "3705518.27031",
    "final_y": "562710.52528",
    "longitude": "-89.99107619237093",
    "latitude": "30.040506762886057",
    "geocoded_column": {
      "latitude": "30.040506762886057",
      "longitude": "-89.99107619237093"
    }
  },
  {
    "service_request": "2024-1087084",
    "request_type": "Roads/Drainage",
    "request_reason": "Street Subsidence (Sinking)",
    "date_created": "2024-04-22T20:44:44.000",
    "date_modified": "2024-04-22T20:44:44.000",
    "request_status": "Pending",
    "responsible_agency": "Department of Public Works",
    "final_address": "2837 Ponce De Leon St",
    "address_councildis": "A",
    "status": "Pending",
    "rowid": "1087084",
    "final_x": "3678049.75163",
    "final_y": "540523.416331",
    "longitude": "-90.07865366727364",
    "latitude": "29.98035631365456",
    "geocoded_column": {
      "latitude": "29.98035631365456",
      "longitude": "-90.07865366727364"
    }
  },
  {
    "service_request": "2024-1087083",
    "request_type": "Traffic Signals/Signs/Striping/Streetlights",
    "request_reason": "Street Light Outage/Malfunction",
    "date_created": "2024-04-22T20:33:42.000",
    "date_modified": "2024-04-22T20:33:43.000",
    "request_status": "Pending",
    "responsible_agency": "Department of Public Works",
    "final_address": "5353 Perrier St",
    "address_councildis": "B",
    "status": "Assigned to Contractor",
    "contractor": "Legacy Professional Services",
    "rowid": "1087083",
    "final_x": "3667230.41421",
    "final_y": "520102.297272",
    "longitude": "-90.11351250634239",
    "latitude": "29.924526217147832",
    "geocoded_column": {
      "latitude": "29.924526217147832",
      "longitude": "-90.11351250634239"
    }
  },
  {
    "service_request": "2024-1087082",
    "request_type": "Trash/Recycling",
    "request_reason": "Repair Recycling Cart",
    "date_created": "2024-04-22T20:29:50.000",
    "date_modified": "2024-04-22T20:29:50.000",
    "request_status": "Pending",
    "responsible_agency": "Department of Sanitation",
    "final_address": "6653 General Haig St",
    "address_councildis": "A",
    "status": "Pending",
    "rowid": "1087082",
    "final_x": "3671041.47079",
    "final_y": "551588.293589",
    "longitude": "-90.10041282684844",
    "latitude": "30.01099003752552",
    "geocoded_column": {
      "latitude": "30.01099003752552",
      "longitude": "-90.10041282684844"
    }
  },
  {
    "service_request": "2024-1087081",
    "request_type": "Trash/Recycling",
    "request_reason": "Replace Trash Cart",
    "date_created": "2024-04-22T20:17:09.000",
    "date_modified": "2024-04-22T20:17:10.000",
    "request_status": "Pending",
    "responsible_agency": "Department of Sanitation",
    "final_address": "237 22Nd St",
    "address_councildis": "A",
    "status": "Assigned to Contractor",
    "contractor": "IV Waste",
    "rowid": "1087081",
    "final_x": "3665400.99764",
    "final_y": "549360.288467",
    "longitude": "-90.11830803482745",
    "latitude": "30.005029470383942",
    "geocoded_column": {
      "latitude": "30.005029470383942",
      "longitude": "-90.11830803482745"
    }
  },
  {
    "service_request": "2024-1087080",
    "request_type": "Roads/Drainage",
    "request_reason": "Damaged Sidewalk",
    "date_created": "2024-04-22T20:04:09.000",
    "date_modified": "2024-04-22T20:04:09.000",
    "request_status": "Pending",
    "responsible_agency": "Department of Public Works",
    "final_address": "5069 Willowbrook Dr",
    "address_councildis": "E",
    "status": "Pending",
    "rowid": "1087080",
    "final_x": "3728257.33817",
    "final_y": "563018.9224",
    "longitude": "-89.91920228841236",
    "latitude": "30.040602707073898",
    "geocoded_column": {
      "latitude": "30.040602707073898",
      "longitude": "-89.91920228841236"
    }
  },
  {
    "service_request": "2024-1087079",
    "request_type": "Property Maintenance",
    "request_reason": "Property Maintenance",
    "date_created": "2024-04-22T19:58:30.000",
    "date_modified": "2024-04-22T19:58:30.000",
    "request_status": "Pending",
    "responsible_agency": "Department of Code Enforcement",
    "final_address": "4949 Werner Dr",
    "address_councildis": "E",
    "status": "Pending",
    "rowid": "1087079",
    "final_x": "3704701.89015",
    "final_y": "556405.047386",
    "longitude": "-89.99388914746214",
    "latitude": "30.023195432933736",
    "geocoded_column": {
      "latitude": "30.023195432933736",
      "longitude": "-89.99388914746214"
    }
  },
  {
    "service_request": "2024-1087078",
    "request_type": "Property Maintenance",
    "request_reason": "Property Maintenance",
    "date_created": "2024-04-22T19:56:33.000",
    "date_modified": "2024-04-22T19:56:33.000",
    "request_status": "Pending",
    "responsible_agency": "Department of Code Enforcement",
    "final_address": "5511 Christian Ln",
    "address_councildis": "E",
    "status": "Pending",
    "rowid": "1087078",
    "final_x": "3704668.30724",
    "final_y": "556660.236378",
    "longitude": "-89.99398583621313",
    "latitude": "30.02389818326474",
    "geocoded_column": {
      "latitude": "30.02389818326474",
      "longitude": "-89.99398583621313"
    }
  },
  {
    "service_request": "2024-1087076",
    "request_type": "Property Maintenance",
    "request_reason": "Property Maintenance",
    "date_created": "2024-04-22T19:48:18.000",
    "date_modified": "2024-04-22T19:48:18.000",
    "request_status": "Pending",
    "responsible_agency": "Department of Code Enforcement",
    "final_address": "4402 Reynes St",
    "address_councildis": "E",
    "status": "Pending",
    "rowid": "1087076",
    "final_x": "3699273.46404",
    "final_y": "553113.590871",
    "longitude": "-90.01116169931306",
    "latitude": "30.01431854310329",
    "geocoded_column": {
      "latitude": "30.01431854310329",
      "longitude": "-90.01116169931306"
    }
  },
  {
    "service_request": "2024-1087075",
    "request_type": "Trash/Recycling",
    "request_reason": "Order Recycling Cart",
    "date_created": "2024-04-22T19:45:31.000",
    "date_modified": "2024-04-22T19:45:31.000",
    "request_status": "Pending",
    "responsible_agency": "Department of Sanitation",
    "final_address": "2732 Danneel St",
    "address_councildis": "B",
    "status": "Pending",
    "rowid": "1087075",
    "final_x": "3675222.71118",
    "final_y": "523756.691195",
    "longitude": "-90.08815815234507",
    "latitude": "29.934338245480106",
    "geocoded_column": {
      "latitude": "29.934338245480106",
      "longitude": "-90.08815815234507"
    }
  },
  {
    "service_request": "2024-1087074",
    "request_type": "Property Maintenance",
    "request_reason": "Property Maintenance",
    "date_created": "2024-04-22T19:44:46.000",
    "date_modified": "2024-04-22T19:44:46.000",
    "request_status": "Pending",
    "responsible_agency": "Department of Code Enforcement",
    "final_address": "6801 Cindy Pl",
    "address_councildis": "E",
    "status": "Pending",
    "rowid": "1087074",
    "final_x": "3707084.85835",
    "final_y": "559238.987804",
    "longitude": "-89.9862542771697",
    "latitude": "30.03091085276869",
    "geocoded_column": {
      "latitude": "30.03091085276869",
      "longitude": "-89.9862542771697"
    }
  },
  {
    "service_request": "2024-1087073",
    "request_type": "Property Maintenance",
    "request_reason": "Property Maintenance",
    "date_created": "2024-04-22T19:43:11.000",
    "date_modified": "2024-04-22T19:43:11.000",
    "request_status": "Pending",
    "responsible_agency": "Department of Code Enforcement",
    "final_address": "6700 BLK Cindy Pl",
    "address_councildis": "E",
    "status": "Pending",
    "rowid": "1087073",
    "final_x": "3707228.82304",
    "final_y": "558747.23728",
    "longitude": "-89.98581762317008",
    "latitude": "30.029554077271175",
    "geocoded_column": {
      "latitude": "30.029554077271175",
      "longitude": "-89.98581762317008"
    }
  },
  {
    "service_request": "2024-1087072",
    "request_type": "Property Maintenance",
    "request_reason": "Property Maintenance",
    "date_created": "2024-04-22T19:41:37.000",
    "date_modified": "2024-04-22T19:41:37.000",
    "request_status": "Pending",
    "responsible_agency": "Department of Code Enforcement",
    "final_address": "6701 Cindy Pl",
    "address_councildis": "E",
    "status": "Pending",
    "rowid": "1087072",
    "final_x": "3707368.9404",
    "final_y": "558680.943068",
    "longitude": "-89.98537732273275",
    "latitude": "30.02936726263741",
    "geocoded_column": {
      "latitude": "30.02936726263741",
      "longitude": "-89.98537732273275"
    }
  },
  {
    "service_request": "2024-1087071",
    "request_type": "Property Maintenance",
    "request_reason": "Property Maintenance",
    "date_created": "2024-04-22T19:39:38.000",
    "date_modified": "2024-04-22T19:39:38.000",
    "request_status": "Pending",
    "responsible_agency": "Department of Code Enforcement",
    "final_address": "9800 BLK Lake Forest Blvd",
    "address_councildis": "E",
    "status": "Pending",
    "rowid": "1087071",
    "final_x": "3710375.44929",
    "final_y": "559364.773118",
    "longitude": "-89.97585131090696",
    "latitude": "30.03114993286953",
    "geocoded_column": {
      "latitude": "30.03114993286953",
      "longitude": "-89.97585131090696"
    }
  },
  {
    "service_request": "2024-1087070",
    "request_type": "Abandoned Vehicles",
    "request_reason": "Abandoned/Junk Vehicles",
    "date_created": "2024-04-22T19:39:04.000",
    "date_modified": "2024-04-22T19:39:04.000",
    "request_status": "Pending",
    "responsible_agency": "Department of Public Works",
    "final_address": "700 BLK Hagan St",
    "address_councildis": "A",
    "status": "Pending",
    "rowid": "1087070",
    "final_x": "3674661.71954",
    "final_y": "538463.862492",
    "longitude": "-90.08942514991273",
    "latitude": "29.974794818160547",
    "geocoded_column": {
      "latitude": "29.974794818160547",
      "longitude": "-90.08942514991273"
    }
  },
  {
    "service_request": "2024-1087069",
    "request_type": "Trash/Recycling",
    "request_reason": "Replace Trash Cart",
    "date_created": "2024-04-22T19:32:18.000",
    "date_modified": "2024-04-22T19:32:18.000",
    "request_status": "Pending",
    "responsible_agency": "Department of Sanitation",
    "final_address": "449 Abalon Ct",
    "address_councildis": "C",
    "status": "Assigned to Contractor",
    "contractor": "Richards Disposal",
    "rowid": "1087069",
    "final_x": "3689207.88995",
    "final_y": "530067.056641",
    "longitude": "-90.0437832876647",
    "latitude": "29.951264308645396",
    "geocoded_column": {
      "latitude": "29.951264308645396",
      "longitude": "-90.0437832876647"
    }
  },
  {
    "service_request": "2024-1087068",
    "request_type": "Trash/Recycling",
    "request_reason": "Order Trash Cart",
    "date_created": "2024-04-22T19:20:07.000",
    "date_modified": "2024-04-22T19:20:07.000",
    "request_status": "Pending",
    "responsible_agency": "Department of Sanitation",
    "final_address": "2013 Alabo St",
    "address_councildis": "E",
    "status": "Assigned to Contractor",
    "contractor": "Waste Pro",
    "rowid": "1087068",
    "final_x": "3699885.14647",
    "final_y": "537022.768648",
    "longitude": "-90.009816320341",
    "latitude": "29.97005530646294",
    "geocoded_column": {
      "latitude": "29.97005530646294",
      "longitude": "-90.009816320341"
    }
  },
  {
    "service_request": "2024-1087067",
    "request_type": "Trash/Recycling",
    "request_reason": "Request a Large Item Pick Up",
    "date_created": "2024-04-22T19:18:21.000",
    "date_modified": "2024-04-22T19:18:22.000",
    "request_status": "Pending",
    "responsible_agency": "Department of Sanitation",
    "final_address": "1916 S Lopez St",
    "address_councildis": "B",
    "status": "Assigned to Contractor",
    "contractor": "IV Waste",
    "rowid": "1087067",
    "final_x": "3669591.81038",
    "final_y": "529896.087553",
    "longitude": "-90.10572714159562",
    "latitude": "29.951386645895244",
    "geocoded_column": {
      "latitude": "29.951386645895244",
      "longitude": "-90.10572714159562"
    }
  },
  {
    "service_request": "2024-1087066",
    "request_type": "Property Maintenance",
    "request_reason": "Property Maintenance",
    "date_created": "2024-04-22T19:01:54.000",
    "date_modified": "2024-04-22T19:01:54.000",
    "request_status": "Pending",
    "responsible_agency": "Department of Code Enforcement",
    "final_address": "6941 Boston Dr",
    "address_councildis": "E",
    "status": "Pending",
    "rowid": "1087066",
    "final_x": "3706595.905",
    "final_y": "560389.098078",
    "longitude": "-89.98775669121918",
    "latitude": "30.03408900076486",
    "geocoded_column": {
      "latitude": "30.03408900076486",
      "longitude": "-89.98775669121918"
    }
  },
  {
    "service_request": "2024-1087065",
    "request_type": "Trash/Recycling",
    "request_reason": "Request a Large Item Pick Up",
    "date_created": "2024-04-22T19:01:39.000",
    "date_modified": "2024-04-22T19:01:40.000",
    "request_status": "Pending",
    "responsible_agency": "Department of Sanitation",
    "final_address": "5537 St Ferdinand Dr",
    "address_councildis": "D",
    "status": "Assigned to Contractor",
    "contractor": "IV Waste",
    "rowid": "1087065",
    "final_x": "3688788.12246",
    "final_y": "553744.190679",
    "longitude": "-90.04426764825347",
    "latitude": "30.016380967480718",
    "geocoded_column": {
      "latitude": "30.016380967480718",
      "longitude": "-90.04426764825347"
    }
  },
  {
    "service_request": "2024-1087063",
    "request_type": "Trash/Recycling",
    "request_reason": "Request a Large Item Pick Up",
    "date_created": "2024-04-22T18:48:32.000",
    "date_modified": "2024-04-22T18:48:33.000",
    "request_status": "Pending",
    "responsible_agency": "Department of Sanitation",
    "final_address": "7801 Pyramid St, New Orleans, Louisiana, 70128",
    "address_councildis": "E",
    "status": "Assigned to Contractor",
    "contractor": "Waste Pro",
    "rowid": "1087063",
    "final_x": "3714940.40037",
    "final_y": "569631.106534",
    "longitude": "-89.96103753289857",
    "latitude": "30.059228688391027",
    "geocoded_column": {
      "latitude": "30.059228688391027",
      "longitude": "-89.96103753289857"
    }
  },
  {
    "service_request": "2024-1087062",
    "request_type": "Trash/Recycling",
    "request_reason": "Missed Trash Pick-Up",
    "date_created": "2024-04-22T18:46:03.000",
    "date_modified": "2024-04-22T18:46:04.000",
    "request_status": "Pending",
    "responsible_agency": "Department of Sanitation",
    "final_address": "902 Stewart Ct",
    "address_councildis": "A",
    "status": "Assigned to Contractor",
    "contractor": "IV Waste",
    "rowid": "1087062",
    "final_x": "3673066.12801",
    "final_y": "540708.791883",
    "longitude": "-90.09438777562833",
    "latitude": "29.981015140424745",
    "geocoded_column": {
      "latitude": "29.981015140424745",
      "longitude": "-90.09438777562833"
    }
  },
  {
    "service_request": "2024-1087061",
    "request_type": "Trash/Recycling",
    "request_reason": "Replace Trash Cart",
    "date_created": "2024-04-22T18:44:29.000",
    "date_modified": "2024-04-22T18:44:29.000",
    "request_status": "Pending",
    "responsible_agency": "Department of Sanitation",
    "final_address": "3250 Kabel Dr",
    "address_councildis": "C",
    "status": "Assigned to Contractor",
    "contractor": "Richards Disposal",
    "rowid": "1087061",
    "final_x": "3700711.95978",
    "final_y": "519176.114743",
    "longitude": "-90.00785715093528",
    "latitude": "29.920957001616742",
    "geocoded_column": {
      "latitude": "29.920957001616742",
      "longitude": "-90.00785715093528"
    }
  },
  {
    "service_request": "2024-1087060",
    "request_type": "Parks & Parkways",
    "request_reason": "Request Tree Service (Right of Way/Public Property)",
    "date_created": "2024-04-22T18:42:03.000",
    "date_modified": "2024-04-22T18:42:03.000",
    "request_status": "Pending",
    "responsible_agency": "Department of Parks & Parkway",
    "final_address": "232 N St Patrick St",
    "address_councildis": "A",
    "status": "Pending",
    "rowid": "1087060",
    "final_x": "3669615.8761",
    "final_y": "540376.446347",
    "longitude": "-90.10529649664751",
    "latitude": "29.980203430472525",
    "geocoded_column": {
      "latitude": "29.980203430472525",
      "longitude": "-90.10529649664751"
    }
  },
  {
    "service_request": "2024-1087059",
    "request_type": "Trash/Recycling",
    "request_reason": "Replace Trash Cart",
    "date_created": "2024-04-22T18:39:28.000",
    "date_modified": "2024-04-22T18:39:28.000",
    "request_status": "Pending",
    "responsible_agency": "Department of Sanitation",
    "final_address": "1310 Music St",
    "address_councildis": "C",
    "status": "Assigned to Contractor",
    "contractor": "IV Waste",
    "rowid": "1087059",
    "final_x": "3686748.12828",
    "final_y": "537293.099144",
    "longitude": "-90.05129469920843",
    "latitude": "29.971209315767915",
    "geocoded_column": {
      "latitude": "29.971209315767915",
      "longitude": "-90.05129469920843"
    }
  },
  {
    "service_request": "2024-1087058",
    "request_type": "Trash/Recycling",
    "request_reason": "Order Trash Cart",
    "date_created": "2024-04-22T18:34:31.000",
    "date_modified": "2024-04-22T18:34:31.000",
    "request_status": "Pending",
    "responsible_agency": "Department of Sanitation",
    "final_address": "3250kabel drive ",
    "status": "Assigned to Contractor",
    "rowid": "1087058",
    "longitude": "0.0",
    "latitude": "0.0",
    "geocoded_column": {
      "latitude": "0.0",
      "longitude": "0.0"
    }
  },
  {
    "service_request": "2024-1087057",
    "request_type": "Trash/Recycling",
    "request_reason": "Order Recycling Cart",
    "date_created": "2024-04-22T18:33:18.000",
    "date_modified": "2024-04-22T18:33:18.000",
    "request_status": "Pending",
    "responsible_agency": "Department of Sanitation",
    "final_address": "2524 DAbadie St",
    "address_councildis": "D",
    "status": "Pending",
    "rowid": "1087057",
    "final_x": "3679769.39957",
    "final_y": "540454.519115",
    "longitude": "-90.0732246792761",
    "latitude": "29.98011498245465",
    "geocoded_column": {
      "latitude": "29.98011498245465",
      "longitude": "-90.0732246792761"
    }
  },
  {
    "service_request": "2024-1087056",
    "request_type": "Trash/Recycling",
    "request_reason": "Request a Large Item Pick Up",
    "date_created": "2024-04-22T18:31:09.000",
    "date_modified": "2024-04-22T18:31:10.000",
    "request_status": "Pending",
    "responsible_agency": "Department of Sanitation",
    "final_address": "4500 Marque Dr",
    "address_councildis": "E",
    "status": "Assigned to Contractor",
    "contractor": "Waste Pro",
    "rowid": "1087056",
    "final_x": "3710156.76741",
    "final_y": "554148.746584",
    "longitude": "-89.97673749136706",
    "latitude": "30.01681502725831",
    "geocoded_column": {
      "latitude": "30.01681502725831",
      "longitude": "-89.97673749136706"
    }
  },
  {
    "service_request": "2024-1087055",
    "request_type": "Trash/Recycling",
    "request_reason": "Missed Trash Pick-Up",
    "date_created": "2024-04-22T18:30:30.000",
    "date_modified": "2024-04-22T18:30:31.000",
    "request_status": "Pending",
    "responsible_agency": "Department of Sanitation",
    "final_address": "1221 Delachaise St, New Orleans, Louisiana, 70115",
    "address_councildis": "B",
    "status": "Assigned to Contractor",
    "contractor": "IV Waste",
    "rowid": "1087055",
    "final_x": "3674488.01614",
    "final_y": "519984.44684",
    "longitude": "-90.09060672450686",
    "latitude": "29.923987726308425",
    "geocoded_column": {
      "latitude": "29.923987726308425",
      "longitude": "-90.09060672450686"
    }
  },
  {
    "service_request": "2024-1087054",
    "request_type": "Trash/Recycling",
    "request_reason": "Replace Trash Cart",
    "date_created": "2024-04-22T18:29:10.000",
    "date_modified": "2024-04-22T18:29:11.000",
    "request_status": "Pending",
    "responsible_agency": "Department of Sanitation",
    "final_address": "3900 BLK Delachaise St",
    "address_councildis": "B",
    "status": "Assigned to Contractor",
    "contractor": "IV Waste",
    "rowid": "1087054",
    "final_x": "3670935.23946",
    "final_y": "529219.260575",
    "longitude": "-90.10150821505532",
    "latitude": "29.949485949812537",
    "geocoded_column": {
      "latitude": "29.949485949812537",
      "longitude": "-90.10150821505532"
    }
  },
  {
    "service_request": "2024-1087053",
    "request_type": "Trash/Recycling",
    "request_reason": "Missed Trash Pick-Up",
    "date_created": "2024-04-22T18:27:58.000",
    "date_modified": "2024-04-22T18:27:59.000",
    "request_status": "Pending",
    "responsible_agency": "Department of Sanitation",
    "final_address": "7554 Stonewood St",
    "address_councildis": "E",
    "status": "Assigned to Contractor",
    "contractor": "Waste Pro",
    "rowid": "1087053",
    "final_x": "3719793.04773",
    "final_y": "572168.033",
    "longitude": "-89.94560175584549",
    "latitude": "30.06604348256588",
    "geocoded_column": {
      "latitude": "30.06604348256588",
      "longitude": "-89.94560175584549"
    }
  },
  {
    "service_request": "2024-1087052",
    "request_type": "Abandoned Vehicles",
    "request_reason": "Abandoned/Junk Vehicles",
    "date_created": "2024-04-22T18:27:00.000",
    "date_modified": "2024-04-22T18:27:00.000",
    "request_status": "Pending",
    "responsible_agency": "Department of Public Works",
    "final_address": "2001 Laurel St",
    "address_councildis": "B",
    "status": "Pending",
    "rowid": "1087052",
    "final_x": "3679936.25941",
    "final_y": "522026.374778",
    "longitude": "-90.07333769001606",
    "latitude": "29.929438760006697",
    "geocoded_column": {
      "latitude": "29.929438760006697",
      "longitude": "-90.07333769001606"
    }
  },
  {
    "service_request": "2024-1087051",
    "request_type": "Trash/Recycling",
    "request_reason": "Request a Large Item Pick Up",
    "date_created": "2024-04-22T18:26:15.000",
    "date_modified": "2024-04-22T18:26:15.000",
    "request_status": "Pending",
    "responsible_agency": "Department of Sanitation",
    "final_address": "312 S Murat St, New Orleans, Louisiana, 70119",
    "address_councildis": "A",
    "status": "Assigned to Contractor",
    "contractor": "IV Waste",
    "rowid": "1087051",
    "final_x": "3669177.55514",
    "final_y": "538646.583113",
    "longitude": "-90.10673939026867",
    "latitude": "29.975459800354553",
    "geocoded_column": {
      "latitude": "29.975459800354553",
      "longitude": "-90.10673939026867"
    }
  },
  {
    "service_request": "2024-1087050",
    "request_type": "Trash/Recycling",
    "request_reason": "Replace Trash Cart",
    "date_created": "2024-04-22T18:23:11.000",
    "date_modified": "2024-04-22T18:23:11.000",
    "request_status": "Pending",
    "responsible_agency": "Department of Sanitation",
    "final_address": "3902 Delachaise St",
    "address_councildis": "B",
    "status": "Assigned to Contractor",
    "contractor": "IV Waste",
    "rowid": "1087050",
    "final_x": "3670960.86644",
    "final_y": "528985.94176",
    "longitude": "-90.10143521917288",
    "latitude": "29.94884364203337",
    "geocoded_column": {
      "latitude": "29.94884364203337",
      "longitude": "-90.10143521917288"
    }
  },
  {
    "service_request": "2024-1087049",
    "request_type": "Trash/Recycling",
    "request_reason": "Order Recycling Cart",
    "date_created": "2024-04-22T18:20:08.000",
    "date_modified": "2024-04-22T18:20:08.000",
    "request_status": "Pending",
    "responsible_agency": "Department of Sanitation",
    "final_address": "2504 Jonquil St",
    "address_councildis": "D",
    "status": "Pending",
    "rowid": "1087049",
    "final_x": "3686405.53238",
    "final_y": "547137.046353",
    "longitude": "-90.0520290229722",
    "latitude": "29.998287213309432",
    "geocoded_column": {
      "latitude": "29.998287213309432",
      "longitude": "-90.0520290229722"
    }
  },
  {
    "service_request": "2024-1087048",
    "request_type": "Trash/Recycling",
    "request_reason": "Order Trash Cart",
    "date_created": "2024-04-22T18:17:46.000",
    "date_modified": "2024-04-22T18:17:46.000",
    "request_status": "Pending",
    "responsible_agency": "Department of Sanitation",
    "final_address": "2504 Jonquil St",
    "address_councildis": "D",
    "status": "Assigned to Contractor",
    "contractor": "IV Waste",
    "rowid": "1087048",
    "final_x": "3686405.53238",
    "final_y": "547137.046353",
    "longitude": "-90.0520290229722",
    "latitude": "29.998287213309432",
    "geocoded_column": {
      "latitude": "29.998287213309432",
      "longitude": "-90.0520290229722"
    }
  },
  {
    "service_request": "2024-1087047",
    "request_type": "Trash/Recycling",
    "request_reason": "Request a Large Item Pick Up",
    "date_created": "2024-04-22T18:17:45.000",
    "date_modified": "2024-04-22T18:17:45.000",
    "request_status": "Pending",
    "responsible_agency": "Department of Sanitation",
    "final_address": "4626 Longfellow Dr",
    "address_councildis": "E",
    "status": "Assigned to Contractor",
    "contractor": "Waste Pro",
    "rowid": "1087047",
    "final_x": "3709630.71902",
    "final_y": "555053.571289",
    "longitude": "-89.97836576184137",
    "latitude": "30.019320057455435",
    "geocoded_column": {
      "latitude": "30.019320057455435",
      "longitude": "-89.97836576184137"
    }
  },
  {
    "service_request": "2024-1087046",
    "request_type": "Trash/Recycling",
    "request_reason": "Order Trash Cart",
    "date_created": "2024-04-22T18:17:24.000",
    "date_modified": "2024-04-22T18:17:24.000",
    "request_status": "Pending",
    "responsible_agency": "Department of Sanitation",
    "final_address": "2504 Jonquil St",
    "address_councildis": "D",
    "status": "Assigned to Contractor",
    "contractor": "IV Waste",
    "rowid": "1087046",
    "final_x": "3686405.53238",
    "final_y": "547137.046353",
    "longitude": "-90.0520290229722",
    "latitude": "29.998287213309432",
    "geocoded_column": {
      "latitude": "29.998287213309432",
      "longitude": "-90.0520290229722"
    }
  },
  {
    "service_request": "2024-1087045",
    "request_type": "Trash/Recycling",
    "request_reason": "Request a Large Item Pick Up",
    "date_created": "2024-04-22T18:14:50.000",
    "date_modified": "2024-04-22T18:14:50.000",
    "request_status": "Pending",
    "responsible_agency": "Department of Sanitation",
    "final_address": "4626 Longfellow Dr",
    "address_councildis": "E",
    "status": "Assigned to Contractor",
    "contractor": "Waste Pro",
    "rowid": "1087045",
    "final_x": "3709630.71902",
    "final_y": "555053.571289",
    "longitude": "-89.97836576184137",
    "latitude": "30.019320057455435",
    "geocoded_column": {
      "latitude": "30.019320057455435",
      "longitude": "-89.97836576184137"
    }
  },
  {
    "service_request": "2024-1087044",
    "request_type": "Trash/Recycling",
    "request_reason": "Order Recycling Cart",
    "date_created": "2024-04-22T18:14:42.000",
    "date_modified": "2024-04-22T18:14:42.000",
    "request_status": "Pending",
    "responsible_agency": "Department of Sanitation",
    "final_address": "851 Taft Pl",
    "address_councildis": "A",
    "status": "Pending",
    "rowid": "1087044",
    "final_x": "3673773.29812",
    "final_y": "539801.375178",
    "longitude": "-90.0921852564313",
    "latitude": "29.9784990113544",
    "geocoded_column": {
      "latitude": "29.9784990113544",
      "longitude": "-90.0921852564313"
    }
  },
  {
    "service_request": "2024-1087043",
    "request_type": "Trash/Recycling",
    "request_reason": "Order Recycling Cart",
    "date_created": "2024-04-22T17:48:34.000",
    "date_modified": "2024-04-22T17:48:34.000",
    "request_status": "Pending",
    "responsible_agency": "Department of Sanitation",
    "final_address": "603 Washington Ave",
    "address_councildis": "B",
    "status": "Pending",
    "rowid": "1087043",
    "final_x": "3678078.81934",
    "final_y": "519358.178039",
    "longitude": "-90.07929347167631",
    "latitude": "29.922158117839224",
    "geocoded_column": {
      "latitude": "29.922158117839224",
      "longitude": "-90.07929347167631"
    }
  },
  {
    "service_request": "2024-1087042",
    "request_type": "Trash/Recycling",
    "request_reason": "Order Trash Cart",
    "date_created": "2024-04-22T17:47:22.000",
    "date_modified": "2024-04-22T17:47:23.000",
    "request_status": "Pending",
    "responsible_agency": "Department of Sanitation",
    "final_address": "603 Washington Ave",
    "address_councildis": "B",
    "status": "Assigned to Contractor",
    "contractor": "IV Waste",
    "rowid": "1087042",
    "final_x": "3678078.81934",
    "final_y": "519358.178039",
    "longitude": "-90.07929347167631",
    "latitude": "29.922158117839224",
    "geocoded_column": {
      "latitude": "29.922158117839224",
      "longitude": "-90.07929347167631"
    }
  },
  {
    "service_request": "2024-1087041",
    "request_type": "Trash/Recycling",
    "request_reason": "Replace Trash Cart",
    "date_created": "2024-04-22T17:38:07.000",
    "date_modified": "2024-04-22T17:38:07.000",
    "request_status": "Pending",
    "responsible_agency": "Department of Sanitation",
    "final_address": "7501 Briarwood Dr",
    "address_councildis": "E",
    "status": "Assigned to Contractor",
    "contractor": "Waste Pro",
    "rowid": "1087041",
    "final_x": "3718028.91161",
    "final_y": "570334.094311",
    "longitude": "-89.9512482970548",
    "latitude": "30.061059545423795",
    "geocoded_column": {
      "latitude": "30.061059545423795",
      "longitude": "-89.9512482970548"
    }
  },
  {
    "service_request": "2024-1087040",
    "request_type": "Abandoned Vehicles",
    "request_reason": "Abandoned/Junk Vehicles",
    "date_created": "2024-04-22T17:27:01.000",
    "date_modified": "2024-04-22T17:27:01.000",
    "request_status": "Pending",
    "responsible_agency": "Department of Public Works",
    "final_address": "1300 BLK Thayer St",
    "address_councildis": "C",
    "status": "Pending",
    "rowid": "1087040",
    "final_x": "3689376.10612",
    "final_y": "526505.50616",
    "longitude": "-90.0433787455686",
    "latitude": "29.941466057292683",
    "geocoded_column": {
      "latitude": "29.941466057292683",
      "longitude": "-90.0433787455686"
    }
  },
  {
    "service_request": "2024-1087039",
    "request_type": "Trash/Recycling",
    "request_reason": "Order Recycling Cart",
    "date_created": "2024-04-22T17:24:57.000",
    "date_modified": "2024-04-22T17:24:57.000",
    "request_status": "Pending",
    "responsible_agency": "Department of Sanitation",
    "final_address": "1818 Fourth St",
    "address_councildis": "B",
    "status": "Pending",
    "rowid": "1087039",
    "final_x": "3675659.50657",
    "final_y": "523448.766523",
    "longitude": "-90.086789776108",
    "latitude": "29.933478494192265",
    "geocoded_column": {
      "latitude": "29.933478494192265",
      "longitude": "-90.086789776108"
    }
  },
  {
    "service_request": "2024-1087038",
    "request_type": "Trash/Recycling",
    "request_reason": "Order Trash Cart",
    "date_created": "2024-04-22T17:23:10.000",
    "date_modified": "2024-04-22T17:23:11.000",
    "request_status": "Pending",
    "responsible_agency": "Department of Sanitation",
    "final_address": "1818 Fourth St",
    "address_councildis": "B",
    "status": "Assigned to Contractor",
    "contractor": "IV Waste",
    "rowid": "1087038",
    "final_x": "3675659.50657",
    "final_y": "523448.766523",
    "longitude": "-90.086789776108",
    "latitude": "29.933478494192265",
    "geocoded_column": {
      "latitude": "29.933478494192265",
      "longitude": "-90.086789776108"
    }
  },
  {
    "service_request": "2024-1087037",
    "request_type": "Abandoned Vehicles",
    "request_reason": "Abandoned/Junk Vehicles",
    "date_created": "2024-04-22T17:21:20.000",
    "date_modified": "2024-04-22T17:21:20.000",
    "request_status": "Pending",
    "responsible_agency": "Department of Public Works",
    "final_address": "1526 Bodenger Blvd",
    "address_councildis": "C",
    "status": "Pending",
    "rowid": "1087037",
    "final_x": "3688561.02198",
    "final_y": "525894.725821",
    "longitude": "-90.04597378379307",
    "latitude": "29.93981182440794",
    "geocoded_column": {
      "latitude": "29.93981182440794",
      "longitude": "-90.04597378379307"
    }
  },
  {
    "service_request": "2024-1087036",
    "request_type": "Abandoned Vehicles",
    "request_reason": "Abandoned/Junk Vehicles",
    "date_created": "2024-04-22T17:04:14.000",
    "date_modified": "2024-04-22T17:04:14.000",
    "request_status": "Pending",
    "responsible_agency": "Department of Public Works",
    "final_address": "7739 Sycamore St",
    "address_councildis": "A",
    "status": "Pending",
    "rowid": "1087036",
    "final_x": "3665254.1161",
    "final_y": "530191.652481",
    "longitude": "-90.11941362402243",
    "latitude": "29.95232642401367",
    "geocoded_column": {
      "latitude": "29.95232642401367",
      "longitude": "-90.11941362402243"
    }
  },
  {
    "service_request": "2024-1087035",
    "request_type": "Trash/Recycling",
    "request_reason": "Request a Large Item Pick Up",
    "date_created": "2024-04-22T16:58:49.000",
    "date_modified": "2024-04-22T16:58:50.000",
    "request_status": "Pending",
    "responsible_agency": "Department of Sanitation",
    "final_address": "230 S Solomon St",
    "address_councildis": "A",
    "status": "Assigned to Contractor",
    "contractor": "IV Waste",
    "rowid": "1087035",
    "final_x": "3670198.18388",
    "final_y": "538156.233417",
    "longitude": "-90.1035325800464",
    "latitude": "29.97408142300583",
    "geocoded_column": {
      "latitude": "29.97408142300583",
      "longitude": "-90.1035325800464"
    }
  },
  {
    "service_request": "2024-1087034",
    "request_type": "Trash/Recycling",
    "request_reason": "Request a Large Item Pick Up",
    "date_created": "2024-04-22T16:55:43.000",
    "date_modified": "2024-04-22T16:55:43.000",
    "case_close_date": "2024-03-24T19:00:00.000",
    "request_status": "Pending",
    "responsible_agency": "Department of Sanitation",
    "final_address": "6014 Kuebel Dr",
    "address_councildis": "E",
    "status": "Assigned to Contractor",
    "contractor": "Waste Pro",
    "rowid": "1087034",
    "final_x": "3694998.35088",
    "final_y": "559657.036829",
    "longitude": "-90.0244327023045",
    "latitude": "30.032445488926125",
    "geocoded_column": {
      "latitude": "30.032445488926125",
      "longitude": "-90.0244327023045"
    }
  },
  {
    "service_request": "2024-1087033",
    "request_type": "Trash/Recycling",
    "request_reason": "Request a Large Item Pick Up",
    "date_created": "2024-04-22T16:55:26.000",
    "date_modified": "2024-04-22T16:55:27.000",
    "request_status": "Pending",
    "responsible_agency": "Department of Sanitation",
    "final_address": "4738 W Adams Ct",
    "address_councildis": "E",
    "status": "Assigned to Contractor",
    "contractor": "Waste Pro",
    "rowid": "1087033",
    "final_x": "3718460.2949",
    "final_y": "557025.97385",
    "longitude": "-89.95039242961158",
    "latitude": "30.024453332370257",
    "geocoded_column": {
      "latitude": "30.024453332370257",
      "longitude": "-89.95039242961158"
    }
  },
  {
    "service_request": "2024-1087032",
    "request_type": "Trash/Recycling",
    "request_reason": "Request a Large Item Pick Up",
    "date_created": "2024-04-22T16:54:25.000",
    "date_modified": "2024-04-22T17:10:28.000",
    "case_close_date": "2024-04-22T12:10:28.000",
    "request_status": "Closed",
    "responsible_agency": "Department of Sanitation",
    "final_address": "931 N Tonti St",
    "address_councildis": "D",
    "status": "Assigned to Contractor",
    "contractor": "IV Waste",
    "contractor_action": "Completed",
    "rowid": "1087032",
    "final_x": "3678302.37614",
    "final_y": "536986.383816",
    "longitude": "-90.07797816285691",
    "latitude": "29.97062308333351",
    "geocoded_column": {
      "latitude": "29.97062308333351",
      "longitude": "-90.07797816285691"
    }
  },
  {
    "service_request": "2024-1087031",
    "request_type": "Abandoned Vehicles",
    "request_reason": "Abandoned/Junk Vehicles",
    "date_created": "2024-04-22T16:54:21.000",
    "date_modified": "2024-04-22T16:54:21.000",
    "request_status": "Pending",
    "responsible_agency": "Department of Public Works",
    "final_address": "7928 Burke Ave",
    "address_councildis": "E",
    "status": "Pending",
    "rowid": "1087031",
    "final_x": "3704916.4154",
    "final_y": "563710.643745",
    "longitude": "-89.99294126491526",
    "latitude": "30.043276064800192",
    "geocoded_column": {
      "latitude": "30.043276064800192",
      "longitude": "-89.99294126491526"
    }
  },
  {
    "service_request": "2024-1087030",
    "request_type": "Trash/Recycling",
    "request_reason": "Request a Large Item Pick Up",
    "date_created": "2024-04-22T16:51:13.000",
    "date_modified": "2024-04-22T16:51:13.000",
    "request_status": "Pending",
    "responsible_agency": "Department of Sanitation",
    "final_address": "13000 N Lake Carmel Dr",
    "address_councildis": "E",
    "status": "Assigned to Contractor",
    "contractor": "Waste Pro",
    "rowid": "1087030",
    "final_x": "3716608.4597",
    "final_y": "568675.093413",
    "longitude": "-89.9558013131371",
    "latitude": "30.0565450125185",
    "geocoded_column": {
      "latitude": "30.0565450125185",
      "longitude": "-89.9558013131371"
    }
  },
  {
    "service_request": "2024-1087029",
    "request_type": "Property Maintenance",
    "request_reason": "Property Maintenance",
    "date_created": "2024-04-22T16:50:21.000",
    "date_modified": "2024-04-22T16:50:21.000",
    "request_status": "Pending",
    "responsible_agency": "Department of Code Enforcement",
    "final_address": "4725 W Adams Ct",
    "address_councildis": "E",
    "status": "Pending",
    "rowid": "1087029",
    "final_x": "3718615.3237",
    "final_y": "556935.38921",
    "longitude": "-89.94990602792639",
    "latitude": "30.024199115173523",
    "geocoded_column": {
      "latitude": "30.024199115173523",
      "longitude": "-89.94990602792639"
    }
  },
  {
    "service_request": "2024-1087028",
    "request_type": "Trash/Recycling",
    "request_reason": "Repair Trash Cart",
    "date_created": "2024-04-22T16:37:19.000",
    "date_modified": "2024-04-22T16:37:19.000",
    "request_status": "Pending",
    "responsible_agency": "Department of Sanitation",
    "final_address": "1712 Holiday Dr",
    "address_councildis": "C",
    "status": "Assigned to Contractor",
    "contractor": "Richards Disposal",
    "rowid": "1087028",
    "final_x": "3699073.70845",
    "final_y": "524419.211196",
    "longitude": "-90.01283761006962",
    "latitude": "29.93542572029084",
    "geocoded_column": {
      "latitude": "29.93542572029084",
      "longitude": "-90.01283761006962"
    }
  },
  {
    "service_request": "2024-1087027",
    "request_type": "Trash/Recycling",
    "request_reason": "Request a Large Item Pick Up",
    "date_created": "2024-04-22T16:36:50.000",
    "date_modified": "2024-04-22T16:36:50.000",
    "request_status": "Pending",
    "responsible_agency": "Department of Sanitation",
    "final_address": "1712 Holiday Dr",
    "address_councildis": "C",
    "status": "Assigned to Contractor",
    "contractor": "Richards Disposal",
    "rowid": "1087027",
    "final_x": "3699073.70845",
    "final_y": "524419.211196",
    "longitude": "-90.01283761006962",
    "latitude": "29.93542572029084",
    "geocoded_column": {
      "latitude": "29.93542572029084",
      "longitude": "-90.01283761006962"
    }
  },
  {
    "service_request": "2024-1087026",
    "request_type": "Trash/Recycling",
    "request_reason": "Request a Large Item Pick Up",
    "date_created": "2024-04-22T16:35:05.000",
    "date_modified": "2024-04-22T16:35:05.000",
    "request_status": "Pending",
    "responsible_agency": "Department of Sanitation",
    "final_address": "6816 Tara Ln",
    "address_councildis": "E",
    "status": "Assigned to Contractor",
    "contractor": "Waste Pro",
    "rowid": "1087026",
    "final_x": "3707212.48977",
    "final_y": "559305.754397",
    "longitude": "-89.98584848073517",
    "latitude": "30.031090308345195",
    "geocoded_column": {
      "latitude": "30.031090308345195",
      "longitude": "-89.98584848073517"
    }
  },
  {
    "service_request": "2024-1087025",
    "request_type": "Trash/Recycling",
    "request_reason": "Request a Large Item Pick Up",
    "date_created": "2024-04-22T16:33:12.000",
    "date_modified": "2024-04-22T17:08:42.000",
    "case_close_date": "2024-04-22T12:08:42.000",
    "request_status": "Closed",
    "responsible_agency": "Department of Sanitation",
    "final_address": "3136 Fortin St",
    "address_councildis": "A",
    "status": "Assigned to Contractor",
    "contractor": "IV Waste",
    "contractor_action": "Completed",
    "rowid": "1087025",
    "final_x": "3676276.38773",
    "final_y": "540929.932427",
    "longitude": "-90.08424071564517",
    "latitude": "29.98152736661577",
    "geocoded_column": {
      "latitude": "29.98152736661577",
      "longitude": "-90.08424071564517"
    }
  },
  {
    "service_request": "2024-1087024",
    "request_type": "Trash/Recycling",
    "request_reason": "Return Recycling Cart",
    "date_created": "2024-04-22T16:26:09.000",
    "date_modified": "2024-04-22T16:26:09.000",
    "request_status": "Pending",
    "responsible_agency": "Department of Sanitation",
    "final_address": "2215 Pressburg St",
    "address_councildis": "D",
    "status": "Pending",
    "rowid": "1087024",
    "final_x": "3683740.90037",
    "final_y": "554738.187608",
    "longitude": "-90.0601797699379",
    "latitude": "30.019269256174024",
    "geocoded_column": {
      "latitude": "30.019269256174024",
      "longitude": "-90.0601797699379"
    }
  },
  {
    "service_request": "2024-1087023",
    "request_type": "Trash/Recycling",
    "request_reason": "Return Trash Cart",
    "date_created": "2024-04-22T16:24:45.000",
    "date_modified": "2024-04-22T16:24:46.000",
    "request_status": "Pending",
    "responsible_agency": "Department of Sanitation",
    "final_address": "2215 Pressburg St",
    "address_councildis": "D",
    "status": "Assigned to Contractor",
    "contractor": "IV Waste",
    "rowid": "1087023",
    "final_x": "3683740.90037",
    "final_y": "554738.187608",
    "longitude": "-90.0601797699379",
    "latitude": "30.019269256174024",
    "geocoded_column": {
      "latitude": "30.019269256174024",
      "longitude": "-90.0601797699379"
    }
  },
  {
    "service_request": "2024-1087022",
    "request_type": "Trash/Recycling",
    "request_reason": "Replace Trash Cart",
    "date_created": "2024-04-22T16:22:39.000",
    "date_modified": "2024-04-22T16:22:39.000",
    "request_status": "Pending",
    "responsible_agency": "Department of Sanitation",
    "final_address": "2413 St Ann St",
    "address_councildis": "D",
    "status": "Assigned to Contractor",
    "contractor": "IV Waste",
    "rowid": "1087022",
    "final_x": "3677986.07592",
    "final_y": "536548.766983",
    "longitude": "-90.07899220597369",
    "latitude": "29.969429311246436",
    "geocoded_column": {
      "latitude": "29.969429311246436",
      "longitude": "-90.07899220597369"
    }
  },
  {
    "service_request": "2024-1087021",
    "request_type": "Roads/Drainage",
    "request_reason": "Pothole",
    "date_created": "2024-04-22T16:20:09.000",
    "date_modified": "2024-04-22T16:20:10.000",
    "request_status": "Pending",
    "responsible_agency": "Department of Public Works",
    "final_address": "BIRCH ST & BROADWAY ST",
    "address_councildis": "A",
    "status": "Pending",
    "rowid": "1087021",
    "final_x": "3664947.0",
    "final_y": "527677.98",
    "longitude": "-90.1204673724462",
    "latitude": "29.94542357944676",
    "geocoded_column": {
      "latitude": "29.94542357944676",
      "longitude": "-90.1204673724462"
    }
  },
  {
    "service_request": "2024-1087020",
    "request_type": "Trash/Recycling",
    "request_reason": "Request a Large Item Pick Up",
    "date_created": "2024-04-22T16:19:34.000",
    "date_modified": "2024-04-22T16:45:48.000",
    "request_status": "Pending",
    "responsible_agency": "Department of Sanitation",
    "final_address": "1221 Delachaise St, New Orleans, Louisiana, 70115",
    "address_councildis": "B",
    "status": "Assigned to Contractor",
    "contractor": "IV Waste",
    "rowid": "1087020",
    "final_x": "3674488.01614",
    "final_y": "519984.44684",
    "longitude": "-90.09060672450686",
    "latitude": "29.923987726308425",
    "geocoded_column": {
      "latitude": "29.923987726308425",
      "longitude": "-90.09060672450686"
    }
  },
  {
    "service_request": "2024-1087019",
    "request_type": "Property Maintenance",
    "request_reason": "Property Maintenance",
    "date_created": "2024-04-22T16:17:58.000",
    "date_modified": "2024-04-22T16:17:58.000",
    "request_status": "Pending",
    "responsible_agency": "Department of Code Enforcement",
    "final_address": "3059 Higgins Blvd",
    "address_councildis": "D",
    "status": "Pending",
    "rowid": "1087019",
    "final_x": "3691045.03356",
    "final_y": "545593.263312",
    "longitude": "-90.03742807251649",
    "latitude": "29.993898903788136",
    "geocoded_column": {
      "latitude": "29.993898903788136",
      "longitude": "-90.03742807251649"
    }
  },
  {
    "service_request": "2024-1087018",
    "request_type": "Traffic Signals/Signs/Striping/Streetlights",
    "request_reason": "Additional signage",
    "date_created": "2024-04-22T16:17:45.000",
    "date_modified": "2024-04-22T16:17:46.000",
    "request_status": "Pending",
    "responsible_agency": "Department of Public Works",
    "final_address": "3408 Willow St",
    "address_councildis": "B",
    "status": "Pending",
    "rowid": "1087018",
    "final_x": "3672260.56411",
    "final_y": "525709.293949",
    "longitude": "-90.09744309540493",
    "latitude": "29.939795447300245",
    "geocoded_column": {
      "latitude": "29.939795447300245",
      "longitude": "-90.09744309540493"
    }
  },
  {
    "service_request": "2024-1087017",
    "request_type": "Trash/Recycling",
    "request_reason": "Order Recycling Cart",
    "date_created": "2024-04-22T16:17:08.000",
    "date_modified": "2024-04-22T16:31:31.000",
    "case_close_date": "2024-04-22T11:31:31.000",
    "request_status": "Closed",
    "responsible_agency": "Department of Sanitation",
    "final_address": "1584 De Battista Pl",
    "address_councildis": "C",
    "status": "Resolved",
    "contractor": "Sanitation Dept. ",
    "contractor_action": "Not for Richards for CNO",
    "rowid": "1087017",
    "final_x": "3699805.63568",
    "final_y": "525110.765757",
    "longitude": "-90.01050172224429",
    "latitude": "29.937304041494873",
    "geocoded_column": {
      "latitude": "29.937304041494873",
      "longitude": "-90.01050172224429"
    }
  },
  {
    "service_request": "2024-1087016",
    "request_type": "Trash/Recycling",
    "request_reason": "Order Trash Cart",
    "date_created": "2024-04-22T16:16:58.000",
    "date_modified": "2024-04-22T16:16:59.000",
    "request_status": "Pending",
    "responsible_agency": "Department of Sanitation",
    "final_address": "1584 De Battista Pl",
    "address_councildis": "C",
    "status": "Assigned to Contractor",
    "contractor": "Richards Disposal",
    "rowid": "1087016",
    "final_x": "3699805.63568",
    "final_y": "525110.765757",
    "longitude": "-90.01050172224429",
    "latitude": "29.937304041494873",
    "geocoded_column": {
      "latitude": "29.937304041494873",
      "longitude": "-90.01050172224429"
    }
  },
  {
    "service_request": "2024-1087015",
    "request_type": "Traffic Signals/Signs/Striping/Streetlights",
    "request_reason": "Street Light Outage/Malfunction",
    "date_created": "2024-04-22T16:13:33.000",
    "date_modified": "2024-04-22T16:13:58.000",
    "request_status": "Pending",
    "responsible_agency": "Department of Public Works",
    "final_address": "6027 Wales St",
    "address_councildis": "E",
    "status": "Assigned to Contractor",
    "contractor": "Legacy Professional Services",
    "rowid": "1087015",
    "final_x": "3695119.75875",
    "final_y": "559496.333853",
    "longitude": "-90.0240548487072",
    "latitude": "30.031999803345194",
    "geocoded_column": {
      "latitude": "30.031999803345194",
      "longitude": "-90.0240548487072"
    }
  },
  {
    "service_request": "2024-1087014",
    "request_type": "Trash/Recycling",
    "request_reason": "Illegal Dumping",
    "date_created": "2024-04-22T16:13:32.000",
    "date_modified": "2024-04-22T16:13:32.000",
    "request_status": "Pending",
    "responsible_agency": "Department of Sanitation",
    "final_address": "3060 N Villere St",
    "address_councildis": "C",
    "status": "Pending",
    "rowid": "1087014",
    "final_x": "3689150.47529",
    "final_y": "537101.245064",
    "longitude": "-90.04371460019951",
    "latitude": "29.97060765791589",
    "geocoded_column": {
      "latitude": "29.97060765791589",
      "longitude": "-90.04371460019951"
    }
  },
  {
    "service_request": "2024-1087013",
    "request_type": "Property Maintenance",
    "request_reason": "Property Maintenance",
    "date_created": "2024-04-22T16:12:51.000",
    "date_modified": "2024-04-22T16:12:51.000",
    "request_status": "Pending",
    "responsible_agency": "Department of Code Enforcement",
    "final_address": "4107 Downman Rd",
    "address_councildis": "D",
    "status": "Pending",
    "rowid": "1087013",
    "final_x": "3696217.63639",
    "final_y": "552459.27119",
    "longitude": "-90.02084022274396",
    "latitude": "30.012616009913486",
    "geocoded_column": {
      "latitude": "30.012616009913486",
      "longitude": "-90.02084022274396"
    }
  },
  {
    "service_request": "2024-1087012",
    "request_type": "Property Maintenance",
    "request_reason": "Property Maintenance",
    "date_created": "2024-04-22T16:11:55.000",
    "date_modified": "2024-04-22T16:11:55.000",
    "request_status": "Pending",
    "responsible_agency": "Department of Code Enforcement",
    "final_address": "2026 Mazant St",
    "address_councildis": "D",
    "status": "Pending",
    "rowid": "1087012",
    "final_x": "3692962.93193",
    "final_y": "538839.846153",
    "longitude": "-90.03161208622318",
    "latitude": "29.975269658723448",
    "geocoded_column": {
      "latitude": "29.975269658723448",
      "longitude": "-90.03161208622318"
    }
  },
  {
    "service_request": "2024-1087011",
    "request_type": "Property Maintenance",
    "request_reason": "Property Maintenance",
    "date_created": "2024-04-22T16:11:15.000",
    "date_modified": "2024-04-22T16:11:15.000",
    "request_status": "Pending",
    "responsible_agency": "Department of Code Enforcement",
    "final_address": "2006 Mazant St",
    "address_councildis": "D",
    "status": "Pending",
    "rowid": "1087011",
    "final_x": "3692929.72125",
    "final_y": "538684.773513",
    "longitude": "-90.0317225373306",
    "latitude": "29.9748443016034",
    "geocoded_column": {
      "latitude": "29.9748443016034",
      "longitude": "-90.0317225373306"
    }
  },
  {
    "service_request": "2024-1087010",
    "request_type": "Abandoned Vehicles",
    "request_reason": "Abandoned/Junk Vehicles",
    "date_created": "2024-04-22T16:11:11.000",
    "date_modified": "2024-04-22T16:11:11.000",
    "request_status": "Pending",
    "responsible_agency": "Department of Public Works",
    "final_address": "3128 Maurepas St",
    "address_councildis": "A",
    "status": "Pending",
    "rowid": "1087010",
    "final_x": "3676369.22728",
    "final_y": "540714.172939",
    "longitude": "-90.08395491549858",
    "latitude": "29.98093131932752",
    "geocoded_column": {
      "latitude": "29.98093131932752",
      "longitude": "-90.08395491549858"
    }
  },
  {
    "service_request": "2024-1087009",
    "request_type": "Property Maintenance",
    "request_reason": "Property Maintenance",
    "date_created": "2024-04-22T16:10:11.000",
    "date_modified": "2024-04-22T16:10:11.000",
    "request_status": "Pending",
    "responsible_agency": "Department of Code Enforcement",
    "final_address": "3417 Johnny Jackson Jr Blvd",
    "address_councildis": "D",
    "status": "Pending",
    "rowid": "1087009",
    "final_x": "3691932.50429",
    "final_y": "545047.643983",
    "longitude": "-90.0346442260932",
    "latitude": "29.992371020685287",
    "geocoded_column": {
      "latitude": "29.992371020685287",
      "longitude": "-90.0346442260932"
    }
  },
  {
    "service_request": "2024-1087008",
    "request_type": "Abandoned Vehicles",
    "request_reason": "Abandoned/Junk Vehicles",
    "date_created": "2024-04-22T16:09:39.000",
    "date_modified": "2024-04-22T16:09:40.000",
    "request_status": "Pending",
    "responsible_agency": "Department of Public Works",
    "final_address": "6605 Peony St",
    "address_councildis": "C",
    "status": "Pending",
    "rowid": "1087008",
    "final_x": "3708113.72561",
    "final_y": "516368.396853",
    "longitude": "-89.98459765707332",
    "latitude": "29.912999248395465",
    "geocoded_column": {
      "latitude": "29.912999248395465",
      "longitude": "-89.98459765707332"
    }
  },
  {
    "service_request": "2024-1087007",
    "request_type": "Property Maintenance",
    "request_reason": "Property Maintenance",
    "date_created": "2024-04-22T16:08:42.000",
    "date_modified": "2024-04-22T16:08:42.000",
    "request_status": "Pending",
    "responsible_agency": "Department of Code Enforcement",
    "final_address": "3411 Johnny Jackson Jr Blvd",
    "address_councildis": "D",
    "status": "Pending",
    "rowid": "1087007",
    "final_x": "3691920.74864",
    "final_y": "545001.091791",
    "longitude": "-90.0346830263764",
    "latitude": "29.99224338538863",
    "geocoded_column": {
      "latitude": "29.99224338538863",
      "longitude": "-90.0346830263764"
    }
  },
  {
    "service_request": "2024-1087006",
    "request_type": "Property Maintenance",
    "request_reason": "Property Maintenance",
    "date_created": "2024-04-22T16:06:37.000",
    "date_modified": "2024-04-22T16:06:37.000",
    "request_status": "Pending",
    "responsible_agency": "Department of Code Enforcement",
    "final_address": "3222 Prytania St",
    "address_councildis": "B",
    "status": "Pending",
    "rowid": "1087006",
    "final_x": "3674947.82657",
    "final_y": "521215.947833",
    "longitude": "-90.08911305338407",
    "latitude": "29.92736023641679",
    "geocoded_column": {
      "latitude": "29.92736023641679",
      "longitude": "-90.08911305338407"
    }
  },
  {
    "service_request": "2024-1087005",
    "request_type": "Trash/Recycling",
    "request_reason": "Request a Large Item Pick Up",
    "date_created": "2024-04-22T16:06:29.000",
    "date_modified": "2024-04-22T16:06:30.000",
    "request_status": "Pending",
    "responsible_agency": "Department of Sanitation",
    "final_address": "634 Arabella St",
    "address_councildis": "A",
    "status": "Assigned to Contractor",
    "contractor": "IV Waste",
    "rowid": "1087005",
    "final_x": "3665705.85984",
    "final_y": "518546.497783",
    "longitude": "-90.11837709964198",
    "latitude": "29.92029279580948",
    "geocoded_column": {
      "latitude": "29.92029279580948",
      "longitude": "-90.11837709964198"
    }
  },
  {
    "service_request": "2024-1087004",
    "request_type": "Trash/Recycling",
    "request_reason": "Return Recycling Cart",
    "date_created": "2024-04-22T16:06:19.000",
    "date_modified": "2024-04-22T16:06:19.000",
    "request_status": "Pending",
    "responsible_agency": "Department of Sanitation",
    "final_address": "7120 W Renaissance Ct",
    "address_councildis": "E",
    "status": "Pending",
    "rowid": "1087004",
    "final_x": "3716634.00344",
    "final_y": "567580.962532",
    "longitude": "-89.9557621520704",
    "latitude": "30.053535759147852",
    "geocoded_column": {
      "latitude": "30.053535759147852",
      "longitude": "-89.9557621520704"
    }
  },
  {
    "service_request": "2024-1087003",
    "request_type": "Trash/Recycling",
    "request_reason": "Repair Trash Cart",
    "date_created": "2024-04-22T16:05:43.000",
    "date_modified": "2024-04-22T16:05:44.000",
    "request_status": "Pending",
    "responsible_agency": "Department of Sanitation",
    "final_address": "4916 Danneel St",
    "address_councildis": "B",
    "status": "Assigned to Contractor",
    "contractor": "IV Waste",
    "rowid": "1087003",
    "final_x": "3668961.63738",
    "final_y": "522091.094714",
    "longitude": "-90.10798047015584",
    "latitude": "29.929943987141083",
    "geocoded_column": {
      "latitude": "29.929943987141083",
      "longitude": "-90.10798047015584"
    }
  },
  {
    "service_request": "2024-1087002",
    "request_type": "Trash/Recycling",
    "request_reason": "Request a Large Item Pick Up",
    "date_created": "2024-04-22T16:03:41.000",
    "date_modified": "2024-04-22T16:03:41.000",
    "request_status": "Pending",
    "responsible_agency": "Department of Sanitation",
    "final_address": "7560 Berg Rd",
    "address_councildis": "E",
    "status": "Assigned to Contractor",
    "contractor": "Waste Pro",
    "rowid": "1087002",
    "final_x": "3712172.47141",
    "final_y": "566340.767587",
    "longitude": "-89.9699104135472",
    "latitude": "30.050272456636392",
    "geocoded_column": {
      "latitude": "30.050272456636392",
      "longitude": "-89.9699104135472"
    }
  },
  {
    "service_request": "2024-1087001",
    "request_type": "Abandoned Vehicles",
    "request_reason": "Abandoned/Junk Vehicles",
    "date_created": "2024-04-22T16:02:05.000",
    "date_modified": "2024-04-22T16:02:05.000",
    "request_status": "Pending",
    "responsible_agency": "Department of Public Works",
    "final_address": "ELYSIAN FIELDS AVE & I 610 W ONRAMP & HUMANITY ST",
    "address_councildis": "D",
    "status": "Pending",
    "rowid": "1087001",
    "final_x": "3684284.9",
    "final_y": "544769.68",
    "longitude": "-90.05881126212158",
    "latitude": "29.991842834514927",
    "geocoded_column": {
      "latitude": "29.991842834514927",
      "longitude": "-90.05881126212158"
    }
  },
  {
    "service_request": "2024-1087000",
    "request_type": "Roads/Drainage",
    "request_reason": "Accessibility Ramps, Curbs and Sidewalk Repair",
    "date_created": "2024-04-22T16:01:52.000",
    "date_modified": "2024-04-22T16:01:52.000",
    "request_status": "Pending",
    "responsible_agency": "Department of Public Works",
    "final_address": "5100 Cannes St",
    "address_councildis": "E",
    "status": "Pending",
    "rowid": "1087000",
    "final_x": "3726607.79782",
    "final_y": "562701.495584",
    "longitude": "-89.92442764413488",
    "latitude": "30.039785787497774",
    "geocoded_column": {
      "latitude": "30.039785787497774",
      "longitude": "-89.92442764413488"
    }
  },
  {
    "service_request": "2024-1086999",
    "request_type": "Safety & Permits",
    "request_reason": "Licenses & Permits",
    "date_created": "2024-04-22T16:01:33.000",
    "date_modified": "2024-04-22T16:01:33.000",
    "request_status": "Pending",
    "responsible_agency": "Safety and Permits",
    "final_address": "1001 Ursulines Ave",
    "address_councildis": "C",
    "status": "Pending",
    "rowid": "1086999",
    "final_x": "3682572.91676",
    "final_y": "534338.045893",
    "longitude": "-90.06458391169286",
    "latitude": "29.963211726819726",
    "geocoded_column": {
      "latitude": "29.963211726819726",
      "longitude": "-90.06458391169286"
    }
  },
  {
    "service_request": "2024-1086998",
    "request_type": "Trash/Recycling",
    "request_reason": "Request a Large Item Pick Up",
    "date_created": "2024-04-22T15:59:39.000",
    "date_modified": "2024-04-22T15:59:39.000",
    "request_status": "Pending",
    "responsible_agency": "Department of Sanitation",
    "final_address": "7211 Yorktown Dr",
    "address_councildis": "E",
    "status": "Assigned to Contractor",
    "contractor": "Waste Pro",
    "rowid": "1086998",
    "final_x": "3705859.441",
    "final_y": "561296.067166",
    "longitude": "-89.99005039276307",
    "latitude": "30.036606568219202",
    "geocoded_column": {
      "latitude": "30.036606568219202",
      "longitude": "-89.99005039276307"
    }
  },
  {
    "service_request": "2024-1086996",
    "request_type": "Roads/Drainage",
    "request_reason": "Catch Basin - Clogged",
    "date_created": "2024-04-22T15:53:28.000",
    "date_modified": "2024-04-22T15:53:28.000",
    "request_status": "Pending",
    "responsible_agency": "Department of Public Works",
    "final_address": "335 City Park Ave",
    "address_councildis": "A",
    "status": "Pending",
    "rowid": "1086996",
    "final_x": "3668820.09972",
    "final_y": "541478.739916",
    "longitude": "-90.10777266463592",
    "latitude": "29.983257790875044",
    "geocoded_column": {
      "latitude": "29.983257790875044",
      "longitude": "-90.10777266463592"
    }
  },
  {
    "service_request": "2024-1086995",
    "request_type": "Roads/Drainage",
    "request_reason": "Catch Basin - Clogged",
    "date_created": "2024-04-22T15:52:16.000",
    "date_modified": "2024-04-22T15:52:16.000",
    "request_status": "Pending",
    "responsible_agency": "Department of Public Works",
    "final_address": "335 City Park Ave",
    "address_councildis": "A",
    "status": "Pending",
    "rowid": "1086995",
    "final_x": "3668820.09972",
    "final_y": "541478.739916",
    "longitude": "-90.10777266463592",
    "latitude": "29.983257790875044",
    "geocoded_column": {
      "latitude": "29.983257790875044",
      "longitude": "-90.10777266463592"
    }
  },
  {
    "service_request": "2024-1086994",
    "request_type": "Trash/Recycling",
    "request_reason": "Repair Recycling Cart",
    "date_created": "2024-04-22T15:48:40.000",
    "date_modified": "2024-04-22T15:48:41.000",
    "request_status": "Pending",
    "responsible_agency": "Department of Sanitation",
    "final_address": "1300 Valence St",
    "address_councildis": "B",
    "status": "Pending",
    "rowid": "1086994",
    "final_x": "3669721.03546",
    "final_y": "519995.171",
    "longitude": "-90.10565406197341",
    "latitude": "29.924158513333307",
    "geocoded_column": {
      "latitude": "29.924158513333307",
      "longitude": "-90.10565406197341"
    }
  },
  {
    "service_request": "2024-1086993",
    "request_type": "Trash/Recycling",
    "request_reason": "Request a Large Item Pick Up",
    "date_created": "2024-04-22T15:46:44.000",
    "date_modified": "2024-04-22T15:46:45.000",
    "request_status": "Pending",
    "responsible_agency": "Department of Sanitation",
    "final_address": "4812 Conti St",
    "address_councildis": "A",
    "status": "Assigned to Contractor",
    "contractor": "IV Waste",
    "rowid": "1086993",
    "final_x": "3669393.37812",
    "final_y": "541047.412683",
    "longitude": "-90.10597654160723",
    "latitude": "29.982054915223934",
    "geocoded_column": {
      "latitude": "29.982054915223934",
      "longitude": "-90.10597654160723"
    }
  },
  {
    "service_request": "2024-1086992",
    "request_type": "Trash/Recycling",
    "request_reason": "Request a Large Item Pick Up",
    "date_created": "2024-04-22T15:46:34.000",
    "date_modified": "2024-04-22T15:46:34.000",
    "request_status": "Pending",
    "responsible_agency": "Department of Sanitation",
    "final_address": "1514 Sumner St",
    "address_councildis": "C",
    "status": "Assigned to Contractor",
    "contractor": "Richards Disposal",
    "rowid": "1086992",
    "final_x": "3691055.65936",
    "final_y": "525766.997629",
    "longitude": "-90.03810244199117",
    "latitude": "29.939383313679215",
    "geocoded_column": {
      "latitude": "29.939383313679215",
      "longitude": "-90.03810244199117"
    }
  },
  {
    "service_request": "2024-1086991",
    "request_type": "Trash/Recycling",
    "request_reason": "Request a Large Item Pick Up",
    "date_created": "2024-04-22T15:45:53.000",
    "date_modified": "2024-04-22T15:45:53.000",
    "request_status": "Pending",
    "responsible_agency": "Department of Sanitation",
    "final_address": "7201 Salem Dr",
    "address_councildis": "E",
    "status": "Assigned to Contractor",
    "contractor": "Waste Pro",
    "rowid": "1086991",
    "final_x": "3706415.65246",
    "final_y": "561538.376223",
    "longitude": "-89.98828367487326",
    "latitude": "30.037254881773514",
    "geocoded_column": {
      "latitude": "30.037254881773514",
      "longitude": "-89.98828367487326"
    }
  },
  {
    "service_request": "2024-1086990",
    "request_type": "Trash/Recycling",
    "request_reason": "Replace Recycling Cart",
    "date_created": "2024-04-22T15:45:22.000",
    "date_modified": "2024-04-22T15:45:22.000",
    "request_status": "Pending",
    "responsible_agency": "Department of Sanitation",
    "final_address": "4700 BLK Perrier St",
    "address_councildis": "B",
    "status": "Pending",
    "rowid": "1086990",
    "final_x": "3669642.0534",
    "final_y": "519941.588185",
    "longitude": "-90.10590519315829",
    "latitude": "29.92401350424192",
    "geocoded_column": {
      "latitude": "29.92401350424192",
      "longitude": "-90.10590519315829"
    }
  },
  {
    "service_request": "2024-1086989",
    "request_type": "Trash/Recycling",
    "request_reason": "Request a Large Item Pick Up",
    "date_created": "2024-04-22T15:44:30.000",
    "date_modified": "2024-04-22T15:44:30.000",
    "request_status": "Pending",
    "responsible_agency": "Department of Sanitation",
    "final_address": "9700 BLK Irby St",
    "address_councildis": "E",
    "status": "Assigned to Contractor",
    "contractor": "Waste Pro",
    "rowid": "1086989",
    "final_x": "3707281.22188",
    "final_y": "564863.820519",
    "longitude": "-89.98542467728856",
    "latitude": "30.04637056539793",
    "geocoded_column": {
      "latitude": "30.04637056539793",
      "longitude": "-89.98542467728856"
    }
  },
  {
    "service_request": "2024-1086988",
    "request_type": "Traffic Signals/Signs/Striping/Streetlights",
    "request_reason": "Request for Stop Sign",
    "date_created": "2024-04-22T15:44:13.000",
    "date_modified": "2024-04-22T15:44:14.000",
    "request_status": "Pending",
    "responsible_agency": "Department of Public Works",
    "final_address": "N ROMAN ST & EGANIA ST",
    "address_councildis": "E",
    "status": "Pending",
    "rowid": "1086988",
    "final_x": "3697535.7",
    "final_y": "536673.78",
    "longitude": "-90.0172487255748",
    "latitude": "29.969170122415637",
    "geocoded_column": {
      "latitude": "29.969170122415637",
      "longitude": "-90.0172487255748"
    }
  },
  {
    "service_request": "2024-1086987",
    "request_type": "Safety & Permits",
    "request_reason": "Licenses & Permits",
    "date_created": "2024-04-22T15:43:27.000",
    "date_modified": "2024-04-22T15:43:27.000",
    "request_status": "Pending",
    "responsible_agency": "Safety and Permits",
    "final_address": "3518 Huntlee Dr",
    "address_councildis": "C",
    "status": "Pending",
    "rowid": "1086987",
    "final_x": "3701780.23601",
    "final_y": "518055.656822",
    "longitude": "-90.0045261251758",
    "latitude": "29.917842104534515",
    "geocoded_column": {
      "latitude": "29.917842104534515",
      "longitude": "-90.0045261251758"
    }
  },
  {
    "service_request": "2024-1086986",
    "request_type": "Trash/Recycling",
    "request_reason": "Request a Large Item Pick Up",
    "date_created": "2024-04-22T15:41:48.000",
    "date_modified": "2024-04-22T15:41:48.000",
    "request_status": "Pending",
    "responsible_agency": "Department of Sanitation",
    "final_address": "7741 Hansbrough Ave",
    "address_councildis": "E",
    "status": "Assigned to Contractor",
    "contractor": "Waste Pro",
    "rowid": "1086986",
    "final_x": "3707460.65572",
    "final_y": "564904.577442",
    "longitude": "-89.98485606252517",
    "latitude": "30.046476825612757",
    "geocoded_column": {
      "latitude": "30.046476825612757",
      "longitude": "-89.98485606252517"
    }
  },
  {
    "service_request": "2024-1086985",
    "request_type": "Trash/Recycling",
    "request_reason": "Request a Large Item Pick Up",
    "date_created": "2024-04-22T15:41:27.000",
    "date_modified": "2024-04-22T15:41:27.000",
    "request_status": "Pending",
    "responsible_agency": "Department of Sanitation",
    "final_address": "8018 Cohn St",
    "address_councildis": "A",
    "status": "Assigned to Contractor",
    "contractor": "IV Waste",
    "rowid": "1086985",
    "final_x": "3663830.23027",
    "final_y": "529926.821569",
    "longitude": "-90.12391844657765",
    "latitude": "29.951639626138572",
    "geocoded_column": {
      "latitude": "29.951639626138572",
      "longitude": "-90.12391844657765"
    }
  },
  {
    "service_request": "2024-1086984",
    "request_type": "Safety & Permits",
    "request_reason": "Construction permit",
    "date_created": "2024-04-22T15:40:46.000",
    "date_modified": "2024-04-22T15:40:46.000",
    "request_status": "Pending",
    "responsible_agency": "Department of Code Enforcement",
    "final_address": "3518 Huntlee Dr",
    "address_councildis": "C",
    "status": "Pending",
    "rowid": "1086984",
    "final_x": "3701780.23601",
    "final_y": "518055.656822",
    "longitude": "-90.0045261251758",
    "latitude": "29.917842104534515",
    "geocoded_column": {
      "latitude": "29.917842104534515",
      "longitude": "-90.0045261251758"
    }
  },
  {
    "service_request": "2024-1086982",
    "request_type": "Abandoned Vehicles",
    "request_reason": "Vehicle Blocking Your Driveway",
    "date_created": "2024-04-22T15:36:30.000",
    "date_modified": "2024-04-22T15:36:30.000",
    "request_status": "Pending",
    "responsible_agency": "Department of Public Works",
    "final_address": "1417 Joliet St",
    "address_councildis": "A",
    "status": "Pending",
    "rowid": "1086982",
    "final_x": "3661498.51501",
    "final_y": "529932.061889",
    "longitude": "-90.13128074422804",
    "latitude": "29.951721501048866",
    "geocoded_column": {
      "latitude": "29.951721501048866",
      "longitude": "-90.13128074422804"
    }
  },
  {
    "service_request": "2024-1086979",
    "request_type": "Abandoned Vehicles",
    "request_reason": "Abandoned/Junk Vehicles",
    "date_created": "2024-04-22T15:21:03.000",
    "date_modified": "2024-04-22T15:21:04.000",
    "request_status": "Pending",
    "responsible_agency": "Department of Public Works",
    "final_address": "5308 Prytania St",
    "address_councildis": "B",
    "status": "Pending",
    "rowid": "1086979",
    "final_x": "3667573.16941",
    "final_y": "520110.20364",
    "longitude": "-90.11243027493322",
    "latitude": "29.924537919551472",
    "geocoded_column": {
      "latitude": "29.924537919551472",
      "longitude": "-90.11243027493322"
    }
  },
  {
    "service_request": "2024-1086978",
    "request_type": "Roads/Drainage",
    "request_reason": "Street Flooding / Drainage",
    "date_created": "2024-04-22T15:21:01.000",
    "date_modified": "2024-04-22T15:21:01.000",
    "request_status": "Pending",
    "responsible_agency": "Department of Public Works",
    "final_address": "1317 Cambronne St",
    "address_councildis": "A",
    "status": "Pending",
    "rowid": "1086978",
    "final_x": "3661539.60781",
    "final_y": "529448.948929",
    "longitude": "-90.13116699646764",
    "latitude": "29.950391910127173",
    "geocoded_column": {
      "latitude": "29.950391910127173",
      "longitude": "-90.13116699646764"
    }
  },
  {
    "service_request": "2024-1086977",
    "request_type": "Tax and Revenue",
    "request_reason": "Sales Tax Question",
    "date_created": "2024-04-22T15:20:38.000",
    "date_modified": "2024-04-22T15:20:39.000",
    "request_status": "Pending",
    "responsible_agency": "Bureau of Revenue",
    "final_address": "650 Poydras St",
    "address_councildis": "B",
    "status": "Pending",
    "rowid": "1086977",
    "final_x": "3680812.92642",
    "final_y": "529260.434689",
    "longitude": "-90.07031849656484",
    "latitude": "29.949303483725547",
    "geocoded_column": {
      "latitude": "29.949303483725547",
      "longitude": "-90.07031849656484"
    }
  },
  {
    "service_request": "2024-1086976",
    "request_type": "Trash/Recycling",
    "request_reason": "Request a Large Item Pick Up",
    "date_created": "2024-04-22T15:19:37.000",
    "date_modified": "2024-04-22T15:19:38.000",
    "request_status": "Pending",
    "responsible_agency": "Department of Sanitation",
    "final_address": "8631 Dinkins St",
    "address_councildis": "E",
    "status": "Assigned to Contractor",
    "contractor": "Waste Pro",
    "rowid": "1086976",
    "final_x": "3703924.57943",
    "final_y": "563065.263456",
    "longitude": "-89.99609966237297",
    "latitude": "30.04153338871936",
    "geocoded_column": {
      "latitude": "30.04153338871936",
      "longitude": "-89.99609966237297"
    }
  },
  {
    "service_request": "2024-1086975",
    "request_type": "Roads/Drainage",
    "request_reason": "Pothole",
    "date_created": "2024-04-22T15:18:52.000",
    "date_modified": "2024-04-22T15:18:52.000",
    "request_status": "Pending",
    "responsible_agency": "Department of Public Works",
    "final_address": "1312 Milan St",
    "address_councildis": "B",
    "status": "Pending",
    "rowid": "1086975",
    "final_x": "3671625.82823",
    "final_y": "520286.919608",
    "longitude": "-90.09963137110304",
    "latitude": "29.92490447494246",
    "geocoded_column": {
      "latitude": "29.92490447494246",
      "longitude": "-90.09963137110304"
    }
  },
  {
    "service_request": "2024-1086974",
    "request_type": "Tax and Revenue",
    "request_reason": "Sales Tax Question",
    "date_created": "2024-04-22T15:17:29.000",
    "date_modified": "2024-04-22T15:17:29.000",
    "request_status": "Pending",
    "responsible_agency": "Bureau of Revenue",
    "final_address": "0 BLK Poydras St",
    "address_councildis": "B",
    "status": "Pending",
    "rowid": "1086974",
    "final_x": "3682820.46766",
    "final_y": "528816.972666",
    "longitude": "-90.06399531569016",
    "latitude": "29.948023114681554",
    "geocoded_column": {
      "latitude": "29.948023114681554",
      "longitude": "-90.06399531569016"
    }
  },
  {
    "service_request": "2024-1086973",
    "request_type": "Trash/Recycling",
    "request_reason": "Request a Large Item Pick Up",
    "date_created": "2024-04-22T15:16:43.000",
    "date_modified": "2024-04-22T15:16:44.000",
    "request_status": "Pending",
    "responsible_agency": "Department of Sanitation",
    "final_address": "2215 General Taylor St",
    "address_councildis": "B",
    "status": "Assigned to Contractor",
    "contractor": "IV Waste",
    "rowid": "1086973",
    "final_x": "3672149.23681",
    "final_y": "523295.765307",
    "longitude": "-90.0978767304784",
    "latitude": "29.933162327276804",
    "geocoded_column": {
      "latitude": "29.933162327276804",
      "longitude": "-90.0978767304784"
    }
  },
  {
    "service_request": "2024-1086972",
    "request_type": "Trash/Recycling",
    "request_reason": "Repair Trash Cart",
    "date_created": "2024-04-22T15:10:45.000",
    "date_modified": "2024-04-22T15:10:45.000",
    "request_status": "Pending",
    "responsible_agency": "Department of Sanitation",
    "final_address": "3506 Gentilly Blvd",
    "address_councildis": "D",
    "status": "Assigned to Contractor",
    "contractor": "IV Waste",
    "rowid": "1086972",
    "final_x": "3685486.58914",
    "final_y": "548512.910546",
    "longitude": "-90.05488346047478",
    "latitude": "30.002098566819427",
    "geocoded_column": {
      "latitude": "30.002098566819427",
      "longitude": "-90.05488346047478"
    }
  },
  {
    "service_request": "2024-1086971",
    "request_type": "Trash/Recycling",
    "request_reason": "Order Recycling Cart",
    "date_created": "2024-04-22T15:05:57.000",
    "date_modified": "2024-04-22T15:05:57.000",
    "request_status": "Pending",
    "responsible_agency": "Department of Sanitation",
    "final_address": "1634 Washington Ave",
    "address_councildis": "B",
    "status": "Pending",
    "rowid": "1086971",
    "final_x": "3675698.78638",
    "final_y": "522792.117178",
    "longitude": "-90.08668832560726",
    "latitude": "29.931671747318152",
    "geocoded_column": {
      "latitude": "29.931671747318152",
      "longitude": "-90.08668832560726"
    }
  },
  {
    "service_request": "2024-1086970",
    "request_type": "Trash/Recycling",
    "request_reason": "Order Trash Cart",
    "date_created": "2024-04-22T15:05:27.000",
    "date_modified": "2024-04-22T15:05:28.000",
    "request_status": "Pending",
    "responsible_agency": "Department of Sanitation",
    "final_address": "1634 Washington Ave",
    "address_councildis": "B",
    "status": "Assigned to Contractor",
    "contractor": "IV Waste",
    "rowid": "1086970",
    "final_x": "3675698.78638",
    "final_y": "522792.117178",
    "longitude": "-90.08668832560726",
    "latitude": "29.931671747318152",
    "geocoded_column": {
      "latitude": "29.931671747318152",
      "longitude": "-90.08668832560726"
    }
  },
  {
    "service_request": "2024-1086969",
    "request_type": "Trash/Recycling",
    "request_reason": "Repair Trash Cart",
    "date_created": "2024-04-22T15:04:28.000",
    "date_modified": "2024-04-22T15:04:28.000",
    "request_status": "Pending",
    "responsible_agency": "Department of Sanitation",
    "final_address": "7624 Briarwood Dr",
    "address_councildis": "E",
    "status": "Assigned to Contractor",
    "contractor": "Waste Pro",
    "rowid": "1086969",
    "final_x": "3717514.67864",
    "final_y": "570811.188519",
    "longitude": "-89.95285559030481",
    "latitude": "30.062388400529098",
    "geocoded_column": {
      "latitude": "30.062388400529098",
      "longitude": "-89.95285559030481"
    }
  },
  {
    "service_request": "2024-1086968",
    "request_type": "Abandoned Vehicles",
    "request_reason": "Abandoned/Junk Vehicles",
    "date_created": "2024-04-22T15:01:23.000",
    "date_modified": "2024-04-22T15:01:23.000",
    "request_status": "Pending",
    "responsible_agency": "Department of Public Works",
    "final_address": "1104 Valence St",
    "address_councildis": "B",
    "status": "Pending",
    "rowid": "1086968",
    "final_x": "3669819.53786",
    "final_y": "519471.683895",
    "longitude": "-90.10536083275622",
    "latitude": "29.922716187742047",
    "geocoded_column": {
      "latitude": "29.922716187742047",
      "longitude": "-90.10536083275622"
    }
  },
  {
    "service_request": "2024-1086967",
    "request_type": "Trash/Recycling",
    "request_reason": "Repair Recycling Cart",
    "date_created": "2024-04-22T14:57:23.000",
    "date_modified": "2024-04-22T14:57:23.000",
    "request_status": "Pending",
    "responsible_agency": "Department of Sanitation",
    "final_address": "4601 Iberville St",
    "address_councildis": "A",
    "status": "Pending",
    "rowid": "1086967",
    "final_x": "3669655.83706",
    "final_y": "540034.312395",
    "longitude": "-90.1051818650086",
    "latitude": "29.979261500365304",
    "geocoded_column": {
      "latitude": "29.979261500365304",
      "longitude": "-90.1051818650086"
    }
  },
  {
    "service_request": "2024-1086966",
    "request_type": "Trash/Recycling",
    "request_reason": "Order Trash Cart",
    "date_created": "2024-04-22T14:54:21.000",
    "date_modified": "2024-04-22T14:54:22.000",
    "request_status": "Pending",
    "responsible_agency": "Department of Sanitation",
    "final_address": "3058 Carver St",
    "address_councildis": "C",
    "status": "Assigned to Contractor",
    "contractor": "Richards Disposal",
    "rowid": "1086966",
    "final_x": "3708543.71902",
    "final_y": "519302.175863",
    "longitude": "-89.98313136969632",
    "latitude": "29.921052194748757",
    "geocoded_column": {
      "latitude": "29.921052194748757",
      "longitude": "-89.98313136969632"
    }
  },
  {
    "service_request": "2024-1086965",
    "request_type": "Property Maintenance",
    "request_reason": "Property Maintenance",
    "date_created": "2024-04-22T14:52:54.000",
    "date_modified": "2024-04-22T14:52:54.000",
    "request_status": "Pending",
    "responsible_agency": "Department of Code Enforcement",
    "final_address": "3217 Chartres St",
    "address_councildis": "C",
    "status": "Pending",
    "rowid": "1086965",
    "final_x": "3689252.80316",
    "final_y": "534011.767941",
    "longitude": "-90.04350126792819",
    "latitude": "29.962109509560356",
    "geocoded_column": {
      "latitude": "29.962109509560356",
      "longitude": "-90.04350126792819"
    }
  },
  {
    "service_request": "2024-1086963",
    "request_type": "Abandoned Vehicles",
    "request_reason": "Abandoned/Junk Vehicles",
    "date_created": "2024-04-22T14:50:55.000",
    "date_modified": "2024-04-22T14:50:55.000",
    "request_status": "Pending",
    "responsible_agency": "Department of Public Works",
    "final_address": "4200 BLK Paris Ave",
    "address_councildis": "D",
    "status": "Pending",
    "rowid": "1086963",
    "final_x": "3679547.82263",
    "final_y": "547611.995771",
    "longitude": "-90.07367599396463",
    "latitude": "29.999802228062865",
    "geocoded_column": {
      "latitude": "29.999802228062865",
      "longitude": "-90.07367599396463"
    }
  },
  {
    "service_request": "2024-1086962",
    "request_type": "Trash/Recycling",
    "request_reason": "Order Trash Cart",
    "date_created": "2024-04-22T14:49:20.000",
    "date_modified": "2024-04-22T14:49:21.000",
    "request_status": "Pending",
    "responsible_agency": "Department of Sanitation",
    "final_address": "4909 Werner Dr",
    "address_councildis": "E",
    "status": "Assigned to Contractor",
    "contractor": "Waste Pro",
    "rowid": "1086962",
    "final_x": "3704729.01514",
    "final_y": "556120.78153",
    "longitude": "-89.99381393944873",
    "latitude": "30.02241293990459",
    "geocoded_column": {
      "latitude": "30.02241293990459",
      "longitude": "-89.99381393944873"
    }
  },