[
  {
    "service_request": "2026-1291004",
    "request_type": "Trash/Recycling",
    "request_reason": "Request a Large Item Pick Up",
    "date_created": "2026-06-15T23:30:42.000",
    "date_modified": "2026-06-15T23:30:44.000",
    "request_status": "Pending",
    "responsible_agency": "Department of Sanitation",
    "final_address": "1820 Kerlerec St",
    "address_councildis": "D",
    "status": "Assigned to Contractor",
    "contractor": "IV Waste",
    "rowid": "1291004",
    "final_x": "3680769.35695",
    "final_y": "537409.293512",
    "longitude": "-90.07017242503791",
    "latitude": "29.971711391909935",
    "geocoded_column": {
      "latitude": "29.971711391909935",
      "longitude": "-90.07017242503791"
    }
  },
  {
    "service_request": "2026-1291003",
    "request_type": "Trash/Recycling",
    "request_reason": "Replace Trash Cart",
    "date_created": "2026-06-15T23:24:59.000",
    "date_modified": "2026-06-15T23:25:02.000",
    "request_status": "Pending",
    "responsible_agency": "Department of Sanitation",
    "final_address": "4617 LaSalle St",
    "address_councildis": "B",
    "status": "Assigned to Contractor",
    "contractor": "IV Waste",
    "rowid": "1291003",
    "final_x": "3669660.22439",
    "final_y": "523649.250875",
    "longitude": "-90.10572244367414",
    "latitude": "29.93420785677098",
    "geocoded_column": {
      "latitude": "29.93420785677098",
      "longitude": "-90.10572244367414"
    }
  },
  {
    "service_request": "2026-1291002",
    "request_type": "Trash/Recycling",
    "request_reason": "Request a Large Item Pick Up",
    "date_created": "2026-06-15T22:42:24.000",
    "date_modified": "2026-06-15T22:42:26.000",
    "request_status": "Pending",
    "responsible_agency": "Department of Sanitation",
    "final_address": "10831 Roger Dr",
    "address_councildis": "E",
    "status": "Assigned to Contractor",
    "contractor": "Waste Pro",
    "rowid": "1291002",
    "final_x": "3711772.6405",
    "final_y": "563210.325664",
    "longitude": "-89.97129173317326",
    "latitude": "30.041678079963134",
    "geocoded_column": {
      "latitude": "30.041678079963134",
      "longitude": "-89.97129173317326"
    }
  },
  {
    "service_request": "2026-1291001",
    "request_type": "General Services",
    "request_reason": "General Service Request",
    "date_created": "2026-06-15T22:39:46.000",
    "date_modified": "2026-06-15T22:39:47.000",
    "request_status": "Pending",
    "responsible_agency": "Orleans Parish Communication District",
    "final_address": "4325 Loyola Ave",
    "address_councildis": "B",
    "status": "Pending",
    "rowid": "1291001",
    "final_x": "3670835.39758",
    "final_y": "523068.310459",
    "longitude": "-90.10203215998733",
    "latitude": "29.93257578598287",
    "geocoded_column": {
      "latitude": "29.93257578598287",
      "longitude": "-90.10203215998733"
    }
  },
  {
    "service_request": "2026-1291000",
    "request_type": "Trash/Recycling",
    "request_reason": "Order Second Trash Cart",
    "date_created": "2026-06-15T22:18:56.000",
    "date_modified": "2026-06-15T22:18:57.000",
    "request_status": "Pending",
    "responsible_agency": "Department of Sanitation",
    "final_address": "2301 Joseph St",
    "address_councildis": "A",
    "status": "Assigned to Contractor",
    "contractor": "IV Waste",
    "rowid": "1291000",
    "final_x": "3667439.30279",
    "final_y": "524508.228796",
    "longitude": "-90.11270495565576",
    "latitude": "29.936635010418236",
    "geocoded_column": {
      "latitude": "29.936635010418236",
      "longitude": "-90.11270495565576"
    }
  },
  {
    "service_request": "2026-1290999",
    "request_type": "Trash/Recycling",
    "request_reason": "Replace Recycling Cart",
    "date_created": "2026-06-15T22:16:38.000",
    "date_modified": "2026-06-15T22:16:40.000",
    "request_status": "Pending",
    "responsible_agency": "Department of Sanitation",
    "final_address": "2301 Joseph St",
    "address_councildis": "A",
    "status": "Pending",
    "rowid": "1290999",
    "final_x": "3667439.30279",
    "final_y": "524508.228796",
    "longitude": "-90.11270495565576",
    "latitude": "29.936635010418236",
    "geocoded_column": {
      "latitude": "29.936635010418236",
      "longitude": "-90.11270495565576"
    }
  },
  {
    "service_request": "2026-1290998",
    "request_type": "Health Related Request",
    "request_reason": "Noise Ordinance Complaint",
    "date_created": "2026-06-15T22:08:31.000",
    "date_modified": "2026-06-15T22:08:33.000",
    "request_status": "Pending",
    "responsible_agency": "Health Department",
    "final_address": "801 Bourbon St, New Orleans, Louisiana, 70116",
    "address_councildis": "C",
    "status": "Pending",
    "rowid": "1290998",
    "final_x": "3682490.98735",
    "final_y": "533018.672772",
    "longitude": "-90.06488875731978",
    "latitude": "29.959586396383013",
    "geocoded_column": {
      "latitude": "29.959586396383013",
      "longitude": "-90.06488875731978"
    }
  },
  {
    "service_request": "2026-1290997",
    "request_type": "Property Maintenance",
    "request_reason": "Property Maintenance",
    "date_created": "2026-06-15T22:07:04.000",
    "date_modified": "2026-06-15T22:07:05.000",
    "request_status": "Pending",
    "responsible_agency": "Department of Code Enforcement",
    "final_address": "8423 Palm St",
    "address_councildis": "A",
    "status": "Pending",
    "rowid": "1290997",
    "final_x": "3666798.59956",
    "final_y": "535580.988422",
    "longitude": "-90.11435580602658",
    "latitude": "29.967100245020458",
    "geocoded_column": {
      "latitude": "29.967100245020458",
      "longitude": "-90.11435580602658"
    }
  },
  {
    "service_request": "2026-1290996",
    "request_type": "Property Maintenance",
    "request_reason": "Property Maintenance",
    "date_created": "2026-06-15T22:07:02.000",
    "date_modified": "2026-06-15T22:07:04.000",
    "request_status": "Pending",
    "responsible_agency": "Department of Code Enforcement",
    "final_address": "8423 Palm St",
    "address_councildis": "A",
    "status": "Pending",
    "rowid": "1290996",
    "final_x": "3666798.59956",
    "final_y": "535580.988422",
    "longitude": "-90.11435580602658",
    "latitude": "29.967100245020458",
    "geocoded_column": {
      "latitude": "29.967100245020458",
      "longitude": "-90.11435580602658"
    }
  },
  {
    "service_request": "2026-1290995",
    "request_type": "Trash/Recycling",
    "request_reason": "Order Trash Cart",
    "date_created": "2026-06-15T21:46:24.000",
    "date_modified": "2026-06-15T21:46:25.000",
    "request_status": "Pending",
    "responsible_agency": "Department of Sanitation",
    "final_address": "1707 Cambronne St",
    "address_councildis": "A",
    "status": "Assigned to Contractor",
    "contractor": "IV Waste",
    "rowid": "1290995",
    "final_x": "3662434.70695",
    "final_y": "530435.426626",
    "longitude": "-90.12830796949875",
    "latitude": "29.953078553598395",
    "geocoded_column": {
      "latitude": "29.953078553598395",
      "longitude": "-90.12830796949875"
    }
  },
  {
    "service_request": "2026-1290994",
    "request_type": "Drainage",
    "request_reason": "Catch Basin Not Draining",
    "date_created": "2026-06-15T21:40:38.000",
    "date_modified": "2026-06-15T21:40:41.000",
    "request_status": "Pending",
    "responsible_agency": "Sewerage & Water Board",
    "final_address": "4552 N Villere St",
    "address_councildis": "D",
    "status": "Pending",
    "rowid": "1290994",
    "final_x": "3693891.88157",
    "final_y": "535928.051399",
    "longitude": "-90.02878292940416",
    "latitude": "29.967234208589897",
    "geocoded_column": {
      "latitude": "29.967234208589897",
      "longitude": "-90.02878292940416"
    }
  },
  {
    "service_request": "2026-1290993",
    "request_type": "Health Related Request",
    "request_reason": "Noise Ordinance Complaint",
    "date_created": "2026-06-15T21:25:58.000",
    "date_modified": "2026-06-15T21:25:59.000",
    "request_status": "Pending",
    "responsible_agency": "Health Department",
    "final_address": "800 Bourbon St, New Orleans, Louisiana, 70116",
    "address_councildis": "C",
    "status": "Pending",
    "rowid": "1290993",
    "final_x": "3682553.51528",
    "final_y": "533013.631428",
    "longitude": "-90.06469148499534",
    "latitude": "29.95957063099051",
    "geocoded_column": {
      "latitude": "29.95957063099051",
      "longitude": "-90.06469148499534"
    }
  },
  {
    "service_request": "2026-1290992",
    "request_type": "Trash/Recycling",
    "request_reason": "Request a Large Item Pick Up",
    "date_created": "2026-06-15T21:23:22.000",
    "date_modified": "2026-06-15T21:23:24.000",
    "request_status": "Pending",
    "responsible_agency": "Department of Sanitation",
    "final_address": "622 Sixth St",
    "address_councildis": "B",
    "status": "Assigned to Contractor",
    "contractor": "IV Waste",
    "rowid": "1290992",
    "final_x": "3677481.72488",
    "final_y": "519191.314423",
    "longitude": "-90.08118400819649",
    "latitude": "29.921717251841617",
    "geocoded_column": {
      "latitude": "29.921717251841617",
      "longitude": "-90.08118400819649"
    }
  },
  {
    "service_request": "2026-1290991",
    "request_type": "Streetlights",
    "request_reason": "Streetlight Outage/Malfunction",
    "date_created": "2026-06-15T21:10:24.000",
    "date_modified": "2026-06-15T21:10:26.000",
    "request_status": "Pending",
    "responsible_agency": "Department of Public Works",
    "final_address": "6448 Orleans Ave",
    "address_councildis": "A",
    "status": "Pending",
    "rowid": "1290991",
    "final_x": "3671115.86145",
    "final_y": "550275.741204",
    "longitude": "-90.10022242381704",
    "latitude": "30.007378779721865",
    "geocoded_column": {
      "latitude": "30.007378779721865",
      "longitude": "-90.10022242381704"
    }
  },
  {
    "service_request": "2026-1290990",
    "request_type": "Streetlights",
    "request_reason": "New Streetlight Request",
    "date_created": "2026-06-15T21:07:28.000",
    "date_modified": "2026-06-15T21:07:30.000",
    "request_status": "Pending",
    "responsible_agency": "Department of Public Works",
    "final_address": "2738 St Ann St",
    "address_councildis": "C",
    "status": "Pending",
    "rowid": "1290990",
    "final_x": "3676618.58305",
    "final_y": "537405.290056",
    "longitude": "-90.0832813525572",
    "latitude": "29.971825548712737",
    "geocoded_column": {
      "latitude": "29.971825548712737",
      "longitude": "-90.0832813525572"
    }
  },
  {
    "service_request": "2026-1290989",
    "request_type": "Trash/Recycling",
    "request_reason": "Replace Trash Cart",
    "date_created": "2026-06-15T21:03:26.000",
    "date_modified": "2026-06-15T21:03:28.000",
    "request_status": "Pending",
    "responsible_agency": "Department of Sanitation",
    "final_address": "3122 Hamilton St",
    "address_councildis": "A",
    "status": "Assigned to Contractor",
    "contractor": "IV Waste",
    "rowid": "1290989",
    "final_x": "3664036.48359",
    "final_y": "535942.806919",
    "longitude": "-90.12306655849386",
    "latitude": "29.96817563412154",
    "geocoded_column": {
      "latitude": "29.96817563412154",
      "longitude": "-90.12306655849386"
    }
  },
  {
    "service_request": "2026-1290988",
    "request_type": "Property Maintenance",
    "request_reason": "Property Maintenance",
    "date_created": "2026-06-15T20:59:43.000",
    "date_modified": "2026-06-15T20:59:45.000",
    "request_status": "Pending",
    "responsible_agency": "Department of Code Enforcement",
    "final_address": "2118 S Saratoga St",
    "address_councildis": "B",
    "status": "Pending",
    "rowid": "1290988",
    "final_x": "3676639.66542",
    "final_y": "525307.085501",
    "longitude": "-90.08363148400339",
    "latitude": "29.938558906186838",
    "geocoded_column": {
      "latitude": "29.938558906186838",
      "longitude": "-90.08363148400339"
    }
  },
  {
    "service_request": "2026-1290987",
    "request_type": "Streetlights",
    "request_reason": "Streetlight Outage/Malfunction",
    "date_created": "2026-06-15T20:58:28.000",
    "date_modified": "2026-06-15T20:58:29.000",
    "request_status": "Pending",
    "responsible_agency": "Department of Public Works",
    "final_address": "2738 St Ann St",
    "address_councildis": "C",
    "status": "Pending",
    "rowid": "1290987",
    "final_x": "3676618.58305",
    "final_y": "537405.290056",
    "longitude": "-90.0832813525572",
    "latitude": "29.971825548712737",
    "geocoded_column": {
      "latitude": "29.971825548712737",
      "longitude": "-90.0832813525572"
    }
  },
  {
    "service_request": "2026-1290986",
    "request_type": "Roads and Streets",
    "request_reason": "Street Subsidence (Sinking)",
    "date_created": "2026-06-15T20:32:23.000",
    "date_modified": "2026-06-15T20:32:25.000",
    "request_status": "Pending",
    "responsible_agency": "Sewerage & Water Board",
    "final_address": "3609 Red Oak Ct",
    "address_councildis": "C",
    "status": "Pending",
    "rowid": "1290986",
    "final_x": "3703046.09758",
    "final_y": "513768.122738",
    "longitude": "-90.00068792408335",
    "latitude": "29.906012425108145",
    "geocoded_column": {
      "latitude": "29.906012425108145",
      "longitude": "-90.00068792408335"
    }
  },
  {
    "service_request": "2026-1290985",
    "request_type": "Trash/Recycling",
    "request_reason": "Damaged Caused By Contractor",
    "date_created": "2026-06-15T20:29:18.000",
    "date_modified": "2026-06-15T20:29:20.000",
    "request_status": "Pending",
    "responsible_agency": "Department of Sanitation",
    "final_address": "3609 Red Oak Ct",
    "address_councildis": "C",
    "status": "Assigned to Contractor",
    "contractor": "Richards Disposal",
    "rowid": "1290985",
    "final_x": "3703046.09758",
    "final_y": "513768.122738",
    "longitude": "-90.00068792408335",
    "latitude": "29.906012425108145",
    "geocoded_column": {
      "latitude": "29.906012425108145",
      "longitude": "-90.00068792408335"
    }
  },
  {
    "service_request": "2026-1290983",
    "request_type": "Trash/Recycling",
    "request_reason": "Repair Trash Cart",
    "date_created": "2026-06-15T20:09:42.000",
    "date_modified": "2026-06-15T20:09:43.000",
    "request_status": "Pending",
    "responsible_agency": "Department of Sanitation",
    "final_address": "333 S Hennessey St",
    "address_councildis": "A",
    "status": "Assigned to Contractor",
    "contractor": "IV Waste",
    "rowid": "1290983",
    "final_x": "3669617.7257",
    "final_y": "538126.844553",
    "longitude": "-90.10536679932204",
    "latitude": "29.974017730866098",
    "geocoded_column": {
      "latitude": "29.974017730866098",
      "longitude": "-90.10536679932204"
    }
  },
  {
    "service_request": "2026-1290982",
    "request_type": "Roads and Streets",
    "request_reason": "Pothole",
    "date_created": "2026-06-15T20:09:39.000",
    "date_modified": "2026-06-15T20:09:40.000",
    "request_status": "Pending",
    "responsible_agency": "Department of Public Works",
    "final_address": "8004 Trapier Ave",
    "address_councildis": "E",
    "status": "Pending",
    "rowid": "1290982",
    "final_x": "3705983.30711",
    "final_y": "564455.410273",
    "longitude": "-89.98954186352663",
    "latitude": "30.045289517191495",
    "geocoded_column": {
      "latitude": "30.045289517191495",
      "longitude": "-89.98954186352663"
    }
  },
  {
    "service_request": "2026-1290981",
    "request_type": "Trash/Recycling",
    "request_reason": "Request a Large Item Pick Up",
    "date_created": "2026-06-15T19:54:30.000",
    "date_modified": "2026-06-15T19:54:31.000",
    "request_status": "Pending",
    "responsible_agency": "Department of Sanitation",
    "final_address": "7880 Means Ave Apt A",
    "address_councildis": "E",
    "status": "Assigned to Contractor",
    "contractor": "Waste Pro",
    "rowid": "1290981",
    "final_x": "3707602.17758",
    "final_y": "565445.186466",
    "longitude": "-89.98438866909274",
    "latitude": "30.04795870375798",
    "geocoded_column": {
      "latitude": "30.04795870375798",
      "longitude": "-89.98438866909274"
    }
  },
  {
    "service_request": "2026-1290980",
    "request_type": "Drainage",
    "request_reason": "Catch Basin Not Draining",
    "date_created": "2026-06-15T19:53:46.000",
    "date_modified": "2026-06-15T19:53:49.000",
    "request_status": "Pending",
    "responsible_agency": "Sewerage & Water Board",
    "final_address": "1006 N Carrollton Ave",
    "address_councildis": "A",
    "status": "Pending",
    "rowid": "1290980",
    "final_x": "3673758.4322",
    "final_y": "541072.358668",
    "longitude": "-90.09218872739498",
    "latitude": "29.98199422351146",
    "geocoded_column": {
      "latitude": "29.98199422351146",
      "longitude": "-90.09218872739498"
    }
  },
  {
    "service_request": "2026-1290979",
    "request_type": "Trash/Recycling",
    "request_reason": "Missed Trash Pick-Up",
    "date_created": "2026-06-15T19:48:48.000",
    "date_modified": "2026-06-15T19:48:50.000",
    "request_status": "Pending",
    "responsible_agency": "Department of Sanitation",
    "final_address": "4229 Buchanan St",
    "address_councildis": "D",
    "status": "Assigned to Contractor",
    "contractor": "IV Waste",
    "rowid": "1290979",
    "final_x": "3677272.74082",
    "final_y": "547777.242706",
    "longitude": "-90.08085737211397",
    "latitude": "30.000325172998146",
    "geocoded_column": {
      "latitude": "30.000325172998146",
      "longitude": "-90.08085737211397"
    }
  },
  {
    "service_request": "2026-1290978",
    "request_type": "Trash/Recycling",
    "request_reason": "Order Second Trash Cart",
    "date_created": "2026-06-15T19:48:28.000",
    "date_modified": "2026-06-15T19:48:29.000",
    "request_status": "Pending",
    "responsible_agency": "Department of Sanitation",
    "final_address": "5736 Press Dr",
    "address_councildis": "D",
    "status": "Assigned to Contractor",
    "contractor": "IV Waste",
    "rowid": "1290978",
    "final_x": "3688944.57475",
    "final_y": "554687.68124",
    "longitude": "-90.04373977807589",
    "latitude": "30.018970376135695",
    "geocoded_column": {
      "latitude": "30.018970376135695",
      "longitude": "-90.04373977807589"
    }
  },
  {
    "service_request": "2026-1290977",
    "request_type": "Trash/Recycling",
    "request_reason": "Request a Large Item Pick Up",
    "date_created": "2026-06-15T19:46:47.000",
    "date_modified": "2026-06-15T19:46:48.000",
    "request_status": "Pending",
    "responsible_agency": "Department of Sanitation",
    "final_address": "5019 Congress Dr",
    "address_councildis": "D",
    "status": "Assigned to Contractor",
    "contractor": "IV Waste",
    "rowid": "1290977",
    "final_x": "3692067.20259",
    "final_y": "552865.282071",
    "longitude": "-90.03393870510023",
    "latitude": "30.01386245578446",
    "geocoded_column": {
      "latitude": "30.01386245578446",
      "longitude": "-90.03393870510023"
    }
  },
  {
    "service_request": "2026-1290976",
    "request_type": "General Services",
    "request_reason": "General Service Request",
    "date_created": "2026-06-15T19:46:30.000",
    "date_modified": "2026-06-15T19:46:32.000",
    "request_status": "Pending",
    "responsible_agency": "Orleans Parish Communication District",
    "final_address": "821 Louisiana Ave",
    "address_councildis": "B",
    "status": "Pending",
    "rowid": "1290976",
    "final_x": "3675528.5099",
    "final_y": "518833.833591",
    "longitude": "-90.0873617479501",
    "latitude": "29.92079283991565",
    "geocoded_column": {
      "latitude": "29.92079283991565",
      "longitude": "-90.0873617479501"
    }
  },
  {
    "service_request": "2026-1290975",
    "request_type": "Trash/Recycling",
    "request_reason": "Missed Trash Pick-Up",
    "date_created": "2026-06-15T19:33:07.000",
    "date_modified": "2026-06-15T19:33:09.000",
    "request_status": "Pending",
    "responsible_agency": "Department of Sanitation",
    "final_address": "8466 Beechwood Ct",
    "address_councildis": "E",
    "status": "Assigned to Contractor",
    "contractor": "Waste Pro",
    "rowid": "1290975",
    "final_x": "3704603.45738",
    "final_y": "560788.995038",
    "longitude": "-89.99403826122825",
    "latitude": "30.03525274468073",
    "geocoded_column": {
      "latitude": "30.03525274468073",
      "longitude": "-89.99403826122825"
    }
  },
  {
    "service_request": "2026-1290974",
    "request_type": "Trash/Recycling",
    "request_reason": "Order Recycling Cart",
    "date_created": "2026-06-15T19:30:10.000",
    "date_modified": "2026-06-15T19:30:13.000",
    "request_status": "Pending",
    "responsible_agency": "Department of Sanitation",
    "final_address": "1 BLK Clubhouse Dr",
    "address_councildis": "C",
    "status": "Pending",
    "rowid": "1290974",
    "final_x": "3717666.19324",
    "final_y": "514105.873151",
    "longitude": "-89.95453354033035",
    "latitude": "29.90646548252764",
    "geocoded_column": {
      "latitude": "29.90646548252764",
      "longitude": "-89.95453354033035"
    }
  },
  {
    "service_request": "2026-1290973",
    "request_type": "Trash/Recycling",
    "request_reason": "Request a Large Item Pick Up",
    "date_created": "2026-06-15T19:21:12.000",
    "date_modified": "2026-06-15T19:21:13.000",
    "request_status": "Pending",
    "responsible_agency": "Department of Sanitation",
    "final_address": "338 Verret St",
    "address_councildis": "C",
    "status": "Assigned to Contractor",
    "contractor": "Richards Disposal",
    "rowid": "1290973",
    "final_x": "3686949.71164",
    "final_y": "530451.66509",
    "longitude": "-90.05089989071537",
    "latitude": "29.95239153683198",
    "geocoded_column": {
      "latitude": "29.95239153683198",
      "longitude": "-90.05089989071537"
    }
  },
  {
    "service_request": "2026-1290972",
    "request_type": "Trash/Recycling",
    "request_reason": "Repair Trash Cart",
    "date_created": "2026-06-15T19:18:24.000",
    "date_modified": "2026-06-15T19:18:26.000",
    "request_status": "Pending",
    "responsible_agency": "Department of Sanitation",
    "final_address": "1018 S Carrollton Ave",
    "address_councildis": "A",
    "status": "Assigned to Contractor",
    "contractor": "IV Waste",
    "rowid": "1290972",
    "final_x": "3661578.41107",
    "final_y": "527979.905343",
    "longitude": "-90.13109314330612",
    "latitude": "29.94635139106853",
    "geocoded_column": {
      "latitude": "29.94635139106853",
      "longitude": "-90.13109314330612"
    }
  },
  {
    "service_request": "2026-1290971",
    "request_type": "Roads and Streets",
    "request_reason": "Street Flooding",
    "date_created": "2026-06-15T19:09:26.000",
    "date_modified": "2026-06-15T19:09:28.000",
    "request_status": "Pending",
    "responsible_agency": "Sewerage & Water Board",
    "final_address": "8 Charlotte Dr, New Orleans, Louisiana, 70122",
    "address_councildis": "D",
    "status": "Pending",
    "rowid": "1290971",
    "final_x": "3680213.14005",
    "final_y": "551290.050645",
    "longitude": "-90.071446269926",
    "latitude": "30.009895434646964",
    "geocoded_column": {
      "latitude": "30.009895434646964",
      "longitude": "-90.071446269926"
    }
  },
  {
    "service_request": "2026-1290970",
    "request_type": "Roads and Streets",
    "request_reason": "Push-up/Pavement Expansion",
    "date_created": "2026-06-15T18:48:37.000",
    "date_modified": "2026-06-15T18:48:39.000",
    "request_status": "Pending",
    "responsible_agency": "Department of Public Works",
    "final_address": "100 Iberville St",
    "address_councildis": "C",
    "status": "Pending",
    "rowid": "1290970",
    "final_x": "3682746.02844",
    "final_y": "529908.779201",
    "longitude": "-90.06419216785",
    "latitude": "29.951027481006758",
    "geocoded_column": {
      "latitude": "29.951027481006758",
      "longitude": "-90.06419216785"
    }
  },
  {
    "service_request": "2026-1290969",
    "request_type": "Trash/Recycling",
    "request_reason": "Replace Trash Cart",
    "date_created": "2026-06-15T18:32:42.000",
    "date_modified": "2026-06-15T18:32:44.000",
    "request_status": "Pending",
    "responsible_agency": "Department of Sanitation",
    "final_address": "5740 Red Maple Dr",
    "address_councildis": "E",
    "status": "Assigned to Contractor",
    "contractor": "Waste Pro",
    "rowid": "1290969",
    "final_x": "3723251.65017",
    "final_y": "564803.04285",
    "longitude": "-89.93495290616566",
    "latitude": "30.045677215629084",
    "geocoded_column": {
      "latitude": "30.045677215629084",
      "longitude": "-89.93495290616566"
    }
  },
  {
    "service_request": "2026-1290968",
    "request_type": "Trash/Recycling",
    "request_reason": "Request a Large Item Pick Up",
    "date_created": "2026-06-15T18:27:15.000",
    "date_modified": "2026-06-15T18:27:17.000",
    "request_status": "Pending",
    "responsible_agency": "Department of Sanitation",
    "final_address": "6027 St Roch Ave",
    "address_councildis": "D",
    "status": "Assigned to Contractor",
    "contractor": "IV Waste",
    "rowid": "1290968",
    "final_x": "3685062.77564",
    "final_y": "555288.907801",
    "longitude": "-90.05598370424273",
    "latitude": "30.02074308229806",
    "geocoded_column": {
      "latitude": "30.02074308229806",
      "longitude": "-90.05598370424273"
    }
  },
  {
    "service_request": "2026-1290967",
    "request_type": "Abandoned Vehicles",
    "request_reason": "Abandoned/Junk Vehicles",
    "date_created": "2026-06-15T18:24:39.000",
    "date_modified": "2026-06-15T18:24:42.000",
    "request_status": "Pending",
    "responsible_agency": "Department of Public Works",
    "final_address": "1816 Felicity St",
    "address_councildis": "B",
    "status": "Pending",
    "rowid": "1290967",
    "final_x": "3677745.39355",
    "final_y": "525243.360509",
    "longitude": "-90.0801427840066",
    "latitude": "29.93835047740258",
    "geocoded_column": {
      "latitude": "29.93835047740258",
      "longitude": "-90.0801427840066"
    }
  },
  {
    "service_request": "2026-1290966",
    "request_type": "Trash/Recycling",
    "request_reason": "Request a Large Item Pick Up",
    "date_created": "2026-06-15T18:19:52.000",
    "date_modified": "2026-06-15T18:19:54.000",
    "request_status": "Pending",
    "responsible_agency": "Department of Sanitation",
    "final_address": "7426 Panola St",
    "address_councildis": "A",
    "status": "Assigned to Contractor",
    "contractor": "IV Waste",
    "rowid": "1290966",
    "final_x": "3665264.05658",
    "final_y": "529580.906945",
    "longitude": "-90.11940266695348",
    "latitude": "29.95064678224552",
    "geocoded_column": {
      "latitude": "29.95064678224552",
      "longitude": "-90.11940266695348"
    }
  },
  {
    "service_request": "2026-1290965",
    "request_type": "Roads and Streets",
    "request_reason": "Street Subsidence (Sinking)",
    "date_created": "2026-06-15T18:15:06.000",
    "date_modified": "2026-06-15T18:15:09.000",
    "request_status": "Pending",
    "responsible_agency": "Sewerage & Water Board",
    "final_address": "1450 Annunciation St",
    "address_councildis": "B",
    "status": "Pending",
    "rowid": "1290965",
    "final_x": "3681202.58511",
    "final_y": "524165.85126",
    "longitude": "-90.06926562769443",
    "latitude": "29.935283264416018",
    "geocoded_column": {
      "latitude": "29.935283264416018",
      "longitude": "-90.06926562769443"
    }
  },
  {
    "service_request": "2026-1290964",
    "request_type": "Trash/Recycling",
    "request_reason": "Order Recycling Cart",
    "date_created": "2026-06-15T18:05:54.000",
    "date_modified": "2026-06-15T18:05:56.000",
    "request_status": "Pending",
    "responsible_agency": "Department of Sanitation",
    "final_address": "4601 New Orleans St",
    "address_councildis": "D",
    "status": "Pending",
    "rowid": "1290964",
    "final_x": "3681388.96143",
    "final_y": "549401.707859",
    "longitude": "-90.06779731851293",
    "latitude": "30.00466751408534",
    "geocoded_column": {
      "latitude": "30.00466751408534",
      "longitude": "-90.06779731851293"
    }
  },
  {
    "service_request": "2026-1290963",
    "request_type": "Trash/Recycling",
    "request_reason": "Replace Trash Cart",
    "date_created": "2026-06-15T18:03:54.000",
    "date_modified": "2026-06-15T18:03:55.000",
    "request_status": "Pending",
    "responsible_agency": "Department of Sanitation",
    "final_address": "916 Dumaine St",
    "address_councildis": "C",
    "status": "Assigned to Contractor",
    "contractor": "IV Waste",
    "rowid": "1290963",
    "final_x": "3682282.05775",
    "final_y": "533566.983685",
    "longitude": "-90.06552935085142",
    "latitude": "29.961100421983584",
    "geocoded_column": {
      "latitude": "29.961100421983584",
      "longitude": "-90.06552935085142"
    }
  },
  {
    "service_request": "2026-1290962",
    "request_type": "Trash/Recycling",
    "request_reason": "Replace Trash Cart",
    "date_created": "2026-06-15T17:54:45.000",
    "date_modified": "2026-06-15T17:54:47.000",
    "request_status": "Pending",
    "responsible_agency": "Department of Sanitation",
    "final_address": "4031 DHemecourt St",
    "address_councildis": "A",
    "status": "Assigned to Contractor",
    "contractor": "IV Waste",
    "rowid": "1290962",
    "final_x": "3670020.08225",
    "final_y": "536712.930311",
    "longitude": "-90.10414396572581",
    "latitude": "29.970118079365157",
    "geocoded_column": {
      "latitude": "29.970118079365157",
      "longitude": "-90.10414396572581"
    }
  },
  {
    "service_request": "2026-1290961",
    "request_type": "Trash/Recycling",
    "request_reason": "Replace Trash Cart",
    "date_created": "2026-06-15T17:54:28.000",
    "date_modified": "2026-06-15T17:54:29.000",
    "request_status": "Pending",
    "responsible_agency": "Department of Sanitation",
    "final_address": "3039 De Soto St",
    "address_councildis": "A",
    "status": "Assigned to Contractor",
    "contractor": "IV Waste",
    "rowid": "1290961",
    "final_x": "3676494.64315",
    "final_y": "539869.03265",
    "longitude": "-90.08358790990596",
    "latitude": "29.978603713951046",
    "geocoded_column": {
      "latitude": "29.978603713951046",
      "longitude": "-90.08358790990596"
    }
  },
  {
    "service_request": "2026-1290960",
    "request_type": "Trash/Recycling",
    "request_reason": "Replace Trash Cart",
    "date_created": "2026-06-15T17:54:11.000",
    "date_modified": "2026-06-15T17:54:13.000",
    "request_status": "Pending",
    "responsible_agency": "Department of Sanitation",
    "final_address": "3822 Banks St",
    "address_councildis": "B",
    "status": "Assigned to Contractor",
    "contractor": "IV Waste",
    "rowid": "1290960",
    "final_x": "3671139.42619",
    "final_y": "536718.325127",
    "longitude": "-90.10060877083977",
    "latitude": "29.970099848856513",
    "geocoded_column": {
      "latitude": "29.970099848856513",
      "longitude": "-90.10060877083977"
    }
  },
  {
    "service_request": "2026-1290958",
    "request_type": "Trash/Recycling",
    "request_reason": "Missed Trash Pick-Up",
    "date_created": "2026-06-15T17:49:23.000",
    "date_modified": "2026-06-15T17:49:25.000",
    "request_status": "Pending",
    "responsible_agency": "Department of Sanitation",
    "final_address": "4031 DHemecourt St",
    "address_councildis": "A",
    "status": "Assigned to Contractor",
    "contractor": "IV Waste",
    "rowid": "1290958",
    "final_x": "3670020.08225",
    "final_y": "536712.930311",
    "longitude": "-90.10414396572581",
    "latitude": "29.970118079365157",
    "geocoded_column": {
      "latitude": "29.970118079365157",
      "longitude": "-90.10414396572581"
    }
  },
  {
    "service_request": "2026-1290957",
    "request_type": "Traffic Safety",
    "request_reason": "Request for Traffic Calming due to Speeding",
    "date_created": "2026-06-15T17:47:18.000",
    "date_modified": "2026-06-15T17:47:19.000",
    "request_status": "Pending",
    "responsible_agency": "Department of Public Works",
    "final_address": "2803 St Claude Ave",
    "address_councildis": "C",
    "status": "Pending",
    "rowid": "1290957",
    "final_x": "3687788.21878",
    "final_y": "536408.705671",
    "longitude": "-90.04804128887216",
    "latitude": "29.968745504030355",
    "geocoded_column": {
      "latitude": "29.968745504030355",
      "longitude": "-90.04804128887216"
    }
  },
  {
    "service_request": "2026-1290956",
    "request_type": "General Services",
    "request_reason": "General Service Request",
    "date_created": "2026-06-15T17:44:09.000",
    "date_modified": "2026-06-15T17:44:11.000",
    "request_status": "Pending",
    "responsible_agency": "Orleans Parish Communication District",
    "final_address": "1524 Euterpe St Unit B",
    "address_councildis": "B",
    "status": "Pending",
    "rowid": "1290956",
    "final_x": "3679097.3901",
    "final_y": "524811.249404",
    "longitude": "-90.07588936982964",
    "latitude": "29.937121587108116",
    "geocoded_column": {
      "latitude": "29.937121587108116",
      "longitude": "-90.07588936982964"
    }
  },
  {
    "service_request": "2026-1290955",
    "request_type": "Safety & Permits",
    "request_reason": "Licenses & Permits",
    "date_created": "2026-06-15T17:35:37.000",
    "date_modified": "2026-06-15T17:35:38.000",
    "request_status": "Pending",
    "responsible_agency": "Safety and Permits",
    "final_address": "2300 BLK Philip St",
    "address_councildis": "B",
    "status": "Pending",
    "rowid": "1290955",
    "final_x": "3675538.95433",
    "final_y": "525769.755663",
    "longitude": "-90.087090660429",
    "latitude": "29.93986406076716",
    "geocoded_column": {
      "latitude": "29.93986406076716",
      "longitude": "-90.087090660429"
    }
  },
  {
    "service_request": "2026-1290954",
    "request_type": "Trash/Recycling",
    "request_reason": "Return Trash Cart",
    "date_created": "2026-06-15T17:35:27.000",
    "date_modified": "2026-06-15T17:35:30.000",
    "request_status": "Pending",
    "responsible_agency": "Department of Sanitation",
    "final_address": "1916 Dumaine St",
    "address_councildis": "C",
    "status": "Assigned to Contractor",
    "contractor": "IV Waste",
    "rowid": "1290954",
    "final_x": "3679474.96411",
    "final_y": "535673.123335",
    "longitude": "-90.07432056189478",
    "latitude": "29.9669766910577",
    "geocoded_column": {
      "latitude": "29.9669766910577",
      "longitude": "-90.07432056189478"
    }
  },
  {
    "service_request": "2026-1290953",
    "request_type": "Property Maintenance",
    "request_reason": "Property Maintenance",
    "date_created": "2026-06-15T17:28:19.000",
    "date_modified": "2026-06-15T17:28:20.000",
    "request_status": "Pending",
    "responsible_agency": "Department of Code Enforcement",
    "final_address": "5612 Hawthorne Pl",
    "address_councildis": "A",
    "status": "Pending",
    "rowid": "1290953",
    "final_x": "3667788.35476",
    "final_y": "544735.861455",
    "longitude": "-90.11092170963295",
    "latitude": "29.992244068560925",
    "geocoded_column": {
      "latitude": "29.992244068560925",
      "longitude": "-90.11092170963295"
    }
  },
  {
    "service_request": "2026-1290952",
    "request_type": "Trash/Recycling",
    "request_reason": "Order Second Trash Cart",
    "date_created": "2026-06-15T17:27:22.000",
    "date_modified": "2026-06-15T17:27:23.000",
    "request_status": "Pending",
    "responsible_agency": "Department of Sanitation",
    "final_address": "541 Emerald St",
    "address_councildis": "D",
    "status": "Assigned to Contractor",
    "contractor": "IV Waste",
    "rowid": "1290952",
    "final_x": "3668452.03662",
    "final_y": "555150.451033",
    "longitude": "-90.10847359907964",
    "latitude": "30.020861069891694",
    "geocoded_column": {
      "latitude": "30.020861069891694",
      "longitude": "-90.10847359907964"
    }
  },
  {
    "service_request": "2026-1290951",
    "request_type": "Trash/Recycling",
    "request_reason": "Request a Large Item Pick Up",
    "date_created": "2026-06-15T17:26:46.000",
    "date_modified": "2026-06-15T17:26:48.000",
    "request_status": "Pending",
    "responsible_agency": "Department of Sanitation",
    "final_address": "2318 Harmony St",
    "address_councildis": "B",
    "status": "Assigned to Contractor",
    "contractor": "IV Waste",
    "rowid": "1290951",
    "final_x": "3673625.88532",
    "final_y": "524199.719356",
    "longitude": "-90.09318415565782",
    "latitude": "29.935604046287786",
    "geocoded_column": {
      "latitude": "29.935604046287786",
      "longitude": "-90.09318415565782"
    }
  },
  {
    "service_request": "2026-1290950",
    "request_type": "Abandoned Vehicles",
    "request_reason": "Abandoned/Junk Vehicles",
    "date_created": "2026-06-15T17:26:31.000",
    "date_modified": "2026-06-15T17:26:32.000",
    "request_status": "Pending",
    "responsible_agency": "Department of Public Works",
    "final_address": "4612 Prentiss Ave",
    "address_councildis": "D",
    "status": "Pending",
    "rowid": "1290950",
    "final_x": "3690755.82851",
    "final_y": "554146.33884",
    "longitude": "-90.03803620667703",
    "latitude": "30.01742571093095",
    "geocoded_column": {
      "latitude": "30.01742571093095",
      "longitude": "-90.03803620667703"
    }
  },
  {
    "service_request": "2026-1290949",
    "request_type": "Drainage",
    "request_reason": "Catch Basin Not Draining",
    "date_created": "2026-06-15T17:16:37.000",
    "date_modified": "2026-06-15T17:16:39.000",
    "request_status": "Pending",
    "responsible_agency": "Sewerage & Water Board",
    "final_address": "1007 Sixth St",
    "address_councildis": "B",
    "status": "Pending",
    "rowid": "1290949",
    "final_x": "3676819.45384",
    "final_y": "520312.720504",
    "longitude": "-90.08323589680724",
    "latitude": "29.924820639247393",
    "geocoded_column": {
      "latitude": "29.924820639247393",
      "longitude": "-90.08323589680724"
    }
  },
  {
    "service_request": "2026-1290948",
    "request_type": "Trash/Recycling",
    "request_reason": "Repair Recycling Cart",
    "date_created": "2026-06-15T16:55:38.000",
    "date_modified": "2026-06-15T16:55:40.000",
    "request_status": "Pending",
    "responsible_agency": "Department of Sanitation",
    "final_address": "67 Yosemite Dr",
    "address_councildis": "C",
    "status": "Pending",
    "rowid": "1290948",
    "final_x": "3699538.6977",
    "final_y": "516458.169077",
    "longitude": "-90.01165954335063",
    "latitude": "29.91352084269502",
    "geocoded_column": {
      "latitude": "29.91352084269502",
      "longitude": "-90.01165954335063"
    }
  },
  {
    "service_request": "2026-1290947",
    "request_type": "Trash/Recycling",
    "request_reason": "Request a Large Item Pick Up",
    "date_created": "2026-06-15T16:52:23.000",
    "date_modified": "2026-06-15T16:52:26.000",
    "request_status": "Pending",
    "responsible_agency": "Department of Sanitation",
    "final_address": "627 N Hennessey St",
    "address_councildis": "A",
    "status": "Assigned to Contractor",
    "contractor": "IV Waste",
    "rowid": "1290947",
    "final_x": "3671479.93492",
    "final_y": "540590.092235",
    "longitude": "-90.09940173224462",
    "latitude": "29.980735820248103",
    "geocoded_column": {
      "latitude": "29.980735820248103",
      "longitude": "-90.09940173224462"
    }
  },
  {
    "service_request": "2026-1290946",
    "request_type": "Property Maintenance",
    "request_reason": "Property Maintenance",
    "date_created": "2026-06-15T16:51:28.000",
    "date_modified": "2026-06-15T16:51:31.000",
    "request_status": "Pending",
    "responsible_agency": "Department of Code Enforcement",
    "final_address": "3000 BLK Blair St",
    "address_councildis": "C",
    "status": "Pending",
    "rowid": "1290946",
    "final_x": "3709444.28416",
    "final_y": "518737.611919",
    "longitude": "-89.98030976027546",
    "latitude": "29.919470631981405",
    "geocoded_column": {
      "latitude": "29.919470631981405",
      "longitude": "-89.98030976027546"
    }
  },
  {
    "service_request": "2026-1290945",
    "request_type": "Abandoned Vehicles",
    "request_reason": "Abandoned/Junk Vehicles",
    "date_created": "2026-06-15T16:49:02.000",
    "date_modified": "2026-06-15T16:49:04.000",
    "request_status": "Pending",
    "responsible_agency": "Department of Public Works",
    "final_address": "2419 Carondelet St",
    "address_councildis": "B",
    "status": "Pending",
    "rowid": "1290945",
    "final_x": "3676554.22427",
    "final_y": "523452.236411",
    "longitude": "-90.08396508126619",
    "latitude": "29.93346124097848",
    "geocoded_column": {
      "latitude": "29.93346124097848",
      "longitude": "-90.08396508126619"
    }
  },
  {
    "service_request": "2026-1290944",
    "request_type": "Traffic Signals",
    "request_reason": "Traffic Signal Malfunctioning or Damaged",
    "date_created": "2026-06-15T16:47:46.000",
    "date_modified": "2026-06-15T16:47:48.000",
    "request_status": "Pending",
    "responsible_agency": "Department of Public Works",
    "final_address": "BROADWAY ST & EARHART BLVD",
    "address_councildis": "B",
    "status": "Pending",
    "rowid": "1290944",
    "final_x": "3668178.0",
    "final_y": "532499.98",
    "longitude": "-90.11010350528686",
    "latitude": "29.958588069648037",
    "geocoded_column": {
      "latitude": "29.958588069648037",
      "longitude": "-90.11010350528686"
    }
  },
  {
    "service_request": "2026-1290943",
    "request_type": "Trash/Recycling",
    "request_reason": "Request a Large Item Pick Up",
    "date_created": "2026-06-15T16:46:55.000",
    "date_modified": "2026-06-15T16:46:56.000",
    "request_status": "Pending",
    "responsible_agency": "Department of Sanitation",
    "final_address": "3518 Laurel St",
    "address_councildis": "B",
    "status": "Assigned to Contractor",
    "contractor": "IV Waste",
    "rowid": "1290943",
    "final_x": "3674547.14228",
    "final_y": "518605.899959",
    "longitude": "-90.09046728470027",
    "latitude": "29.920195401502657",
    "geocoded_column": {
      "latitude": "29.920195401502657",
      "longitude": "-90.09046728470027"
    }
  },
  {
    "service_request": "2026-1290942",
    "request_type": "Property Maintenance",
    "request_reason": "Property Maintenance",
    "date_created": "2026-06-15T16:46:33.000",
    "date_modified": "2026-06-15T16:47:12.000",
    "request_status": "Pending",
    "responsible_agency": "Department of Code Enforcement",
    "final_address": "5022 Burgundy St",
    "address_councildis": "E",
    "status": "Pending",
    "rowid": "1290942",
    "final_x": "3695941.83107",
    "final_y": "533412.04794",
    "longitude": "-90.02240010250043",
    "latitude": "29.960251758112822",
    "geocoded_column": {
      "latitude": "29.960251758112822",
      "longitude": "-90.02240010250043"
    }
  },
  {
    "service_request": "2026-1290941",
    "request_type": "Streetlights",
    "request_reason": "Streetlight Outage/Malfunction",
    "date_created": "2026-06-15T16:46:07.000",
    "date_modified": "2026-06-15T16:46:09.000",
    "request_status": "Pending",
    "responsible_agency": "Department of Public Works",
    "final_address": "3124 Pittari Pl",
    "address_councildis": "C",
    "status": "Pending",
    "rowid": "1290941",
    "final_x": "3709795.08216",
    "final_y": "519183.537207",
    "longitude": "-89.97918584242291",
    "latitude": "29.92068537569112",
    "geocoded_column": {
      "latitude": "29.92068537569112",
      "longitude": "-89.97918584242291"
    }
  },
  {
    "service_request": "2026-1290940",
    "request_type": "Parks & Grass Service",
    "request_reason": "Request Grass Cutting Service (City Owned Property)",
    "date_created": "2026-06-15T16:42:03.000",
    "date_modified": "2026-06-15T16:42:04.000",
    "request_status": "Pending",
    "responsible_agency": "Department of Parks & Parkways",
    "final_address": "3000 BLK Blair St",
    "address_councildis": "C",
    "status": "Pending",
    "rowid": "1290940",
    "final_x": "3709444.28416",
    "final_y": "518737.611919",
    "longitude": "-89.98030976027546",
    "latitude": "29.919470631981405",
    "geocoded_column": {
      "latitude": "29.919470631981405",
      "longitude": "-89.98030976027546"
    }
  },
  {
    "service_request": "2026-1290939",
    "request_type": "Trash/Recycling",
    "request_reason": "Request a Large Item Pick Up",
    "date_created": "2026-06-15T16:40:08.000",
    "date_modified": "2026-06-15T16:40:10.000",
    "request_status": "Pending",
    "responsible_agency": "Department of Sanitation",
    "final_address": "6215 Laurel St",
    "address_councildis": "A",
    "status": "Assigned to Contractor",
    "contractor": "IV Waste",
    "rowid": "1290939",
    "final_x": "3663315.2041",
    "final_y": "518672.318583",
    "longitude": "-90.12591911823195",
    "latitude": "29.920708247836107",
    "geocoded_column": {
      "latitude": "29.920708247836107",
      "longitude": "-90.12591911823195"
    }
  },
  {
    "service_request": "2026-1290938",
    "request_type": "Parks & Grass Service",
    "request_reason": "Request Grass Cutting Service (City Owned Property)",
    "date_created": "2026-06-15T16:37:56.000",
    "date_modified": "2026-06-15T16:37:58.000",
    "request_status": "Pending",
    "responsible_agency": "Department of Parks & Parkways",
    "final_address": "3424 Sullen Pl",
    "address_councildis": "C",
    "status": "Pending",
    "rowid": "1290938",
    "final_x": "3707753.13707",
    "final_y": "518125.126006",
    "longitude": "-89.98567055738548",
    "latitude": "29.917841309586105",
    "geocoded_column": {
      "latitude": "29.917841309586105",
      "longitude": "-89.98567055738548"
    }
  },
  {
    "service_request": "2026-1290937",
    "request_type": "Parks & Grass Service",
    "request_reason": "Request Grass Cutting Service (City Owned Property)",
    "date_created": "2026-06-15T16:36:29.000",
    "date_modified": "2026-06-15T16:36:31.000",
    "request_status": "Pending",
    "responsible_agency": "Department of Parks & Parkways",
    "final_address": "POYDRAS ST & CAMP ST",
    "address_councildis": "B",
    "status": "Pending",
    "rowid": "1290937",
    "final_x": "3681126.1",
    "final_y": "529304.08",
    "longitude": "-90.06932814891445",
    "latitude": "29.949413998119116",
    "geocoded_column": {
      "latitude": "29.949413998119116",
      "longitude": "-90.06932814891445"
    }
  },
  {
    "service_request": "2026-1290936",
    "request_type": "Trash/Recycling",
    "request_reason": "Change Size of Trash Cart",
    "date_created": "2026-06-15T16:34:59.000",
    "date_modified": "2026-06-15T16:35:02.000",
    "request_status": "Pending",
    "responsible_agency": "Department of Sanitation",
    "final_address": "715 Antonine St",
    "address_councildis": "B",
    "status": "Assigned to Contractor",
    "contractor": "IV Waste",
    "rowid": "1290936",
    "final_x": "3674355.43291",
    "final_y": "517941.82655",
    "longitude": "-90.09109514579909",
    "latitude": "29.918375128380973",
    "geocoded_column": {
      "latitude": "29.918375128380973",
      "longitude": "-90.09109514579909"
    }
  },
  {
    "service_request": "2026-1290935",
    "request_type": "Trash/Recycling",
    "request_reason": "Order Recycling Cart",
    "date_created": "2026-06-15T16:33:52.000",
    "date_modified": "2026-06-15T16:33:53.000",
    "request_status": "Pending",
    "responsible_agency": "Department of Sanitation",
    "final_address": "2220 Nashville Ave",
    "address_councildis": "A",
    "status": "Pending",
    "rowid": "1290935",
    "final_x": "3666857.48455",
    "final_y": "524448.91174",
    "longitude": "-90.1145437796419",
    "latitude": "29.936488936950813",
    "geocoded_column": {
      "latitude": "29.936488936950813",
      "longitude": "-90.1145437796419"
    }
  },
  {
    "service_request": "2026-1290934",
    "request_type": "Roads and Streets",
    "request_reason": "Debris in Driving Lanes",
    "date_created": "2026-06-15T16:33:00.000",
    "date_modified": "2026-06-15T16:33:02.000",
    "request_status": "Pending",
    "responsible_agency": "Department of Public Works",
    "final_address": "1725 Foucher St",
    "address_councildis": "B",
    "status": "Pending",
    "rowid": "1290934",
    "final_x": "3673313.19131",
    "final_y": "521898.361914",
    "longitude": "-90.09424990211004",
    "latitude": "29.92928536028441",
    "geocoded_column": {
      "latitude": "29.92928536028441",
      "longitude": "-90.09424990211004"
    }
  },
  {
    "service_request": "2026-1290933",
    "request_type": "Trash/Recycling",
    "request_reason": "Replace Trash Cart",
    "date_created": "2026-06-15T16:28:50.000",
    "date_modified": "2026-06-15T16:28:51.000",
    "request_status": "Pending",
    "responsible_agency": "Department of Sanitation",
    "final_address": "8427 Sycamore St",
    "address_councildis": "A",
    "status": "Assigned to Contractor",
    "contractor": "IV Waste",
    "rowid": "1290933",
    "final_x": "3663385.61095",
    "final_y": "531876.767235",
    "longitude": "-90.12525743251047",
    "latitude": "29.957014241659277",
    "geocoded_column": {
      "latitude": "29.957014241659277",
      "longitude": "-90.12525743251047"
    }
  },
  {
    "service_request": "2026-1290932",
    "request_type": "Trash/Recycling",
    "request_reason": "Request a Large Item Pick Up",
    "date_created": "2026-06-15T16:24:52.000",
    "date_modified": "2026-06-15T16:24:53.000",
    "request_status": "Pending",
    "responsible_agency": "Department of Sanitation",
    "final_address": "714 Topaz St",
    "address_councildis": "D",
    "status": "Assigned to Contractor",
    "contractor": "IV Waste",
    "rowid": "1290932",
    "final_x": "3669815.16257",
    "final_y": "556361.307738",
    "longitude": "-90.1041254617434",
    "latitude": "30.024150357313196",
    "geocoded_column": {
      "latitude": "30.024150357313196",
      "longitude": "-90.1041254617434"
    }
  },
  {
    "service_request": "2026-1290931",
    "request_type": "Trash/Recycling",
    "request_reason": "Replace Trash Cart",
    "date_created": "2026-06-15T16:18:57.000",
    "date_modified": "2026-06-15T16:18:58.000",
    "request_status": "Pending",
    "responsible_agency": "Department of Sanitation",
    "final_address": "2719 Burgundy St",
    "address_councildis": "C",
    "status": "Assigned to Contractor",
    "contractor": "IV Waste",
    "rowid": "1290931",
    "final_x": "3687378.99375",
    "final_y": "535593.660038",
    "longitude": "-90.04936248501132",
    "latitude": "29.96651702815169",
    "geocoded_column": {
      "latitude": "29.96651702815169",
      "longitude": "-90.04936248501132"
    }
  },
  {
    "service_request": "2026-1290930",
    "request_type": "Streetlights",
    "request_reason": "Streetlight Outage/Malfunction",
    "date_created": "2026-06-15T16:16:28.000",
    "date_modified": "2026-06-15T16:16:29.000",
    "request_status": "Pending",
    "responsible_agency": "Department of Public Works",
    "final_address": "CLEMATIS AVE & MONTPELIER ST & LAVENDER ST",
    "address_councildis": "D",
    "status": "Pending",
    "rowid": "1290930",
    "final_x": "3685905.8",
    "final_y": "546862.78",
    "longitude": "-90.05361734788968",
    "latitude": "29.9975484353928",
    "geocoded_column": {
      "latitude": "29.9975484353928",
      "longitude": "-90.05361734788968"
    }
  },
  {
    "service_request": "2026-1290929",
    "request_type": "Trash/Recycling",
    "request_reason": "Request a Large Item Pick Up",
    "date_created": "2026-06-15T16:15:57.000",
    "date_modified": "2026-06-15T16:15:58.000",
    "request_status": "Pending",
    "responsible_agency": "Department of Sanitation",
    "final_address": "44 Marywood Ct",
    "address_councildis": "E",
    "status": "Assigned to Contractor",
    "contractor": "Waste Pro",
    "rowid": "1290929",
    "final_x": "3712233.94373",
    "final_y": "567025.747748",
    "longitude": "-89.96969035871096",
    "latitude": "30.052153862366005",
    "geocoded_column": {
      "latitude": "30.052153862366005",
      "longitude": "-89.96969035871096"
    }
  },
  {
    "service_request": "2026-1290928",
    "request_type": "Trash/Recycling",
    "request_reason": "Start Trash Service",
    "date_created": "2026-06-15T16:15:17.000",
    "date_modified": "2026-06-15T16:15:19.000",
    "request_status": "Pending",
    "responsible_agency": "Department of Sanitation",
    "final_address": "3231 Behrman Hwy",
    "address_councildis": "C",
    "status": "Assigned to Contractor",
    "contractor": "Richards Disposal",
    "rowid": "1290928",
    "final_x": "3695169.84406",
    "final_y": "518460.967734",
    "longitude": "-90.02537678381624",
    "latitude": "29.919165705920566",
    "geocoded_column": {
      "latitude": "29.919165705920566",
      "longitude": "-90.02537678381624"
    }
  },
  {
    "service_request": "2026-1290927",
    "request_type": "Roads and Streets",
    "request_reason": "Debris in Driving Lanes",
    "date_created": "2026-06-15T16:14:52.000",
    "date_modified": "2026-06-15T16:14:55.000",
    "request_status": "Pending",
    "responsible_agency": "Department of Public Works",
    "final_address": "Marconi Drive & Navarre Street",
    "address_councildis": "A",
    "status": "Pending",
    "rowid": "1290927",
    "final_x": "3670764.74401",
    "final_y": "543627.618894",
    "longitude": "-90.10155749093819",
    "latitude": "29.98910913789316",
    "geocoded_column": {
      "latitude": "29.98910913789316",
      "longitude": "-90.10155749093819"
    }
  },
  {
    "service_request": "2026-1290926",
    "request_type": "Streetlights",
    "request_reason": "New Streetlight Request",
    "date_created": "2026-06-15T16:11:53.000",
    "date_modified": "2026-06-15T16:11:54.000",
    "request_status": "Pending",
    "responsible_agency": "Department of Public Works",
    "final_address": "500 BLK Reynes St",
    "address_councildis": "E",
    "status": "Pending",
    "rowid": "1290926",
    "final_x": "3695411.02974",
    "final_y": "532294.137299",
    "longitude": "-90.02411658799788",
    "latitude": "29.957194584960472",
    "geocoded_column": {
      "latitude": "29.957194584960472",
      "longitude": "-90.02411658799788"
    }
  },
  {
    "service_request": "2026-1290925",
    "request_type": "Trash/Recycling",
    "request_reason": "Request a Large Item Pick Up",
    "date_created": "2026-06-15T16:09:58.000",
    "date_modified": "2026-06-15T16:10:00.000",
    "request_status": "Pending",
    "responsible_agency": "Department of Sanitation",
    "final_address": "2420 Behrman Hwy",
    "address_councildis": "C",
    "status": "Assigned to Contractor",
    "contractor": "Richards Disposal",
    "rowid": "1290925",
    "final_x": "3692048.57161",
    "final_y": "521488.831161",
    "longitude": "-90.0351207292212",
    "latitude": "29.927588910951254",
    "geocoded_column": {
      "latitude": "29.927588910951254",
      "longitude": "-90.0351207292212"
    }
  },
  {
    "service_request": "2026-1290924",
    "request_type": "Trash/Recycling",
    "request_reason": "Request a Large Item Pick Up",
    "date_created": "2026-06-15T16:08:32.000",
    "date_modified": "2026-06-15T16:08:33.000",
    "request_status": "Pending",
    "responsible_agency": "Department of Sanitation",
    "final_address": "3022 Jackson Ave",
    "address_councildis": "B",
    "status": "Assigned to Contractor",
    "contractor": "IV Waste",
    "rowid": "1290924",
    "final_x": "3674172.98683",
    "final_y": "528101.694015",
    "longitude": "-90.09132342308467",
    "latitude": "29.94631690560364",
    "geocoded_column": {
      "latitude": "29.94631690560364",
      "longitude": "-90.09132342308467"
    }
  },
  {
    "service_request": "2026-1290923",
    "request_type": "Roads and Streets",
    "request_reason": "Sidewalk Damaged or Missing",
    "date_created": "2026-06-15T16:07:32.000",
    "date_modified": "2026-06-15T16:07:33.000",
    "request_status": "Pending",
    "responsible_agency": "Department of Public Works",
    "final_address": "515 Reynes St",
    "address_councildis": "E",
    "status": "Pending",
    "rowid": "1290923",
    "final_x": "3695429.06384",
    "final_y": "532267.839555",
    "longitude": "-90.02406059096158",
    "latitude": "29.957121708818857",
    "geocoded_column": {
      "latitude": "29.957121708818857",
      "longitude": "-90.02406059096158"
    }
  },
  {
    "service_request": "2026-1290922",
    "request_type": "Trash/Recycling",
    "request_reason": "Request a Large Item Pick Up",
    "date_created": "2026-06-15T16:07:08.000",
    "date_modified": "2026-06-15T16:07:10.000",
    "request_status": "Pending",
    "responsible_agency": "Department of Sanitation",
    "final_address": "5406 Provincial Pl",
    "address_councildis": "E",
    "status": "Assigned to Contractor",
    "contractor": "Waste Pro",
    "rowid": "1290922",
    "final_x": "3726202.78438",
    "final_y": "564015.491489",
    "longitude": "-89.92565657724954",
    "latitude": "30.043412418027142",
    "geocoded_column": {
      "latitude": "30.043412418027142",
      "longitude": "-89.92565657724954"
    }
  },
  {
    "service_request": "2026-1290921",
    "request_type": "Trash/Recycling",
    "request_reason": "Repair Recycling Cart",
    "date_created": "2026-06-15T16:06:12.000",
    "date_modified": "2026-06-15T16:06:13.000",
    "request_status": "Pending",
    "responsible_agency": "Department of Sanitation",
    "final_address": "1662 Nie Prkwy",
    "address_councildis": "C",
    "status": "Pending",
    "rowid": "1290921",
    "final_x": "3701267.53405",
    "final_y": "524632.22918",
    "longitude": "-90.00590394846715",
    "latitude": "29.93594174560895",
    "geocoded_column": {
      "latitude": "29.93594174560895",
      "longitude": "-90.00590394846715"
    }
  },
  {
    "service_request": "2026-1290920",
    "request_type": "Street and Traffic Signs",
    "request_reason": "One Way Sign Missing or Damaged",
    "date_created": "2026-06-15T16:05:40.000",
    "date_modified": "2026-06-15T16:05:42.000",
    "request_status": "Pending",
    "responsible_agency": "Department of Public Works",
    "final_address": "N SOLOMON ST & TOULOUSE ST",
    "address_councildis": "A",
    "status": "Pending",
    "rowid": "1290920",
    "final_x": "3671671.8",
    "final_y": "540154.68",
    "longitude": "-90.09881055336874",
    "latitude": "29.97953290231733",
    "geocoded_column": {
      "latitude": "29.97953290231733",
      "longitude": "-90.09881055336874"
    }
  },
  {
    "service_request": "2026-1290919",
    "request_type": "Property Maintenance",
    "request_reason": "Property Maintenance",
    "date_created": "2026-06-15T16:04:19.000",
    "date_modified": "2026-06-15T16:04:22.000",
    "request_status": "Pending",
    "responsible_agency": "Department of Code Enforcement",
    "final_address": "2325 Seminole Ln",
    "address_councildis": "B",
    "status": "Pending",
    "rowid": "1290919",
    "final_x": "3673769.72571",
    "final_y": "528269.845312",
    "longitude": "-90.0925909126147",
    "latitude": "29.94679127911618",
    "geocoded_column": {
      "latitude": "29.94679127911618",
      "longitude": "-90.0925909126147"
    }
  },
  {
    "service_request": "2026-1290918",
    "request_type": "Tree Service",
    "request_reason": "Blocking Stop Sign or Traffic Signal",
    "date_created": "2026-06-15T16:00:57.000",
    "date_modified": "2026-06-15T16:00:59.000",
    "request_status": "Pending",
    "responsible_agency": "Department of Parks & Parkways",
    "final_address": "N ALEXANDER ST & ORLEANS AVE",
    "address_councildis": "A",
    "status": "Pending",
    "rowid": "1290918",
    "final_x": "3671470.7",
    "final_y": "541120.78",
    "longitude": "-90.09941285033739",
    "latitude": "29.982195304070284",
    "geocoded_column": {
      "latitude": "29.982195304070284",
      "longitude": "-90.09941285033739"
    }
  },
  {
    "service_request": "2026-1290917",
    "request_type": "Tree Service",
    "request_reason": "Tree Trim",
    "date_created": "2026-06-15T15:59:30.000",
    "date_modified": "2026-06-15T15:59:32.000",
    "request_status": "Pending",
    "responsible_agency": "Department of Parks & Parkways",
    "final_address": "5403 Marigny St",
    "address_councildis": "D",
    "status": "Pending",
    "rowid": "1290917",
    "final_x": "3684135.88873",
    "final_y": "552747.647574",
    "longitude": "-90.05900169027822",
    "latitude": "30.01378392674075",
    "geocoded_column": {
      "latitude": "30.01378392674075",
      "longitude": "-90.05900169027822"
    }
  },
  {
    "service_request": "2026-1290916",
    "request_type": "Trash/Recycling",
    "request_reason": "Request a Large Item Pick Up",
    "date_created": "2026-06-15T15:59:09.000",
    "date_modified": "2026-06-15T15:59:10.000",
    "request_status": "Pending",
    "responsible_agency": "Department of Sanitation",
    "final_address": "1816 Lizardi St",
    "address_councildis": "E",
    "status": "Assigned to Contractor",
    "contractor": "Waste Pro",
    "rowid": "1290916",
    "final_x": "3697262.28752",
    "final_y": "536904.08372",
    "longitude": "-90.01810382888874",
    "latitude": "29.96981200723804",
    "geocoded_column": {
      "latitude": "29.96981200723804",
      "longitude": "-90.01810382888874"
    }
  },
  {
    "service_request": "2026-1290915",
    "request_type": "Trash/Recycling",
    "request_reason": "Request a Large Item Pick Up",
    "date_created": "2026-06-15T15:58:47.000",
    "date_modified": "2026-06-15T15:58:49.000",
    "request_status": "Pending",
    "responsible_agency": "Department of Sanitation",
    "final_address": "1701 Patterson St",
    "address_councildis": "C",
    "status": "Assigned to Contractor",
    "contractor": "Richards Disposal",
    "rowid": "1290915",
    "final_x": "3690703.06659",
    "final_y": "530866.346818",
    "longitude": "-90.03903376761411",
    "latitude": "29.95341572712131",
    "geocoded_column": {
      "latitude": "29.95341572712131",
      "longitude": "-90.03903376761411"
    }
  },
  {
    "service_request": "2026-1290914",
    "request_type": "Trash/Recycling",
    "request_reason": "Request a Large Item Pick Up",
    "date_created": "2026-06-15T15:58:20.000",
    "date_modified": "2026-06-15T15:58:22.000",
    "request_status": "Pending",
    "responsible_agency": "Department of Sanitation",
    "final_address": "2420 Adams St",
    "address_councildis": "A",
    "status": "Assigned to Contractor",
    "contractor": "IV Waste",
    "rowid": "1290914",
    "final_x": "3666069.77076",
    "final_y": "530744.478658",
    "longitude": "-90.11681961968596",
    "latitude": "29.953822730533176",
    "geocoded_column": {
      "latitude": "29.953822730533176",
      "longitude": "-90.11681961968596"
    }
  },
  {
    "service_request": "2026-1290913",
    "request_type": "Abandoned Vehicles",
    "request_reason": "Abandoned/Junk Vehicles",
    "date_created": "2026-06-15T15:58:19.000",
    "date_modified": "2026-06-15T15:58:59.000",
    "request_status": "Pending",
    "responsible_agency": "Department of Public Works",
    "final_address": "5400 BLK N Miro St",
    "address_councildis": "E",
    "status": "Inspected",
    "rowid": "1290913",
    "final_x": "3698674.87755",
    "final_y": "537994.31061",
    "longitude": "-90.01360310985558",
    "latitude": "29.97276507998601",
    "geocoded_column": {
      "latitude": "29.97276507998601",
      "longitude": "-90.01360310985558"
    }
  },
  {
    "service_request": "2026-1290912",
    "request_type": "Trash/Recycling",
    "request_reason": "Repair Recycling Cart",
    "date_created": "2026-06-15T15:57:26.000",
    "date_modified": "2026-06-15T15:57:28.000",
    "request_status": "Pending",
    "responsible_agency": "Department of Sanitation",
    "final_address": "8407 Oleander St",
    "address_councildis": "A",
    "status": "Pending",
    "rowid": "1290912",
    "final_x": "3665950.8896",
    "final_y": "534458.038725",
    "longitude": "-90.11707053308552",
    "latitude": "29.964037273895848",
    "geocoded_column": {
      "latitude": "29.964037273895848",
      "longitude": "-90.11707053308552"
    }
  },
  {
    "service_request": "2026-1290911",
    "request_type": "Trash/Recycling",
    "request_reason": "MIssed Recycling Pick-Up",
    "date_created": "2026-06-15T15:56:09.000",
    "date_modified": "2026-06-15T15:56:11.000",
    "request_status": "Pending",
    "responsible_agency": "Department of Sanitation",
    "final_address": "7101 Edgefield Dr",
    "address_councildis": "E",
    "status": "Assigned to Contractor",
    "contractor": "Waste Pro",
    "rowid": "1290911",
    "final_x": "3718555.95257",
    "final_y": "569568.310566",
    "longitude": "-89.9496115815747",
    "latitude": "30.058936468974547",
    "geocoded_column": {
      "latitude": "30.058936468974547",
      "longitude": "-89.9496115815747"
    }
  },
  {
    "service_request": "2026-1290910",
    "request_type": "Trash/Recycling",
    "request_reason": "Request a Large Item Pick Up",
    "date_created": "2026-06-15T15:54:28.000",
    "date_modified": "2026-06-15T15:54:29.000",
    "request_status": "Pending",
    "responsible_agency": "Department of Sanitation",
    "final_address": "13702 N Lemans St",
    "address_councildis": "E",
    "status": "Assigned to Contractor",
    "contractor": "Waste Pro",
    "rowid": "1290910",
    "final_x": "3726610.93395",
    "final_y": "563565.982176",
    "longitude": "-89.9243841395227",
    "latitude": "30.042162660958805",
    "geocoded_column": {
      "latitude": "30.042162660958805",
      "longitude": "-89.9243841395227"
    }
  },
  {
    "service_request": "2026-1290909",
    "request_type": "Trash/Recycling",
    "request_reason": "Request a Large Item Pick Up",
    "date_created": "2026-06-15T15:52:51.000",
    "date_modified": "2026-06-15T15:52:52.000",
    "request_status": "Pending",
    "responsible_agency": "Department of Sanitation",
    "final_address": "5126 E Nemours St",
    "address_councildis": "E",
    "status": "Assigned to Contractor",
    "contractor": "Waste Pro",
    "rowid": "1290909",
    "final_x": "3726959.19929",
    "final_y": "562908.38832",
    "longitude": "-89.92330907796466",
    "latitude": "30.040342771574252",
    "geocoded_column": {
      "latitude": "30.040342771574252",
      "longitude": "-89.92330907796466"
    }
  },
  {
    "service_request": "2026-1290908",
    "request_type": "Trash/Recycling",
    "request_reason": "Request a Large Item Pick Up",
    "date_created": "2026-06-15T15:51:22.000",
    "date_modified": "2026-06-15T15:51:25.000",
    "request_status": "Pending",
    "responsible_agency": "Department of Sanitation",
    "final_address": "5112 E Nemours St",
    "address_councildis": "E",
    "status": "Assigned to Contractor",
    "contractor": "Waste Pro",
    "rowid": "1290908",
    "final_x": "3726961.61248",
    "final_y": "562801.970464",
    "longitude": "-89.92330559015879",
    "latitude": "30.040050084963475",
    "geocoded_column": {
      "latitude": "30.040050084963475",
      "longitude": "-89.92330559015879"
    }
  },
  {
    "service_request": "2026-1290907",
    "request_type": "Trash/Recycling",
    "request_reason": "Order Recycling Cart",
    "date_created": "2026-06-15T15:49:40.000",
    "date_modified": "2026-06-15T15:49:42.000",
    "request_status": "Pending",
    "responsible_agency": "Department of Sanitation",
    "final_address": "1616 Tita St",
    "address_councildis": "C",
    "status": "Pending",
    "rowid": "1290907",
    "final_x": "3695682.70557",
    "final_y": "525361.834813",
    "longitude": "-90.02350895116741",
    "latitude": "29.93812462882885",
    "geocoded_column": {
      "latitude": "29.93812462882885",
      "longitude": "-90.02350895116741"
    }
  },
  {
    "service_request": "2026-1290906",
    "request_type": "Trash/Recycling",
    "request_reason": "Request a Large Item Pick Up",
    "date_created": "2026-06-15T15:48:53.000",
    "date_modified": "2026-06-15T15:48:54.000",
    "request_status": "Pending",
    "responsible_agency": "Department of Sanitation",
    "final_address": "6000 Dauphine St",
    "address_councildis": "E",
    "status": "Assigned to Contractor",
    "contractor": "Waste Pro",
    "rowid": "1290906",
    "final_x": "3698738.72266",
    "final_y": "532298.771779",
    "longitude": "-90.01360864823475",
    "latitude": "29.95710236216948",
    "geocoded_column": {
      "latitude": "29.95710236216948",
      "longitude": "-90.01360864823475"
    }
  },
  {
    "service_request": "2026-1290905",
    "request_type": "Safety & Permits",
    "request_reason": "Zoning Enforcement",
    "date_created": "2026-06-15T15:46:04.000",
    "date_modified": "2026-06-15T15:46:05.000",
    "request_status": "Pending",
    "responsible_agency": "Safety and Permits",
    "final_address": "JOYCELYN DR & MEDLOCK ST",
    "address_councildis": "C",
    "status": "Pending",
    "rowid": "1290905",
    "final_x": "3707762.3",
    "final_y": "514292.58",
    "longitude": "-89.98578390272009",
    "latitude": "29.907302838132647",
    "geocoded_column": {
      "latitude": "29.907302838132647",
      "longitude": "-89.98578390272009"
    }
  },
  {
    "service_request": "2026-1290904",
    "request_type": "Trash/Recycling",
    "request_reason": "Request a Large Item Pick Up",
    "date_created": "2026-06-15T15:45:25.000",
    "date_modified": "2026-06-15T15:45:41.000",
    "request_status": "Pending",
    "responsible_agency": "Department of Sanitation",
    "final_address": "5010 Schindler Dr",
    "address_councildis": "E",
    "status": "Assigned to Contractor",
    "contractor": "Waste Pro",
    "rowid": "1290904",
    "final_x": "3714149.74783",
    "final_y": "557839.124699",
    "longitude": "-89.96398214021596",
    "latitude": "30.02683151942028",
    "geocoded_column": {
      "latitude": "30.02683151942028",
      "longitude": "-89.96398214021596"
    }
  },
  {
    "service_request": "2026-1290903",
    "request_type": "Trash/Recycling",
    "request_reason": "Missed Trash Pick-Up",
    "date_created": "2026-06-15T15:43:31.000",
    "date_modified": "2026-06-15T15:43:33.000",
    "request_status": "Pending",
    "responsible_agency": "Department of Sanitation",
    "final_address": "4646 Rosalia Dr, New Orleans, Louisiana, 70127",
    "address_councildis": "E",
    "status": "Assigned to Contractor",
    "contractor": "Waste Pro",
    "rowid": "1290903",
    "final_x": "3711174.15179",
    "final_y": "555431.182873",
    "longitude": "-89.97347492745033",
    "latitude": "30.02030806713717",
    "geocoded_column": {
      "latitude": "30.02030806713717",
      "longitude": "-89.97347492745033"
    }
  },
  {
    "service_request": "2026-1290902",
    "request_type": "Safety & Permits",
    "request_reason": "Zoning Enforcement",
    "date_created": "2026-06-15T15:43:25.000",
    "date_modified": "2026-06-15T15:44:47.000",
    "request_status": "Pending",
    "responsible_agency": "Safety and Permits",
    "final_address": "3417 General Ogden St",
    "address_councildis": "A",
    "status": "Pending",
    "rowid": "1290902",
    "final_x": "3665284.08813",
    "final_y": "536167.787591",
    "longitude": "-90.1191190267397",
    "latitude": "29.96875796381995",
    "geocoded_column": {
      "latitude": "29.96875796381995",
      "longitude": "-90.1191190267397"
    }
  },
  {
    "service_request": "2026-1290901",
    "request_type": "Trash/Recycling",
    "request_reason": "Request a Large Item Pick Up",
    "date_created": "2026-06-15T15:43:10.000",
    "date_modified": "2026-06-15T15:43:11.000",
    "request_status": "Pending",
    "responsible_agency": "Department of Sanitation",
    "final_address": "4767 E Adams Ct",
    "address_councildis": "E",
    "status": "Assigned to Contractor",
    "contractor": "Waste Pro",
    "rowid": "1290901",
    "final_x": "3718811.04799",
    "final_y": "557388.205723",
    "longitude": "-89.94927030032893",
    "latitude": "30.025437680271995",
    "geocoded_column": {
      "latitude": "30.025437680271995",
      "longitude": "-89.94927030032893"
    }
  },
  {
    "service_request": "2026-1290900",
    "request_type": "Trash/Recycling",
    "request_reason": "Request a Large Item Pick Up",
    "date_created": "2026-06-15T15:43:03.000",
    "date_modified": "2026-06-15T15:43:05.000",
    "request_status": "Pending",
    "responsible_agency": "Department of Sanitation",
    "final_address": "8622 Chase St",
    "address_councildis": "E",
    "status": "Assigned to Contractor",
    "contractor": "Waste Pro",
    "rowid": "1290900",
    "final_x": "3703755.66186",
    "final_y": "563432.600224",
    "longitude": "-89.99661995639264",
    "latitude": "30.04254883919831",
    "geocoded_column": {
      "latitude": "30.04254883919831",
      "longitude": "-89.99661995639264"
    }
  },
  {
    "service_request": "2026-1290899",
    "request_type": "Trash/Recycling",
    "request_reason": "Request a Large Item Pick Up",
    "date_created": "2026-06-15T15:41:03.000",
    "date_modified": "2026-06-15T15:41:04.000",
    "request_status": "Pending",
    "responsible_agency": "Department of Sanitation",
    "final_address": "6059 Dorothea St",
    "address_councildis": "D",
    "status": "Assigned to Contractor",
    "contractor": "Waste Pro",
    "rowid": "1290899",
    "final_x": "3695811.93962",
    "final_y": "557386.719515",
    "longitude": "-90.02194382182032",
    "latitude": "30.0261774040424",
    "geocoded_column": {
      "latitude": "30.0261774040424",
      "longitude": "-90.02194382182032"
    }
  },
  {
    "service_request": "2026-1290898",
    "request_type": "Trash/Recycling",
    "request_reason": "Request a Large Item Pick Up",
    "date_created": "2026-06-15T15:41:00.000",
    "date_modified": "2026-06-15T15:41:02.000",
    "request_status": "Pending",
    "responsible_agency": "Department of Sanitation",
    "final_address": "6020 Dorothea St",
    "address_councildis": "D",
    "status": "Assigned to Contractor",
    "contractor": "Waste Pro",
    "rowid": "1290898",
    "final_x": "3695607.63638",
    "final_y": "557125.98345",
    "longitude": "-90.02259881641315",
    "latitude": "30.02546690659869",
    "geocoded_column": {
      "latitude": "30.02546690659869",
      "longitude": "-90.02259881641315"
    }
  },
  {
    "service_request": "2026-1290897",
    "request_type": "Trash/Recycling",
    "request_reason": "Missed Trash Pick-Up",
    "date_created": "2026-06-15T15:40:24.000",
    "date_modified": "2026-06-15T15:40:25.000",
    "request_status": "Pending",
    "responsible_agency": "Department of Sanitation",
    "final_address": "4646 Rosalia Dr, New Orleans, Louisiana, 70127",
    "address_councildis": "E",
    "status": "Assigned to Contractor",
    "contractor": "Waste Pro",
    "rowid": "1290897",
    "final_x": "3711174.15179",
    "final_y": "555431.182873",
    "longitude": "-89.97347492745033",
    "latitude": "30.02030806713717",
    "geocoded_column": {
      "latitude": "30.02030806713717",
      "longitude": "-89.97347492745033"
    }
  },
  {
    "service_request": "2026-1290896",
    "request_type": "Trash/Recycling",
    "request_reason": "Request a Large Item Pick Up",
    "date_created": "2026-06-15T15:39:10.000",
    "date_modified": "2026-06-15T15:39:13.000",
    "request_status": "Pending",
    "responsible_agency": "Department of Sanitation",
    "final_address": "1026 Marais St",
    "address_councildis": "C",
    "status": "Assigned to Contractor",
    "contractor": "IV Waste",
    "rowid": "1290896",
    "final_x": "3681408.44885",
    "final_y": "535035.822022",
    "longitude": "-90.06823683558679",
    "latitude": "29.96516577431069",
    "geocoded_column": {
      "latitude": "29.96516577431069",
      "longitude": "-90.06823683558679"
    }
  },
  {
    "service_request": "2026-1290895",
    "request_type": "Trash/Recycling",
    "request_reason": "Order Recycling Cart",
    "date_created": "2026-06-15T15:38:13.000",
    "date_modified": "2026-06-15T15:38:14.000",
    "request_status": "Pending",
    "responsible_agency": "Department of Sanitation",
    "final_address": "2003 Baronne St",
    "address_councildis": "B",
    "status": "Pending",
    "rowid": "1290895",
    "final_x": "3677517.65986",
    "final_y": "524878.676348",
    "longitude": "-90.08087434657952",
    "latitude": "29.93735456261004",
    "geocoded_column": {
      "latitude": "29.93735456261004",
      "longitude": "-90.08087434657952"
    }
  },
  {
    "service_request": "2026-1290894",
    "request_type": "Drainage",
    "request_reason": "Catch Basin Not Draining",
    "date_created": "2026-06-15T15:34:38.000",
    "date_modified": "2026-06-15T15:34:39.000",
    "request_status": "Pending",
    "responsible_agency": "Sewerage & Water Board",
    "final_address": "6705 West End Blvd",
    "address_councildis": "A",
    "status": "Pending",
    "rowid": "1290894",
    "final_x": "3666818.18241",
    "final_y": "552329.916118",
    "longitude": "-90.11373098072279",
    "latitude": "30.013153514235913",
    "geocoded_column": {
      "latitude": "30.013153514235913",
      "longitude": "-90.11373098072279"
    }
  },
  {
    "service_request": "2026-1290893",
    "request_type": "Trash/Recycling",
    "request_reason": "Request a Large Item Pick Up",
    "date_created": "2026-06-15T15:34:32.000",
    "date_modified": "2026-06-15T15:34:33.000",
    "request_status": "Pending",
    "responsible_agency": "Department of Sanitation",
    "final_address": "8853 Bunker Hill Rd",
    "address_councildis": "E",
    "status": "Assigned to Contractor",
    "contractor": "Waste Pro",
    "rowid": "1290893",
    "final_x": "3705715.51857",
    "final_y": "561552.786655",
    "longitude": "-89.99049570622493",
    "latitude": "30.03731708409715",
    "geocoded_column": {
      "latitude": "30.03731708409715",
      "longitude": "-89.99049570622493"
    }
  },
  {
    "service_request": "2026-1290892",
    "request_type": "Abandoned Vehicles",
    "request_reason": "Abandoned/Junk Vehicles",
    "date_created": "2026-06-15T15:33:25.000",
    "date_modified": "2026-06-15T15:59:23.000",
    "request_status": "Pending",
    "responsible_agency": "Department of Public Works",
    "final_address": "1309 S Derbigny St",
    "address_councildis": "B",
    "status": "Pending",
    "rowid": "1290892",
    "final_x": "3675007.71125",
    "final_y": "528784.971776",
    "longitude": "-90.08866446884821",
    "latitude": "29.94817078868821",
    "geocoded_column": {
      "latitude": "29.94817078868821",
      "longitude": "-90.08866446884821"
    }
  },
  {
    "service_request": "2026-1290891",
    "request_type": "Trash/Recycling",
    "request_reason": "Request a Large Item Pick Up",
    "date_created": "2026-06-15T15:31:39.000",
    "date_modified": "2026-06-15T15:34:58.000",
    "request_status": "Pending",
    "responsible_agency": "Department of Sanitation",
    "final_address": "7123 Boston Dr",
    "address_councildis": "E",
    "status": "Assigned to Contractor",
    "contractor": "Waste Pro",
    "rowid": "1290891",
    "final_x": "3706242.24395",
    "final_y": "561111.343518",
    "longitude": "-89.98884751555796",
    "latitude": "30.036086306119124",
    "geocoded_column": {
      "latitude": "30.036086306119124",
      "longitude": "-89.98884751555796"
    }
  },
  {
    "service_request": "2026-1290890",
    "request_type": "Trash/Recycling",
    "request_reason": "Request a Large Item Pick Up",
    "date_created": "2026-06-15T15:27:14.000",
    "date_modified": "2026-06-15T15:27:15.000",
    "request_status": "Pending",
    "responsible_agency": "Department of Sanitation",
    "final_address": "7730 Cohn St",
    "address_councildis": "A",
    "status": "Assigned to Contractor",
    "contractor": "IV Waste",
    "rowid": "1290890",
    "final_x": "3664497.45709",
    "final_y": "529336.647617",
    "longitude": "-90.12183135947927",
    "latitude": "29.949997457307795",
    "geocoded_column": {
      "latitude": "29.949997457307795",
      "longitude": "-90.12183135947927"
    }
  },
  {
    "service_request": "2026-1290889",
    "request_type": "Trash/Recycling",
    "request_reason": "Dead Animal Pick Up",
    "date_created": "2026-06-15T15:26:48.000",
    "date_modified": "2026-06-15T15:26:49.000",
    "request_status": "Pending",
    "responsible_agency": "Department of Sanitation",
    "final_address": "8001 St Charles Ave",
    "address_councildis": "A",
    "status": "Assigned to Contractor",
    "contractor": "IV Waste",
    "rowid": "1290889",
    "final_x": "3660907.46752",
    "final_y": "526609.02963",
    "longitude": "-90.13325689094823",
    "latitude": "29.9426012587303",
    "geocoded_column": {
      "latitude": "29.9426012587303",
      "longitude": "-90.13325689094823"
    }
  },
  {
    "service_request": "2026-1290888",
    "request_type": "Tree Service",
    "request_reason": "Tree Trim",
    "date_created": "2026-06-15T15:26:00.000",
    "date_modified": "2026-06-15T15:26:02.000",
    "request_status": "Pending",
    "responsible_agency": "Department of Parks & Parkways",
    "final_address": "ELYSIAN FIELDS AVE & MITHRA ST",
    "address_councildis": "D",
    "status": "Pending",
    "rowid": "1290888",
    "final_x": "3683754.6",
    "final_y": "552667.88",
    "longitude": "-90.0602091649439",
    "latitude": "30.013576249203236",
    "geocoded_column": {
      "latitude": "30.013576249203236",
      "longitude": "-90.0602091649439"
    }
  },
  {
    "service_request": "2026-1290887",
    "request_type": "Street and Traffic Signs",
    "request_reason": "Street Name Sign Damaged or Missing",
    "date_created": "2026-06-15T15:25:32.000",
    "date_modified": "2026-06-15T15:46:34.000",
    "request_status": "Pending",
    "responsible_agency": "Department of Public Works",
    "final_address": "BUNDY RD & TILFORD RD",
    "address_councildis": "E",
    "status": "Pending",
    "rowid": "1290887",
    "final_x": "3708944.2",
    "final_y": "557391.08",
    "longitude": "-89.9804477061318",
    "latitude": "30.025769597749097",
    "geocoded_column": {
      "latitude": "30.025769597749097",
      "longitude": "-89.9804477061318"
    }
  },
  {
    "service_request": "2026-1290886",
    "request_type": "Streetlights",
    "request_reason": "Streetlight Outage/Malfunction",
    "date_created": "2026-06-15T15:23:39.000",
    "date_modified": "2026-06-15T15:23:41.000",
    "request_status": "Pending",
    "responsible_agency": "Department of Public Works",
    "final_address": "5403 Marigny St",
    "address_councildis": "D",
    "status": "Pending",
    "rowid": "1290886",
    "final_x": "3684135.88873",
    "final_y": "552747.647574",
    "longitude": "-90.05900169027822",
    "latitude": "30.01378392674075",
    "geocoded_column": {
      "latitude": "30.01378392674075",
      "longitude": "-90.05900169027822"
    }
  },
  {
    "service_request": "2026-1290885",
    "request_type": "Tree Service",
    "request_reason": "Tree Trim",
    "date_created": "2026-06-15T15:23:32.000",
    "date_modified": "2026-06-15T15:30:08.000",
    "request_status": "Pending",
    "responsible_agency": "Department of Parks & Parkways",
    "final_address": "4401 Knight Dr",
    "address_councildis": "E",
    "status": "Pending",
    "rowid": "1290885",
    "final_x": "3708389.25656",
    "final_y": "553724.823511",
    "longitude": "-89.98233782673758",
    "latitude": "30.0157068235578",
    "geocoded_column": {
      "latitude": "30.0157068235578",
      "longitude": "-89.98233782673758"
    }
  },
  {
    "service_request": "2026-1290884",
    "request_type": "Trash/Recycling",
    "request_reason": "Order Trash Cart",
    "date_created": "2026-06-15T15:20:53.000",
    "date_modified": "2026-06-15T15:20:54.000",
    "request_status": "Pending",
    "responsible_agency": "Department of Sanitation",
    "final_address": "25637 Chef Menteur Hwy",
    "address_councildis": "E",
    "status": "Assigned to Contractor",
    "contractor": "Waste Pro",
    "rowid": "1290884",
    "final_x": "3780931.97195",
    "final_y": "600690.962755",
    "longitude": "-89.75109458010677",
    "latitude": "30.142289589191332",
    "geocoded_column": {
      "latitude": "30.142289589191332",
      "longitude": "-89.75109458010677"
    }
  },
  {
    "service_request": "2026-1290883",
    "request_type": "Parks & Grass Service",
    "request_reason": "Request Grass Cutting Service (City Owned Property)",
    "date_created": "2026-06-15T15:20:52.000",
    "date_modified": "2026-06-15T15:20:54.000",
    "request_status": "Pending",
    "responsible_agency": "Department of Parks & Parkways",
    "final_address": "925 Odeon St",
    "address_councildis": "C",
    "status": "Pending",
    "rowid": "1290883",
    "final_x": "3696004.46179",
    "final_y": "527861.021055",
    "longitude": "-90.02240287362542",
    "latitude": "29.94498640855735",
    "geocoded_column": {
      "latitude": "29.94498640855735",
      "longitude": "-90.02240287362542"
    }
  },
  {
    "service_request": "2026-1290882",
    "request_type": "Abandoned Vehicles",
    "request_reason": "Abandoned/Junk Vehicles",
    "date_created": "2026-06-15T15:19:35.000",
    "date_modified": "2026-06-15T15:20:49.000",
    "request_status": "Pending",
    "responsible_agency": "Department of Public Works",
    "final_address": "5249 Timber Haven Ln",
    "address_councildis": "C",
    "status": "Pending",
    "rowid": "1290882",
    "final_x": "3703691.21482",
    "final_y": "511360.231024",
    "longitude": "-89.99874041437084",
    "latitude": "29.899370893076128",
    "geocoded_column": {
      "latitude": "29.899370893076128",
      "longitude": "-89.99874041437084"
    }
  },
  {
    "service_request": "2026-1290881",
    "request_type": "Trash/Recycling",
    "request_reason": "Request a Large Item Pick Up",
    "date_created": "2026-06-15T15:19:04.000",
    "date_modified": "2026-06-15T15:19:06.000",
    "request_status": "Pending",
    "responsible_agency": "Department of Sanitation",
    "final_address": "18 Maryland Dr",
    "address_councildis": "A",
    "status": "Assigned to Contractor",
    "contractor": "IV Waste",
    "rowid": "1290881",
    "final_x": "3663573.81101",
    "final_y": "540686.586827",
    "longitude": "-90.12436964061969",
    "latitude": "29.98123288336262",
    "geocoded_column": {
      "latitude": "29.98123288336262",
      "longitude": "-90.12436964061969"
    }
  },
  {
    "service_request": "2026-1290880",
    "request_type": "Trash/Recycling",
    "request_reason": "Request a Large Item Pick Up",
    "date_created": "2026-06-15T15:18:19.000",
    "date_modified": "2026-06-15T15:18:20.000",
    "request_status": "Pending",
    "responsible_agency": "Department of Sanitation",
    "final_address": "6060 Warrington Dr",
    "address_councildis": "D",
    "status": "Assigned to Contractor",
    "contractor": "IV Waste",
    "rowid": "1290880",
    "final_x": "3680599.34376",
    "final_y": "555179.122201",
    "longitude": "-90.07009065406791",
    "latitude": "30.020577270414645",
    "geocoded_column": {
      "latitude": "30.020577270414645",
      "longitude": "-90.07009065406791"
    }
  },
  {
    "service_request": "2026-1290879",
    "request_type": "Roads and Streets",
    "request_reason": "Street Subsidence (Sinking)",
    "date_created": "2026-06-15T15:17:44.000",
    "date_modified": "2026-06-15T15:17:46.000",
    "request_status": "Pending",
    "responsible_agency": "Sewerage & Water Board",
    "final_address": "5046 Westlake Dr",
    "address_councildis": "E",
    "status": "Pending",
    "rowid": "1290879",
    "final_x": "3699536.69124",
    "final_y": "555981.149849",
    "longitude": "-90.0102254208965",
    "latitude": "30.022194885704103",
    "geocoded_column": {
      "latitude": "30.022194885704103",
      "longitude": "-90.0102254208965"
    }
  },
  {
    "service_request": "2026-1290878",
    "request_type": "Trash/Recycling",
    "request_reason": "Request a Large Item Pick Up",
    "date_created": "2026-06-15T15:17:21.000",
    "date_modified": "2026-06-15T15:17:23.000",
    "request_status": "Pending",
    "responsible_agency": "Department of Sanitation",
    "final_address": "7040 Lake Barrington Dr",
    "address_councildis": "E",
    "status": "Assigned to Contractor",
    "contractor": "Waste Pro",
    "rowid": "1290878",
    "final_x": "3712507.37707",
    "final_y": "563837.295905",
    "longitude": "-89.96894612504661",
    "latitude": "30.04337796091714",
    "geocoded_column": {
      "latitude": "30.04337796091714",
      "longitude": "-89.96894612504661"
    }
  },
  {
    "service_request": "2026-1290877",
    "request_type": "Trash/Recycling",
    "request_reason": "Request a Large Item Pick Up",
    "date_created": "2026-06-15T15:14:55.000",
    "date_modified": "2026-06-15T15:14:56.000",
    "request_status": "Pending",
    "responsible_agency": "Department of Sanitation",
    "final_address": "3525 Bacchus Dr",
    "address_councildis": "C",
    "status": "Assigned to Contractor",
    "contractor": "Richards Disposal",
    "rowid": "1290877",
    "final_x": "3710065.84241",
    "final_y": "517676.809974",
    "longitude": "-89.9783874250457",
    "latitude": "29.916533602298387",
    "geocoded_column": {
      "latitude": "29.916533602298387",
      "longitude": "-89.9783874250457"
    }
  },
  {
    "service_request": "2026-1290876",
    "request_type": "Property Maintenance",
    "request_reason": "Property Maintenance",
    "date_created": "2026-06-15T15:13:49.000",
    "date_modified": "2026-06-15T15:13:50.000",
    "request_status": "Pending",
    "responsible_agency": "Department of Code Enforcement",
    "final_address": "2618 Thalia St",
    "address_councildis": "B",
    "status": "Pending",
    "rowid": "1290876",
    "final_x": "3676154.97275",
    "final_y": "527781.644223",
    "longitude": "-90.08507660336181",
    "latitude": "29.945377653791486",
    "geocoded_column": {
      "latitude": "29.945377653791486",
      "longitude": "-90.08507660336181"
    }
  },
  {
    "service_request": "2026-1290875",
    "request_type": "Trash/Recycling",
    "request_reason": "Request a Large Item Pick Up",
    "date_created": "2026-06-15T15:13:34.000",
    "date_modified": "2026-06-15T15:13:36.000",
    "request_status": "Pending",
    "responsible_agency": "Department of Sanitation",
    "final_address": "3335 Lancaster St",
    "address_councildis": "C",
    "status": "Assigned to Contractor",
    "contractor": "Richards Disposal",
    "rowid": "1290875",
    "final_x": "3709867.72721",
    "final_y": "518360.845302",
    "longitude": "-89.97898723163478",
    "latitude": "29.918420900402264",
    "geocoded_column": {
      "latitude": "29.918420900402264",
      "longitude": "-89.97898723163478"
    }
  },
  {
    "service_request": "2026-1290874",
    "request_type": "Abandoned Vehicles",
    "request_reason": "Abandoned/Junk Vehicles",
    "date_created": "2026-06-15T15:12:42.000",
    "date_modified": "2026-06-15T15:12:44.000",
    "request_status": "Pending",
    "responsible_agency": "Department of Public Works",
    "final_address": "ROYAL ST & BARTHOLOMEW ST",
    "address_councildis": "C",
    "status": "Pending",
    "rowid": "1290874",
    "final_x": "3691425.3",
    "final_y": "533807.68",
    "longitude": "-90.0366481695114",
    "latitude": "29.961480917364504",
    "geocoded_column": {
      "latitude": "29.961480917364504",
      "longitude": "-90.0366481695114"
    }
  },
  {
    "service_request": "2026-1290873",
    "request_type": "Trash/Recycling",
    "request_reason": "Request a Large Item Pick Up",
    "date_created": "2026-06-15T15:10:51.000",
    "date_modified": "2026-06-15T15:10:54.000",
    "request_status": "Pending",
    "responsible_agency": "Department of Sanitation",
    "final_address": "409 S Telemachus St",
    "address_councildis": "B",
    "status": "Assigned to Contractor",
    "contractor": "IV Waste",
    "rowid": "1290873",
    "final_x": "3671482.04487",
    "final_y": "536384.399303",
    "longitude": "-90.09953809879123",
    "latitude": "29.96917152550408",
    "geocoded_column": {
      "latitude": "29.96917152550408",
      "longitude": "-90.09953809879123"
    }
  },
  {
    "service_request": "2026-1290872",
    "request_type": "Drainage",
    "request_reason": "Catch Basin Not Draining",
    "date_created": "2026-06-15T15:07:49.000",
    "date_modified": "2026-06-15T15:32:22.000",
    "request_status": "Pending",
    "responsible_agency": "Sewerage & Water Board",
    "final_address": "1616 N Johnson St",
    "address_councildis": "D",
    "status": "Pending",
    "rowid": "1290872",
    "final_x": "3681219.83874",
    "final_y": "538721.315977",
    "longitude": "-90.06870400417611",
    "latitude": "29.9753053372404",
    "geocoded_column": {
      "latitude": "29.9753053372404",
      "longitude": "-90.06870400417611"
    }
  },
  {
    "service_request": "2026-1290871",
    "request_type": "Trash/Recycling",
    "request_reason": "Request a Large Item Pick Up",
    "date_created": "2026-06-15T15:07:24.000",
    "date_modified": "2026-06-15T15:07:26.000",
    "request_status": "Pending",
    "responsible_agency": "Department of Sanitation",
    "final_address": "7061 W Renaissance Ct",
    "address_councildis": "E",
    "status": "Assigned to Contractor",
    "contractor": "Waste Pro",
    "rowid": "1290871",
    "final_x": "3716869.49701",
    "final_y": "567304.35978",
    "longitude": "-89.9550283421899",
    "latitude": "30.05276742862535",
    "geocoded_column": {
      "latitude": "30.05276742862535",
      "longitude": "-89.9550283421899"
    }
  },
  {
    "service_request": "2026-1290870",
    "request_type": "Trash/Recycling",
    "request_reason": "MIssed Recycling Pick-Up",
    "date_created": "2026-06-15T15:06:04.000",
    "date_modified": "2026-06-15T15:23:09.000",
    "case_close_date": "2026-06-15T10:21:51.000",
    "request_status": "Closed",
    "responsible_agency": "Department of Sanitation",
    "final_address": "5489 Canal Blvd",
    "address_councildis": "A",
    "status": "Duplicate Request",
    "contractor": "IV Waste",
    "contractor_action": "Duplicate",
    "rowid": "1290870",
    "final_x": "3668279.53652",
    "final_y": "543716.798926",
    "longitude": "-90.10940454206076",
    "latitude": "29.98942757793269",
    "geocoded_column": {
      "latitude": "29.98942757793269",
      "longitude": "-90.10940454206076"
    }
  },
  {
    "service_request": "2026-1290869",
    "request_type": "Trash/Recycling",
    "request_reason": "Request a Large Item Pick Up",
    "date_created": "2026-06-15T15:02:39.000",
    "date_modified": "2026-06-15T15:02:41.000",
    "request_status": "Pending",
    "responsible_agency": "Department of Sanitation",
    "final_address": "7742 Arcadia Ln",
    "address_councildis": "E",
    "status": "Assigned to Contractor",
    "contractor": "Waste Pro",
    "rowid": "1290869",
    "final_x": "3712073.32875",
    "final_y": "567473.41418",
    "longitude": "-89.97018117660002",
    "latitude": "30.053390017637405",
    "geocoded_column": {
      "latitude": "30.053390017637405",
      "longitude": "-89.97018117660002"
    }
  },
  {
    "service_request": "2026-1290868",
    "request_type": "Roads and Streets",
    "request_reason": "Pothole",
    "date_created": "2026-06-15T15:02:34.000",
    "date_modified": "2026-06-15T15:02:35.000",
    "request_status": "Pending",
    "responsible_agency": "Department of Public Works",
    "final_address": "1224 Upperline St",
    "address_councildis": "B",
    "status": "Pending",
    "rowid": "1290868",
    "final_x": "3668992.35898",
    "final_y": "519771.059192",
    "longitude": "-90.10796181008502",
    "latitude": "29.92356372410265",
    "geocoded_column": {
      "latitude": "29.92356372410265",
      "longitude": "-90.10796181008502"
    }
  },
  {
    "service_request": "2026-1290867",
    "request_type": "Drainage",
    "request_reason": "Catch Basin Not Draining",
    "date_created": "2026-06-15T15:02:27.000",
    "date_modified": "2026-06-15T15:32:22.000",
    "request_status": "Pending",
    "responsible_agency": "Sewerage & Water Board",
    "final_address": "1628 N Johnson St",
    "address_councildis": "D",
    "status": "Pending",
    "rowid": "1290867",
    "final_x": "3681242.25199",
    "final_y": "538841.825225",
    "longitude": "-90.06862901637709",
    "latitude": "29.97563601569698",
    "geocoded_column": {
      "latitude": "29.97563601569698",
      "longitude": "-90.06862901637709"
    }
  },
  {
    "service_request": "2026-1290866",
    "request_type": "Trash/Recycling",
    "request_reason": "Replace Trash Cart",
    "date_created": "2026-06-15T15:02:12.000",
    "date_modified": "2026-06-15T15:02:14.000",
    "request_status": "Pending",
    "responsible_agency": "Department of Sanitation",
    "final_address": "3010 Palmyra St",
    "address_councildis": "B",
    "status": "Assigned to Contractor",
    "contractor": "IV Waste",
    "rowid": "1290866",
    "final_x": "3673753.1211",
    "final_y": "535259.703046",
    "longitude": "-90.09240432950776",
    "latitude": "29.966011554484247",
    "geocoded_column": {
      "latitude": "29.966011554484247",
      "longitude": "-90.09240432950776"
    }
  },
  {
    "service_request": "2026-1290865",
    "request_type": "Abandoned Vehicles",
    "request_reason": "Abandoned/Junk Vehicles",
    "date_created": "2026-06-15T14:59:00.000",
    "date_modified": "2026-06-15T14:59:02.000",
    "request_status": "Pending",
    "responsible_agency": "Department of Public Works",
    "final_address": "1108 Thayer St",
    "address_councildis": "C",
    "status": "Pending",
    "rowid": "1290865",
    "final_x": "3689476.75011",
    "final_y": "527319.486719",
    "longitude": "-90.04303205485681",
    "latitude": "29.943701110496477",
    "geocoded_column": {
      "latitude": "29.943701110496477",
      "longitude": "-90.04303205485681"
    }
  },
  {
    "service_request": "2026-1290864",
    "request_type": "Trash/Recycling",
    "request_reason": "Request a Large Item Pick Up",
    "date_created": "2026-06-15T14:56:50.000",
    "date_modified": "2026-06-15T14:56:52.000",
    "request_status": "Pending",
    "responsible_agency": "Department of Sanitation",
    "final_address": "14741 Beekman Rd",
    "address_councildis": "E",
    "status": "Assigned to Contractor",
    "contractor": "Waste Pro",
    "rowid": "1290864",
    "final_x": "3721194.89081",
    "final_y": "573868.515114",
    "longitude": "-89.94110507759068",
    "latitude": "30.070672333034885",
    "geocoded_column": {
      "latitude": "30.070672333034885",
      "longitude": "-89.94110507759068"
    }
  },