[
  {
    "service_request": "2022-924195",
    "request_type": "Trash/Recycling",
    "request_reason": "Missed Trash Pick-Up",
    "date_created": "2022-09-28T00:34:43.000",
    "date_modified": "2022-09-28T00:34:44.000",
    "request_status": "Pending",
    "responsible_agency": "Department of Sanitation",
    "final_address": "802 Bordeaux St",
    "address_councildis": "B",
    "status": "Assigned to Contractor",
    "contractor": "Richards Disposal",
    "rowid": "924195",
    "final_x": "3669575.55143",
    "final_y": "518312.305782",
    "longitude": "-90.10617019765091",
    "latitude": "29.91953545243739",
    "geocoded_column": {
      "latitude": "29.91953545243739",
      "longitude": "-90.10617019765091"
    }
  },
  {
    "service_request": "2022-924194",
    "request_type": "Property Maintenance",
    "request_reason": "Property Maintenance",
    "date_created": "2022-09-27T23:37:19.000",
    "date_modified": "2022-09-27T23:37:19.000",
    "request_status": "Pending",
    "responsible_agency": "Department of Code Enforcement",
    "final_address": "2519 Touro St",
    "address_councildis": "D",
    "status": "Pending",
    "rowid": "924194",
    "final_x": "3683840.47765",
    "final_y": "541592.641996",
    "longitude": "-90.0603265907087",
    "latitude": "29.983120688764078",
    "geocoded_column": {
      "latitude": "29.983120688764078",
      "longitude": "-90.0603265907087"
    }
  },
  {
    "service_request": "2022-924193",
    "request_type": "Trash/Recycling",
    "request_reason": "Missed Trash Pick-Up",
    "date_created": "2022-09-27T23:17:31.000",
    "date_modified": "2022-09-27T23:17:32.000",
    "request_status": "Pending",
    "responsible_agency": "Department of Sanitation",
    "final_address": "6420 Peoples Ave",
    "address_councildis": "D",
    "status": "Assigned to Contractor",
    "contractor": "Metro Disposal",
    "rowid": "924193",
    "final_x": "3687629.8582",
    "final_y": "557034.751066",
    "longitude": "-90.04781061155056",
    "latitude": "30.02546456533425",
    "geocoded_column": {
      "latitude": "30.02546456533425",
      "longitude": "-90.04781061155056"
    }
  },
  {
    "service_request": "2022-924192",
    "request_type": "Property Maintenance",
    "request_reason": "Property Maintenance",
    "date_created": "2022-09-27T23:12:55.000",
    "date_modified": "2022-09-27T23:12:55.000",
    "request_status": "Pending",
    "responsible_agency": "Department of Code Enforcement",
    "final_address": "2519 Touro St",
    "address_councildis": "D",
    "status": "Pending",
    "rowid": "924192",
    "final_x": "3683840.47765",
    "final_y": "541592.641996",
    "longitude": "-90.0603265907087",
    "latitude": "29.983120688764078",
    "geocoded_column": {
      "latitude": "29.983120688764078",
      "longitude": "-90.0603265907087"
    }
  },
  {
    "service_request": "2022-924191",
    "request_type": "Abandoned Vehicles",
    "request_reason": "Abandoned/Junk Vehicles",
    "date_created": "2022-09-27T22:41:36.000",
    "date_modified": "2022-09-27T22:41:36.000",
    "request_status": "Pending",
    "responsible_agency": "Department of Public Works",
    "final_address": "8931 Forshey St",
    "address_councildis": "A",
    "status": "Pending",
    "rowid": "924191",
    "final_x": "3664736.88858",
    "final_y": "536035.914951",
    "longitude": "-90.12085152979147",
    "latitude": "29.96841129024832",
    "geocoded_column": {
      "latitude": "29.96841129024832",
      "longitude": "-90.12085152979147"
    }
  },
  {
    "service_request": "2022-924190",
    "request_type": "Roads/Drainage",
    "request_reason": "Unpermitted work in ROW",
    "date_created": "2022-09-27T22:30:22.000",
    "date_modified": "2022-09-27T22:30:22.000",
    "request_status": "Pending",
    "responsible_agency": "Department of Public Works",
    "final_address": "236 N Carrollton Ave",
    "address_councildis": "A",
    "status": "Pending",
    "rowid": "924190",
    "final_x": "3671680.87079",
    "final_y": "538801.600009",
    "longitude": "-90.09882794671704",
    "latitude": "29.975812123218592",
    "geocoded_column": {
      "latitude": "29.975812123218592",
      "longitude": "-90.09882794671704"
    }
  },
  {
    "service_request": "2022-924189",
    "request_type": "Trash/Recycling",
    "request_reason": "Missed Trash Pick-Up",
    "date_created": "2022-09-27T22:05:35.000",
    "date_modified": "2022-09-27T22:05:36.000",
    "request_status": "Pending",
    "responsible_agency": "Department of Sanitation",
    "final_address": "535 Jefferson Ave",
    "address_councildis": "B",
    "status": "Assigned to Contractor",
    "contractor": "Richards Disposal",
    "rowid": "924189",
    "final_x": "3666534.81677",
    "final_y": "517425.318774",
    "longitude": "-90.11579807001813",
    "latitude": "29.917185710207555",
    "geocoded_column": {
      "latitude": "29.917185710207555",
      "longitude": "-90.11579807001813"
    }
  },
  {
    "service_request": "2022-924188",
    "request_type": "Trash/Recycling",
    "request_reason": "Missed Trash Pick-Up",
    "date_created": "2022-09-27T21:32:58.000",
    "date_modified": "2022-09-27T21:32:59.000",
    "request_status": "Pending",
    "responsible_agency": "Department of Sanitation",
    "final_address": "4913 Constance St",
    "address_councildis": "B",
    "status": "Assigned to Contractor",
    "contractor": "Richards Disposal",
    "rowid": "924188",
    "final_x": "3668860.43828",
    "final_y": "518246.404982",
    "longitude": "-90.1084296847542",
    "latitude": "29.919375285515766",
    "geocoded_column": {
      "latitude": "29.919375285515766",
      "longitude": "-90.1084296847542"
    }
  },
  {
    "service_request": "2022-924187",
    "request_type": "Roads/Drainage",
    "request_reason": "Street Subsidence (Sinking)",
    "date_created": "2022-09-27T21:20:32.000",
    "date_modified": "2022-09-27T21:20:32.000",
    "request_status": "Pending",
    "responsible_agency": "Department of Public Works",
    "final_address": "637 Royal St",
    "address_councildis": "C",
    "status": "Pending",
    "rowid": "924187",
    "final_x": "3682480.55432",
    "final_y": "532412.705283",
    "longitude": "-90.06494288397124",
    "latitude": "29.957920510081674",
    "geocoded_column": {
      "latitude": "29.957920510081674",
      "longitude": "-90.06494288397124"
    }
  },
  {
    "service_request": "2022-924186",
    "request_type": "Trash/Recycling",
    "request_reason": "Illegal Dumping",
    "date_created": "2022-09-27T21:16:04.000",
    "date_modified": "2022-09-27T21:16:05.000",
    "request_status": "Pending",
    "responsible_agency": "Department of Sanitation",
    "final_address": "LEAKE AVE & CHEROKEE ST",
    "address_councildis": "A",
    "status": "Pending",
    "rowid": "924186",
    "final_x": "3660793.3",
    "final_y": "523925.98",
    "longitude": "-90.13370603288769",
    "latitude": "29.935227007342693",
    "geocoded_column": {
      "latitude": "29.935227007342693",
      "longitude": "-90.13370603288769"
    }
  },
  {
    "service_request": "2022-924185",
    "request_type": "Property Maintenance",
    "request_reason": "Property Maintenance",
    "date_created": "2022-09-27T21:15:10.000",
    "date_modified": "2022-09-27T21:15:10.000",
    "request_status": "Pending",
    "responsible_agency": "Department of Code Enforcement",
    "final_address": "2256 N Claiborne Ave",
    "address_councildis": "C",
    "status": "Pending",
    "rowid": "924185",
    "final_x": "3685459.61372",
    "final_y": "538151.532553",
    "longitude": "-90.05533375980758",
    "latitude": "29.973609286105308",
    "geocoded_column": {
      "latitude": "29.973609286105308",
      "longitude": "-90.05533375980758"
    }
  },
  {
    "service_request": "2022-924183",
    "request_type": "Roads/Drainage",
    "request_reason": "Pothole",
    "date_created": "2022-09-27T21:06:08.000",
    "date_modified": "2022-09-27T21:06:09.000",
    "request_status": "Pending",
    "responsible_agency": "Department of Public Works",
    "final_address": "LEAKE AVE & CHEROKEE ST",
    "address_councildis": "A",
    "status": "Pending",
    "rowid": "924183",
    "final_x": "3660793.3",
    "final_y": "523925.98",
    "longitude": "-90.13370603288769",
    "latitude": "29.935227007342693",
    "geocoded_column": {
      "latitude": "29.935227007342693",
      "longitude": "-90.13370603288769"
    }
  },
  {
    "service_request": "2022-924182",
    "request_type": "Trash/Recycling",
    "request_reason": "Request a Large Item Pick Up",
    "date_created": "2022-09-27T20:41:06.000",
    "date_modified": "2022-09-27T20:41:07.000",
    "request_status": "Pending",
    "responsible_agency": "Department of Sanitation",
    "final_address": "1929 Marengo St",
    "address_councildis": "B",
    "status": "Assigned to Contractor",
    "contractor": "Richards Disposal",
    "rowid": "924182",
    "final_x": "3671897.75764",
    "final_y": "522302.494202",
    "longitude": "-90.09870442191591",
    "latitude": "29.930438605142687",
    "geocoded_column": {
      "latitude": "29.930438605142687",
      "longitude": "-90.09870442191591"
    }
  },
  {
    "service_request": "2022-924181",
    "request_type": "Health Related Questions",
    "request_reason": "Noise Ordinance Complaint",
    "date_created": "2022-09-27T20:35:12.000",
    "date_modified": "2022-09-27T20:35:12.000",
    "request_status": "Pending",
    "responsible_agency": "Health Department",
    "final_address": "718 Bourbon St, New Orleans, Louisiana, 70116",
    "address_councildis": "C",
    "status": "Pending",
    "rowid": "924181",
    "final_x": "3682364.17781",
    "final_y": "532746.008004",
    "longitude": "-90.06529872053143",
    "latitude": "29.95884052062511",
    "geocoded_column": {
      "latitude": "29.95884052062511",
      "longitude": "-90.06529872053143"
    }
  },
  {
    "service_request": "2022-924180",
    "request_type": "Health Related Questions",
    "request_reason": "Noise Ordinance Complaint",
    "date_created": "2022-09-27T20:34:51.000",
    "date_modified": "2022-09-27T20:34:51.000",
    "request_status": "Pending",
    "responsible_agency": "Health Department",
    "final_address": "718 Bourbon St, New Orleans, Louisiana, 70116",
    "address_councildis": "C",
    "status": "Pending",
    "rowid": "924180",
    "final_x": "3682364.17781",
    "final_y": "532746.008004",
    "longitude": "-90.06529872053143",
    "latitude": "29.95884052062511",
    "geocoded_column": {
      "latitude": "29.95884052062511",
      "longitude": "-90.06529872053143"
    }
  },
  {
    "service_request": "2022-924179",
    "request_type": "Trash/Recycling",
    "request_reason": "Missed Trash Pick-Up",
    "date_created": "2022-09-27T20:12:33.000",
    "date_modified": "2022-09-27T20:12:34.000",
    "request_status": "Pending",
    "responsible_agency": "Department of Sanitation",
    "final_address": "916 Cadiz St",
    "address_councildis": "B",
    "status": "Assigned to Contractor",
    "contractor": "Richards Disposal",
    "rowid": "924179",
    "final_x": "3670235.75687",
    "final_y": "518862.953015",
    "longitude": "-90.10406760526669",
    "latitude": "29.921030099444632",
    "geocoded_column": {
      "latitude": "29.921030099444632",
      "longitude": "-90.10406760526669"
    }
  },
  {
    "service_request": "2022-924178",
    "request_type": "Property Maintenance",
    "request_reason": "Property Maintenance",
    "date_created": "2022-09-27T20:05:36.000",
    "date_modified": "2022-09-27T20:05:36.000",
    "request_status": "Pending",
    "responsible_agency": "Department of Code Enforcement",
    "final_address": "2804 Upperline St",
    "address_councildis": "B",
    "status": "Pending",
    "rowid": "924178",
    "final_x": "3669160.92238",
    "final_y": "525022.839037",
    "longitude": "-90.10725232767882",
    "latitude": "29.937999481887694",
    "geocoded_column": {
      "latitude": "29.937999481887694",
      "longitude": "-90.10725232767882"
    }
  },
  {
    "service_request": "2022-924177",
    "request_type": "Trash/Recycling",
    "request_reason": "Missed Trash Pick-Up",
    "date_created": "2022-09-27T20:04:14.000",
    "date_modified": "2022-09-27T20:04:15.000",
    "request_status": "Pending",
    "responsible_agency": "Department of Sanitation",
    "final_address": "2808 Upperline St",
    "address_councildis": "B",
    "status": "Assigned to Contractor",
    "contractor": "Richards Disposal",
    "rowid": "924177",
    "final_x": "3669161.37594",
    "final_y": "525051.456189",
    "longitude": "-90.10724992900758",
    "latitude": "29.93807815648594",
    "geocoded_column": {
      "latitude": "29.93807815648594",
      "longitude": "-90.10724992900758"
    }
  },
  {
    "service_request": "2022-924176",
    "request_type": "Trash/Recycling",
    "request_reason": "MIssed Recycling Pick-Up",
    "date_created": "2022-09-27T20:03:14.000",
    "date_modified": "2022-09-27T20:03:15.000",
    "request_status": "Pending",
    "responsible_agency": "Department of Sanitation",
    "final_address": "2808 Upperline St",
    "address_councildis": "B",
    "status": "Assigned to Contractor",
    "contractor": "Richards Disposal",
    "rowid": "924176",
    "final_x": "3669161.37594",
    "final_y": "525051.456189",
    "longitude": "-90.10724992900758",
    "latitude": "29.93807815648594",
    "geocoded_column": {
      "latitude": "29.93807815648594",
      "longitude": "-90.10724992900758"
    }
  },
  {
    "service_request": "2022-924175",
    "request_type": "Trash/Recycling",
    "request_reason": "MIssed Recycling Pick-Up",
    "date_created": "2022-09-27T20:02:55.000",
    "date_modified": "2022-09-27T20:02:56.000",
    "request_status": "Pending",
    "responsible_agency": "Department of Sanitation",
    "final_address": "747 S Genois St",
    "address_councildis": "B",
    "status": "Assigned to Contractor",
    "contractor": "Richards Disposal",
    "rowid": "924175",
    "final_x": "3670901.85537",
    "final_y": "535018.57031",
    "longitude": "-90.10141675811427",
    "latitude": "29.965433118263814",
    "geocoded_column": {
      "latitude": "29.965433118263814",
      "longitude": "-90.10141675811427"
    }
  },
  {
    "service_request": "2022-924174",
    "request_type": "Traffic Signals/Signs/Striping/Streetlights",
    "request_reason": "Street Light Outage/Malfunction",
    "date_created": "2022-09-27T19:52:41.000",
    "date_modified": "2022-09-27T19:52:41.000",
    "request_status": "Pending",
    "responsible_agency": "Department of Public Works",
    "final_address": "6434 Memphis St",
    "address_councildis": "A",
    "status": "Pending",
    "contractor": "Legacy Professional Services",
    "rowid": "924174",
    "final_x": "3669375.05761",
    "final_y": "550269.010644",
    "longitude": "-90.10572235873839",
    "latitude": "30.007411669684917",
    "geocoded_column": {
      "latitude": "30.007411669684917",
      "longitude": "-90.10572235873839"
    }
  },
  {
    "service_request": "2022-924173",
    "request_type": "Trash/Recycling",
    "request_reason": "Missed Trash Pick-Up",
    "date_created": "2022-09-27T19:50:36.000",
    "date_modified": "2022-09-27T19:50:36.000",
    "request_status": "Pending",
    "responsible_agency": "Department of Sanitation",
    "final_address": "2541 St Peter St",
    "address_councildis": "D",
    "status": "Assigned to Contractor",
    "contractor": "Richards Disposal",
    "rowid": "924173",
    "final_x": "3677215.54638",
    "final_y": "536489.044359",
    "longitude": "-90.08142766268782",
    "latitude": "29.969288265028716",
    "geocoded_column": {
      "latitude": "29.969288265028716",
      "longitude": "-90.08142766268782"
    }
  },
  {
    "service_request": "2022-924172",
    "request_type": "Traffic Signals/Signs/Striping/Streetlights",
    "request_reason": "Street Light Outage/Malfunction",
    "date_created": "2022-09-27T19:46:26.000",
    "date_modified": "2022-09-27T19:46:27.000",
    "request_status": "Pending",
    "responsible_agency": "Department of Public Works",
    "final_address": "3528 Gentilly Blvd",
    "address_councildis": "D",
    "status": "Pending",
    "contractor": "Legacy Professional Services",
    "rowid": "924172",
    "final_x": "3685786.38223",
    "final_y": "548592.198035",
    "longitude": "-90.05393358474304",
    "latitude": "30.002307378107577",
    "geocoded_column": {
      "latitude": "30.002307378107577",
      "longitude": "-90.05393358474304"
    }
  },
  {
    "service_request": "2022-924171",
    "request_type": "Traffic Signals/Signs/Striping/Streetlights",
    "request_reason": "Street Light Outage/Malfunction",
    "date_created": "2022-09-27T19:39:38.000",
    "date_modified": "2022-09-27T19:39:39.000",
    "request_status": "Pending",
    "responsible_agency": "Department of Public Works",
    "final_address": "7841 Shamrock Dr",
    "address_councildis": "E",
    "status": "Pending",
    "contractor": "Legacy Professional Services",
    "rowid": "924171",
    "final_x": "3718698.00633",
    "final_y": "572720.985577",
    "longitude": "-89.94904217626592",
    "latitude": "30.067600290129956",
    "geocoded_column": {
      "latitude": "30.067600290129956",
      "longitude": "-89.94904217626592"
    }
  },
  {
    "service_request": "2022-924170",
    "request_type": "Trash/Recycling",
    "request_reason": "Missed Trash Pick-Up",
    "date_created": "2022-09-27T19:16:19.000",
    "date_modified": "2022-09-27T19:16:20.000",
    "request_status": "Pending",
    "responsible_agency": "Department of Sanitation",
    "final_address": "4021 Dryades St",
    "address_councildis": "B",
    "status": "Assigned to Contractor",
    "contractor": "Richards Disposal",
    "rowid": "924170",
    "final_x": "3672015.05998",
    "final_y": "522122.440058",
    "longitude": "-90.09834024183361",
    "latitude": "29.929940038306103",
    "geocoded_column": {
      "latitude": "29.929940038306103",
      "longitude": "-90.09834024183361"
    }
  },
  {
    "service_request": "2022-924169",
    "request_type": "Trash/Recycling",
    "request_reason": "Missed Trash Pick-Up",
    "date_created": "2022-09-27T19:15:19.000",
    "date_modified": "2022-09-27T19:15:20.000",
    "request_status": "Pending",
    "responsible_agency": "Department of Sanitation",
    "final_address": "522 Napoleon Ave",
    "address_councildis": "B",
    "status": "Assigned to Contractor",
    "contractor": "Richards Disposal",
    "rowid": "924169",
    "final_x": "3671051.50849",
    "final_y": "517584.827702",
    "longitude": "-90.10153600960744",
    "latitude": "29.91749157130745",
    "geocoded_column": {
      "latitude": "29.91749157130745",
      "longitude": "-90.10153600960744"
    }
  },
  {
    "service_request": "2022-924168",
    "request_type": "Trash/Recycling",
    "request_reason": "Repair Trash Cart",
    "date_created": "2022-09-27T19:06:49.000",
    "date_modified": "2022-09-27T19:06:50.000",
    "request_status": "Pending",
    "responsible_agency": "Department of Sanitation",
    "final_address": "1829 Napoleon Ave",
    "address_councildis": "B",
    "status": "Assigned to Contractor",
    "contractor": "Richards Disposal",
    "rowid": "924168",
    "final_x": "3670857.15771",
    "final_y": "521803.632826",
    "longitude": "-90.10200636839537",
    "latitude": "29.92909768560903",
    "geocoded_column": {
      "latitude": "29.92909768560903",
      "longitude": "-90.10200636839537"
    }
  },
  {
    "service_request": "2022-924167",
    "request_type": "Trash/Recycling",
    "request_reason": "Missed Trash Pick-Up",
    "date_created": "2022-09-27T19:02:27.000",
    "date_modified": "2022-09-27T19:02:28.000",
    "request_status": "Pending",
    "responsible_agency": "Department of Sanitation",
    "final_address": "921 Emerald St",
    "address_councildis": "D",
    "status": "Assigned to Contractor",
    "contractor": "Metro Disposal",
    "rowid": "924167",
    "final_x": "3670855.93435",
    "final_y": "554929.307224",
    "longitude": "-90.10088547721307",
    "latitude": "30.02018212750014",
    "geocoded_column": {
      "latitude": "30.02018212750014",
      "longitude": "-90.10088547721307"
    }
  },
  {
    "service_request": "2022-924166",
    "request_type": "Health Related Questions",
    "request_reason": "Noise Ordinance Complaint",
    "date_created": "2022-09-27T18:59:17.000",
    "date_modified": "2022-09-27T18:59:17.000",
    "request_status": "Pending",
    "responsible_agency": "Health Department",
    "final_address": "818 Moss St",
    "address_councildis": "A",
    "status": "Pending",
    "rowid": "924166",
    "final_x": "3674653.47483",
    "final_y": "539195.949194",
    "longitude": "-90.08942608884169",
    "latitude": "29.976808052790876",
    "geocoded_column": {
      "latitude": "29.976808052790876",
      "longitude": "-90.08942608884169"
    }
  },
  {
    "service_request": "2022-924165",
    "request_type": "Trash/Recycling",
    "request_reason": "Missed Trash Pick-Up",
    "date_created": "2022-09-27T18:48:36.000",
    "date_modified": "2022-09-27T18:48:37.000",
    "request_status": "Pending",
    "responsible_agency": "Department of Sanitation",
    "final_address": "1117 Robert St",
    "address_councildis": "B",
    "status": "Assigned to Contractor",
    "contractor": "Richards Disposal",
    "rowid": "924165",
    "final_x": "3668710.70138",
    "final_y": "519493.487799",
    "longitude": "-90.10886026485268",
    "latitude": "29.922808769872223",
    "geocoded_column": {
      "latitude": "29.922808769872223",
      "longitude": "-90.10886026485268"
    }
  },
  {
    "service_request": "2022-924164",
    "request_type": "Trash/Recycling",
    "request_reason": "Replace Trash Cart",
    "date_created": "2022-09-27T18:47:15.000",
    "date_modified": "2022-09-27T18:47:16.000",
    "request_status": "Pending",
    "responsible_agency": "Department of Sanitation",
    "final_address": "1420 Jourdan Ave B",
    "address_councildis": "E",
    "status": "Assigned to Contractor",
    "contractor": "Metro Disposal",
    "rowid": "924164",
    "final_x": "3695350.10256",
    "final_y": "535936.903175",
    "longitude": "-90.0241775545185",
    "latitude": "29.967212817538897",
    "geocoded_column": {
      "latitude": "29.967212817538897",
      "longitude": "-90.0241775545185"
    }
  },
  {
    "service_request": "2022-924163",
    "request_type": "Trash/Recycling",
    "request_reason": "Missed Trash Pick-Up",
    "date_created": "2022-09-27T18:46:24.000",
    "date_modified": "2022-09-27T18:46:25.000",
    "request_status": "Pending",
    "responsible_agency": "Department of Sanitation",
    "final_address": "2000 BLK Valmont St",
    "address_councildis": "B",
    "status": "Assigned to Contractor",
    "contractor": "Richards Disposal",
    "rowid": "924163",
    "final_x": "3668079.32161",
    "final_y": "523057.587859",
    "longitude": "-90.11073324722214",
    "latitude": "29.93262744980394",
    "geocoded_column": {
      "latitude": "29.93262744980394",
      "longitude": "-90.11073324722214"
    }
  },
  {
    "service_request": "2022-924162",
    "request_type": "Trash/Recycling",
    "request_reason": "Missed Trash Pick-Up",
    "date_created": "2022-09-27T18:46:10.000",
    "date_modified": "2022-09-27T18:46:10.000",
    "request_status": "Pending",
    "responsible_agency": "Department of Sanitation",
    "final_address": "2100 BLK Valmont St",
    "address_councildis": "B",
    "status": "Assigned to Contractor",
    "contractor": "Richards Disposal",
    "rowid": "924162",
    "final_x": "3668126.87171",
    "final_y": "523407.627841",
    "longitude": "-90.11057134271871",
    "latitude": "29.933588552696065",
    "geocoded_column": {
      "latitude": "29.933588552696065",
      "longitude": "-90.11057134271871"
    }
  },
  {
    "service_request": "2022-924161",
    "request_type": "Trash/Recycling",
    "request_reason": "Missed Trash Pick-Up",
    "date_created": "2022-09-27T18:45:53.000",
    "date_modified": "2022-09-27T18:45:54.000",
    "request_status": "Pending",
    "responsible_agency": "Department of Sanitation",
    "final_address": "2200 BLK Valmont St",
    "address_councildis": "B",
    "status": "Assigned to Contractor",
    "contractor": "Richards Disposal",
    "rowid": "924161",
    "final_x": "3668172.46414",
    "final_y": "523741.364378",
    "longitude": "-90.11041616475555",
    "latitude": "29.934504883465873",
    "geocoded_column": {
      "latitude": "29.934504883465873",
      "longitude": "-90.11041616475555"
    }
  },
  {
    "service_request": "2022-924160",
    "request_type": "Trash/Recycling",
    "request_reason": "Missed Trash Pick-Up",
    "date_created": "2022-09-27T18:44:52.000",
    "date_modified": "2022-09-27T18:44:53.000",
    "request_status": "Pending",
    "responsible_agency": "Department of Sanitation",
    "final_address": "4215 Chestnut St",
    "address_councildis": "B",
    "status": "Assigned to Contractor",
    "contractor": "Richards Disposal",
    "rowid": "924160",
    "final_x": "3671574.88206",
    "final_y": "519624.625336",
    "longitude": "-90.09981469804269",
    "latitude": "29.923084885290454",
    "geocoded_column": {
      "latitude": "29.923084885290454",
      "longitude": "-90.09981469804269"
    }
  },
  {
    "service_request": "2022-924159",
    "request_type": "Property Maintenance",
    "request_reason": "Property Maintenance",
    "date_created": "2022-09-27T18:44:36.000",
    "date_modified": "2022-09-27T18:44:36.000",
    "request_status": "Pending",
    "responsible_agency": "Department of Code Enforcement",
    "final_address": "7700 Zimple St",
    "address_councildis": "A",
    "status": "Pending",
    "rowid": "924159",
    "final_x": "3662721.27104",
    "final_y": "527143.423615",
    "longitude": "-90.12751250927363",
    "latitude": "29.944018312703516",
    "geocoded_column": {
      "latitude": "29.944018312703516",
      "longitude": "-90.12751250927363"
    }
  },
  {
    "service_request": "2022-924158",
    "request_type": "Trash/Recycling",
    "request_reason": "Illegal Dumping",
    "date_created": "2022-09-27T18:35:00.000",
    "date_modified": "2022-09-27T18:35:00.000",
    "request_status": "Pending",
    "responsible_agency": "Department of Sanitation",
    "final_address": "3806 Clematis St",
    "address_councildis": "D",
    "status": "Pending",
    "rowid": "924158",
    "final_x": "3685803.4438",
    "final_y": "546874.575185",
    "longitude": "-90.05394027147697",
    "latitude": "29.997584010771693",
    "geocoded_column": {
      "latitude": "29.997584010771693",
      "longitude": "-90.05394027147697"
    }
  },
  {
    "service_request": "2022-924157",
    "request_type": "Property Maintenance",
    "request_reason": "Property Maintenance",
    "date_created": "2022-09-27T18:28:49.000",
    "date_modified": "2022-09-27T18:28:49.000",
    "request_status": "Pending",
    "responsible_agency": "Department of Code Enforcement",
    "final_address": "1408 Leda St",
    "address_councildis": "A",
    "status": "Pending",
    "rowid": "924157",
    "final_x": "3675587.13301",
    "final_y": "541215.119692",
    "longitude": "-90.08640790191497",
    "latitude": "29.982332175216047",
    "geocoded_column": {
      "latitude": "29.982332175216047",
      "longitude": "-90.08640790191497"
    }
  },
  {
    "service_request": "2022-924156",
    "request_type": "Trash/Recycling",
    "request_reason": "Missed Trash Pick-Up",
    "date_created": "2022-09-27T18:24:02.000",
    "date_modified": "2022-09-27T18:24:02.000",
    "request_status": "Pending",
    "responsible_agency": "Department of Sanitation",
    "final_address": "2828 Upperline St",
    "address_councildis": "B",
    "status": "Assigned to Contractor",
    "contractor": "Richards Disposal",
    "rowid": "924156",
    "final_x": "3669160.05127",
    "final_y": "525203.114365",
    "longitude": "-90.10724898782733",
    "latitude": "29.938495206542953",
    "geocoded_column": {
      "latitude": "29.938495206542953",
      "longitude": "-90.10724898782733"
    }
  },
  {
    "service_request": "2022-924154",
    "request_type": "Abandoned Vehicles",
    "request_reason": "Abandoned/Junk Vehicles",
    "date_created": "2022-09-27T18:20:11.000",
    "date_modified": "2022-09-27T18:29:35.000",
    "request_status": "Pending",
    "responsible_agency": "Department of Public Works",
    "final_address": "1429 St Charles Ave",
    "address_councildis": "B",
    "status": "Pending",
    "rowid": "924154",
    "final_x": "3679191.96712",
    "final_y": "525628.040829",
    "longitude": "-90.07556247910908",
    "latitude": "29.93936463925358",
    "geocoded_column": {
      "latitude": "29.93936463925358",
      "longitude": "-90.07556247910908"
    }
  },
  {
    "service_request": "2022-924153",
    "request_type": "Trash/Recycling",
    "request_reason": "Missed Trash Pick-Up",
    "date_created": "2022-09-27T18:17:01.000",
    "date_modified": "2022-09-27T18:17:02.000",
    "request_status": "Pending",
    "responsible_agency": "Department of Sanitation",
    "final_address": "4834 St Charles Ave",
    "address_councildis": "B",
    "status": "Assigned to Contractor",
    "contractor": "Richards Disposal",
    "rowid": "924153",
    "final_x": "3669105.06145",
    "final_y": "520638.678904",
    "longitude": "-90.10757675132766",
    "latitude": "29.925946088319",
    "geocoded_column": {
      "latitude": "29.925946088319",
      "longitude": "-90.10757675132766"
    }
  },
  {
    "service_request": "2022-924152",
    "request_type": "Trash/Recycling",
    "request_reason": "Missed Trash Pick-Up",
    "date_created": "2022-09-27T18:13:35.000",
    "date_modified": "2022-09-27T18:13:36.000",
    "request_status": "Pending",
    "responsible_agency": "Department of Sanitation",
    "final_address": "4837 Coliseum St",
    "address_councildis": "B",
    "status": "Assigned to Contractor",
    "contractor": "Richards Disposal",
    "rowid": "924152",
    "final_x": "3669167.43534",
    "final_y": "519686.959928",
    "longitude": "-90.10741199740009",
    "latitude": "29.923327328461642",
    "geocoded_column": {
      "latitude": "29.923327328461642",
      "longitude": "-90.10741199740009"
    }
  },
  {
    "service_request": "2022-924151",
    "request_type": "Trash/Recycling",
    "request_reason": "Repair Trash Cart",
    "date_created": "2022-09-27T18:09:11.000",
    "date_modified": "2022-09-27T18:09:12.000",
    "request_status": "Pending",
    "responsible_agency": "Department of Sanitation",
    "final_address": "4515 S Miro St",
    "address_councildis": "B",
    "status": "Assigned to Contractor",
    "contractor": "Richards Disposal",
    "rowid": "924151",
    "final_x": "3669624.70049",
    "final_y": "527816.612031",
    "longitude": "-90.10569363747103",
    "latitude": "29.945667798513366",
    "geocoded_column": {
      "latitude": "29.945667798513366",
      "longitude": "-90.10569363747103"
    }
  },
  {
    "service_request": "2022-924150",
    "request_type": "Trash/Recycling",
    "request_reason": "Missed Trash Pick-Up",
    "date_created": "2022-09-27T18:02:01.000",
    "date_modified": "2022-09-27T18:02:02.000",
    "request_status": "Pending",
    "responsible_agency": "Department of Sanitation",
    "final_address": "9 Blanc Pl",
    "address_councildis": "B",
    "status": "Assigned to Contractor",
    "contractor": "Richards Disposal",
    "rowid": "924150",
    "final_x": "3667860.3961",
    "final_y": "520958.726393",
    "longitude": "-90.11149503314553",
    "latitude": "29.92686266998376",
    "geocoded_column": {
      "latitude": "29.92686266998376",
      "longitude": "-90.11149503314553"
    }
  },
  {
    "service_request": "2022-924149",
    "request_type": "Trash/Recycling",
    "request_reason": "Missed Trash Pick-Up",
    "date_created": "2022-09-27T17:57:28.000",
    "date_modified": "2022-09-27T17:57:28.000",
    "request_status": "Pending",
    "responsible_agency": "Department of Sanitation",
    "final_address": "6000 Louisville St",
    "address_councildis": "A",
    "status": "Assigned to Contractor",
    "contractor": "Metro Disposal",
    "rowid": "924149",
    "final_x": "3667712.89108",
    "final_y": "547401.014801",
    "longitude": "-90.11107028339948",
    "latitude": "29.999574537118818",
    "geocoded_column": {
      "latitude": "29.999574537118818",
      "longitude": "-90.11107028339948"
    }
  },
  {
    "service_request": "2022-924148",
    "request_type": "Trash/Recycling",
    "request_reason": "Request a Large Item Pick Up",
    "date_created": "2022-09-27T17:56:49.000",
    "date_modified": "2022-09-27T17:56:49.000",
    "request_status": "Pending",
    "responsible_agency": "Department of Sanitation",
    "final_address": "3429 Clara St",
    "address_councildis": "B",
    "status": "Assigned to Contractor",
    "contractor": "Richards Disposal",
    "rowid": "924148",
    "final_x": "3672185.92756",
    "final_y": "525469.763965",
    "longitude": "-90.0976868891885",
    "latitude": "29.9391390311065",
    "geocoded_column": {
      "latitude": "29.9391390311065",
      "longitude": "-90.0976868891885"
    }
  },
  {
    "service_request": "2022-924147",
    "request_type": "Trash/Recycling",
    "request_reason": "Missed Trash Pick-Up",
    "date_created": "2022-09-27T17:53:36.000",
    "date_modified": "2022-09-27T17:53:37.000",
    "request_status": "Pending",
    "responsible_agency": "Department of Sanitation",
    "final_address": "1515 Jefferson Ave",
    "address_councildis": "B",
    "status": "Assigned to Contractor",
    "contractor": "Richards Disposal",
    "rowid": "924147",
    "final_x": "3667248.21767",
    "final_y": "520687.835257",
    "longitude": "-90.11343662860484",
    "latitude": "29.926135740304627",
    "geocoded_column": {
      "latitude": "29.926135740304627",
      "longitude": "-90.11343662860484"
    }
  },
  {
    "service_request": "2022-924146",
    "request_type": "Trash/Recycling",
    "request_reason": "Missed Trash Pick-Up",
    "date_created": "2022-09-27T17:47:31.000",
    "date_modified": "2022-09-27T17:47:32.000",
    "request_status": "Pending",
    "responsible_agency": "Department of Sanitation",
    "final_address": "1415 Cadiz St",
    "address_councildis": "B",
    "status": "Assigned to Contractor",
    "contractor": "Richards Disposal",
    "rowid": "924146",
    "final_x": "3670194.42606",
    "final_y": "520336.638584",
    "longitude": "-90.10414816717436",
    "latitude": "29.92508348560516",
    "geocoded_column": {
      "latitude": "29.92508348560516",
      "longitude": "-90.10414816717436"
    }
  },
  {
    "service_request": "2022-924145",
    "request_type": "Property Maintenance",
    "request_reason": "Property Maintenance",
    "date_created": "2022-09-27T17:47:07.000",
    "date_modified": "2022-09-27T17:47:07.000",
    "request_status": "Pending",
    "responsible_agency": "Department of Code Enforcement",
    "final_address": "100 Maumus Ave",
    "address_councildis": "C",
    "status": "Pending",
    "rowid": "924145",
    "final_x": "3705550.33675",
    "final_y": "516855.039157",
    "longitude": "-89.99267043270008",
    "latitude": "29.9144200637765",
    "geocoded_column": {
      "latitude": "29.9144200637765",
      "longitude": "-89.99267043270008"
    }
  },
  {
    "service_request": "2022-924144",
    "request_type": "Mosquito, Termite & Rodent Control",
    "request_reason": "Non-Rodent Complaint (Mice, Possums, Snakes)",
    "date_created": "2022-09-27T17:46:58.000",
    "date_modified": "2022-09-27T17:46:58.000",
    "request_status": "Pending",
    "responsible_agency": "Mosquito, Termite & Rodent Control Board",
    "final_address": "1016 Nunez St",
    "address_councildis": "C",
    "status": "Pending",
    "rowid": "924144",
    "final_x": "3687008.49225",
    "final_y": "527776.143039",
    "longitude": "-90.05080884704142",
    "latitude": "29.945032954856835",
    "geocoded_column": {
      "latitude": "29.945032954856835",
      "longitude": "-90.05080884704142"
    }
  },
  {
    "service_request": "2022-924143",
    "request_type": "Property Maintenance",
    "request_reason": "Property Maintenance",
    "date_created": "2022-09-27T17:45:16.000",
    "date_modified": "2022-09-27T17:45:16.000",
    "request_status": "Pending",
    "responsible_agency": "Department of Code Enforcement",
    "final_address": "2317 Franklin Ave",
    "address_councildis": "D",
    "status": "Pending",
    "rowid": "924143",
    "final_x": "3687629.3903",
    "final_y": "541094.125452",
    "longitude": "-90.04837694436398",
    "latitude": "29.9816336570886",
    "geocoded_column": {
      "latitude": "29.9816336570886",
      "longitude": "-90.04837694436398"
    }
  },
  {
    "service_request": "2022-924142",
    "request_type": "Trash/Recycling",
    "request_reason": "MIssed Recycling Pick-Up",
    "date_created": "2022-09-27T17:43:28.000",
    "date_modified": "2022-09-27T17:43:28.000",
    "request_status": "Pending",
    "responsible_agency": "Department of Sanitation",
    "final_address": "107 Maumus Ave",
    "address_councildis": "C",
    "status": "Assigned to Contractor",
    "contractor": "Richards Disposal",
    "rowid": "924142",
    "final_x": "3705780.47204",
    "final_y": "516704.332021",
    "longitude": "-89.99194962192549",
    "latitude": "29.913998265246065",
    "geocoded_column": {
      "latitude": "29.913998265246065",
      "longitude": "-89.99194962192549"
    }
  },
  {
    "service_request": "2022-924141",
    "request_type": "Trash/Recycling",
    "request_reason": "Missed Trash Pick-Up",
    "date_created": "2022-09-27T17:39:40.000",
    "date_modified": "2022-09-27T17:39:41.000",
    "request_status": "Pending",
    "responsible_agency": "Department of Sanitation",
    "final_address": "922 Cadiz St",
    "address_councildis": "B",
    "status": "Assigned to Contractor",
    "contractor": "Richards Disposal",
    "rowid": "924141",
    "final_x": "3670256.35879",
    "final_y": "518926.992055",
    "longitude": "-90.10400040538879",
    "latitude": "29.921205578748985",
    "geocoded_column": {
      "latitude": "29.921205578748985",
      "longitude": "-90.10400040538879"
    }
  },
  {
    "service_request": "2022-924140",
    "request_type": "Trash/Recycling",
    "request_reason": "Replace Trash Cart",
    "date_created": "2022-09-27T17:29:29.000",
    "date_modified": "2022-09-27T17:29:30.000",
    "request_status": "Pending",
    "responsible_agency": "Department of Sanitation",
    "final_address": "2001 Robert St",
    "address_councildis": "B",
    "status": "Assigned to Contractor",
    "contractor": "Richards Disposal",
    "rowid": "924140",
    "final_x": "3668828.56058",
    "final_y": "522886.561275",
    "longitude": "-90.10837372701303",
    "latitude": "29.93213517843514",
    "geocoded_column": {
      "latitude": "29.93213517843514",
      "longitude": "-90.10837372701303"
    }
  },
  {
    "service_request": "2022-924139",
    "request_type": "Trash/Recycling",
    "request_reason": "Missed Trash Pick-Up",
    "date_created": "2022-09-27T17:29:21.000",
    "date_modified": "2022-09-27T17:29:22.000",
    "request_status": "Pending",
    "responsible_agency": "Department of Sanitation",
    "final_address": "1515 Jefferson Ave",
    "address_councildis": "B",
    "status": "Assigned to Contractor",
    "contractor": "Richards Disposal",
    "rowid": "924139",
    "final_x": "3667248.21767",
    "final_y": "520687.835257",
    "longitude": "-90.11343662860484",
    "latitude": "29.926135740304627",
    "geocoded_column": {
      "latitude": "29.926135740304627",
      "longitude": "-90.11343662860484"
    }
  },
  {
    "service_request": "2022-924138",
    "request_type": "Property Maintenance",
    "request_reason": "Property Maintenance",
    "date_created": "2022-09-27T17:12:13.000",
    "date_modified": "2022-09-27T17:12:14.000",
    "request_status": "Pending",
    "responsible_agency": "Department of Code Enforcement",
    "final_address": "4610 Coronado Dr",
    "address_councildis": "E",
    "status": "Pending",
    "rowid": "924138",
    "final_x": "3714130.81867",
    "final_y": "555739.848601",
    "longitude": "-89.96412121992508",
    "latitude": "30.021059962917615",
    "geocoded_column": {
      "latitude": "30.021059962917615",
      "longitude": "-89.96412121992508"
    }
  },
  {
    "service_request": "2022-924137",
    "request_type": "Trash/Recycling",
    "request_reason": "Illegal Dumping",
    "date_created": "2022-09-27T17:11:38.000",
    "date_modified": "2022-09-27T17:11:38.000",
    "request_status": "Pending",
    "responsible_agency": "Department of Sanitation",
    "final_address": "5012 Cucullu St",
    "address_councildis": "B",
    "status": "Pending",
    "rowid": "924137",
    "final_x": "3668709.03905",
    "final_y": "525589.642365",
    "longitude": "-90.10865984124374",
    "latitude": "29.939571296067406",
    "geocoded_column": {
      "latitude": "29.939571296067406",
      "longitude": "-90.10865984124374"
    }
  },
  {
    "service_request": "2022-924136",
    "request_type": "Trash/Recycling",
    "request_reason": "Missed Trash Pick-Up",
    "date_created": "2022-09-27T17:10:40.000",
    "date_modified": "2022-09-27T17:10:40.000",
    "request_status": "Pending",
    "responsible_agency": "Department of Sanitation",
    "final_address": "920 Cadiz St",
    "address_councildis": "B",
    "status": "Assigned to Contractor",
    "contractor": "Richards Disposal",
    "rowid": "924136",
    "final_x": "3670237.55028",
    "final_y": "518902.628535",
    "longitude": "-90.10406060069539",
    "latitude": "29.921139141639816",
    "geocoded_column": {
      "latitude": "29.921139141639816",
      "longitude": "-90.10406060069539"
    }
  },
  {
    "service_request": "2022-924135",
    "request_type": "Trash/Recycling",
    "request_reason": "Missed Trash Pick-Up",
    "date_created": "2022-09-27T17:05:11.000",
    "date_modified": "2022-09-27T17:05:11.000",
    "request_status": "Pending",
    "responsible_agency": "Department of Sanitation",
    "final_address": "1831 Bordeaux St",
    "address_councildis": "B",
    "status": "Assigned to Contractor",
    "contractor": "Richards Disposal",
    "rowid": "924135",
    "final_x": "3669356.87892",
    "final_y": "521701.446393",
    "longitude": "-90.10674592285943",
    "latitude": "29.928860950778304",
    "geocoded_column": {
      "latitude": "29.928860950778304",
      "longitude": "-90.10674592285943"
    }
  },
  {
    "service_request": "2022-924134",
    "request_type": "Trash/Recycling",
    "request_reason": "Missed Trash Pick-Up",
    "date_created": "2022-09-27T17:04:48.000",
    "date_modified": "2022-09-27T17:04:49.000",
    "request_status": "Pending",
    "responsible_agency": "Department of Sanitation",
    "final_address": "523 Valence St",
    "address_councildis": "B",
    "status": "Assigned to Contractor",
    "contractor": "Richards Disposal",
    "rowid": "924134",
    "final_x": "3670105.36257",
    "final_y": "517546.460918",
    "longitude": "-90.10452376725665",
    "latitude": "29.91741400846316",
    "geocoded_column": {
      "latitude": "29.91741400846316",
      "longitude": "-90.10452376725665"
    }
  },
  {
    "service_request": "2022-924133",
    "request_type": "Trash/Recycling",
    "request_reason": "Missed Trash Pick-Up",
    "date_created": "2022-09-27T17:04:13.000",
    "date_modified": "2022-09-27T17:04:13.000",
    "request_status": "Pending",
    "responsible_agency": "Department of Sanitation",
    "final_address": "804 Valence St",
    "address_councildis": "B",
    "status": "Assigned to Contractor",
    "contractor": "Richards Disposal",
    "rowid": "924133",
    "final_x": "3669922.6187",
    "final_y": "518367.50047",
    "longitude": "-90.10507280836849",
    "latitude": "29.919676995270354",
    "geocoded_column": {
      "latitude": "29.919676995270354",
      "longitude": "-90.10507280836849"
    }
  },
  {
    "service_request": "2022-924132",
    "request_type": "Trash/Recycling",
    "request_reason": "Missed Trash Pick-Up",
    "date_created": "2022-09-27T17:03:35.000",
    "date_modified": "2022-09-27T17:03:36.000",
    "request_status": "Pending",
    "responsible_agency": "Department of Sanitation",
    "final_address": "1927 Sophie Wright Pl",
    "address_councildis": "B",
    "status": "Assigned to Contractor",
    "contractor": "Richards Disposal",
    "rowid": "924132",
    "final_x": "3679514.23727",
    "final_y": "522792.387834",
    "longitude": "-90.0746433728086",
    "latitude": "29.93155779813345",
    "geocoded_column": {
      "latitude": "29.93155779813345",
      "longitude": "-90.0746433728086"
    }
  },
  {
    "service_request": "2022-924131",
    "request_type": "Trash/Recycling",
    "request_reason": "Replace Trash Cart",
    "date_created": "2022-09-27T17:02:53.000",
    "date_modified": "2022-09-27T17:02:56.000",
    "request_status": "Pending",
    "responsible_agency": "Department of Sanitation",
    "final_address": "6608 Canal Blvd",
    "address_councildis": "A",
    "status": "Assigned to Contractor",
    "contractor": "Metro Disposal",
    "rowid": "924131",
    "final_x": "3668695.13364",
    "final_y": "551485.649045",
    "longitude": "-90.10782932861639",
    "latitude": "30.010777011256057",
    "geocoded_column": {
      "latitude": "30.010777011256057",
      "longitude": "-90.10782932861639"
    }
  },
  {
    "service_request": "2022-924130",
    "request_type": "Trash/Recycling",
    "request_reason": "Replace Trash Cart",
    "date_created": "2022-09-27T16:59:30.000",
    "date_modified": "2022-09-27T17:53:43.000",
    "request_status": "Pending",
    "responsible_agency": "Department of Sanitation",
    "final_address": "3909 Third St",
    "address_councildis": "B",
    "status": "Assigned to Contractor",
    "contractor": "Richards Disposal",
    "rowid": "924130",
    "final_x": "3671949.59399",
    "final_y": "529725.147521",
    "longitude": "-90.09828821796823",
    "latitude": "29.950846949059418",
    "geocoded_column": {
      "latitude": "29.950846949059418",
      "longitude": "-90.09828821796823"
    }
  },
  {
    "service_request": "2022-924128",
    "request_type": "Trash/Recycling",
    "request_reason": "Request a Large Item Pick Up",
    "date_created": "2022-09-27T16:51:24.000",
    "date_modified": "2022-09-27T16:51:24.000",
    "request_status": "Pending",
    "responsible_agency": "Department of Sanitation",
    "final_address": "2465 Prancer St",
    "address_councildis": "C",
    "status": "Assigned to Contractor",
    "contractor": "Richards Disposal",
    "rowid": "924128",
    "final_x": "3699734.54743",
    "final_y": "522116.379514",
    "longitude": "-90.01083526016376",
    "latitude": "29.929072772836637",
    "geocoded_column": {
      "latitude": "29.929072772836637",
      "longitude": "-90.01083526016376"
    }
  },
  {
    "service_request": "2022-924127",
    "request_type": "Trash/Recycling",
    "request_reason": "Missed Trash Pick-Up",
    "date_created": "2022-09-27T16:50:18.000",
    "date_modified": "2022-09-27T16:50:18.000",
    "request_status": "Pending",
    "responsible_agency": "Department of Sanitation",
    "final_address": "9015 Belfast St",
    "address_councildis": "A",
    "status": "Assigned to Contractor",
    "contractor": "Richards Disposal",
    "rowid": "924127",
    "final_x": "3663146.99898",
    "final_y": "534634.328198",
    "longitude": "-90.12591914378343",
    "latitude": "29.964603550230148",
    "geocoded_column": {
      "latitude": "29.964603550230148",
      "longitude": "-90.12591914378343"
    }
  },
  {
    "service_request": "2022-924125",
    "request_type": "Trash/Recycling",
    "request_reason": "MIssed Recycling Pick-Up",
    "date_created": "2022-09-27T16:45:38.000",
    "date_modified": "2022-09-27T16:45:39.000",
    "request_status": "Pending",
    "responsible_agency": "Department of Sanitation",
    "final_address": "830 Ida St",
    "address_councildis": "A",
    "status": "Assigned to Contractor",
    "contractor": "Richards Disposal",
    "rowid": "924125",
    "final_x": "3673133.96206",
    "final_y": "540201.169803",
    "longitude": "-90.09419086344707",
    "latitude": "29.979617336338613",
    "geocoded_column": {
      "latitude": "29.979617336338613",
      "longitude": "-90.09419086344707"
    }
  },
  {
    "service_request": "2022-924124",
    "request_type": "Property Maintenance",
    "request_reason": "Property Maintenance",
    "date_created": "2022-09-27T16:38:46.000",
    "date_modified": "2022-09-27T16:38:46.000",
    "request_status": "Pending",
    "responsible_agency": "Department of Code Enforcement",
    "final_address": "527 Conrad St",
    "address_councildis": "A",
    "status": "Pending",
    "rowid": "924124",
    "final_x": "3668632.36186",
    "final_y": "554391.805848",
    "longitude": "-90.10792945738224",
    "latitude": "30.018769763389326",
    "geocoded_column": {
      "latitude": "30.018769763389326",
      "longitude": "-90.10792945738224"
    }
  },
  {
    "service_request": "2022-924123",
    "request_type": "Roads/Drainage",
    "request_reason": "Pothole",
    "date_created": "2022-09-27T16:36:49.000",
    "date_modified": "2022-09-27T16:36:50.000",
    "request_status": "Pending",
    "responsible_agency": "Department of Public Works",
    "final_address": "3117 Milan St",
    "address_councildis": "B",
    "status": "Pending",
    "rowid": "924123",
    "final_x": "3671080.27924",
    "final_y": "526480.778686",
    "longitude": "-90.10114324040677",
    "latitude": "29.9419517312977",
    "geocoded_column": {
      "latitude": "29.9419517312977",
      "longitude": "-90.10114324040677"
    }
  },
  {
    "service_request": "2022-924122",
    "request_type": "Roads/Drainage",
    "request_reason": "Accessibility Ramps, Curbs and Sidewalk Repair",
    "date_created": "2022-09-27T16:35:03.000",
    "date_modified": "2022-09-27T16:35:03.000",
    "request_status": "Pending",
    "responsible_agency": "Department of Public Works",
    "final_address": "5213 Sandhurst Dr",
    "address_councildis": "E",
    "status": "Pending",
    "rowid": "924122",
    "final_x": "3704964.23268",
    "final_y": "557092.397146",
    "longitude": "-89.99303480401484",
    "latitude": "30.02507694350194",
    "geocoded_column": {
      "latitude": "30.02507694350194",
      "longitude": "-89.99303480401484"
    }
  },
  {
    "service_request": "2022-924121",
    "request_type": "Abandoned Vehicles",
    "request_reason": "Abandoned/Junk Vehicles",
    "date_created": "2022-09-27T16:33:37.000",
    "date_modified": "2022-09-27T16:33:38.000",
    "request_status": "Pending",
    "responsible_agency": "Department of Public Works",
    "final_address": "1812 Benefit St",
    "address_councildis": "D",
    "status": "Pending",
    "rowid": "924121",
    "final_x": "3681511.59055",
    "final_y": "544122.979598",
    "longitude": "-90.06759412469185",
    "latitude": "29.990149165404297",
    "geocoded_column": {
      "latitude": "29.990149165404297",
      "longitude": "-90.06759412469185"
    }
  },
  {
    "service_request": "2022-924120",
    "request_type": "Property Maintenance",
    "request_reason": "Property Maintenance",
    "date_created": "2022-09-27T16:33:32.000",
    "date_modified": "2022-09-27T16:33:33.000",
    "request_status": "Pending",
    "responsible_agency": "Department of Code Enforcement",
    "final_address": "ROBERT E LEE BLVD & WICKFIELD DR",
    "address_councildis": "D",
    "status": "Pending",
    "rowid": "924120",
    "final_x": "3680927.5",
    "final_y": "555488.98",
    "longitude": "-90.06904297650621",
    "latitude": "30.021419314419894",
    "geocoded_column": {
      "latitude": "30.021419314419894",
      "longitude": "-90.06904297650621"
    }
  },
  {
    "service_request": "2022-924119",
    "request_type": "Trash/Recycling",
    "request_reason": "Request a Large Item Pick Up",
    "date_created": "2022-09-27T16:31:52.000",
    "date_modified": "2022-09-27T16:31:53.000",
    "request_status": "Pending",
    "responsible_agency": "Department of Sanitation",
    "final_address": "4513 S Tonti St",
    "address_councildis": "B",
    "status": "Assigned to Contractor",
    "contractor": "Richards Disposal",
    "rowid": "924119",
    "final_x": "3669591.80071",
    "final_y": "528141.627135",
    "longitude": "-90.10578651965434",
    "latitude": "29.94656245336321",
    "geocoded_column": {
      "latitude": "29.94656245336321",
      "longitude": "-90.10578651965434"
    }
  },
  {
    "service_request": "2022-924118",
    "request_type": "Trash/Recycling",
    "request_reason": "Replace Trash Cart",
    "date_created": "2022-09-27T16:26:08.000",
    "date_modified": "2022-09-27T16:26:09.000",
    "request_status": "Pending",
    "responsible_agency": "Department of Sanitation",
    "final_address": "628 S Pierce St",
    "address_councildis": "B",
    "status": "Assigned to Contractor",
    "contractor": "Richards Disposal",
    "rowid": "924118",
    "final_x": "3670203.17198",
    "final_y": "536242.861703",
    "longitude": "-90.1035816804058",
    "latitude": "29.96882014644308",
    "geocoded_column": {
      "latitude": "29.96882014644308",
      "longitude": "-90.1035816804058"
    }
  },
  {
    "service_request": "2022-924117",
    "request_type": "Traffic Signals/Signs/Striping/Streetlights",
    "request_reason": "Street Light Outage/Malfunction",
    "date_created": "2022-09-27T16:23:56.000",
    "date_modified": "2022-09-27T16:23:57.000",
    "request_status": "Pending",
    "responsible_agency": "Department of Public Works",
    "final_address": "5527 Prytania St",
    "address_councildis": "A",
    "status": "Pending",
    "contractor": "Legacy Professional Services",
    "rowid": "924117",
    "final_x": "3666547.22701",
    "final_y": "520494.458488",
    "longitude": "-90.11565594906365",
    "latitude": "29.92562451738319",
    "geocoded_column": {
      "latitude": "29.92562451738319",
      "longitude": "-90.11565594906365"
    }
  },
  {
    "service_request": "2022-924116",
    "request_type": "Abandoned Vehicles",
    "request_reason": "Abandoned/Junk Vehicles",
    "date_created": "2022-09-27T16:23:44.000",
    "date_modified": "2022-09-27T16:23:45.000",
    "request_status": "Pending",
    "responsible_agency": "Department of Public Works",
    "final_address": "5400 BLK Cucullu St",
    "address_councildis": "A",
    "status": "Pending",
    "rowid": "924116",
    "final_x": "3668104.21625",
    "final_y": "525662.032125",
    "longitude": "-90.11056691659294",
    "latitude": "29.93978810555076",
    "geocoded_column": {
      "latitude": "29.93978810555076",
      "longitude": "-90.11056691659294"
    }
  },
  {
    "service_request": "2022-924115",
    "request_type": "Trash/Recycling",
    "request_reason": "Request a Large Item Pick Up",
    "date_created": "2022-09-27T16:20:58.000",
    "date_modified": "2022-09-27T16:20:59.000",
    "request_status": "Pending",
    "responsible_agency": "Department of Sanitation",
    "final_address": "2716 S Carrollton Ave, New Orleans, Louisiana, 70118",
    "address_councildis": "A",
    "status": "Assigned to Contractor",
    "contractor": "Richards Disposal",
    "rowid": "924115",
    "final_x": "3665680.46772",
    "final_y": "532478.080388",
    "longitude": "-90.11799082246449",
    "latitude": "29.958600928504065",
    "geocoded_column": {
      "latitude": "29.958600928504065",
      "longitude": "-90.11799082246449"
    }
  },
  {
    "service_request": "2022-924114",
    "request_type": "Traffic Signals/Signs/Striping/Streetlights",
    "request_reason": "Street Light Outage/Malfunction",
    "date_created": "2022-09-27T16:15:59.000",
    "date_modified": "2022-09-27T16:16:00.000",
    "request_status": "Pending",
    "responsible_agency": "Department of Public Works",
    "final_address": "4527 Mark Twain Dr",
    "address_councildis": "D",
    "status": "Pending",
    "contractor": "Legacy Professional Services",
    "rowid": "924114",
    "final_x": "3691585.91177",
    "final_y": "550890.622357",
    "longitude": "-90.03552999495813",
    "latitude": "30.0084478711569",
    "geocoded_column": {
      "latitude": "30.0084478711569",
      "longitude": "-90.03552999495813"
    }
  },
  {
    "service_request": "2022-924113",
    "request_type": "Property Maintenance",
    "request_reason": "Property Maintenance",
    "date_created": "2022-09-27T16:13:44.000",
    "date_modified": "2022-09-27T16:13:44.000",
    "request_status": "Pending",
    "responsible_agency": "Department of Code Enforcement",
    "final_address": "2415 Annette St",
    "address_councildis": "D",
    "status": "Pending",
    "rowid": "924113",
    "final_x": "3682795.5558",
    "final_y": "541073.324108",
    "longitude": "-90.06364516325034",
    "latitude": "29.981724625739037",
    "geocoded_column": {
      "latitude": "29.981724625739037",
      "longitude": "-90.06364516325034"
    }
  },
  {
    "service_request": "2022-924112",
    "request_type": "Roads/Drainage",
    "request_reason": "Accessibility Ramps, Curbs and Sidewalk Repair",
    "date_created": "2022-09-27T16:13:38.000",
    "date_modified": "2022-09-27T16:13:39.000",
    "request_status": "Pending",
    "responsible_agency": "Department of Public Works",
    "final_address": "1301 N Dorgenois St",
    "address_councildis": "D",
    "status": "Pending",
    "rowid": "924112",
    "final_x": "3678469.08034",
    "final_y": "538439.845769",
    "longitude": "-90.07740137881255",
    "latitude": "29.974614581872142",
    "geocoded_column": {
      "latitude": "29.974614581872142",
      "longitude": "-90.07740137881255"
    }
  },
  {
    "service_request": "2022-924111",
    "request_type": "Trash/Recycling",
    "request_reason": "Missed Trash Pick-Up",
    "date_created": "2022-09-27T16:12:16.000",
    "date_modified": "2022-09-27T16:12:16.000",
    "request_status": "Pending",
    "responsible_agency": "Department of Sanitation",
    "final_address": "4411 Annunciation St",
    "address_councildis": "B",
    "status": "Assigned to Contractor",
    "contractor": "Richards Disposal",
    "rowid": "924111",
    "final_x": "3670985.44417",
    "final_y": "517770.308854",
    "longitude": "-90.10173824528178",
    "latitude": "29.918003538426575",
    "geocoded_column": {
      "latitude": "29.918003538426575",
      "longitude": "-90.10173824528178"
    }
  },
  {
    "service_request": "2022-924110",
    "request_type": "Trash/Recycling",
    "request_reason": "Missed Trash Pick-Up",
    "date_created": "2022-09-27T16:11:31.000",
    "date_modified": "2022-09-27T16:12:09.000",
    "request_status": "Pending",
    "responsible_agency": "Department of Sanitation",
    "final_address": "5252 Annunciation St",
    "address_councildis": "B",
    "status": "Assigned to Contractor",
    "contractor": "Richards Disposal",
    "rowid": "924110",
    "final_x": "3667535.18861",
    "final_y": "517534.757814",
    "longitude": "-90.11263677711774",
    "latitude": "29.91745736721848",
    "geocoded_column": {
      "latitude": "29.91745736721848",
      "longitude": "-90.11263677711774"
    }
  },
  {
    "service_request": "2022-924109",
    "request_type": "Roads/Drainage",
    "request_reason": "Street Subsidence (Sinking)",
    "date_created": "2022-09-27T16:07:12.000",
    "date_modified": "2022-09-27T16:07:13.000",
    "request_status": "Pending",
    "responsible_agency": "Department of Public Works",
    "final_address": "4700 N Rampart St",
    "address_councildis": "E",
    "status": "Pending",
    "rowid": "924109",
    "final_x": "3694554.24285",
    "final_y": "534108.696005",
    "longitude": "-90.02675670992451",
    "latitude": "29.96221087296592",
    "geocoded_column": {
      "latitude": "29.96221087296592",
      "longitude": "-90.02675670992451"
    }
  },
  {
    "service_request": "2022-924107",
    "request_type": "Roads/Drainage",
    "request_reason": "Damaged Sidewalk",
    "date_created": "2022-09-27T16:02:33.000",
    "date_modified": "2022-09-27T16:02:33.000",
    "request_status": "Pending",
    "responsible_agency": "Department of Public Works",
    "final_address": "9130 Lake Forest Blvd",
    "address_councildis": "E",
    "status": "Pending",
    "rowid": "924107",
    "final_x": "3707916.8691",
    "final_y": "558395.358812",
    "longitude": "-89.98365652488303",
    "latitude": "30.028564283128052",
    "geocoded_column": {
      "latitude": "30.028564283128052",
      "longitude": "-89.98365652488303"
    }
  },
  {
    "service_request": "2022-924106",
    "request_type": "Trash/Recycling",
    "request_reason": "Repair Trash Cart",
    "date_created": "2022-09-27T15:59:14.000",
    "date_modified": "2022-09-27T15:59:15.000",
    "request_status": "Pending",
    "responsible_agency": "Department of Sanitation",
    "final_address": "6722 Catina St",
    "address_councildis": "A",
    "status": "Assigned to Contractor",
    "contractor": "Metro Disposal",
    "rowid": "924106",
    "final_x": "3666964.24429",
    "final_y": "552471.672726",
    "longitude": "-90.11326473270074",
    "latitude": "30.013539019668656",
    "geocoded_column": {
      "latitude": "30.013539019668656",
      "longitude": "-90.11326473270074"
    }
  },
  {
    "service_request": "2022-924105",
    "request_type": "Roads/Drainage",
    "request_reason": "Pothole",
    "date_created": "2022-09-27T15:58:47.000",
    "date_modified": "2022-09-27T15:58:48.000",
    "request_status": "Pending",
    "responsible_agency": "Department of Public Works",
    "final_address": "4547 Danneel St",
    "address_councildis": "B",
    "status": "Pending",
    "rowid": "924105",
    "final_x": "3670003.72046",
    "final_y": "522255.571898",
    "longitude": "-90.10468521277733",
    "latitude": "29.93036556335154",
    "geocoded_column": {
      "latitude": "29.93036556335154",
      "longitude": "-90.10468521277733"
    }
  },
  {
    "service_request": "2022-924104",
    "request_type": "Traffic Signals/Signs/Striping/Streetlights",
    "request_reason": "Street Light Outage/Malfunction",
    "date_created": "2022-09-27T15:56:08.000",
    "date_modified": "2022-09-27T18:03:38.000",
    "request_status": "Pending",
    "responsible_agency": "Department of Public Works",
    "final_address": "5600 BLK N dOrgenois St",
    "address_councildis": "E",
    "status": "Pending",
    "contractor": "Legacy Professional Services",
    "rowid": "924104",
    "final_x": "3699618.60991",
    "final_y": "538964.273237",
    "longitude": "-90.01058728343203",
    "latitude": "29.975402205130973",
    "geocoded_column": {
      "latitude": "29.975402205130973",
      "longitude": "-90.01058728343203"
    }
  },
  {
    "service_request": "2022-924103",
    "request_type": "Traffic Signals/Signs/Striping/Streetlights",
    "request_reason": "Street Light Outage/Malfunction",
    "date_created": "2022-09-27T15:51:42.000",
    "date_modified": "2022-09-27T15:51:43.000",
    "request_status": "Pending",
    "responsible_agency": "Department of Public Works",
    "final_address": "2509 Lamanche St",
    "address_councildis": "E",
    "status": "Pending",
    "contractor": "Legacy Professional Services",
    "rowid": "924103",
    "final_x": "3699842.92778",
    "final_y": "539014.07649",
    "longitude": "-90.00987701486278",
    "latitude": "29.97553202388969",
    "geocoded_column": {
      "latitude": "29.97553202388969",
      "longitude": "-90.00987701486278"
    }
  },
  {
    "service_request": "2022-924102",
    "request_type": "Property Maintenance",
    "request_reason": "Property Maintenance",
    "date_created": "2022-09-27T15:47:42.000",
    "date_modified": "2022-09-27T15:47:43.000",
    "request_status": "Pending",
    "responsible_agency": "Department of Code Enforcement",
    "final_address": "7735 Trapier Ave",
    "address_councildis": "E",
    "status": "Pending",
    "rowid": "924102",
    "final_x": "3706433.70603",
    "final_y": "563982.255457",
    "longitude": "-89.98813595292131",
    "latitude": "30.043973998431685",
    "geocoded_column": {
      "latitude": "30.043973998431685",
      "longitude": "-89.98813595292131"
    }
  },
  {
    "service_request": "2022-924101",
    "request_type": "Traffic Signals/Signs/Striping/Streetlights",
    "request_reason": "Street Light Outage/Malfunction",
    "date_created": "2022-09-27T15:47:35.000",
    "date_modified": "2022-09-27T17:59:21.000",
    "request_status": "Pending",
    "responsible_agency": "Department of Public Works",
    "final_address": "LAMANCHE ST & N DORGENOIS ST",
    "address_councildis": "E",
    "status": "Pending",
    "contractor": "Legacy Professional Services",
    "rowid": "924101",
    "final_x": "3699780.1",
    "final_y": "538930.18",
    "longitude": "-90.01007850087294",
    "latitude": "29.975303334136743",
    "geocoded_column": {
      "latitude": "29.975303334136743",
      "longitude": "-90.01007850087294"
    }
  },
  {
    "service_request": "2022-924100",
    "request_type": "Trash/Recycling",
    "request_reason": "Illegal Dumping",
    "date_created": "2022-09-27T15:46:22.000",
    "date_modified": "2022-09-27T15:46:22.000",
    "request_status": "Pending",
    "responsible_agency": "Department of Sanitation",
    "final_address": "AMERICA ST & OLD GENTILLY RD",
    "address_councildis": "E",
    "status": "Pending",
    "rowid": "924100",
    "final_x": "3700068.1",
    "final_y": "551432.48",
    "longitude": "-90.00871246335633",
    "latitude": "30.00967088774852",
    "geocoded_column": {
      "latitude": "30.00967088774852",
      "longitude": "-90.00871246335633"
    }
  },
  {
    "service_request": "2022-924099",
    "request_type": "Trash/Recycling",
    "request_reason": "Missed Trash Pick-Up",
    "date_created": "2022-09-27T15:45:53.000",
    "date_modified": "2022-09-27T15:45:54.000",
    "request_status": "Pending",
    "responsible_agency": "Department of Sanitation",
    "final_address": "5373 Magazine St",
    "address_councildis": "B",
    "status": "Assigned to Contractor",
    "contractor": "Richards Disposal",
    "rowid": "924099",
    "final_x": "3666852.80135",
    "final_y": "518798.349303",
    "longitude": "-90.11474828066615",
    "latitude": "29.920951819035455",
    "geocoded_column": {
      "latitude": "29.920951819035455",
      "longitude": "-90.11474828066615"
    }
  },
  {
    "service_request": "2022-924098",
    "request_type": "Trash/Recycling",
    "request_reason": "Illegal Dumping",
    "date_created": "2022-09-27T15:45:42.000",
    "date_modified": "2022-09-27T15:45:42.000",
    "request_status": "Pending",
    "responsible_agency": "Department of Code Enforcement",
    "final_address": "2433 General Pershing St",
    "address_councildis": "B",
    "status": "Pending",
    "rowid": "924098",
    "final_x": "3670997.3227",
    "final_y": "524045.247868",
    "longitude": "-90.1014878189224",
    "latitude": "29.935257263472806",
    "geocoded_column": {
      "latitude": "29.935257263472806",
      "longitude": "-90.1014878189224"
    }
  },
  {
    "service_request": "2022-924097",
    "request_type": "Roads/Drainage",
    "request_reason": "Pothole",
    "date_created": "2022-09-27T15:44:27.000",
    "date_modified": "2022-09-27T15:44:28.000",
    "request_status": "Pending",
    "responsible_agency": "Department of Public Works",
    "final_address": "7801 Trapier Ave",
    "address_councildis": "E",
    "status": "Pending",
    "rowid": "924097",
    "final_x": "3706400.37975",
    "final_y": "564042.783969",
    "longitude": "-89.98823903218256",
    "latitude": "30.04414150349065",
    "geocoded_column": {
      "latitude": "30.04414150349065",
      "longitude": "-89.98823903218256"
    }
  },
  {
    "service_request": "2022-924096",
    "request_type": "Roads/Drainage",
    "request_reason": "Street Flooding / Drainage",
    "date_created": "2022-09-27T15:43:39.000",
    "date_modified": "2022-09-27T15:43:40.000",
    "request_status": "Pending",
    "responsible_agency": "Department of Public Works",
    "final_address": "7801 Trapier Ave",
    "address_councildis": "E",
    "status": "Pending",
    "rowid": "924096",
    "final_x": "3706400.37975",
    "final_y": "564042.783969",
    "longitude": "-89.98823903218256",
    "latitude": "30.04414150349065",
    "geocoded_column": {
      "latitude": "30.04414150349065",
      "longitude": "-89.98823903218256"
    }
  },
  {
    "service_request": "2022-924095",
    "request_type": "Traffic Signals/Signs/Striping/Streetlights",
    "request_reason": "Street Light Outage/Malfunction",
    "date_created": "2022-09-27T15:35:17.000",
    "date_modified": "2022-09-27T15:35:39.000",
    "request_status": "Pending",
    "responsible_agency": "Department of Public Works",
    "final_address": "2029 Mazant St",
    "address_councildis": "D",
    "status": "Pending",
    "contractor": "Legacy Professional Services",
    "rowid": "924095",
    "final_x": "3693040.76726",
    "final_y": "538822.636681",
    "longitude": "-90.03136688019498",
    "latitude": "29.97521990722888",
    "geocoded_column": {
      "latitude": "29.97521990722888",
      "longitude": "-90.03136688019498"
    }
  },
  {
    "service_request": "2022-924094",
    "request_type": "Roads/Drainage",
    "request_reason": "Pothole",
    "date_created": "2022-09-27T15:30:46.000",
    "date_modified": "2022-09-27T15:32:56.000",
    "request_status": "Pending",
    "responsible_agency": "Department of Public Works",
    "final_address": "3302 Fern St",
    "address_councildis": "B",
    "status": "Pending",
    "rowid": "924094",
    "final_x": "3667586.56954",
    "final_y": "533451.9769",
    "longitude": "-90.11193905025623",
    "latitude": "29.96122309504194",
    "geocoded_column": {
      "latitude": "29.96122309504194",
      "longitude": "-90.11193905025623"
    }
  },
  {
    "service_request": "2022-924093",
    "request_type": "Roads/Drainage",
    "request_reason": "Pothole",
    "date_created": "2022-09-27T15:29:40.000",
    "date_modified": "2022-09-27T15:33:23.000",
    "request_status": "Pending",
    "responsible_agency": "Department of Public Works",
    "final_address": "3326 Fern St",
    "address_councildis": "B",
    "status": "Pending",
    "rowid": "924093",
    "final_x": "3667707.63764",
    "final_y": "533583.740549",
    "longitude": "-90.11155230091424",
    "latitude": "29.961581852568063",
    "geocoded_column": {
      "latitude": "29.961581852568063",
      "longitude": "-90.11155230091424"
    }
  },
  {
    "service_request": "2022-924092",
    "request_type": "Trash/Recycling",
    "request_reason": "Request a Large Item Pick Up",
    "date_created": "2022-09-27T15:26:24.000",
    "date_modified": "2022-09-27T15:28:54.000",
    "request_status": "Pending",
    "responsible_agency": "Department of Sanitation",
    "final_address": "2654 Dumaine St",
    "address_councildis": "D",
    "status": "Assigned to Contractor",
    "contractor": "Richards Disposal",
    "rowid": "924092",
    "final_x": "3677224.94229",
    "final_y": "537427.578376",
    "longitude": "-90.08136560483182",
    "latitude": "29.971868630888032",
    "geocoded_column": {
      "latitude": "29.971868630888032",
      "longitude": "-90.08136560483182"
    }
  },
  {
    "service_request": "2022-924091",
    "request_type": "Parks & Parkways",
    "request_reason": "Request Tree Service (Right of Way/Public Property)",
    "date_created": "2022-09-27T15:25:07.000",
    "date_modified": "2022-09-27T15:25:07.000",
    "request_status": "Pending",
    "responsible_agency": "Department of Parks & Parkway",
    "final_address": "926 Harding Dr",
    "address_councildis": "A",
    "status": "Pending",
    "rowid": "924091",
    "final_x": "3674410.09921",
    "final_y": "539926.161418",
    "longitude": "-90.0901697254339",
    "latitude": "29.97882314918236",
    "geocoded_column": {
      "latitude": "29.97882314918236",
      "longitude": "-90.0901697254339"
    }
  },
  {
    "service_request": "2022-924090",
    "request_type": "Trash/Recycling",
    "request_reason": "MIssed Recycling Pick-Up",
    "date_created": "2022-09-27T15:25:00.000",
    "date_modified": "2022-09-27T15:25:01.000",
    "request_status": "Pending",
    "responsible_agency": "Department of Sanitation",
    "final_address": "7717 Patterson Rd",
    "address_councildis": "C",
    "status": "Assigned to Contractor",
    "contractor": "Richards Disposal",
    "rowid": "924090",
    "final_x": "3712843.87038",
    "final_y": "518904.731575",
    "longitude": "-89.96957280025387",
    "latitude": "29.919819335098083",
    "geocoded_column": {
      "latitude": "29.919819335098083",
      "longitude": "-89.96957280025387"
    }
  },
  {
    "service_request": "2022-924087",
    "request_type": "Mosquito, Termite & Rodent Control",
    "request_reason": "Mosquito Complaint",
    "date_created": "2022-09-27T15:20:47.000",
    "date_modified": "2022-09-27T15:20:47.000",
    "request_status": "Pending",
    "responsible_agency": "Mosquito, Termite & Rodent Control Board",
    "final_address": "1550 Dufossat St",
    "address_councildis": "B",
    "status": "Pending",
    "rowid": "924087",
    "final_x": "3667995.99418",
    "final_y": "520953.558713",
    "longitude": "-90.11106715863139",
    "latitude": "29.92684448400555",
    "geocoded_column": {
      "latitude": "29.92684448400555",
      "longitude": "-90.11106715863139"
    }
  },
  {
    "service_request": "2022-924086",
    "request_type": "Trash/Recycling",
    "request_reason": "Missed Trash Pick-Up",
    "date_created": "2022-09-27T15:19:45.000",
    "date_modified": "2022-09-27T15:19:45.000",
    "request_status": "Pending",
    "responsible_agency": "Department of Sanitation",
    "final_address": "5520 Wingate Dr",
    "address_councildis": "D",
    "status": "Assigned to Contractor",
    "contractor": "Metro Disposal",
    "rowid": "924086",
    "final_x": "3681271.35439",
    "final_y": "553379.970647",
    "longitude": "-90.06803007767462",
    "latitude": "30.01560987128206",
    "geocoded_column": {
      "latitude": "30.01560987128206",
      "longitude": "-90.06803007767462"
    }
  },
  {
    "service_request": "2022-924085",
    "request_type": "Trash/Recycling",
    "request_reason": "Repair Trash Cart",
    "date_created": "2022-09-27T15:16:05.000",
    "date_modified": "2022-09-27T15:16:06.000",
    "request_status": "Pending",
    "responsible_agency": "Department of Sanitation",
    "final_address": "1710 Dante St",
    "address_councildis": "A",
    "status": "Assigned to Contractor",
    "contractor": "Richards Disposal",
    "rowid": "924085",
    "final_x": "3662650.49511",
    "final_y": "530269.224129",
    "longitude": "-90.1276321234759",
    "latitude": "29.952615308662278",
    "geocoded_column": {
      "latitude": "29.952615308662278",
      "longitude": "-90.1276321234759"
    }
  },
  {
    "service_request": "2022-924084",
    "request_type": "Roads/Drainage",
    "request_reason": "Damaged Sidewalk",
    "date_created": "2022-09-27T15:15:17.000",
    "date_modified": "2022-09-27T15:15:31.000",
    "request_status": "Pending",
    "responsible_agency": "Department of Public Works",
    "final_address": "4327 Hollygrove St",
    "address_councildis": "A",
    "status": "Pending",
    "rowid": "924084",
    "final_x": "3667235.2473",
    "final_y": "538754.267849",
    "longitude": "-90.1128701256064",
    "latitude": "29.975812925004774",
    "geocoded_column": {
      "latitude": "29.975812925004774",
      "longitude": "-90.1128701256064"
    }
  },
  {
    "service_request": "2022-924083",
    "request_type": "Abandoned Vehicles",
    "request_reason": "Abandoned/Junk Vehicles",
    "date_created": "2022-09-27T15:13:25.000",
    "date_modified": "2022-09-27T15:13:25.000",
    "request_status": "Pending",
    "responsible_agency": "Department of Public Works",
    "final_address": "10321 Castlewood Dr",
    "address_councildis": "E",
    "status": "Pending",
    "rowid": "924083",
    "final_x": "3709356.96984",
    "final_y": "564783.92733",
    "longitude": "-89.97886728564853",
    "latitude": "30.04608358755259",
    "geocoded_column": {
      "latitude": "30.04608358755259",
      "longitude": "-89.97886728564853"
    }
  },
  {
    "service_request": "2022-924082",
    "request_type": "Trash/Recycling",
    "request_reason": "MIssed Recycling Pick-Up",
    "date_created": "2022-09-27T15:11:29.000",
    "date_modified": "2022-09-27T15:11:29.000",
    "request_status": "Pending",
    "responsible_agency": "Department of Sanitation",
    "final_address": "3469 Wall Blvd",
    "address_councildis": "C",
    "status": "Assigned to Contractor",
    "contractor": "Richards Disposal",
    "rowid": "924082",
    "final_x": "3696104.05232",
    "final_y": "523772.610235",
    "longitude": "-90.02223613764197",
    "latitude": "29.93374155782828",
    "geocoded_column": {
      "latitude": "29.93374155782828",
      "longitude": "-90.02223613764197"
    }
  },
  {
    "service_request": "2022-924081",
    "request_type": "Trash/Recycling",
    "request_reason": "Replace Trash Cart",
    "date_created": "2022-09-27T15:11:10.000",
    "date_modified": "2022-09-27T15:11:31.000",
    "request_status": "Pending",
    "responsible_agency": "Department of Sanitation",
    "final_address": "1103 Marais St",
    "address_councildis": "C",
    "status": "Assigned to Contractor",
    "contractor": "Richards Disposal",
    "rowid": "924081",
    "final_x": "3681456.99477",
    "final_y": "535227.243782",
    "longitude": "-90.06807685531724",
    "latitude": "29.96569064464986",
    "geocoded_column": {
      "latitude": "29.96569064464986",
      "longitude": "-90.06807685531724"
    }
  },
  {
    "service_request": "2022-924080",
    "request_type": "Trash/Recycling",
    "request_reason": "Missed Trash Pick-Up",
    "date_created": "2022-09-27T15:09:57.000",
    "date_modified": "2022-09-27T15:09:57.000",
    "request_status": "Pending",
    "responsible_agency": "Department of Sanitation",
    "final_address": "4517 Loyola Ave",
    "address_councildis": "B",
    "status": "Assigned to Contractor",
    "contractor": "Richards Disposal",
    "rowid": "924080",
    "final_x": "3670081.45671",
    "final_y": "522981.508603",
    "longitude": "-90.10441523255717",
    "latitude": "29.932359364313772",
    "geocoded_column": {
      "latitude": "29.932359364313772",
      "longitude": "-90.10441523255717"
    }
  },
  {
    "service_request": "2022-924079",
    "request_type": "Roads/Drainage",
    "request_reason": "Street Subsidence (Sinking)",
    "date_created": "2022-09-27T15:08:22.000",
    "date_modified": "2022-09-27T15:29:23.000",
    "request_status": "Pending",
    "responsible_agency": "Department of Public Works",
    "final_address": "6100 BLK Chartres St",
    "address_councildis": "E",
    "status": "Pending",
    "rowid": "924079",
    "final_x": "3698953.5535",
    "final_y": "531479.985712",
    "longitude": "-90.01296007585982",
    "latitude": "29.954844185209947",
    "geocoded_column": {
      "latitude": "29.954844185209947",
      "longitude": "-90.01296007585982"
    }
  },
  {
    "service_request": "2022-924078",
    "request_type": "Trash/Recycling",
    "request_reason": "Repair Trash Cart",
    "date_created": "2022-09-27T15:07:20.000",
    "date_modified": "2022-09-27T15:07:21.000",
    "request_status": "Pending",
    "responsible_agency": "Department of Sanitation",
    "final_address": "207 River Oaks Dr",
    "address_councildis": "C",
    "status": "Assigned to Contractor",
    "contractor": "Richards Disposal",
    "rowid": "924078",
    "final_x": "3701542.86692",
    "final_y": "523224.971067",
    "longitude": "-90.00508622249473",
    "latitude": "29.932063502452092",
    "geocoded_column": {
      "latitude": "29.932063502452092",
      "longitude": "-90.00508622249473"
    }
  },
  {
    "service_request": "2022-924076",
    "request_type": "Parks & Parkways",
    "request_reason": "Request Tree Service (Right of Way/Public Property)",
    "date_created": "2022-09-27T15:06:33.000",
    "date_modified": "2022-09-27T15:06:33.000",
    "request_status": "Pending",
    "responsible_agency": "Department of Parks & Parkway",
    "final_address": "9130 Lake Forest Blvd",
    "address_councildis": "E",
    "status": "Pending",
    "rowid": "924076",
    "final_x": "3707916.8691",
    "final_y": "558395.358812",
    "longitude": "-89.98365652488303",
    "latitude": "30.028564283128052",
    "geocoded_column": {
      "latitude": "30.028564283128052",
      "longitude": "-89.98365652488303"
    }
  },
  {
    "service_request": "2022-924075",
    "request_type": "Traffic Signals/Signs/Striping/Streetlights",
    "request_reason": "Traffic Sign Missing/Damaged",
    "date_created": "2022-09-27T15:04:18.000",
    "date_modified": "2022-09-27T15:04:18.000",
    "request_status": "Pending",
    "responsible_agency": "Department of Public Works",
    "final_address": "5691 Marconi Dr",
    "address_councildis": "A",
    "status": "Pending",
    "rowid": "924075",
    "final_x": "3671139.63169",
    "final_y": "545235.777167",
    "longitude": "-90.10031866735613",
    "latitude": "29.993519932161075",
    "geocoded_column": {
      "latitude": "29.993519932161075",
      "longitude": "-90.10031866735613"
    }
  },
  {
    "service_request": "2022-924072",
    "request_type": "Trash/Recycling",
    "request_reason": "Illegal Dumping",
    "date_created": "2022-09-27T14:56:09.000",
    "date_modified": "2022-09-27T14:57:15.000",
    "request_status": "Pending",
    "responsible_agency": "Department of Sanitation",
    "final_address": "LAW ST & ST ROCH AVE",
    "address_councildis": "D",
    "status": "Pending",
    "rowid": "924072",
    "final_x": "3686016.5",
    "final_y": "541935.18",
    "longitude": "-90.05344152262006",
    "latitude": "29.98399589426497",
    "geocoded_column": {
      "latitude": "29.98399589426497",
      "longitude": "-90.05344152262006"
    }
  },
  {
    "service_request": "2022-924071",
    "request_type": "Roads/Drainage",
    "request_reason": "Street Subsidence (Sinking)",
    "date_created": "2022-09-27T14:55:29.000",
    "date_modified": "2022-09-27T14:55:29.000",
    "request_status": "Pending",
    "responsible_agency": "Department of Public Works",
    "final_address": "3123 Dauphine St",
    "address_councildis": "C",
    "status": "Pending",
    "rowid": "924071",
    "final_x": "3688909.17641",
    "final_y": "534838.142918",
    "longitude": "-90.0445570352468",
    "latitude": "29.96439238432265",
    "geocoded_column": {
      "latitude": "29.96439238432265",
      "longitude": "-90.0445570352468"
    }
  },
  {
    "service_request": "2022-924070",
    "request_type": "Trash/Recycling",
    "request_reason": "Request a Large Item Pick Up",
    "date_created": "2022-09-27T14:54:41.000",
    "date_modified": "2022-09-27T14:54:42.000",
    "request_status": "Pending",
    "responsible_agency": "Department of Sanitation",
    "final_address": "HARCOURT DR & PERLITA ST",
    "address_councildis": "D",
    "status": "Assigned to Contractor",
    "contractor": "Metro Disposal",
    "rowid": "924070",
    "final_x": "3678805.5",
    "final_y": "548521.28",
    "longitude": "-90.07598950301563",
    "latitude": "30.002324854547574",
    "geocoded_column": {
      "latitude": "30.002324854547574",
      "longitude": "-90.07598950301563"
    }
  },
  {
    "service_request": "2022-924069",
    "request_type": "Traffic Signals/Signs/Striping/Streetlights",
    "request_reason": "Street Light Outage/Malfunction",
    "date_created": "2022-09-27T14:54:06.000",
    "date_modified": "2022-09-27T14:54:07.000",
    "request_status": "Pending",
    "responsible_agency": "Department of Public Works",
    "final_address": "2502 Audubon St",
    "address_councildis": "A",
    "status": "Pending",
    "contractor": "Legacy Professional Services",
    "rowid": "924069",
    "final_x": "3667040.94567",
    "final_y": "530290.291585",
    "longitude": "-90.11376830343504",
    "latitude": "29.952545477424074",
    "geocoded_column": {
      "latitude": "29.952545477424074",
      "longitude": "-90.11376830343504"
    }
  },
  {
    "service_request": "2022-924067",
    "request_type": "Trash/Recycling",
    "request_reason": "Request a Large Item Pick Up",
    "date_created": "2022-09-27T14:44:01.000",
    "date_modified": "2022-09-27T14:44:02.000",
    "request_status": "Pending",
    "responsible_agency": "Department of Sanitation",
    "final_address": "6643 Manchester St",
    "address_councildis": "E",
    "status": "Assigned to Contractor",
    "contractor": "Metro Disposal",
    "rowid": "924067",
    "final_x": "3697668.91178",
    "final_y": "559709.557277",
    "longitude": "-90.01599166558603",
    "latitude": "30.03250574948973",
    "geocoded_column": {
      "latitude": "30.03250574948973",
      "longitude": "-90.01599166558603"
    }
  },
  {
    "service_request": "2022-924066",
    "request_type": "Trash/Recycling",
    "request_reason": "Missed Trash Pick-Up",
    "date_created": "2022-09-27T14:43:46.000",
    "date_modified": "2022-09-27T14:43:46.000",
    "request_status": "Pending",
    "responsible_agency": "Department of Sanitation",
    "final_address": "1623 Abundance St",
    "address_councildis": "D",
    "status": "Assigned to Contractor",
    "contractor": "Metro Disposal",
    "rowid": "924066",
    "final_x": "3680105.26587",
    "final_y": "543361.801934",
    "longitude": "-90.07206279866409",
    "latitude": "29.988098834507667",
    "geocoded_column": {
      "latitude": "29.988098834507667",
      "longitude": "-90.07206279866409"
    }
  },
  {
    "service_request": "2022-924065",
    "request_type": "Property Maintenance",
    "request_reason": "Property Maintenance",
    "date_created": "2022-09-27T14:43:32.000",
    "date_modified": "2022-09-27T14:43:32.000",
    "request_status": "Pending",
    "responsible_agency": "Department of Code Enforcement",
    "final_address": "14021 Wales St",
    "address_councildis": "E",
    "status": "Pending",
    "rowid": "924065",
    "final_x": "3718183.08505",
    "final_y": "572700.587305",
    "longitude": "-89.9506706987162",
    "latitude": "30.067561298032235",
    "geocoded_column": {
      "latitude": "30.067561298032235",
      "longitude": "-89.9506706987162"
    }
  },
  {
    "service_request": "2022-924064",
    "request_type": "Trash/Recycling",
    "request_reason": "Replace Trash Cart",
    "date_created": "2022-09-27T14:43:19.000",
    "date_modified": "2022-09-27T14:43:20.000",
    "request_status": "Pending",
    "responsible_agency": "Department of Sanitation",
    "final_address": "3710 S Dorgenois St",
    "address_councildis": "B",
    "status": "Assigned to Contractor",
    "contractor": "Richards Disposal",
    "rowid": "924064",
    "final_x": "3670926.93569",
    "final_y": "528884.538944",
    "longitude": "-90.10154579526692",
    "latitude": "29.948565820536373",
    "geocoded_column": {
      "latitude": "29.948565820536373",
      "longitude": "-90.10154579526692"
    }
  },
  {
    "service_request": "2022-924063",
    "request_type": "Trash/Recycling",
    "request_reason": "Replace Trash Cart",
    "date_created": "2022-09-27T14:41:27.000",
    "date_modified": "2022-09-27T14:41:27.000",
    "request_status": "Pending",
    "responsible_agency": "Department of Sanitation",
    "final_address": "1438 Leonidas St",
    "address_councildis": "A",
    "status": "Assigned to Contractor",
    "contractor": "Richards Disposal",
    "rowid": "924063",
    "final_x": "3661288.78157",
    "final_y": "530335.333698",
    "longitude": "-90.13192963449835",
    "latitude": "29.952836417147086",
    "geocoded_column": {
      "latitude": "29.952836417147086",
      "longitude": "-90.13192963449835"
    }
  },
  {
    "service_request": "2022-924062",
    "request_type": "Trash/Recycling",
    "request_reason": "Missed Trash Pick-Up",
    "date_created": "2022-09-27T14:41:22.000",
    "date_modified": "2022-09-27T14:41:23.000",
    "request_status": "Pending",
    "responsible_agency": "Department of Sanitation",
    "final_address": "700 Block of Jefferson Ave, New Orleans, Louisiana, 70115",
    "status": "Assigned to Contractor",
    "rowid": "924062",
    "longitude": "0.0",
    "latitude": "0.0",
    "geocoded_column": {
      "latitude": "0.0",
      "longitude": "0.0"
    }
  },
  {
    "service_request": "2022-924061",
    "request_type": "Parks & Parkways",
    "request_reason": "Request Tree Service (Right of Way/Public Property)",
    "date_created": "2022-09-27T14:41:03.000",
    "date_modified": "2022-09-27T14:41:04.000",
    "request_status": "Pending",
    "responsible_agency": "Department of Parks & Parkway",
    "final_address": "2130 Annette St",
    "address_councildis": "D",
    "status": "Pending",
    "rowid": "924061",
    "final_x": "3682797.15752",
    "final_y": "540090.266059",
    "longitude": "-90.06367450904084",
    "latitude": "29.979021511336924",
    "geocoded_column": {
      "latitude": "29.979021511336924",
      "longitude": "-90.06367450904084"
    }
  },
  {
    "service_request": "2022-924059",
    "request_type": "Trash/Recycling",
    "request_reason": "Replace Trash Cart",
    "date_created": "2022-09-27T14:31:58.000",
    "date_modified": "2022-09-27T14:31:59.000",
    "request_status": "Pending",
    "responsible_agency": "Department of Sanitation",
    "final_address": "2801 Chartres St",
    "address_councildis": "C",
    "status": "Assigned to Contractor",
    "contractor": "Metro Disposal",
    "rowid": "924059",
    "final_x": "3687327.10914",
    "final_y": "534508.944517",
    "longitude": "-90.04956471417451",
    "latitude": "29.963536036136475",
    "geocoded_column": {
      "latitude": "29.963536036136475",
      "longitude": "-90.04956471417451"
    }
  },
  {
    "service_request": "2022-924058",
    "request_type": "Abandoned Vehicles",
    "request_reason": "Abandoned/Junk Vehicles",
    "date_created": "2022-09-27T14:31:00.000",
    "date_modified": "2022-09-27T14:35:03.000",
    "request_status": "Pending",
    "responsible_agency": "Department of Public Works",
    "final_address": "4439 Woodland Dr",
    "address_councildis": "C",
    "status": "Pending",
    "rowid": "924058",
    "final_x": "3705410.72177",
    "final_y": "513710.572274",
    "longitude": "-89.99322717817213",
    "latitude": "29.905778349775822",
    "geocoded_column": {
      "latitude": "29.905778349775822",
      "longitude": "-89.99322717817213"
    }
  },
  {
    "service_request": "2022-924057",
    "request_type": "Roads/Drainage",
    "request_reason": "Catch Basin - Clogged",
    "date_created": "2022-09-27T14:28:03.000",
    "date_modified": "2022-09-27T14:28:03.000",
    "request_status": "Pending",
    "responsible_agency": "Department of Public Works",
    "final_address": "1020 Pauline St",
    "address_councildis": "C",
    "status": "Pending",
    "rowid": "924057",
    "final_x": "3691117.51459",
    "final_y": "535195.48679",
    "longitude": "-90.03757054119713",
    "latitude": "29.965306473488177",
    "geocoded_column": {
      "latitude": "29.965306473488177",
      "longitude": "-90.03757054119713"
    }
  },
  {
    "service_request": "2022-924056",
    "request_type": "Abandoned Vehicles",
    "request_reason": "Abandoned/Junk Vehicles",
    "date_created": "2022-09-27T14:27:14.000",
    "date_modified": "2022-09-27T14:28:25.000",
    "request_status": "Pending",
    "responsible_agency": "Department of Public Works",
    "final_address": "9014 Edinburgh St",
    "address_councildis": "A",
    "status": "Pending",
    "rowid": "924056",
    "final_x": "3665018.90573",
    "final_y": "536630.145223",
    "longitude": "-90.1199410297224",
    "latitude": "29.97003701833087",
    "geocoded_column": {
      "latitude": "29.97003701833087",
      "longitude": "-90.1199410297224"
    }
  },
  {
    "service_request": "2022-924055",
    "request_type": "Abandoned Vehicles",
    "request_reason": "Abandoned/Junk Vehicles",
    "date_created": "2022-09-27T14:26:48.000",
    "date_modified": "2022-09-27T14:26:48.000",
    "request_status": "Pending",
    "responsible_agency": "Department of Public Works",
    "final_address": "2508 Congress St",
    "address_councildis": "D",
    "status": "Pending",
    "rowid": "924055",
    "final_x": "3692018.82422",
    "final_y": "540960.553995",
    "longitude": "-90.0345178981393",
    "latitude": "29.981130305811167",
    "geocoded_column": {
      "latitude": "29.981130305811167",
      "longitude": "-90.0345178981393"
    }
  },
  {
    "service_request": "2022-924054",
    "request_type": "Trash/Recycling",
    "request_reason": "MIssed Recycling Pick-Up",
    "date_created": "2022-09-27T14:24:44.000",
    "date_modified": "2022-09-27T14:24:44.000",
    "request_status": "Pending",
    "responsible_agency": "Department of Sanitation",
    "final_address": "1030 Napoleon Ave",
    "address_councildis": "B",
    "status": "Assigned to Contractor",
    "contractor": "Richards Disposal",
    "rowid": "924054",
    "final_x": "3670907.11841",
    "final_y": "519383.152759",
    "longitude": "-90.10193076738874",
    "latitude": "29.92244066199181",
    "geocoded_column": {
      "latitude": "29.92244066199181",
      "longitude": "-90.10193076738874"
    }
  },
  {
    "service_request": "2022-924053",
    "request_type": "Abandoned Vehicles",
    "request_reason": "Abandoned/Junk Vehicles",
    "date_created": "2022-09-27T14:22:39.000",
    "date_modified": "2022-09-27T14:22:39.000",
    "request_status": "Pending",
    "responsible_agency": "Department of Public Works",
    "final_address": "907 Port St",
    "address_councildis": "C",
    "status": "Pending",
    "rowid": "924053",
    "final_x": "3687269.90863",
    "final_y": "535687.529799",
    "longitude": "-90.04970365286738",
    "latitude": "29.966778497901004",
    "geocoded_column": {
      "latitude": "29.966778497901004",
      "longitude": "-90.04970365286738"
    }
  },
  {
    "service_request": "2022-924052",
    "request_type": "Trash/Recycling",
    "request_reason": "Illegal Dumping",
    "date_created": "2022-09-27T14:21:35.000",
    "date_modified": "2022-09-27T14:21:35.000",
    "request_status": "Pending",
    "responsible_agency": "Department of Sanitation",
    "final_address": "2700 BLK S Derbigny St",
    "address_councildis": "B",
    "status": "Pending",
    "rowid": "924052",
    "final_x": "3673067.3474",
    "final_y": "527130.062982",
    "longitude": "-90.09484747784998",
    "latitude": "29.943678145751193",
    "geocoded_column": {
      "latitude": "29.943678145751193",
      "longitude": "-90.09484747784998"
    }
  },
  {
    "service_request": "2022-924051",
    "request_type": "Traffic Signals/Signs/Striping/Streetlights",
    "request_reason": "Street Light Outage/Malfunction",
    "date_created": "2022-09-27T14:21:11.000",
    "date_modified": "2022-09-27T14:21:12.000",
    "request_status": "Pending",
    "responsible_agency": "Department of Public Works",
    "final_address": "2414 Audubon St",
    "address_councildis": "A",
    "status": "Pending",
    "contractor": "Legacy Professional Services",
    "rowid": "924051",
    "final_x": "3666900.22586",
    "final_y": "530110.671873",
    "longitude": "-90.1142186686847",
    "latitude": "29.952055699281335",
    "geocoded_column": {
      "latitude": "29.952055699281335",
      "longitude": "-90.1142186686847"
    }
  },
  {
    "service_request": "2022-924049",
    "request_type": "Traffic Signals/Signs/Striping/Streetlights",
    "request_reason": "Street Light Outage/Malfunction",
    "date_created": "2022-09-27T14:19:12.000",
    "date_modified": "2022-09-27T14:19:12.000",
    "request_status": "Pending",
    "responsible_agency": "Department of Public Works",
    "final_address": "6115 Perrier St",
    "address_councildis": "A",
    "status": "Pending",
    "contractor": "Legacy Professional Services",
    "rowid": "924049",
    "final_x": "3664495.39988",
    "final_y": "520802.324281",
    "longitude": "-90.12212269700856",
    "latitude": "29.926530847825603",
    "geocoded_column": {
      "latitude": "29.926530847825603",
      "longitude": "-90.12212269700856"
    }
  },
  {
    "service_request": "2022-924048",
    "request_type": "Trash/Recycling",
    "request_reason": "Request a Large Item Pick Up",
    "date_created": "2022-09-27T14:18:42.000",
    "date_modified": "2022-09-27T14:18:43.000",
    "request_status": "Pending",
    "responsible_agency": "Department of Sanitation",
    "final_address": "933 Hagan St",
    "address_councildis": "A",
    "status": "Assigned to Contractor",
    "contractor": "Richards Disposal",
    "rowid": "924048",
    "final_x": "3675270.06209",
    "final_y": "539319.28769",
    "longitude": "-90.08747447467265",
    "latitude": "29.977128771988696",
    "geocoded_column": {
      "latitude": "29.977128771988696",
      "longitude": "-90.08747447467265"
    }
  },
  {
    "service_request": "2022-924047",
    "request_type": "Trash/Recycling",
    "request_reason": "Request a Large Item Pick Up",
    "date_created": "2022-09-27T14:14:26.000",
    "date_modified": "2022-09-27T14:14:27.000",
    "request_status": "Pending",
    "responsible_agency": "Department of Sanitation",
    "final_address": "5501 Norgate Dr",
    "address_councildis": "E",
    "status": "Assigned to Contractor",
    "contractor": "Metro Disposal",
    "rowid": "924047",
    "final_x": "3707253.43864",
    "final_y": "557944.381595",
    "longitude": "-89.98576967532644",
    "latitude": "30.02734574251269",
    "geocoded_column": {
      "latitude": "30.02734574251269",
      "longitude": "-89.98576967532644"
    }
  },
  {
    "service_request": "2022-924046",
    "request_type": "Trash/Recycling",
    "request_reason": "Order Recycling Cart",
    "date_created": "2022-09-27T14:14:24.000",
    "date_modified": "2022-09-27T14:14:24.000",
    "request_status": "Pending",
    "responsible_agency": "Department of Sanitation",
    "final_address": "817 Jackson Ave",
    "address_councildis": "B",
    "status": "Pending",
    "rowid": "924046",
    "final_x": "3679465.53365",
    "final_y": "521360.915129",
    "longitude": "-90.07484675688465",
    "latitude": "29.92762318833614",
    "geocoded_column": {
      "latitude": "29.92762318833614",
      "longitude": "-90.07484675688465"
    }
  },
  {
    "service_request": "2022-924045",
    "request_type": "Trash/Recycling",
    "request_reason": "Illegal Dumping",
    "date_created": "2022-09-27T14:09:40.000",
    "date_modified": "2022-09-27T14:09:41.000",
    "request_status": "Pending",
    "responsible_agency": "Department of Sanitation",
    "final_address": "2600 Bienville Ave",
    "address_councildis": "B",
    "status": "Pending",
    "rowid": "924045",
    "final_x": "3676189.97512",
    "final_y": "535362.459462",
    "longitude": "-90.08470526799579",
    "latitude": "29.966221309130145",
    "geocoded_column": {
      "latitude": "29.966221309130145",
      "longitude": "-90.08470526799579"
    }
  },