[
  {
    "service_request": "2024-1088556",
    "request_type": "Traffic Signals/Signs/Striping/Streetlights",
    "request_reason": "Street Light Outage/Malfunction",
    "date_created": "2024-04-28T23:55:02.000",
    "date_modified": "2024-04-28T23:55:03.000",
    "request_status": "Pending",
    "responsible_agency": "Department of Public Works",
    "final_address": "1520 Constance St",
    "address_councildis": "B",
    "status": "Assigned to Contractor",
    "contractor": "Legacy Professional Services",
    "rowid": "1088556",
    "final_x": "3680537.2708",
    "final_y": "523512.305595",
    "longitude": "-90.07138874750426",
    "latitude": "29.933506394497115",
    "geocoded_column": {
      "latitude": "29.933506394497115",
      "longitude": "-90.07138874750426"
    }
  },
  {
    "service_request": "2024-1088553",
    "request_type": "Trash/Recycling",
    "request_reason": "Order Trash Cart",
    "date_created": "2024-04-28T22:54:02.000",
    "date_modified": "2024-04-28T22:54:03.000",
    "request_status": "Pending",
    "responsible_agency": "Department of Sanitation",
    "final_address": "1945 Casa Calvo St",
    "address_councildis": "C",
    "status": "Assigned to Contractor",
    "contractor": "Richards Disposal",
    "rowid": "1088553",
    "final_x": "3691900.43344",
    "final_y": "523946.554364",
    "longitude": "-90.03550048804725",
    "latitude": "29.934351431349434",
    "geocoded_column": {
      "latitude": "29.934351431349434",
      "longitude": "-90.03550048804725"
    }
  },
  {
    "service_request": "2024-1088552",
    "request_type": "Trash/Recycling",
    "request_reason": "Request a Large Item Pick Up",
    "date_created": "2024-04-28T22:21:21.000",
    "date_modified": "2024-04-28T22:21:22.000",
    "request_status": "Pending",
    "responsible_agency": "Department of Sanitation",
    "final_address": "2420 Valentine Ct",
    "address_councildis": "C",
    "status": "Assigned to Contractor",
    "contractor": "Richards Disposal",
    "rowid": "1088552",
    "final_x": "3699305.81514",
    "final_y": "522301.990586",
    "longitude": "-90.01218191973277",
    "latitude": "29.92959673857645",
    "geocoded_column": {
      "latitude": "29.92959673857645",
      "longitude": "-90.01218191973277"
    }
  },
  {
    "service_request": "2024-1088551",
    "request_type": "Trash/Recycling",
    "request_reason": "Request a Large Item Pick Up",
    "date_created": "2024-04-28T22:04:26.000",
    "date_modified": "2024-04-28T22:04:27.000",
    "request_status": "Pending",
    "responsible_agency": "Department of Sanitation",
    "final_address": "4736 Donna Dr",
    "address_councildis": "E",
    "status": "Assigned to Contractor",
    "contractor": "Waste Pro",
    "rowid": "1088551",
    "final_x": "3710944.58814",
    "final_y": "555753.646553",
    "longitude": "-89.9741881850872",
    "latitude": "30.021202205141854",
    "geocoded_column": {
      "latitude": "30.021202205141854",
      "longitude": "-89.9741881850872"
    }
  },
  {
    "service_request": "2024-1088550",
    "request_type": "Trash/Recycling",
    "request_reason": "Request a Large Item Pick Up",
    "date_created": "2024-04-28T21:35:22.000",
    "date_modified": "2024-04-28T21:35:23.000",
    "request_status": "Pending",
    "responsible_agency": "Department of Sanitation",
    "final_address": "2065 Chippewa St",
    "address_councildis": "B",
    "status": "Assigned to Contractor",
    "contractor": "IV Waste",
    "rowid": "1088550",
    "final_x": "3680069.3604",
    "final_y": "521212.699385",
    "longitude": "-90.07294576886079",
    "latitude": "29.927197394257494",
    "geocoded_column": {
      "latitude": "29.927197394257494",
      "longitude": "-90.07294576886079"
    }
  },
  {
    "service_request": "2024-1088549",
    "request_type": "Property Maintenance",
    "request_reason": "Property Maintenance",
    "date_created": "2024-04-28T21:34:30.000",
    "date_modified": "2024-04-28T21:34:30.000",
    "request_status": "Pending",
    "responsible_agency": "Department of Code Enforcement",
    "final_address": "3417 Johnny Jackson Jr Blvd",
    "address_councildis": "D",
    "status": "Pending",
    "rowid": "1088549",
    "final_x": "3691932.50429",
    "final_y": "545047.643983",
    "longitude": "-90.0346442260932",
    "latitude": "29.992371020685287",
    "geocoded_column": {
      "latitude": "29.992371020685287",
      "longitude": "-90.0346442260932"
    }
  },
  {
    "service_request": "2024-1088548",
    "request_type": "Property Maintenance",
    "request_reason": "Property Maintenance",
    "date_created": "2024-04-28T21:16:22.000",
    "date_modified": "2024-04-28T21:16:22.000",
    "request_status": "Pending",
    "responsible_agency": "Department of Code Enforcement",
    "final_address": "1901 Robert St",
    "address_councildis": "B",
    "status": "Pending",
    "rowid": "1088548",
    "final_x": "3668853.53473",
    "final_y": "522544.116922",
    "longitude": "-90.10830644359065",
    "latitude": "29.93119283182215",
    "geocoded_column": {
      "latitude": "29.93119283182215",
      "longitude": "-90.10830644359065"
    }
  },
  {
    "service_request": "2024-1088547",
    "request_type": "Traffic Signals/Signs/Striping/Streetlights",
    "request_reason": "Street Light Outage/Malfunction",
    "date_created": "2024-04-28T21:10:24.000",
    "date_modified": "2024-04-28T21:10:24.000",
    "request_status": "Pending",
    "responsible_agency": "Department of Public Works",
    "final_address": "10 Veterans Blvd",
    "address_councildis": "A",
    "status": "Assigned to Contractor",
    "contractor": "Legacy Professional Services",
    "rowid": "1088547",
    "final_x": "3666244.22503",
    "final_y": "547220.510545",
    "longitude": "-90.11571592849909",
    "latitude": "29.99912120731801",
    "geocoded_column": {
      "latitude": "29.99912120731801",
      "longitude": "-90.11571592849909"
    }
  },
  {
    "service_request": "2024-1088546",
    "request_type": "Trash/Recycling",
    "request_reason": "Order Recycling Cart",
    "date_created": "2024-04-28T21:07:42.000",
    "date_modified": "2024-04-28T21:07:42.000",
    "request_status": "Pending",
    "responsible_agency": "Department of Sanitation",
    "final_address": "229 S Alexander St",
    "address_councildis": "A",
    "status": "Pending",
    "rowid": "1088546",
    "final_x": "3669542.14638",
    "final_y": "538662.518537",
    "longitude": "-90.10558736948084",
    "latitude": "29.975492880835233",
    "geocoded_column": {
      "latitude": "29.975492880835233",
      "longitude": "-90.10558736948084"
    }
  },
  {
    "service_request": "2024-1088545",
    "request_type": "Trash/Recycling",
    "request_reason": "Order Recycling Cart",
    "date_created": "2024-04-28T21:06:16.000",
    "date_modified": "2024-04-28T21:06:16.000",
    "request_status": "Pending",
    "responsible_agency": "Department of Sanitation",
    "final_address": "5808 Orleans Ave",
    "address_councildis": "A",
    "status": "Pending",
    "rowid": "1088545",
    "final_x": "3670724.15515",
    "final_y": "545846.088464",
    "longitude": "-90.10161037228227",
    "latitude": "29.995210363979112",
    "geocoded_column": {
      "latitude": "29.995210363979112",
      "longitude": "-90.10161037228227"
    }
  },
  {
    "service_request": "2024-1088544",
    "request_type": "Abandoned Vehicles",
    "request_reason": "Abandoned/Junk Vehicles",
    "date_created": "2024-04-28T21:05:50.000",
    "date_modified": "2024-04-28T21:05:50.000",
    "request_status": "Pending",
    "responsible_agency": "Department of Public Works",
    "final_address": "2235 Valence St",
    "address_councildis": "B",
    "status": "Pending",
    "rowid": "1088544",
    "final_x": "3669593.09774",
    "final_y": "523176.902331",
    "longitude": "-90.10595033395553",
    "latitude": "29.932911027242017",
    "geocoded_column": {
      "latitude": "29.932911027242017",
      "longitude": "-90.10595033395553"
    }
  },
  {
    "service_request": "2024-1088543",
    "request_type": "Abandoned Vehicles",
    "request_reason": "Abandoned/Junk Vehicles",
    "date_created": "2024-04-28T20:56:13.000",
    "date_modified": "2024-04-28T20:56:13.000",
    "request_status": "Pending",
    "responsible_agency": "Department of Public Works",
    "final_address": "2205 Soniat St",
    "address_councildis": "B",
    "status": "Pending",
    "rowid": "1088543",
    "final_x": "3668536.93678",
    "final_y": "523629.658939",
    "longitude": "-90.10926929702626",
    "latitude": "29.934187028337647",
    "geocoded_column": {
      "latitude": "29.934187028337647",
      "longitude": "-90.10926929702626"
    }
  },
  {
    "service_request": "2024-1088542",
    "request_type": "Trash/Recycling",
    "request_reason": "Request a Large Item Pick Up",
    "date_created": "2024-04-28T20:55:45.000",
    "date_modified": "2024-04-28T20:55:46.000",
    "request_status": "Pending",
    "responsible_agency": "Department of Sanitation",
    "final_address": "5638 Debore Dr",
    "address_councildis": "D",
    "status": "Assigned to Contractor",
    "contractor": "IV Waste",
    "rowid": "1088542",
    "final_x": "3691585.02672",
    "final_y": "554776.214552",
    "longitude": "-90.03539373818116",
    "latitude": "30.019131834103735",
    "geocoded_column": {
      "latitude": "30.019131834103735",
      "longitude": "-90.03539373818116"
    }
  },
  {
    "service_request": "2024-1088541",
    "request_type": "Traffic Signals/Signs/Striping/Streetlights",
    "request_reason": "Traffic Sign Missing/Damaged",
    "date_created": "2024-04-28T20:53:44.000",
    "date_modified": "2024-04-28T20:53:44.000",
    "request_status": "Pending",
    "responsible_agency": "Department of Public Works",
    "final_address": "ANNUNCIATION ST & JOHN CHURCHILL CHASE ST",
    "address_councildis": "B",
    "status": "Pending",
    "rowid": "1088541",
    "final_x": "3681588.8",
    "final_y": "526105.18",
    "longitude": "-90.06797873750143",
    "latitude": "29.940604052500326",
    "geocoded_column": {
      "latitude": "29.940604052500326",
      "longitude": "-90.06797873750143"
    }
  },
  {
    "service_request": "2024-1088540",
    "request_type": "Traffic Signals/Signs/Striping/Streetlights",
    "request_reason": "Street Light Outage/Malfunction",
    "date_created": "2024-04-28T20:47:43.000",
    "date_modified": "2024-04-28T20:47:44.000",
    "request_status": "Pending",
    "responsible_agency": "Department of Public Works",
    "final_address": "6868 Canal Blvd",
    "address_councildis": "A",
    "status": "Assigned to Contractor",
    "contractor": "Legacy Professional Services",
    "rowid": "1088540",
    "final_x": "3668887.18503",
    "final_y": "553189.229143",
    "longitude": "-90.1071649655128",
    "latitude": "30.01545560732709",
    "geocoded_column": {
      "latitude": "30.01545560732709",
      "longitude": "-90.1071649655128"
    }
  },
  {
    "service_request": "2024-1088539",
    "request_type": "Abandoned Vehicles",
    "request_reason": "Abandoned/Junk Vehicles",
    "date_created": "2024-04-28T20:43:18.000",
    "date_modified": "2024-04-28T20:43:18.000",
    "request_status": "Pending",
    "responsible_agency": "Department of Public Works",
    "final_address": "2321 Upperline St",
    "address_councildis": "B",
    "status": "Pending",
    "rowid": "1088539",
    "final_x": "3669190.10868",
    "final_y": "523394.357051",
    "longitude": "-90.10721519833862",
    "latitude": "29.933520821295623",
    "geocoded_column": {
      "latitude": "29.933520821295623",
      "longitude": "-90.10721519833862"
    }
  },
  {
    "service_request": "2024-1088538",
    "request_type": "Abandoned Vehicles",
    "request_reason": "Abandoned/Junk Vehicles",
    "date_created": "2024-04-28T20:33:34.000",
    "date_modified": "2024-04-28T20:33:34.000",
    "request_status": "Pending",
    "responsible_agency": "Department of Public Works",
    "final_address": "1921 Soniat St",
    "address_councildis": "B",
    "status": "Pending",
    "rowid": "1088538",
    "final_x": "3668516.1899",
    "final_y": "522693.833722",
    "longitude": "-90.1093663525099",
    "latitude": "29.931614417811204",
    "geocoded_column": {
      "latitude": "29.931614417811204",
      "longitude": "-90.1093663525099"
    }
  },
  {
    "service_request": "2024-1088537",
    "request_type": "Traffic Signals/Signs/Striping/Streetlights",
    "request_reason": "Street Light Outage/Malfunction",
    "date_created": "2024-04-28T20:23:01.000",
    "date_modified": "2024-04-28T20:23:01.000",
    "request_status": "Pending",
    "responsible_agency": "Department of Public Works",
    "final_address": "4100 BLK Vendome Pl",
    "address_councildis": "B",
    "status": "Assigned to Contractor",
    "contractor": "Legacy Professional Services",
    "rowid": "1088537",
    "final_x": "3668887.99519",
    "final_y": "530720.296615",
    "longitude": "-90.1079216201178",
    "latitude": "29.95367366561618",
    "geocoded_column": {
      "latitude": "29.95367366561618",
      "longitude": "-90.1079216201178"
    }
  },
  {
    "service_request": "2024-1088536",
    "request_type": "Traffic Signals/Signs/Striping/Streetlights",
    "request_reason": "Street Name Sign Damaged or Missing",
    "date_created": "2024-04-28T20:20:22.000",
    "date_modified": "2024-04-28T20:20:22.000",
    "request_status": "Pending",
    "responsible_agency": "Department of Public Works",
    "final_address": "PLYMOUTH PL & GENERAL DE GAULLE DR",
    "address_councildis": "C",
    "status": "Pending",
    "rowid": "1088536",
    "final_x": "3702658.2",
    "final_y": "516478.88",
    "longitude": "-90.00181273199479",
    "latitude": "29.913478483398624",
    "geocoded_column": {
      "latitude": "29.913478483398624",
      "longitude": "-90.00181273199479"
    }
  },
  {
    "service_request": "2024-1088535",
    "request_type": "Abandoned Vehicles",
    "request_reason": "Abandoned/Junk Vehicles",
    "date_created": "2024-04-28T20:13:30.000",
    "date_modified": "2024-04-28T20:13:30.000",
    "request_status": "Pending",
    "responsible_agency": "Department of Public Works",
    "final_address": "2100 Valence St",
    "address_councildis": "B",
    "status": "Pending",
    "rowid": "1088535",
    "final_x": "3669498.21518",
    "final_y": "522703.540026",
    "longitude": "-90.10626587504146",
    "latitude": "29.931612226907802",
    "geocoded_column": {
      "latitude": "29.931612226907802",
      "longitude": "-90.10626587504146"
    }
  },
  {
    "service_request": "2024-1088534",
    "request_type": "Abandoned Vehicles",
    "request_reason": "Abandoned/Junk Vehicles",
    "date_created": "2024-04-28T20:08:39.000",
    "date_modified": "2024-04-28T20:08:39.000",
    "request_status": "Pending",
    "responsible_agency": "Department of Public Works",
    "final_address": "2100 Valence St",
    "address_councildis": "B",
    "status": "Pending",
    "rowid": "1088534",
    "final_x": "3669498.21518",
    "final_y": "522703.540026",
    "longitude": "-90.10626587504146",
    "latitude": "29.931612226907802",
    "geocoded_column": {
      "latitude": "29.931612226907802",
      "longitude": "-90.10626587504146"
    }
  },
  {
    "service_request": "2024-1088533",
    "request_type": "Abandoned Vehicles",
    "request_reason": "Abandoned/Junk Vehicles",
    "date_created": "2024-04-28T19:54:09.000",
    "date_modified": "2024-04-28T19:54:09.000",
    "request_status": "Pending",
    "responsible_agency": "Department of Public Works",
    "final_address": "4902 Loyola Ave",
    "address_councildis": "B",
    "status": "Pending",
    "rowid": "1088533",
    "final_x": "3669087.68039",
    "final_y": "522812.807355",
    "longitude": "-90.10755819974142",
    "latitude": "29.931924759298777",
    "geocoded_column": {
      "latitude": "29.931924759298777",
      "longitude": "-90.10755819974142"
    }
  },
  {
    "service_request": "2024-1088532",
    "request_type": "Abandoned Vehicles",
    "request_reason": "Abandoned/Junk Vehicles",
    "date_created": "2024-04-28T19:16:04.000",
    "date_modified": "2024-04-28T19:16:04.000",
    "request_status": "Pending",
    "responsible_agency": "Department of Public Works",
    "final_address": "2017 Laurel St",
    "address_councildis": "B",
    "status": "Pending",
    "rowid": "1088532",
    "final_x": "3679777.22229",
    "final_y": "521907.75705",
    "longitude": "-90.07384385673966",
    "latitude": "29.92911740785258",
    "geocoded_column": {
      "latitude": "29.92911740785258",
      "longitude": "-90.07384385673966"
    }
  },
  {
    "service_request": "2024-1088531",
    "request_type": "Roads/Drainage",
    "request_reason": "Catch Basin - Clogged",
    "date_created": "2024-04-28T19:09:16.000",
    "date_modified": "2024-04-28T19:09:16.000",
    "request_status": "Pending",
    "responsible_agency": "Department of Public Works",
    "final_address": "2037 Soniat St",
    "address_councildis": "B",
    "status": "Pending",
    "rowid": "1088531",
    "final_x": "3668528.85076",
    "final_y": "523178.183099",
    "longitude": "-90.10931004985449",
    "latitude": "29.9329458518581",
    "geocoded_column": {
      "latitude": "29.9329458518581",
      "longitude": "-90.10931004985449"
    }
  },
  {
    "service_request": "2024-1088529",
    "request_type": "Abandoned Vehicles",
    "request_reason": "Abandoned/Junk Vehicles",
    "date_created": "2024-04-28T18:40:50.000",
    "date_modified": "2024-04-28T18:40:50.000",
    "request_status": "Pending",
    "responsible_agency": "Department of Public Works",
    "final_address": "3932 St Claude Ave",
    "address_councildis": "C",
    "status": "Pending",
    "rowid": "1088529",
    "final_x": "3691739.26608",
    "final_y": "535275.582022",
    "longitude": "-90.03560422377498",
    "latitude": "29.965507359690648",
    "geocoded_column": {
      "latitude": "29.965507359690648",
      "longitude": "-90.03560422377498"
    }
  },
  {
    "service_request": "2024-1088528",
    "request_type": "Trash/Recycling",
    "request_reason": "Request a Large Item Pick Up",
    "date_created": "2024-04-28T18:33:23.000",
    "date_modified": "2024-04-28T18:33:24.000",
    "request_status": "Pending",
    "responsible_agency": "Department of Sanitation",
    "final_address": "12960 Chanelle Ct",
    "address_councildis": "E",
    "status": "Assigned to Contractor",
    "contractor": "Waste Pro",
    "rowid": "1088528",
    "final_x": "3717140.82821",
    "final_y": "567696.807524",
    "longitude": "-89.95415582029591",
    "latitude": "30.053837521394176",
    "geocoded_column": {
      "latitude": "30.053837521394176",
      "longitude": "-89.95415582029591"
    }
  },
  {
    "service_request": "2024-1088527",
    "request_type": "Trash/Recycling",
    "request_reason": "Request a Large Item Pick Up",
    "date_created": "2024-04-28T18:23:58.000",
    "date_modified": "2024-04-28T18:23:59.000",
    "request_status": "Pending",
    "responsible_agency": "Department of Sanitation",
    "final_address": "4314 S Dorgenois St",
    "address_councildis": "B",
    "status": "Assigned to Contractor",
    "contractor": "IV Waste",
    "rowid": "1088527",
    "final_x": "3670324.04398",
    "final_y": "528791.039744",
    "longitude": "-90.10345255174761",
    "latitude": "29.94832653552152",
    "geocoded_column": {
      "latitude": "29.94832653552152",
      "longitude": "-90.10345255174761"
    }
  },
  {
    "service_request": "2024-1088526",
    "request_type": "Mosquito, Termite & Rodent Control",
    "request_reason": "Non-Rodent Complaint (Mice, Possums, Snakes)",
    "date_created": "2024-04-28T18:22:07.000",
    "date_modified": "2024-04-28T18:22:07.000",
    "request_status": "Pending",
    "responsible_agency": "Mosquito, Termite & Rodent Control Board",
    "final_address": "4137 General Meyer Ave",
    "address_councildis": "C",
    "status": "Pending",
    "rowid": "1088526",
    "final_x": "3699378.8842",
    "final_y": "524448.046844",
    "longitude": "-90.01187312486405",
    "latitude": "29.93549533443439",
    "geocoded_column": {
      "latitude": "29.93549533443439",
      "longitude": "-90.01187312486405"
    }
  },
  {
    "service_request": "2024-1088525",
    "request_type": "Trash/Recycling",
    "request_reason": "Request a Large Item Pick Up",
    "date_created": "2024-04-28T18:18:21.000",
    "date_modified": "2024-04-28T18:18:21.000",
    "request_status": "Pending",
    "responsible_agency": "Department of Sanitation",
    "final_address": "2163 Treasure St, New Orleans, Louisiana, 70122",
    "address_councildis": "D",
    "status": "Assigned to Contractor",
    "contractor": "IV Waste",
    "rowid": "1088525",
    "final_x": "3684167.14101",
    "final_y": "544057.949262",
    "longitude": "-90.05920823661795",
    "latitude": "29.989889429002044",
    "geocoded_column": {
      "latitude": "29.989889429002044",
      "longitude": "-90.05920823661795"
    }
  },
  {
    "service_request": "2024-1088524",
    "request_type": "Property Maintenance",
    "request_reason": "Property Maintenance",
    "date_created": "2024-04-28T18:14:36.000",
    "date_modified": "2024-04-28T18:14:36.000",
    "request_status": "Pending",
    "responsible_agency": "Department of Code Enforcement",
    "final_address": "4137 General Meyer Ave",
    "address_councildis": "C",
    "status": "Pending",
    "rowid": "1088524",
    "final_x": "3699378.8842",
    "final_y": "524448.046844",
    "longitude": "-90.01187312486405",
    "latitude": "29.93549533443439",
    "geocoded_column": {
      "latitude": "29.93549533443439",
      "longitude": "-90.01187312486405"
    }
  },
  {
    "service_request": "2024-1088523",
    "request_type": "Trash/Recycling",
    "request_reason": "Request a Large Item Pick Up",
    "date_created": "2024-04-28T18:13:55.000",
    "date_modified": "2024-04-28T18:13:56.000",
    "request_status": "Pending",
    "responsible_agency": "Department of Sanitation",
    "final_address": "3205 Dryades St",
    "address_councildis": "B",
    "status": "Assigned to Contractor",
    "contractor": "IV Waste",
    "rowid": "1088523",
    "final_x": "3674298.24251",
    "final_y": "522818.907259",
    "longitude": "-90.0911087729647",
    "latitude": "29.931787235353973",
    "geocoded_column": {
      "latitude": "29.931787235353973",
      "longitude": "-90.0911087729647"
    }
  },
  {
    "service_request": "2024-1088522",
    "request_type": "Trash/Recycling",
    "request_reason": "Replace Recycling Cart",
    "date_created": "2024-04-28T18:07:36.000",
    "date_modified": "2024-04-28T18:07:36.000",
    "request_status": "Pending",
    "responsible_agency": "Department of Sanitation",
    "final_address": "7427 Pearl St",
    "address_councildis": "A",
    "status": "Pending",
    "rowid": "1088522",
    "final_x": "3662095.27808",
    "final_y": "524978.286909",
    "longitude": "-90.12956076797101",
    "latitude": "29.93808297376625",
    "geocoded_column": {
      "latitude": "29.93808297376625",
      "longitude": "-90.12956076797101"
    }
  },
  {
    "service_request": "2024-1088520",
    "request_type": "Utility Poles",
    "request_reason": "Utility Pole Leaning",
    "date_created": "2024-04-28T17:50:34.000",
    "date_modified": "2024-04-28T17:50:39.000",
    "request_status": "Pending",
    "responsible_agency": "Utility Company Collective",
    "final_address": "1201 Magazine St",
    "address_councildis": "B",
    "status": "Pending",
    "rowid": "1088520",
    "final_x": "3680583.4932",
    "final_y": "525582.267837",
    "longitude": "-90.07117084460873",
    "latitude": "29.939196705400956",
    "geocoded_column": {
      "latitude": "29.939196705400956",
      "longitude": "-90.07117084460873"
    }
  },
  {
    "service_request": "2024-1088519",
    "request_type": "Abandoned Vehicles",
    "request_reason": "Vehicle Blocking Your Driveway",
    "date_created": "2024-04-28T17:49:53.000",
    "date_modified": "2024-04-28T17:49:53.000",
    "request_status": "Pending",
    "responsible_agency": "Department of Public Works",
    "final_address": "1557 N Broad St, New Orleans, Louisiana, 70119",
    "address_councildis": "D",
    "status": "Pending",
    "rowid": "1088519",
    "final_x": "3678921.57186",
    "final_y": "540029.902283",
    "longitude": "-90.07591719181008",
    "latitude": "29.978973043138705",
    "geocoded_column": {
      "latitude": "29.978973043138705",
      "longitude": "-90.07591719181008"
    }
  },
  {
    "service_request": "2024-1088518",
    "request_type": "Abandoned Vehicles",
    "request_reason": "Abandoned/Junk Vehicles",
    "date_created": "2024-04-28T16:55:17.000",
    "date_modified": "2024-04-28T16:55:17.000",
    "request_status": "Pending",
    "responsible_agency": "Department of Public Works",
    "final_address": "4907 Loyola Ave",
    "address_councildis": "B",
    "status": "Pending",
    "rowid": "1088518",
    "final_x": "3669033.03489",
    "final_y": "522889.163003",
    "longitude": "-90.10772813206296",
    "latitude": "29.932136320173544",
    "geocoded_column": {
      "latitude": "29.932136320173544",
      "longitude": "-90.10772813206296"
    }
  },
  {
    "service_request": "2024-1088517",
    "request_type": "Trash/Recycling",
    "request_reason": "Order Recycling Cart",
    "date_created": "2024-04-28T16:54:15.000",
    "date_modified": "2024-04-28T16:54:15.000",
    "request_status": "Pending",
    "responsible_agency": "Department of Sanitation",
    "final_address": "1820 S Dupre St",
    "address_councildis": "B",
    "status": "Pending",
    "rowid": "1088517",
    "final_x": "3670535.20577",
    "final_y": "529693.540225",
    "longitude": "-90.10275522200523",
    "latitude": "29.950801882238853",
    "geocoded_column": {
      "latitude": "29.950801882238853",
      "longitude": "-90.10275522200523"
    }
  },
  {
    "service_request": "2024-1088516",
    "request_type": "Trash/Recycling",
    "request_reason": "Replace Trash Cart",
    "date_created": "2024-04-28T16:51:52.000",
    "date_modified": "2024-04-28T16:51:52.000",
    "request_status": "Pending",
    "responsible_agency": "Department of Sanitation",
    "final_address": "4416 S Galvez St",
    "address_councildis": "B",
    "status": "Assigned to Contractor",
    "contractor": "IV Waste",
    "rowid": "1088516",
    "final_x": "3669981.03988",
    "final_y": "527371.459263",
    "longitude": "-90.1045836256081",
    "latitude": "29.944433270919017",
    "geocoded_column": {
      "latitude": "29.944433270919017",
      "longitude": "-90.1045836256081"
    }
  },
  {
    "service_request": "2024-1088515",
    "request_type": "Property Maintenance",
    "request_reason": "Property Maintenance",
    "date_created": "2024-04-28T16:47:22.000",
    "date_modified": "2024-04-28T16:47:22.000",
    "request_status": "Pending",
    "responsible_agency": "Department of Code Enforcement",
    "final_address": "7340 Weaver Ave",
    "address_councildis": "E",
    "status": "Pending",
    "rowid": "1088515",
    "final_x": "3707858.0451",
    "final_y": "563469.74128",
    "longitude": "-89.98365353160646",
    "latitude": "30.04251873415242",
    "geocoded_column": {
      "latitude": "30.04251873415242",
      "longitude": "-89.98365353160646"
    }
  },
  {
    "service_request": "2024-1088514",
    "request_type": "Trash/Recycling",
    "request_reason": "Replace Trash Cart",
    "date_created": "2024-04-28T16:41:13.000",
    "date_modified": "2024-04-28T16:41:14.000",
    "request_status": "Pending",
    "responsible_agency": "Department of Sanitation",
    "final_address": "401 Aurora Oaks Dr",
    "address_councildis": "C",
    "status": "Assigned to Contractor",
    "contractor": "Richards Disposal",
    "rowid": "1088514",
    "final_x": "3701293.23159",
    "final_y": "522413.404858",
    "longitude": "-90.00590397100017",
    "latitude": "29.9298399313833",
    "geocoded_column": {
      "latitude": "29.9298399313833",
      "longitude": "-90.00590397100017"
    }
  },
  {
    "service_request": "2024-1088513",
    "request_type": "Trash/Recycling",
    "request_reason": "Request a Large Item Pick Up",
    "date_created": "2024-04-28T16:36:45.000",
    "date_modified": "2024-04-28T16:36:46.000",
    "request_status": "Pending",
    "responsible_agency": "Department of Sanitation",
    "final_address": "800 BLK N Derbigny St",
    "address_councildis": "D",
    "status": "Assigned to Contractor",
    "contractor": "IV Waste",
    "rowid": "1088513",
    "final_x": "3679774.11679",
    "final_y": "535288.759591",
    "longitude": "-90.07338918388304",
    "latitude": "29.96591078066911",
    "geocoded_column": {
      "latitude": "29.96591078066911",
      "longitude": "-90.07338918388304"
    }
  },
  {
    "service_request": "2024-1088512",
    "request_type": "Trash/Recycling",
    "request_reason": "Replace Trash Cart",
    "date_created": "2024-04-28T15:56:20.000",
    "date_modified": "2024-04-28T15:56:20.000",
    "request_status": "Pending",
    "responsible_agency": "Department of Sanitation",
    "final_address": "3001 Pine St",
    "address_councildis": "B",
    "status": "Assigned to Contractor",
    "contractor": "IV Waste",
    "rowid": "1088512",
    "final_x": "3667542.35994",
    "final_y": "532059.709379",
    "longitude": "-90.11212551393109",
    "latitude": "29.957396113212763",
    "geocoded_column": {
      "latitude": "29.957396113212763",
      "longitude": "-90.11212551393109"
    }
  },
  {
    "service_request": "2024-1088511",
    "request_type": "Trash/Recycling",
    "request_reason": "Request a Large Item Pick Up",
    "date_created": "2024-04-28T15:56:14.000",
    "date_modified": "2024-04-28T15:56:15.000",
    "request_status": "Pending",
    "responsible_agency": "Department of Sanitation",
    "final_address": "929 N Dupre St",
    "address_councildis": "A",
    "status": "Assigned to Contractor",
    "contractor": "IV Waste",
    "rowid": "1088511",
    "final_x": "3676505.80123",
    "final_y": "538324.711177",
    "longitude": "-90.08360586613418",
    "latitude": "29.97435702520658",
    "geocoded_column": {
      "latitude": "29.97435702520658",
      "longitude": "-90.08360586613418"
    }
  },
  {
    "service_request": "2024-1088510",
    "request_type": "Trash/Recycling",
    "request_reason": "Replace Trash Cart",
    "date_created": "2024-04-28T15:41:14.000",
    "date_modified": "2024-04-28T15:41:14.000",
    "request_status": "Pending",
    "responsible_agency": "Department of Sanitation",
    "final_address": "1924 Third St",
    "address_councildis": "B",
    "status": "Assigned to Contractor",
    "contractor": "IV Waste",
    "rowid": "1088510",
    "final_x": "3675696.61486",
    "final_y": "523942.969532",
    "longitude": "-90.08665565250331",
    "latitude": "29.93483628113715",
    "geocoded_column": {
      "latitude": "29.93483628113715",
      "longitude": "-90.08665565250331"
    }
  },
  {
    "service_request": "2024-1088508",
    "request_type": "Trash/Recycling",
    "request_reason": "Replace Trash Cart",
    "date_created": "2024-04-28T15:06:57.000",
    "date_modified": "2024-04-28T15:06:58.000",
    "request_status": "Pending",
    "responsible_agency": "Department of Sanitation",
    "final_address": "9321 Hammond St",
    "address_councildis": "E",
    "status": "Assigned to Contractor",
    "contractor": "Waste Pro",
    "rowid": "1088508",
    "final_x": "3709779.42635",
    "final_y": "556183.10057",
    "longitude": "-89.9778536829056",
    "latitude": "30.02242098593665",
    "geocoded_column": {
      "latitude": "30.02242098593665",
      "longitude": "-89.9778536829056"
    }
  },
  {
    "service_request": "2024-1088507",
    "request_type": "Trash/Recycling",
    "request_reason": "Request a Large Item Pick Up",
    "date_created": "2024-04-28T14:56:32.000",
    "date_modified": "2024-04-28T14:56:33.000",
    "request_status": "Pending",
    "responsible_agency": "Department of Sanitation",
    "final_address": "908 First St",
    "address_councildis": "B",
    "status": "Assigned to Contractor",
    "contractor": "IV Waste",
    "rowid": "1088507",
    "final_x": "3678393.44386",
    "final_y": "520936.860473",
    "longitude": "-90.07824574866011",
    "latitude": "29.926489509719314",
    "geocoded_column": {
      "latitude": "29.926489509719314",
      "longitude": "-90.07824574866011"
    }
  },
  {
    "service_request": "2024-1088506",
    "request_type": "Abandoned Vehicles",
    "request_reason": "Abandoned/Junk Vehicles",
    "date_created": "2024-04-28T14:51:59.000",
    "date_modified": "2024-04-28T14:51:59.000",
    "request_status": "Pending",
    "responsible_agency": "Department of Public Works",
    "final_address": "500 BLK First St",
    "address_councildis": "B",
    "status": "Pending",
    "rowid": "1088506",
    "final_x": "3679143.31294",
    "final_y": "519888.655877",
    "longitude": "-90.07591493108947",
    "latitude": "29.923584682507133",
    "geocoded_column": {
      "latitude": "29.923584682507133",
      "longitude": "-90.07591493108947"
    }
  },
  {
    "service_request": "2024-1088505",
    "request_type": "Roads/Drainage",
    "request_reason": "Pothole",
    "date_created": "2024-04-28T14:50:04.000",
    "date_modified": "2024-04-28T14:50:04.000",
    "request_status": "Pending",
    "responsible_agency": "Department of Public Works",
    "final_address": "716 Constantinople St",
    "address_councildis": "B",
    "status": "Pending",
    "rowid": "1088505",
    "final_x": "3672540.82734",
    "final_y": "518345.492022",
    "longitude": "-90.09680914771026",
    "latitude": "29.91953904872165",
    "geocoded_column": {
      "latitude": "29.91953904872165",
      "longitude": "-90.09680914771026"
    }
  },
  {
    "service_request": "2024-1088503",
    "request_type": "Roads/Drainage",
    "request_reason": "Pothole",
    "date_created": "2024-04-28T14:46:59.000",
    "date_modified": "2024-04-28T14:46:59.000",
    "request_status": "Pending",
    "responsible_agency": "Department of Public Works",
    "final_address": "1716 Constantinople St",
    "address_councildis": "B",
    "status": "Pending",
    "rowid": "1088503",
    "final_x": "3672200.36283",
    "final_y": "521538.309369",
    "longitude": "-90.0977751545932",
    "latitude": "29.928328373796127",
    "geocoded_column": {
      "latitude": "29.928328373796127",
      "longitude": "-90.0977751545932"
    }
  },
  {
    "service_request": "2024-1088502",
    "request_type": "Roads/Drainage",
    "request_reason": "Damaged Sidewalk",
    "date_created": "2024-04-28T14:45:45.000",
    "date_modified": "2024-04-28T14:45:45.000",
    "request_status": "Pending",
    "responsible_agency": "Department of Public Works",
    "final_address": "6030 S Robertson St",
    "address_councildis": "A",
    "status": "Pending",
    "rowid": "1088502",
    "final_x": "3666222.24436",
    "final_y": "524796.369596",
    "longitude": "-90.11653761653726",
    "latitude": "29.93746289877894",
    "geocoded_column": {
      "latitude": "29.93746289877894",
      "longitude": "-90.11653761653726"
    }
  },
  {
    "service_request": "2024-1088501",
    "request_type": "Trash/Recycling",
    "request_reason": "Request a Large Item Pick Up",
    "date_created": "2024-04-28T14:44:36.000",
    "date_modified": "2024-04-28T14:44:36.000",
    "request_status": "Pending",
    "responsible_agency": "Department of Sanitation",
    "final_address": "210 Maumus Ave",
    "address_councildis": "C",
    "status": "Assigned to Contractor",
    "contractor": "Richards Disposal",
    "rowid": "1088501",
    "final_x": "3706377.34462",
    "final_y": "516836.146101",
    "longitude": "-89.99006083530129",
    "latitude": "29.91434148212536",
    "geocoded_column": {
      "latitude": "29.91434148212536",
      "longitude": "-89.99006083530129"
    }
  },
  {
    "service_request": "2024-1088500",
    "request_type": "Roads/Drainage",
    "request_reason": "Damaged Sidewalk",
    "date_created": "2024-04-28T14:40:53.000",
    "date_modified": "2024-04-28T14:40:53.000",
    "request_status": "Pending",
    "responsible_agency": "Department of Public Works",
    "final_address": "6030 S Robertson St",
    "address_councildis": "A",
    "status": "Pending",
    "rowid": "1088500",
    "final_x": "3666222.24436",
    "final_y": "524796.369596",
    "longitude": "-90.11653761653726",
    "latitude": "29.93746289877894",
    "geocoded_column": {
      "latitude": "29.93746289877894",
      "longitude": "-90.11653761653726"
    }
  },
  {
    "service_request": "2024-1088499",
    "request_type": "Roads/Drainage",
    "request_reason": "Street Subsidence (Sinking)",
    "date_created": "2024-04-28T14:33:39.000",
    "date_modified": "2024-04-28T14:33:39.000",
    "request_status": "Pending",
    "responsible_agency": "Department of Public Works",
    "final_address": "4973 Chantilly Dr",
    "address_councildis": "E",
    "status": "Pending",
    "rowid": "1088499",
    "final_x": "3700827.18922",
    "final_y": "555591.306009",
    "longitude": "-90.00616206248566",
    "latitude": "30.02108192779831",
    "geocoded_column": {
      "latitude": "30.02108192779831",
      "longitude": "-90.00616206248566"
    }
  },
  {
    "service_request": "2024-1088498",
    "request_type": "Trash/Recycling",
    "request_reason": "Request a Large Item Pick Up",
    "date_created": "2024-04-28T14:21:22.000",
    "date_modified": "2024-04-28T14:21:23.000",
    "request_status": "Pending",
    "responsible_agency": "Department of Sanitation",
    "final_address": "7621 Poitevent Ave",
    "address_councildis": "E",
    "status": "Assigned to Contractor",
    "contractor": "Waste Pro",
    "rowid": "1088498",
    "final_x": "3706998.22731",
    "final_y": "564179.977697",
    "longitude": "-89.98634448589046",
    "latitude": "30.04449942094845",
    "geocoded_column": {
      "latitude": "30.04449942094845",
      "longitude": "-89.98634448589046"
    }
  },
  {
    "service_request": "2024-1088497",
    "request_type": "Trash/Recycling",
    "request_reason": "Order Recycling Cart",
    "date_created": "2024-04-28T14:06:11.000",
    "date_modified": "2024-04-28T14:06:11.000",
    "request_status": "Pending",
    "responsible_agency": "Department of Sanitation",
    "final_address": "100 Pinehurst Ct",
    "address_councildis": "E",
    "status": "Pending",
    "rowid": "1088497",
    "final_x": "3720011.82521",
    "final_y": "564647.877857",
    "longitude": "-89.94519816762362",
    "latitude": "30.04535889381705",
    "geocoded_column": {
      "latitude": "30.04535889381705",
      "longitude": "-89.94519816762362"
    }
  },
  {
    "service_request": "2024-1088496",
    "request_type": "Property Maintenance",
    "request_reason": "Property Maintenance",
    "date_created": "2024-04-28T14:01:23.000",
    "date_modified": "2024-04-28T14:01:23.000",
    "request_status": "Pending",
    "responsible_agency": "Department of Code Enforcement",
    "final_address": "GEN DE GAULLE EXIT & GENERAL DE GAULLE DR",
    "address_councildis": "C",
    "status": "Pending",
    "rowid": "1088496",
    "final_x": "3692257.5",
    "final_y": "522437.08",
    "longitude": "-90.03442726313126",
    "latitude": "29.930189764032953",
    "geocoded_column": {
      "latitude": "29.930189764032953",
      "longitude": "-90.03442726313126"
    }
  },
  {
    "service_request": "2024-1088495",
    "request_type": "Roads/Drainage",
    "request_reason": "Pothole",
    "date_created": "2024-04-28T13:57:27.000",
    "date_modified": "2024-04-28T13:57:27.000",
    "request_status": "Pending",
    "responsible_agency": "Department of Public Works",
    "final_address": "804 Webster St",
    "address_councildis": "A",
    "status": "Pending",
    "rowid": "1088495",
    "final_x": "3664124.39348",
    "final_y": "519522.014135",
    "longitude": "-90.1233365457699",
    "latitude": "29.923021174551675",
    "geocoded_column": {
      "latitude": "29.923021174551675",
      "longitude": "-90.1233365457699"
    }
  },
  {
    "service_request": "2024-1088494",
    "request_type": "Abandoned Vehicles",
    "request_reason": "Abandoned/Junk Vehicles",
    "date_created": "2024-04-28T13:43:59.000",
    "date_modified": "2024-04-28T13:43:59.000",
    "request_status": "Pending",
    "responsible_agency": "Department of Public Works",
    "final_address": "1510 Paul Rd, Lake Charles, Louisiana, 70607",
    "status": "Pending",
    "rowid": "1088494",
    "longitude": "0.0",
    "latitude": "0.0",
    "geocoded_column": {
      "latitude": "0.0",
      "longitude": "0.0"
    }
  },
  {
    "service_request": "2024-1088493",
    "request_type": "Trash/Recycling",
    "request_reason": "Request a Large Item Pick Up",
    "date_created": "2024-04-28T13:19:37.000",
    "date_modified": "2024-04-28T13:19:38.000",
    "request_status": "Pending",
    "responsible_agency": "Department of Sanitation",
    "final_address": "24 Olympic Ct",
    "address_councildis": "C",
    "status": "Assigned to Contractor",
    "contractor": "Richards Disposal",
    "rowid": "1088493",
    "final_x": "3699772.96925",
    "final_y": "516056.957556",
    "longitude": "-90.0109347286089",
    "latitude": "29.912410214810006",
    "geocoded_column": {
      "latitude": "29.912410214810006",
      "longitude": "-90.0109347286089"
    }
  },
  {
    "service_request": "2024-1088492",
    "request_type": "Property Maintenance",
    "request_reason": "Property Maintenance",
    "date_created": "2024-04-28T12:57:21.000",
    "date_modified": "2024-04-28T12:57:21.000",
    "request_status": "Pending",
    "responsible_agency": "Department of Code Enforcement",
    "final_address": "GEN DE GAULLE EXIT & GENERAL DE GAULLE DR & HENDEE ST",
    "address_councildis": "C",
    "status": "Pending",
    "rowid": "1088492",
    "final_x": "3690561.23",
    "final_y": "522580.3",
    "longitude": "-90.03977699237106",
    "latitude": "29.930636334115366",
    "geocoded_column": {
      "latitude": "29.930636334115366",
      "longitude": "-90.03977699237106"
    }
  },
  {
    "service_request": "2024-1088491",
    "request_type": "Trash/Recycling",
    "request_reason": "Request a Large Item Pick Up",
    "date_created": "2024-04-28T12:41:49.000",
    "date_modified": "2024-04-28T12:41:50.000",
    "request_status": "Pending",
    "responsible_agency": "Department of Sanitation",
    "final_address": "523 Allen Toussaint Blvd",
    "address_councildis": "D",
    "status": "Assigned to Contractor",
    "contractor": "IV Waste",
    "rowid": "1088491",
    "final_x": "3668302.06273",
    "final_y": "554878.386648",
    "longitude": "-90.10895666020626",
    "latitude": "30.020117396655262",
    "geocoded_column": {
      "latitude": "30.020117396655262",
      "longitude": "-90.10895666020626"
    }
  },
  {
    "service_request": "2024-1088490",
    "request_type": "Traffic Signals/Signs/Striping/Streetlights",
    "request_reason": "Disabled Parking Sign ",
    "date_created": "2024-04-28T12:38:19.000",
    "date_modified": "2024-04-28T12:38:19.000",
    "request_status": "Pending",
    "responsible_agency": "Department of Public Works",
    "final_address": "415 Arabella St",
    "address_councildis": "A",
    "status": "Pending",
    "rowid": "1088490",
    "final_x": "3665610.56295",
    "final_y": "517734.958838",
    "longitude": "-90.11870506230999",
    "latitude": "29.918064095547553",
    "geocoded_column": {
      "latitude": "29.918064095547553",
      "longitude": "-90.11870506230999"
    }
  },
  {
    "service_request": "2024-1088489",
    "request_type": "Parks & Parkways",
    "request_reason": "Request Tree Service (Right of Way/Public Property)",
    "date_created": "2024-04-28T12:21:05.000",
    "date_modified": "2024-04-28T12:21:05.000",
    "request_status": "Pending",
    "responsible_agency": "Department of Parks & Parkway",
    "final_address": "4460 St Bernard Ave",
    "address_councildis": "D",
    "status": "Pending",
    "rowid": "1088489",
    "final_x": "3676711.32251",
    "final_y": "548795.997267",
    "longitude": "-90.08259579771091",
    "latitude": "30.003143249371632",
    "geocoded_column": {
      "latitude": "30.003143249371632",
      "longitude": "-90.08259579771091"
    }
  },
  {
    "service_request": "2024-1088488",
    "request_type": "Trash/Recycling",
    "request_reason": "Request a Large Item Pick Up",
    "date_created": "2024-04-28T12:20:57.000",
    "date_modified": "2024-04-28T12:20:58.000",
    "request_status": "Pending",
    "responsible_agency": "Department of Sanitation",
    "final_address": "5064 Van Chu Dr",
    "address_councildis": "E",
    "status": "Assigned to Contractor",
    "contractor": "Waste Pro",
    "rowid": "1088488",
    "final_x": "3727614.93581",
    "final_y": "563120.183648",
    "longitude": "-89.92122851971912",
    "latitude": "30.04090291714669",
    "geocoded_column": {
      "latitude": "30.04090291714669",
      "longitude": "-89.92122851971912"
    }
  },
  {
    "service_request": "2024-1088487",
    "request_type": "Trash/Recycling",
    "request_reason": "Missed Trash Pick-Up",
    "date_created": "2024-04-28T11:46:23.000",
    "date_modified": "2024-04-28T11:46:24.000",
    "request_status": "Pending",
    "responsible_agency": "Department of Sanitation",
    "final_address": "1347 Moss St",
    "address_councildis": "A",
    "status": "Assigned to Contractor",
    "contractor": "IV Waste",
    "rowid": "1088487",
    "final_x": "3674775.9876",
    "final_y": "540519.565323",
    "longitude": "-90.08899375693768",
    "latitude": "29.98044388613289",
    "geocoded_column": {
      "latitude": "29.98044388613289",
      "longitude": "-90.08899375693768"
    }
  },
  {
    "service_request": "2024-1088486",
    "request_type": "Roads/Drainage",
    "request_reason": "Pothole",
    "date_created": "2024-04-28T11:11:40.000",
    "date_modified": "2024-04-28T11:11:40.000",
    "request_status": "Pending",
    "responsible_agency": "Department of Public Works",
    "final_address": "4300 BLK Werner Dr",
    "address_councildis": "E",
    "status": "Pending",
    "rowid": "1088486",
    "final_x": "3704971.63005",
    "final_y": "553271.488061",
    "longitude": "-89.99315264124357",
    "latitude": "30.014570679404642",
    "geocoded_column": {
      "latitude": "30.014570679404642",
      "longitude": "-89.99315264124357"
    }
  },
  {
    "service_request": "2024-1088485",
    "request_type": "Trash/Recycling",
    "request_reason": "Request a Large Item Pick Up",
    "date_created": "2024-04-28T10:54:06.000",
    "date_modified": "2024-04-28T10:54:07.000",
    "request_status": "Pending",
    "responsible_agency": "Department of Sanitation",
    "final_address": "1210 Short St",
    "address_councildis": "A",
    "status": "Assigned to Contractor",
    "contractor": "IV Waste",
    "rowid": "1088485",
    "final_x": "3662363.46855",
    "final_y": "528196.857408",
    "longitude": "-90.12860722727314",
    "latitude": "29.946925267442996",
    "geocoded_column": {
      "latitude": "29.946925267442996",
      "longitude": "-90.12860722727314"
    }
  },
  {
    "service_request": "2024-1088484",
    "request_type": "Roads/Drainage",
    "request_reason": "Street Subsidence (Sinking)",
    "date_created": "2024-04-28T10:27:22.000",
    "date_modified": "2024-04-28T10:27:22.000",
    "request_status": "Pending",
    "responsible_agency": "Department of Public Works",
    "final_address": "2834 Philip St",
    "address_councildis": "B",
    "status": "Pending",
    "rowid": "1088484",
    "final_x": "3674566.9403",
    "final_y": "527059.037822",
    "longitude": "-90.09011529055307",
    "latitude": "29.943438196981663",
    "geocoded_column": {
      "latitude": "29.943438196981663",
      "longitude": "-90.09011529055307"
    }
  },
  {
    "service_request": "2024-1088483",
    "request_type": "Roads/Drainage",
    "request_reason": "Pothole",
    "date_created": "2024-04-28T10:27:16.000",
    "date_modified": "2024-04-28T10:27:16.000",
    "request_status": "Pending",
    "responsible_agency": "Department of Public Works",
    "final_address": "2533 Carondelet St",
    "address_councildis": "B",
    "status": "Pending",
    "rowid": "1088483",
    "final_x": "3676241.72987",
    "final_y": "523251.765179",
    "longitude": "-90.0849585042002",
    "latitude": "29.93291937573761",
    "geocoded_column": {
      "latitude": "29.93291937573761",
      "longitude": "-90.0849585042002"
    }
  },
  {
    "service_request": "2024-1088482",
    "request_type": "Roads/Drainage",
    "request_reason": "Pothole",
    "date_created": "2024-04-28T10:18:37.000",
    "date_modified": "2024-04-28T10:18:37.000",
    "request_status": "Pending",
    "responsible_agency": "Department of Public Works",
    "final_address": "2533 Carondelet St",
    "address_councildis": "B",
    "status": "Pending",
    "rowid": "1088482",
    "final_x": "3676241.72987",
    "final_y": "523251.765179",
    "longitude": "-90.0849585042002",
    "latitude": "29.93291937573761",
    "geocoded_column": {
      "latitude": "29.93291937573761",
      "longitude": "-90.0849585042002"
    }
  },
  {
    "service_request": "2024-1088481",
    "request_type": "Trash/Recycling",
    "request_reason": "Request a Large Item Pick Up",
    "date_created": "2024-04-28T10:18:02.000",
    "date_modified": "2024-04-28T10:18:03.000",
    "request_status": "Pending",
    "responsible_agency": "Department of Sanitation",
    "final_address": "2814 St Philip St",
    "address_councildis": "A",
    "status": "Assigned to Contractor",
    "contractor": "IV Waste",
    "rowid": "1088481",
    "final_x": "3676832.74862",
    "final_y": "538244.796297",
    "longitude": "-90.08257604311123",
    "latitude": "29.97412747761278",
    "geocoded_column": {
      "latitude": "29.97412747761278",
      "longitude": "-90.08257604311123"
    }
  },
  {
    "service_request": "2024-1088480",
    "request_type": "Trash/Recycling",
    "request_reason": "Order Recycling Cart",
    "date_created": "2024-04-28T10:13:45.000",
    "date_modified": "2024-04-28T10:13:45.000",
    "request_status": "Pending",
    "responsible_agency": "Department of Sanitation",
    "final_address": "5628 Franklin Ave",
    "address_councildis": "D",
    "status": "Pending",
    "rowid": "1088480",
    "final_x": "3686441.18396",
    "final_y": "553865.887575",
    "longitude": "-90.05167864176738",
    "latitude": "30.01678797883903",
    "geocoded_column": {
      "latitude": "30.01678797883903",
      "longitude": "-90.05167864176738"
    }
  },
  {
    "service_request": "2024-1088479",
    "request_type": "Trash/Recycling",
    "request_reason": "Order Trash Cart",
    "date_created": "2024-04-28T10:12:48.000",
    "date_modified": "2024-04-28T10:12:49.000",
    "request_status": "Pending",
    "responsible_agency": "Department of Sanitation",
    "final_address": "5628 Franklin Ave",
    "address_councildis": "D",
    "status": "Assigned to Contractor",
    "contractor": "IV Waste",
    "rowid": "1088479",
    "final_x": "3686441.18396",
    "final_y": "553865.887575",
    "longitude": "-90.05167864176738",
    "latitude": "30.01678797883903",
    "geocoded_column": {
      "latitude": "30.01678797883903",
      "longitude": "-90.05167864176738"
    }
  },
  {
    "service_request": "2024-1088478",
    "request_type": "Abandoned Vehicles",
    "request_reason": "Abandoned/Junk Vehicles",
    "date_created": "2024-04-28T09:33:41.000",
    "date_modified": "2024-04-28T09:33:41.000",
    "request_status": "Pending",
    "responsible_agency": "Department of Public Works",
    "final_address": "803 Ninth St",
    "address_councildis": "B",
    "status": "Pending",
    "rowid": "1088478",
    "final_x": "3676461.4788",
    "final_y": "519194.761335",
    "longitude": "-90.08440437194298",
    "latitude": "29.921757346520323",
    "geocoded_column": {
      "latitude": "29.921757346520323",
      "longitude": "-90.08440437194298"
    }
  },
  {
    "service_request": "2024-1088475",
    "request_type": "Mosquito, Termite & Rodent Control",
    "request_reason": "Mosquito Complaint",
    "date_created": "2024-04-28T08:43:00.000",
    "date_modified": "2024-04-28T08:43:00.000",
    "request_status": "Pending",
    "responsible_agency": "Mosquito, Termite & Rodent Control Board",
    "final_address": "704 River Oaks Dr",
    "address_councildis": "C",
    "status": "Pending",
    "rowid": "1088475",
    "final_x": "3701520.37105",
    "final_y": "520000.876856",
    "longitude": "-90.00527520611529",
    "latitude": "29.923199075576697",
    "geocoded_column": {
      "latitude": "29.923199075576697",
      "longitude": "-90.00527520611529"
    }
  },
  {
    "service_request": "2024-1088474",
    "request_type": "Mosquito, Termite & Rodent Control",
    "request_reason": "Mosquito Complaint",
    "date_created": "2024-04-28T08:39:04.000",
    "date_modified": "2024-04-28T08:39:04.000",
    "request_status": "Pending",
    "responsible_agency": "Mosquito, Termite & Rodent Control Board",
    "final_address": "706 River Oaks Dr",
    "address_councildis": "C",
    "status": "Pending",
    "rowid": "1088474",
    "final_x": "3701545.82583",
    "final_y": "519947.15692",
    "longitude": "-90.00519682115737",
    "latitude": "29.923050552996486",
    "geocoded_column": {
      "latitude": "29.923050552996486",
      "longitude": "-90.00519682115737"
    }
  },
  {
    "service_request": "2024-1088473",
    "request_type": "Roads/Drainage",
    "request_reason": "Pothole",
    "date_created": "2024-04-28T07:17:59.000",
    "date_modified": "2024-04-28T07:17:59.000",
    "request_status": "Pending",
    "responsible_agency": "Department of Public Works",
    "final_address": "4973 Chantilly Dr",
    "address_councildis": "E",
    "status": "Pending",
    "rowid": "1088473",
    "final_x": "3700827.18922",
    "final_y": "555591.306009",
    "longitude": "-90.00616206248566",
    "latitude": "30.02108192779831",
    "geocoded_column": {
      "latitude": "30.02108192779831",
      "longitude": "-90.00616206248566"
    }
  },
  {
    "service_request": "2024-1088472",
    "request_type": "Trash/Recycling",
    "request_reason": "Request a Large Item Pick Up",
    "date_created": "2024-04-28T07:13:56.000",
    "date_modified": "2024-04-28T07:13:57.000",
    "request_status": "Pending",
    "responsible_agency": "Department of Sanitation",
    "final_address": "10920 Guildford Rd",
    "address_councildis": "E",
    "status": "Assigned to Contractor",
    "contractor": "Waste Pro",
    "rowid": "1088472",
    "final_x": "3711517.40606",
    "final_y": "563941.332385",
    "longitude": "-89.97207091423772",
    "latitude": "30.043696394401042",
    "geocoded_column": {
      "latitude": "30.043696394401042",
      "longitude": "-89.97207091423772"
    }
  },
  {
    "service_request": "2024-1088471",
    "request_type": "Abandoned Vehicles",
    "request_reason": "Vehicle Blocking Your Driveway",
    "date_created": "2024-04-28T06:33:04.000",
    "date_modified": "2024-04-28T06:33:04.000",
    "request_status": "Pending",
    "responsible_agency": "Department of Public Works",
    "final_address": "4624 Palmyra St, New Orleans, Louisiana, 70119",
    "address_councildis": "A",
    "status": "Pending",
    "rowid": "1088471",
    "final_x": "3668745.30497",
    "final_y": "539084.986058",
    "longitude": "-90.10808975256566",
    "latitude": "29.976677976817623",
    "geocoded_column": {
      "latitude": "29.976677976817623",
      "longitude": "-90.10808975256566"
    }
  },
  {
    "service_request": "2024-1088470",
    "request_type": "Roads/Drainage",
    "request_reason": "Pothole",
    "date_created": "2024-04-28T04:22:18.000",
    "date_modified": "2024-04-28T04:22:18.000",
    "request_status": "Pending",
    "responsible_agency": "Department of Public Works",
    "final_address": "1635 Second St",
    "address_councildis": "B",
    "status": "Pending",
    "rowid": "1088470",
    "final_x": "3676536.43112",
    "final_y": "523345.583931",
    "longitude": "-90.08402492426008",
    "latitude": "29.9331685149435",
    "geocoded_column": {
      "latitude": "29.9331685149435",
      "longitude": "-90.08402492426008"
    }
  },
  {
    "service_request": "2024-1088469",
    "request_type": "Safety & Permits",
    "request_reason": "Licenses & Permits",
    "date_created": "2024-04-28T02:48:24.000",
    "date_modified": "2024-04-28T02:48:24.000",
    "request_status": "Pending",
    "responsible_agency": "Safety and Permits",
    "final_address": "4820 St Claude Ave",
    "address_councildis": "E",
    "status": "Pending",
    "rowid": "1088469",
    "final_x": "3695261.97066",
    "final_y": "534393.701189",
    "longitude": "-90.02451154087898",
    "latitude": "29.96297232758655",
    "geocoded_column": {
      "latitude": "29.96297232758655",
      "longitude": "-90.02451154087898"
    }
  },
  {
    "service_request": "2024-1088468",
    "request_type": "Property Maintenance",
    "request_reason": "Property Maintenance",
    "date_created": "2024-04-28T01:02:49.000",
    "date_modified": "2024-04-28T01:02:49.000",
    "request_status": "Pending",
    "responsible_agency": "Department of Code Enforcement",
    "final_address": "6401 Argonne Blvd",
    "address_councildis": "A",
    "status": "Pending",
    "rowid": "1088468",
    "final_x": "3670475.55995",
    "final_y": "549960.880916",
    "longitude": "-90.10225600966695",
    "latitude": "30.006531955783043",
    "geocoded_column": {
      "latitude": "30.006531955783043",
      "longitude": "-90.10225600966695"
    }
  },
  {
    "service_request": "2024-1088467",
    "request_type": "Abandoned Vehicles",
    "request_reason": "Abandoned/Junk Vehicles",
    "date_created": "2024-04-27T22:50:49.000",
    "date_modified": "2024-04-27T22:50:49.000",
    "request_status": "Pending",
    "responsible_agency": "Department of Public Works",
    "final_address": "1309 Magnolia St",
    "address_councildis": "B",
    "status": "Pending",
    "rowid": "1088467",
    "final_x": "3676144.25704",
    "final_y": "528073.770943",
    "longitude": "-90.08510038873634",
    "latitude": "29.946181226570904",
    "geocoded_column": {
      "latitude": "29.946181226570904",
      "longitude": "-90.08510038873634"
    }
  },
  {
    "service_request": "2024-1088466",
    "request_type": "Property Maintenance",
    "request_reason": "Property Maintenance",
    "date_created": "2024-04-27T22:20:44.000",
    "date_modified": "2024-04-27T22:20:44.000",
    "request_status": "Pending",
    "responsible_agency": "Department of Code Enforcement",
    "final_address": "44 Grand Canyon Dr",
    "address_councildis": "C",
    "status": "Pending",
    "rowid": "1088466",
    "final_x": "3699475.80042",
    "final_y": "516614.764021",
    "longitude": "-90.01185236531828",
    "latitude": "29.913953420389934",
    "geocoded_column": {
      "latitude": "29.913953420389934",
      "longitude": "-90.01185236531828"
    }
  },
  {
    "service_request": "2024-1088465",
    "request_type": "Traffic Signals/Signs/Striping/Streetlights",
    "request_reason": "Street Light Outage/Malfunction",
    "date_created": "2024-04-27T22:02:07.000",
    "date_modified": "2024-04-27T22:02:08.000",
    "request_status": "Pending",
    "responsible_agency": "Department of Public Works",
    "final_address": "3050 Grand-Route St John St",
    "address_councildis": "A",
    "status": "Assigned to Contractor",
    "contractor": "Legacy Professional Services",
    "rowid": "1088465",
    "final_x": "3676780.11694",
    "final_y": "540262.859147",
    "longitude": "-90.08267270067411",
    "latitude": "29.979678036736008",
    "geocoded_column": {
      "latitude": "29.979678036736008",
      "longitude": "-90.08267270067411"
    }
  },
  {
    "service_request": "2024-1088464",
    "request_type": "Traffic Signals/Signs/Striping/Streetlights",
    "request_reason": "Street Light Outage/Malfunction",
    "date_created": "2024-04-27T21:55:59.000",
    "date_modified": "2024-04-27T21:56:00.000",
    "request_status": "Pending",
    "responsible_agency": "Department of Public Works",
    "final_address": "4400 BLK Fontainebleau Dr",
    "address_councildis": "B",
    "status": "Assigned to Contractor",
    "contractor": "Legacy Professional Services",
    "rowid": "1088464",
    "final_x": "3669127.97896",
    "final_y": "529605.691889",
    "longitude": "-90.1072015100937",
    "latitude": "29.950601808595195",
    "geocoded_column": {
      "latitude": "29.950601808595195",
      "longitude": "-90.1072015100937"
    }
  },
  {
    "service_request": "2024-1088463",
    "request_type": "Traffic Signals/Signs/Striping/Streetlights",
    "request_reason": "Street Light Outage/Malfunction",
    "date_created": "2024-04-27T21:53:36.000",
    "date_modified": "2024-04-27T21:53:37.000",
    "request_status": "Pending",
    "responsible_agency": "Department of Public Works",
    "final_address": "4400 BLK Fontainebleau Dr",
    "address_councildis": "B",
    "status": "Assigned to Contractor",
    "contractor": "Legacy Professional Services",
    "rowid": "1088463",
    "final_x": "3669127.97896",
    "final_y": "529605.691889",
    "longitude": "-90.1072015100937",
    "latitude": "29.950601808595195",
    "geocoded_column": {
      "latitude": "29.950601808595195",
      "longitude": "-90.1072015100937"
    }
  },
  {
    "service_request": "2024-1088462",
    "request_type": "Trash/Recycling",
    "request_reason": "Order Recycling Cart",
    "date_created": "2024-04-27T21:26:35.000",
    "date_modified": "2024-04-27T21:26:35.000",
    "request_status": "Pending",
    "responsible_agency": "Department of Sanitation",
    "final_address": "3 Eugenie Ct",
    "address_councildis": "C",
    "status": "Pending",
    "rowid": "1088462",
    "final_x": "3700534.56266",
    "final_y": "511900.51576",
    "longitude": "-90.00868260526994",
    "latitude": "29.900957213308484",
    "geocoded_column": {
      "latitude": "29.900957213308484",
      "longitude": "-90.00868260526994"
    }
  },
  {
    "service_request": "2024-1088461",
    "request_type": "Trash/Recycling",
    "request_reason": "Order Recycling Cart",
    "date_created": "2024-04-27T21:23:26.000",
    "date_modified": "2024-04-27T21:23:26.000",
    "request_status": "Pending",
    "responsible_agency": "Department of Sanitation",
    "final_address": "3 Eugenie Ct",
    "address_councildis": "C",
    "status": "Pending",
    "rowid": "1088461",
    "final_x": "3700534.56266",
    "final_y": "511900.51576",
    "longitude": "-90.00868260526994",
    "latitude": "29.900957213308484",
    "geocoded_column": {
      "latitude": "29.900957213308484",
      "longitude": "-90.00868260526994"
    }
  },
  {
    "service_request": "2024-1088460",
    "request_type": "Trash/Recycling",
    "request_reason": "Request a Large Item Pick Up",
    "date_created": "2024-04-27T19:58:33.000",
    "date_modified": "2024-04-27T19:58:33.000",
    "request_status": "Pending",
    "responsible_agency": "Department of Sanitation",
    "final_address": "6990 Ridgefield Dr",
    "address_councildis": "E",
    "status": "Assigned to Contractor",
    "contractor": "Waste Pro",
    "rowid": "1088460",
    "final_x": "3719542.51103",
    "final_y": "569270.961638",
    "longitude": "-89.94650456857036",
    "latitude": "30.058086088281257",
    "geocoded_column": {
      "latitude": "30.058086088281257",
      "longitude": "-89.94650456857036"
    }
  },
  {
    "service_request": "2024-1088459",
    "request_type": "Traffic Signals/Signs/Striping/Streetlights",
    "request_reason": "Street Name Sign Damaged or Missing",
    "date_created": "2024-04-27T19:43:10.000",
    "date_modified": "2024-04-27T19:43:10.000",
    "request_status": "Pending",
    "responsible_agency": "Department of Public Works",
    "final_address": "ST PHILIP ST & N LOPEZ ST",
    "address_councildis": "A",
    "status": "Pending",
    "rowid": "1088459",
    "final_x": "3675954.4",
    "final_y": "538965.98",
    "longitude": "-90.08532526488518",
    "latitude": "29.976136819761347",
    "geocoded_column": {
      "latitude": "29.976136819761347",
      "longitude": "-90.08532526488518"
    }
  },
  {
    "service_request": "2024-1088458",
    "request_type": "Trash/Recycling",
    "request_reason": "Order Trash Cart",
    "date_created": "2024-04-27T19:40:36.000",
    "date_modified": "2024-04-27T19:40:36.000",
    "request_status": "Pending",
    "responsible_agency": "Department of Sanitation",
    "final_address": "4523 S Liberty St",
    "address_councildis": "B",
    "status": "Assigned to Contractor",
    "contractor": "IV Waste",
    "rowid": "1088458",
    "final_x": "3670004.04052",
    "final_y": "523343.277115",
    "longitude": "-90.10464738258092",
    "latitude": "29.933356394345637",
    "geocoded_column": {
      "latitude": "29.933356394345637",
      "longitude": "-90.10464738258092"
    }
  },
  {
    "service_request": "2024-1088457",
    "request_type": "Abandoned Vehicles",
    "request_reason": "Vehicle Blocking Your Driveway",
    "date_created": "2024-04-27T19:39:24.000",
    "date_modified": "2024-04-27T19:39:24.000",
    "request_status": "Pending",
    "responsible_agency": "Department of Public Works",
    "final_address": "4815 Tchoupitoulas St",
    "address_councildis": "B",
    "status": "Pending",
    "rowid": "1088457",
    "final_x": "3669584.63073",
    "final_y": "517329.222517",
    "longitude": "-90.10617477202773",
    "latitude": "29.91683201630037",
    "geocoded_column": {
      "latitude": "29.91683201630037",
      "longitude": "-90.10617477202773"
    }
  },
  {
    "service_request": "2024-1088456",
    "request_type": "Trash/Recycling",
    "request_reason": "MIssed Recycling Pick-Up",
    "date_created": "2024-04-27T19:39:06.000",
    "date_modified": "2024-04-28T09:47:48.000",
    "case_close_date": "2024-04-28T04:47:48.000",
    "request_status": "Closed",
    "responsible_agency": "Department of Sanitation",
    "final_address": "1235 Annunciation St",
    "address_councildis": "B",
    "status": "Assigned to Contractor",
    "contractor": "IV Waste",
    "contractor_action": "Invalid Request",
    "rowid": "1088456",
    "final_x": "3681311.94402",
    "final_y": "525145.822269",
    "longitude": "-90.06888624172376",
    "latitude": "29.937974541770746",
    "geocoded_column": {
      "latitude": "29.937974541770746",
      "longitude": "-90.06888624172376"
    }
  },
  {
    "service_request": "2024-1088455",
    "request_type": "Traffic Signals/Signs/Striping/Streetlights",
    "request_reason": "Traffic Signal Malfunctioning/Damaged",
    "date_created": "2024-04-27T19:35:34.000",
    "date_modified": "2024-04-27T19:35:34.000",
    "request_status": "Pending",
    "responsible_agency": "Department of Public Works",
    "final_address": "ODEON ST & GENERAL MEYER AVE & SOCRATES ST",
    "address_councildis": "C",
    "status": "Pending",
    "rowid": "1088455",
    "final_x": "3695984.6",
    "final_y": "526251.38",
    "longitude": "-90.02252372114835",
    "latitude": "29.940561078378014",
    "geocoded_column": {
      "latitude": "29.940561078378014",
      "longitude": "-90.02252372114835"
    }
  },
  {
    "service_request": "2024-1088454",
    "request_type": "Parks & Parkways",
    "request_reason": "Request Tree Service (Right of Way/Public Property)",
    "date_created": "2024-04-27T19:33:07.000",
    "date_modified": "2024-04-28T14:09:57.000",
    "request_status": "Pending",
    "responsible_agency": "Department of Parks & Parkway",
    "final_address": "3340 General Meyer Ave",
    "address_councildis": "C",
    "status": "Pending",
    "rowid": "1088454",
    "final_x": "3696658.71575",
    "final_y": "525997.544253",
    "longitude": "-90.02040461896179",
    "latitude": "29.939841896174947",
    "geocoded_column": {
      "latitude": "29.939841896174947",
      "longitude": "-90.02040461896179"
    }
  },
  {
    "service_request": "2024-1088452",
    "request_type": "Trash/Recycling",
    "request_reason": "Request a Large Item Pick Up",
    "date_created": "2024-04-27T18:57:51.000",
    "date_modified": "2024-04-27T18:57:52.000",
    "request_status": "Pending",
    "responsible_agency": "Department of Sanitation",
    "final_address": "11111 N Idlewood Ct",
    "address_councildis": "E",
    "status": "Assigned to Contractor",
    "contractor": "Waste Pro",
    "rowid": "1088452",
    "final_x": "3715866.84581",
    "final_y": "560159.076125",
    "longitude": "-89.95846838747077",
    "latitude": "30.03315392273838",
    "geocoded_column": {
      "latitude": "30.03315392273838",
      "longitude": "-89.95846838747077"
    }
  },
  {
    "service_request": "2024-1088451",
    "request_type": "Trash/Recycling",
    "request_reason": "Request a Large Item Pick Up",
    "date_created": "2024-04-27T18:53:48.000",
    "date_modified": "2024-04-27T18:53:49.000",
    "request_status": "Pending",
    "responsible_agency": "Department of Sanitation",
    "final_address": "11111 N Idlewood Ct",
    "address_councildis": "E",
    "status": "Assigned to Contractor",
    "contractor": "Waste Pro",
    "rowid": "1088451",
    "final_x": "3715866.84581",
    "final_y": "560159.076125",
    "longitude": "-89.95846838747077",
    "latitude": "30.03315392273838",
    "geocoded_column": {
      "latitude": "30.03315392273838",
      "longitude": "-89.95846838747077"
    }
  },
  {
    "service_request": "2024-1088450",
    "request_type": "Trash/Recycling",
    "request_reason": "Request a Large Item Pick Up",
    "date_created": "2024-04-27T18:49:50.000",
    "date_modified": "2024-04-27T18:49:51.000",
    "request_status": "Pending",
    "responsible_agency": "Department of Sanitation",
    "final_address": "8023 Ebbtide Ct, New Orleans, Louisiana, 70126",
    "status": "Assigned to Contractor",
    "rowid": "1088450",
    "longitude": "0.0",
    "latitude": "0.0",
    "geocoded_column": {
      "latitude": "0.0",
      "longitude": "0.0"
    }
  },
  {
    "service_request": "2024-1088449",
    "request_type": "Roads/Drainage",
    "request_reason": "Pothole",
    "date_created": "2024-04-27T18:46:24.000",
    "date_modified": "2024-04-27T18:46:24.000",
    "request_status": "Pending",
    "responsible_agency": "Department of Public Works",
    "final_address": "5921 Coliseum St",
    "address_councildis": "A",
    "status": "Pending",
    "rowid": "1088449",
    "final_x": "3665303.22644",
    "final_y": "520189.895096",
    "longitude": "-90.11959307956585",
    "latitude": "29.924823355758967",
    "geocoded_column": {
      "latitude": "29.924823355758967",
      "longitude": "-90.11959307956585"
    }
  },
  {
    "service_request": "2024-1088448",
    "request_type": "Parks & Parkways",
    "request_reason": "Request Tree Service (Right of Way/Public Property)",
    "date_created": "2024-04-27T18:43:41.000",
    "date_modified": "2024-04-27T18:43:41.000",
    "request_status": "Pending",
    "responsible_agency": "Department of Parks & Parkway",
    "final_address": "1441 Eleonore St",
    "address_councildis": "A",
    "status": "Pending",
    "rowid": "1088448",
    "final_x": "3665781.33408",
    "final_y": "521342.836601",
    "longitude": "-90.11804524522694",
    "latitude": "29.927979647159326",
    "geocoded_column": {
      "latitude": "29.927979647159326",
      "longitude": "-90.11804524522694"
    }
  },
  {
    "service_request": "2024-1088447",
    "request_type": "Trash/Recycling",
    "request_reason": "Request a Large Item Pick Up",
    "date_created": "2024-04-27T18:42:42.000",
    "date_modified": "2024-04-27T18:42:42.000",
    "request_status": "Pending",
    "responsible_agency": "Department of Sanitation",
    "final_address": "3705 Piedmont Dr",
    "address_councildis": "D",
    "status": "Assigned to Contractor",
    "contractor": "IV Waste",
    "rowid": "1088447",
    "final_x": "3685906.8918",
    "final_y": "546424.518225",
    "longitude": "-90.05362936088412",
    "latitude": "29.996343339494985",
    "geocoded_column": {
      "latitude": "29.996343339494985",
      "longitude": "-90.05362936088412"
    }
  },
  {
    "service_request": "2024-1088446",
    "request_type": "Trash/Recycling",
    "request_reason": "Repair Recycling Cart",
    "date_created": "2024-04-27T18:41:46.000",
    "date_modified": "2024-04-27T18:41:46.000",
    "request_status": "Pending",
    "responsible_agency": "Department of Sanitation",
    "final_address": "351 38Th St",
    "address_councildis": "A",
    "status": "Pending",
    "rowid": "1088446",
    "final_x": "3665001.15072",
    "final_y": "552757.905558",
    "longitude": "-90.11945752850079",
    "latitude": "30.014383388645683",
    "geocoded_column": {
      "latitude": "30.014383388645683",
      "longitude": "-90.11945752850079"
    }
  },
  {
    "service_request": "2024-1088445",
    "request_type": "Parks & Parkways",
    "request_reason": "Request Tree Service (Right of Way/Public Property)",
    "date_created": "2024-04-27T18:22:51.000",
    "date_modified": "2024-04-27T18:22:51.000",
    "request_status": "Pending",
    "responsible_agency": "Department of Parks & Parkway",
    "final_address": "542 Lowerline St",
    "address_councildis": "A",
    "status": "Pending",
    "rowid": "1088445",
    "final_x": "3662259.49933",
    "final_y": "524837.201276",
    "longitude": "-90.12904698566342",
    "latitude": "29.937690288094615",
    "geocoded_column": {
      "latitude": "29.937690288094615",
      "longitude": "-90.12904698566342"
    }
  },
  {
    "service_request": "2024-1088444",
    "request_type": "Trash/Recycling",
    "request_reason": "Order Trash Cart",
    "date_created": "2024-04-27T18:22:34.000",
    "date_modified": "2024-04-27T18:22:35.000",
    "request_status": "Pending",
    "responsible_agency": "Department of Sanitation",
    "final_address": "2816 Milan St",
    "address_councildis": "B",
    "status": "Assigned to Contractor",
    "contractor": "IV Waste",
    "rowid": "1088444",
    "final_x": "3671110.66113",
    "final_y": "525307.586237",
    "longitude": "-90.10108715145215",
    "latitude": "29.93872493471338",
    "geocoded_column": {
      "latitude": "29.93872493471338",
      "longitude": "-90.10108715145215"
    }
  },
  {
    "service_request": "2024-1088443",
    "request_type": "Trash/Recycling",
    "request_reason": "Request a Large Item Pick Up",
    "date_created": "2024-04-27T18:22:10.000",
    "date_modified": "2024-04-27T18:22:11.000",
    "request_status": "Pending",
    "responsible_agency": "Department of Sanitation",
    "final_address": "2214 Lizardi St",
    "address_councildis": "E",
    "status": "Assigned to Contractor",
    "contractor": "Waste Pro",
    "rowid": "1088443",
    "final_x": "3697648.27946",
    "final_y": "538385.366025",
    "longitude": "-90.0168310897964",
    "latitude": "29.973872813372065",
    "geocoded_column": {
      "latitude": "29.973872813372065",
      "longitude": "-90.0168310897964"
    }
  },
  {
    "service_request": "2024-1088442",
    "request_type": "Trash/Recycling",
    "request_reason": "Request a Large Item Pick Up",
    "date_created": "2024-04-27T18:21:02.000",
    "date_modified": "2024-04-27T18:21:02.000",
    "request_status": "Pending",
    "responsible_agency": "Department of Sanitation",
    "final_address": "2219 Lizardi St",
    "address_councildis": "E",
    "status": "Assigned to Contractor",
    "contractor": "Waste Pro",
    "rowid": "1088442",
    "final_x": "3697800.89232",
    "final_y": "538357.231625",
    "longitude": "-90.01635012861777",
    "latitude": "29.97379063170156",
    "geocoded_column": {
      "latitude": "29.97379063170156",
      "longitude": "-90.01635012861777"
    }
  },
  {
    "service_request": "2024-1088441",
    "request_type": "Roads/Drainage",
    "request_reason": "Pothole",
    "date_created": "2024-04-27T17:55:04.000",
    "date_modified": "2024-04-27T17:55:04.000",
    "request_status": "Pending",
    "responsible_agency": "Department of Public Works",
    "final_address": "1400 BLK Mandolin St",
    "address_councildis": "D",
    "status": "Pending",
    "rowid": "1088441",
    "final_x": "3678646.13348",
    "final_y": "548023.26693",
    "longitude": "-90.07651021811276",
    "latitude": "30.000960303009684",
    "geocoded_column": {
      "latitude": "30.000960303009684",
      "longitude": "-90.07651021811276"
    }
  },
  {
    "service_request": "2024-1088440",
    "request_type": "Taxi Issues",
    "request_reason": "Taxi Complaint",
    "date_created": "2024-04-27T17:42:04.000",
    "date_modified": "2024-04-27T17:42:04.000",
    "request_status": "Pending",
    "responsible_agency": "Ground Transportation Bureau",
    "final_address": "100 Toulouse St",
    "address_councildis": "C",
    "status": "Pending",
    "rowid": "1088440",
    "final_x": "3683270.79221",
    "final_y": "531418.853507",
    "longitude": "-90.06248234660089",
    "latitude": "29.95516368009656",
    "geocoded_column": {
      "latitude": "29.95516368009656",
      "longitude": "-90.06248234660089"
    }
  },
  {
    "service_request": "2024-1088439",
    "request_type": "Roads/Drainage",
    "request_reason": "Street Flooding / Drainage",
    "date_created": "2024-04-27T17:25:07.000",
    "date_modified": "2024-04-27T17:25:07.000",
    "request_status": "Pending",
    "responsible_agency": "Department of Public Works",
    "final_address": "433 S Lopez St",
    "address_councildis": "B",
    "status": "Pending",
    "rowid": "1088439",
    "final_x": "3672904.06721",
    "final_y": "535044.485318",
    "longitude": "-90.09509296815176",
    "latitude": "29.965445034210273",
    "geocoded_column": {
      "latitude": "29.965445034210273",
      "longitude": "-90.09509296815176"
    }
  },
  {
    "service_request": "2024-1088438",
    "request_type": "Roads/Drainage",
    "request_reason": "Pothole",
    "date_created": "2024-04-27T17:15:18.000",
    "date_modified": "2024-04-27T17:15:18.000",
    "request_status": "Pending",
    "responsible_agency": "Department of Public Works",
    "final_address": "5823 Perrier St",
    "address_councildis": "A",
    "status": "Pending",
    "rowid": "1088438",
    "final_x": "3665601.07367",
    "final_y": "520421.208184",
    "longitude": "-90.11864512991228",
    "latitude": "29.92545071542357",
    "geocoded_column": {
      "latitude": "29.92545071542357",
      "longitude": "-90.11864512991228"
    }
  },
  {
    "service_request": "2024-1088437",
    "request_type": "Trash/Recycling",
    "request_reason": "Missed Trash Pick-Up",
    "date_created": "2024-04-27T16:57:13.000",
    "date_modified": "2024-04-28T08:56:55.000",
    "case_close_date": "2024-04-28T03:56:55.000",
    "request_status": "Closed",
    "responsible_agency": "Department of Sanitation",
    "final_address": "916 Cadiz St",
    "address_councildis": "B",
    "status": "Assigned to Contractor",
    "contractor": "IV Waste",
    "contractor_action": "Invalid Request",
    "rowid": "1088437",
    "final_x": "3670235.75687",
    "final_y": "518862.953015",
    "longitude": "-90.10406760526669",
    "latitude": "29.921030099444632",
    "geocoded_column": {
      "latitude": "29.921030099444632",
      "longitude": "-90.10406760526669"
    }
  },
  {
    "service_request": "2024-1088436",
    "request_type": "Trash/Recycling",
    "request_reason": "Replace Recycling Cart",
    "date_created": "2024-04-27T16:54:30.000",
    "date_modified": "2024-04-27T16:54:30.000",
    "request_status": "Pending",
    "responsible_agency": "Department of Sanitation",
    "final_address": "916 Cadiz St",
    "address_councildis": "B",
    "status": "Pending",
    "rowid": "1088436",
    "final_x": "3670235.75687",
    "final_y": "518862.953015",
    "longitude": "-90.10406760526669",
    "latitude": "29.921030099444632",
    "geocoded_column": {
      "latitude": "29.921030099444632",
      "longitude": "-90.10406760526669"
    }
  },
  {
    "service_request": "2024-1088435",
    "request_type": "Trash/Recycling",
    "request_reason": "Missed Trash Pick-Up",
    "date_created": "2024-04-27T16:50:02.000",
    "date_modified": "2024-04-28T09:18:43.000",
    "case_close_date": "2024-04-28T04:18:43.000",
    "request_status": "Closed",
    "responsible_agency": "Department of Sanitation",
    "final_address": "633 Philip St",
    "address_councildis": "B",
    "status": "Assigned to Contractor",
    "contractor": "IV Waste",
    "contractor_action": "Invalid Request",
    "rowid": "1088435",
    "final_x": "3679515.68667",
    "final_y": "520634.614904",
    "longitude": "-90.07471362012242",
    "latitude": "29.925624585296724",
    "geocoded_column": {
      "latitude": "29.925624585296724",
      "longitude": "-90.07471362012242"
    }
  },
  {
    "service_request": "2024-1088434",
    "request_type": "Trash/Recycling",
    "request_reason": "Request a Large Item Pick Up",
    "date_created": "2024-04-27T15:34:51.000",
    "date_modified": "2024-04-27T15:34:52.000",
    "request_status": "Pending",
    "responsible_agency": "Department of Sanitation",
    "final_address": "8933 Bunker Hill Rd",
    "address_councildis": "E",
    "status": "Assigned to Contractor",
    "contractor": "Waste Pro",
    "rowid": "1088434",
    "final_x": "3705975.8122",
    "final_y": "561695.319647",
    "longitude": "-89.98966784311499",
    "latitude": "30.037700603467304",
    "geocoded_column": {
      "latitude": "30.037700603467304",
      "longitude": "-89.98966784311499"
    }
  },
  {
    "service_request": "2024-1088433",
    "request_type": "Roads/Drainage",
    "request_reason": "Pothole",
    "date_created": "2024-04-27T15:22:47.000",
    "date_modified": "2024-04-27T15:22:47.000",
    "request_status": "Pending",
    "responsible_agency": "Department of Public Works",
    "final_address": "2346 Bartholomew St",
    "address_councildis": "D",
    "status": "Pending",
    "rowid": "1088433",
    "final_x": "3692971.86832",
    "final_y": "540174.053643",
    "longitude": "-90.03153598984785",
    "latitude": "29.978937973457754",
    "geocoded_column": {
      "latitude": "29.978937973457754",
      "longitude": "-90.03153598984785"
    }
  },
  {
    "service_request": "2024-1088432",
    "request_type": "Trash/Recycling",
    "request_reason": "Order Trash Cart",
    "date_created": "2024-04-27T15:16:50.000",
    "date_modified": "2024-04-27T15:16:51.000",
    "request_status": "Pending",
    "responsible_agency": "Department of Sanitation",
    "final_address": "2346 Bartholomew St",
    "address_councildis": "D",
    "status": "Assigned to Contractor",
    "contractor": "IV Waste",
    "rowid": "1088432",
    "final_x": "3692971.86832",
    "final_y": "540174.053643",
    "longitude": "-90.03153598984785",
    "latitude": "29.978937973457754",
    "geocoded_column": {
      "latitude": "29.978937973457754",
      "longitude": "-90.03153598984785"
    }
  },
  {
    "service_request": "2024-1088431",
    "request_type": "Abandoned Vehicles",
    "request_reason": "Abandoned/Junk Vehicles",
    "date_created": "2024-04-27T14:59:16.000",
    "date_modified": "2024-04-27T14:59:16.000",
    "request_status": "Pending",
    "responsible_agency": "Department of Public Works",
    "final_address": "930 Congress St",
    "address_councildis": "C",
    "status": "Pending",
    "rowid": "1088431",
    "final_x": "3690561.34294",
    "final_y": "535043.588742",
    "longitude": "-90.03933231464363",
    "latitude": "29.9649060890964",
    "geocoded_column": {
      "latitude": "29.9649060890964",
      "longitude": "-90.03933231464363"
    }
  },
  {
    "service_request": "2024-1088430",
    "request_type": "Traffic Signals/Signs/Striping/Streetlights",
    "request_reason": "Request for Traffic Calming due to Speeding",
    "date_created": "2024-04-27T14:53:53.000",
    "date_modified": "2024-04-27T14:53:53.000",
    "request_status": "Pending",
    "responsible_agency": "Department of Public Works",
    "final_address": "4632 Chantilly Dr",
    "address_councildis": "E",
    "status": "Pending",
    "rowid": "1088430",
    "final_x": "3700857.27933",
    "final_y": "553584.455511",
    "longitude": "-90.00614043357339",
    "latitude": "30.015562896070787",
    "geocoded_column": {
      "latitude": "30.015562896070787",
      "longitude": "-90.00614043357339"
    }
  },
  {
    "service_request": "2024-1088429",
    "request_type": "Abandoned Vehicles",
    "request_reason": "Abandoned/Junk Vehicles",
    "date_created": "2024-04-27T14:47:56.000",
    "date_modified": "2024-04-27T14:47:56.000",
    "request_status": "Pending",
    "responsible_agency": "Department of Public Works",
    "final_address": "1713 Hollygrove St",
    "address_councildis": "A",
    "status": "Pending",
    "rowid": "1088429",
    "final_x": "3660889.7408",
    "final_y": "531864.592451",
    "longitude": "-90.13313905696813",
    "latitude": "29.957052884515456",
    "geocoded_column": {
      "latitude": "29.957052884515456",
      "longitude": "-90.13313905696813"
    }
  },
  {
    "service_request": "2024-1088428",
    "request_type": "Roads/Drainage",
    "request_reason": "Pothole",
    "date_created": "2024-04-27T14:29:45.000",
    "date_modified": "2024-04-27T14:29:45.000",
    "request_status": "Pending",
    "responsible_agency": "Department of Public Works",
    "final_address": "6733 Colbert St",
    "address_councildis": "A",
    "status": "Pending",
    "rowid": "1088428",
    "final_x": "3667961.01351",
    "final_y": "552364.620374",
    "longitude": "-90.11011906285809",
    "latitude": "30.01321544259928",
    "geocoded_column": {
      "latitude": "30.01321544259928",
      "longitude": "-90.11011906285809"
    }
  },
  {
    "service_request": "2024-1088426",
    "request_type": "Roads/Drainage",
    "request_reason": "Pothole",
    "date_created": "2024-04-27T13:31:08.000",
    "date_modified": "2024-04-27T13:31:08.000",
    "request_status": "Pending",
    "responsible_agency": "Department of Public Works",
    "final_address": "2232 Burgundy St",
    "address_councildis": "C",
    "status": "Pending",
    "rowid": "1088426",
    "final_x": "3685400.23433",
    "final_y": "535584.096262",
    "longitude": "-90.0556117098159",
    "latitude": "29.966551550792907",
    "geocoded_column": {
      "latitude": "29.966551550792907",
      "longitude": "-90.0556117098159"
    }
  },
  {
    "service_request": "2024-1088425",
    "request_type": "Traffic Signals/Signs/Striping/Streetlights",
    "request_reason": "Street Light Outage/Malfunction",
    "date_created": "2024-04-27T13:27:13.000",
    "date_modified": "2024-04-27T13:27:13.000",
    "request_status": "Pending",
    "responsible_agency": "Department of Public Works",
    "final_address": "N VILLERE ST & TUPELO ST",
    "address_councildis": "E",
    "status": "Assigned to Contractor",
    "contractor": "Legacy Professional Services",
    "rowid": "1088425",
    "final_x": "3699915.4",
    "final_y": "534350.68",
    "longitude": "-90.0098182494335",
    "latitude": "29.962707061260367",
    "geocoded_column": {
      "latitude": "29.962707061260367",
      "longitude": "-90.0098182494335"
    }
  },
  {
    "service_request": "2024-1088424",
    "request_type": "Trash/Recycling",
    "request_reason": "Replace Trash Cart",
    "date_created": "2024-04-27T13:23:44.000",
    "date_modified": "2024-04-27T13:23:45.000",
    "request_status": "Pending",
    "responsible_agency": "Department of Sanitation",
    "final_address": "1912 Desire St",
    "address_councildis": "D",
    "status": "Assigned to Contractor",
    "contractor": "IV Waste",
    "rowid": "1088424",
    "final_x": "3690919.84707",
    "final_y": "538841.408137",
    "longitude": "-90.03806461207297",
    "latitude": "29.97533761560991",
    "geocoded_column": {
      "latitude": "29.97533761560991",
      "longitude": "-90.03806461207297"
    }
  },
  {
    "service_request": "2024-1088423",
    "request_type": "Trash/Recycling",
    "request_reason": "MIssed Recycling Pick-Up",
    "date_created": "2024-04-27T13:11:41.000",
    "date_modified": "2024-04-27T13:11:41.000",
    "request_status": "Pending",
    "responsible_agency": "Department of Sanitation",
    "final_address": "4666 Wright Rd",
    "address_councildis": "E",
    "status": "Assigned to Contractor",
    "contractor": "Waste Pro",
    "rowid": "1088423",
    "final_x": "3716642.70572",
    "final_y": "556596.133658",
    "longitude": "-89.95615194640757",
    "latitude": "30.023331635882133",
    "geocoded_column": {
      "latitude": "30.023331635882133",
      "longitude": "-89.95615194640757"
    }
  },
  {
    "service_request": "2024-1088422",
    "request_type": "Trash/Recycling",
    "request_reason": "Return Trash Cart",
    "date_created": "2024-04-27T12:40:44.000",
    "date_modified": "2024-04-27T12:40:45.000",
    "request_status": "Pending",
    "responsible_agency": "Department of Sanitation",
    "final_address": "827 St Charles Ave",
    "address_councildis": "B",
    "status": "Assigned to Contractor",
    "contractor": "Empire Services",
    "rowid": "1088422",
    "final_x": "3680295.83919",
    "final_y": "527806.738879",
    "longitude": "-90.07200169592296",
    "latitude": "29.945321969188562",
    "geocoded_column": {
      "latitude": "29.945321969188562",
      "longitude": "-90.07200169592296"
    }
  },
  {
    "service_request": "2024-1088420",
    "request_type": "Property Maintenance",
    "request_reason": "Property Maintenance",
    "date_created": "2024-04-27T12:10:51.000",
    "date_modified": "2024-04-27T12:10:51.000",
    "request_status": "Pending",
    "responsible_agency": "Department of Code Enforcement",
    "final_address": "1329 Music St",
    "address_councildis": "C",
    "status": "Pending",
    "rowid": "1088420",
    "final_x": "3686856.351",
    "final_y": "537433.051656",
    "longitude": "-90.05094797122413",
    "latitude": "29.971590806319256",
    "geocoded_column": {
      "latitude": "29.971590806319256",
      "longitude": "-90.05094797122413"
    }
  },
  {
    "service_request": "2024-1088419",
    "request_type": "Roads/Drainage",
    "request_reason": "Damaged Sidewalk",
    "date_created": "2024-04-27T11:44:21.000",
    "date_modified": "2024-04-27T11:44:21.000",
    "request_status": "Pending",
    "responsible_agency": "Department of Public Works",
    "final_address": "2225 S Carrollton Ave",
    "address_councildis": "A",
    "status": "Pending",
    "rowid": "1088419",
    "final_x": "3664584.87898",
    "final_y": "531005.860994",
    "longitude": "-90.12149958624694",
    "latitude": "29.954584711413258",
    "geocoded_column": {
      "latitude": "29.954584711413258",
      "longitude": "-90.12149958624694"
    }
  },
  {
    "service_request": "2024-1088418",
    "request_type": "Trash/Recycling",
    "request_reason": "MIssed Recycling Pick-Up",
    "date_created": "2024-04-27T11:40:46.000",
    "date_modified": "2024-04-28T06:09:30.000",
    "case_close_date": "2024-04-28T01:09:30.000",
    "request_status": "Closed",
    "responsible_agency": "Department of Sanitation",
    "final_address": "6310 Fontainebleau Dr",
    "address_councildis": "A",
    "status": "Assigned to Contractor",
    "contractor": "IV Waste",
    "contractor_action": "Invalid Request",
    "rowid": "1088418",
    "final_x": "3667846.57057",
    "final_y": "529999.568705",
    "longitude": "-90.11123428734047",
    "latitude": "29.951722482568357",
    "geocoded_column": {
      "latitude": "29.951722482568357",
      "longitude": "-90.11123428734047"
    }
  },
  {
    "service_request": "2024-1088417",
    "request_type": "Parks & Parkways",
    "request_reason": "Request Tree Service (Right of Way/Public Property)",
    "date_created": "2024-04-27T11:37:49.000",
    "date_modified": "2024-04-27T11:37:49.000",
    "request_status": "Pending",
    "responsible_agency": "Department of Parks & Parkway",
    "final_address": "1536 Athis St",
    "address_councildis": "D",
    "status": "Pending",
    "rowid": "1088417",
    "final_x": "3678686.6507",
    "final_y": "553664.653463",
    "longitude": "-90.07618669334325",
    "latitude": "30.016470872454036",
    "geocoded_column": {
      "latitude": "30.016470872454036",
      "longitude": "-90.07618669334325"
    }
  },
  {
    "service_request": "2024-1088416",
    "request_type": "Trash/Recycling",
    "request_reason": "Replace Trash Cart",
    "date_created": "2024-04-27T11:37:00.000",
    "date_modified": "2024-04-27T11:37:01.000",
    "request_status": "Pending",
    "responsible_agency": "Department of Sanitation",
    "final_address": "4923 Marigny St",
    "address_councildis": "D",
    "status": "Assigned to Contractor",
    "contractor": "IV Waste",
    "rowid": "1088416",
    "final_x": "3684427.92623",
    "final_y": "550942.594965",
    "longitude": "-90.05814247187952",
    "latitude": "30.008811755870866",
    "geocoded_column": {
      "latitude": "30.008811755870866",
      "longitude": "-90.05814247187952"
    }
  },
  {
    "service_request": "2024-1088415",
    "request_type": "Trash/Recycling",
    "request_reason": "Missed Trash Pick-Up",
    "date_created": "2024-04-27T11:27:33.000",
    "date_modified": "2024-04-28T06:35:58.000",
    "case_close_date": "2024-04-28T01:35:58.000",
    "request_status": "Closed",
    "responsible_agency": "Department of Sanitation",
    "final_address": "417 s Bernadotte st",
    "address_councildis": "A",
    "status": "Assigned to Contractor",
    "contractor": "IV Waste",
    "contractor_action": "Invalid Request",
    "rowid": "1088415",
    "final_x": "3667957.56455",
    "final_y": "538988.199882",
    "longitude": "-90.11058095157362",
    "latitude": "29.97643498500243",
    "geocoded_column": {
      "latitude": "29.97643498500243",
      "longitude": "-90.11058095157362"
    }
  },
  {
    "service_request": "2024-1088414",
    "request_type": "Roads/Drainage",
    "request_reason": "Damaged Sidewalk",
    "date_created": "2024-04-27T11:21:04.000",
    "date_modified": "2024-04-27T11:21:04.000",
    "request_status": "Pending",
    "responsible_agency": "Department of Public Works",
    "final_address": "2225 S Carrollton Ave",
    "address_councildis": "A",
    "status": "Pending",
    "rowid": "1088414",
    "final_x": "3664584.87898",
    "final_y": "531005.860994",
    "longitude": "-90.12149958624694",
    "latitude": "29.954584711413258",
    "geocoded_column": {
      "latitude": "29.954584711413258",
      "longitude": "-90.12149958624694"
    }
  },
  {
    "service_request": "2024-1088413",
    "request_type": "Roads/Drainage",
    "request_reason": "Pothole",
    "date_created": "2024-04-27T11:11:27.000",
    "date_modified": "2024-04-27T11:11:27.000",
    "request_status": "Pending",
    "responsible_agency": "Department of Public Works",
    "final_address": " & HARRINGTON ST",
    "address_councildis": "D",
    "status": "Pending",
    "rowid": "1088413",
    "final_x": "3689110.26",
    "final_y": "559848.71",
    "longitude": "-90.04303264322179",
    "latitude": "30.033156143242973",
    "geocoded_column": {
      "latitude": "30.033156143242973",
      "longitude": "-90.04303264322179"
    }
  },
  {
    "service_request": "2024-1088412",
    "request_type": "Roads/Drainage",
    "request_reason": "Street Subsidence (Sinking)",
    "date_created": "2024-04-27T11:03:09.000",
    "date_modified": "2024-04-27T11:03:09.000",
    "request_status": "Pending",
    "responsible_agency": "Department of Public Works",
    "final_address": "3104 St Philip St",
    "address_councildis": "A",
    "status": "Pending",
    "rowid": "1088412",
    "final_x": "3675882.91611",
    "final_y": "538979.95361",
    "longitude": "-90.08555055159967",
    "latitude": "29.97617738302699",
    "geocoded_column": {
      "latitude": "29.97617738302699",
      "longitude": "-90.08555055159967"
    }
  },
  {
    "service_request": "2024-1088411",
    "request_type": "Roads/Drainage",
    "request_reason": "Street Subsidence (Sinking)",
    "date_created": "2024-04-27T11:00:37.000",
    "date_modified": "2024-04-27T11:00:37.000",
    "request_status": "Pending",
    "responsible_agency": "Department of Public Works",
    "final_address": "3104 St Philip St",
    "address_councildis": "A",
    "status": "Pending",
    "rowid": "1088411",
    "final_x": "3675882.91611",
    "final_y": "538979.95361",
    "longitude": "-90.08555055159967",
    "latitude": "29.97617738302699",
    "geocoded_column": {
      "latitude": "29.97617738302699",
      "longitude": "-90.08555055159967"
    }
  },
  {
    "service_request": "2024-1088410",
    "request_type": "Trash/Recycling",
    "request_reason": "Order Recycling Cart",
    "date_created": "2024-04-27T10:43:48.000",
    "date_modified": "2024-04-27T10:43:48.000",
    "request_status": "Pending",
    "responsible_agency": "Department of Sanitation",
    "final_address": "7629 Jeannette St",
    "address_councildis": "A",
    "status": "Pending",
    "rowid": "1088410",
    "final_x": "3663921.69786",
    "final_y": "528130.802751",
    "longitude": "-90.1236895021579",
    "latitude": "29.946698498311985",
    "geocoded_column": {
      "latitude": "29.946698498311985",
      "longitude": "-90.1236895021579"
    }
  },
  {
    "service_request": "2024-1088409",
    "request_type": "Traffic Signals/Signs/Striping/Streetlights",
    "request_reason": "Street Light Knocked Down/Leaning",
    "date_created": "2024-04-27T10:38:55.000",
    "date_modified": "2024-04-27T10:38:55.000",
    "request_status": "Pending",
    "responsible_agency": "Department of Public Works",
    "final_address": "5603 St Charles Ave",
    "address_councildis": "A",
    "status": "Pending",
    "contractor": "Legacy Professional Services",
    "rowid": "1088409",
    "final_x": "3666759.73684",
    "final_y": "522089.92697",
    "longitude": "-90.11493156437204",
    "latitude": "29.930005339048314",
    "geocoded_column": {
      "latitude": "29.930005339048314",
      "longitude": "-90.11493156437204"
    }
  },
  {
    "service_request": "2024-1088408",
    "request_type": "Trash/Recycling",
    "request_reason": "Illegal Dumping",
    "date_created": "2024-04-27T10:38:36.000",
    "date_modified": "2024-04-27T10:38:36.000",
    "request_status": "Pending",
    "responsible_agency": "Department of Sanitation",
    "final_address": "2104 Philip St",
    "address_councildis": "B",
    "status": "Pending",
    "rowid": "1088408",
    "final_x": "3676097.45313",
    "final_y": "524869.999356",
    "longitude": "-90.08535833551645",
    "latitude": "29.937373311954467",
    "geocoded_column": {
      "latitude": "29.937373311954467",
      "longitude": "-90.08535833551645"
    }
  },
  {
    "service_request": "2024-1088407",
    "request_type": "Abandoned Vehicles",
    "request_reason": "Abandoned/Junk Vehicles",
    "date_created": "2024-04-27T10:30:06.000",
    "date_modified": "2024-04-27T10:30:06.000",
    "request_status": "Pending",
    "responsible_agency": "Department of Public Works",
    "final_address": "929 Touro St",
    "address_councildis": "C",
    "status": "Pending",
    "rowid": "1088407",
    "final_x": "3684299.09391",
    "final_y": "535769.414919",
    "longitude": "-90.05908258639768",
    "latitude": "29.967094829467204",
    "geocoded_column": {
      "latitude": "29.967094829467204",
      "longitude": "-90.05908258639768"
    }
  },