[
  {
    "service_request": "2023-1040890",
    "request_type": "Health Related Request",
    "request_reason": "Noise Ordinance Complaint",
    "date_created": "2023-10-05T01:12:18.000",
    "date_modified": "2023-10-05T01:12:18.000",
    "request_status": "Pending",
    "responsible_agency": "Health Department",
    "final_address": "4801 Bienville Ave",
    "address_councildis": "A",
    "status": "Pending",
    "rowid": "1040890",
    "final_x": "3669301.71156",
    "final_y": "540770.138955",
    "longitude": "-90.1062754478953",
    "latitude": "29.981295206071636",
    "geocoded_column": {
      "latitude": "29.981295206071636",
      "longitude": "-90.1062754478953"
    }
  },
  {
    "service_request": "2023-1040889",
    "request_type": "Traffic Signals/Signs/Striping/Streetlights",
    "request_reason": "Street Light Outage/Malfunction",
    "date_created": "2023-10-04T23:11:45.000",
    "date_modified": "2023-10-04T23:11:45.000",
    "request_status": "Pending",
    "responsible_agency": "Department of Public Works",
    "final_address": "4138 Vincennes Pl",
    "address_councildis": "B",
    "status": "Assigned to Contractor",
    "contractor": "Legacy Professional Services",
    "rowid": "1040889",
    "final_x": "3668569.73729",
    "final_y": "530885.120578",
    "longitude": "-90.1089209874698",
    "latitude": "29.954136232376058",
    "geocoded_column": {
      "latitude": "29.954136232376058",
      "longitude": "-90.1089209874698"
    }
  },
  {
    "service_request": "2023-1040888",
    "request_type": "Trash/Recycling",
    "request_reason": "Replace Trash Cart",
    "date_created": "2023-10-04T23:07:47.000",
    "date_modified": "2023-10-04T23:07:48.000",
    "request_status": "Pending",
    "responsible_agency": "Department of Sanitation",
    "final_address": "4138 Vincennes Pl",
    "address_councildis": "B",
    "status": "Assigned to Contractor",
    "contractor": "Richards Disposal",
    "rowid": "1040888",
    "final_x": "3668569.73729",
    "final_y": "530885.120578",
    "longitude": "-90.1089209874698",
    "latitude": "29.954136232376058",
    "geocoded_column": {
      "latitude": "29.954136232376058",
      "longitude": "-90.1089209874698"
    }
  },
  {
    "service_request": "2023-1040887",
    "request_type": "Trash/Recycling",
    "request_reason": "Request a Large Item Pick Up",
    "date_created": "2023-10-04T23:01:09.000",
    "date_modified": "2023-10-04T23:01:09.000",
    "request_status": "Pending",
    "responsible_agency": "Department of Sanitation",
    "final_address": "606 Second St",
    "address_councildis": "B",
    "status": "Assigned to Contractor",
    "contractor": "Richards Disposal",
    "rowid": "1040887",
    "final_x": "3678748.11138",
    "final_y": "519844.988856",
    "longitude": "-90.07716394769885",
    "latitude": "29.92347653139816",
    "geocoded_column": {
      "latitude": "29.92347653139816",
      "longitude": "-90.07716394769885"
    }
  },
  {
    "service_request": "2023-1040886",
    "request_type": "Roads/Drainage",
    "request_reason": "Pothole",
    "date_created": "2023-10-04T22:49:53.000",
    "date_modified": "2023-10-04T22:49:53.000",
    "request_status": "Pending",
    "responsible_agency": "Department of Public Works",
    "final_address": "5420 Garfield St",
    "address_councildis": "A",
    "status": "Pending",
    "rowid": "1040886",
    "final_x": "3667065.84148",
    "final_y": "521022.423801",
    "longitude": "-90.11400110021505",
    "latitude": "29.927061090503997",
    "geocoded_column": {
      "latitude": "29.927061090503997",
      "longitude": "-90.11400110021505"
    }
  },
  {
    "service_request": "2023-1040885",
    "request_type": "Roads/Drainage",
    "request_reason": "Pothole",
    "date_created": "2023-10-04T22:49:07.000",
    "date_modified": "2023-10-04T22:49:07.000",
    "request_status": "Pending",
    "responsible_agency": "Department of Public Works",
    "final_address": "5400 BLK Garfield St",
    "address_councildis": "A",
    "status": "Pending",
    "rowid": "1040885",
    "final_x": "3667090.8295",
    "final_y": "521077.314917",
    "longitude": "-90.11392037520632",
    "latitude": "29.927211292506133",
    "geocoded_column": {
      "latitude": "29.927211292506133",
      "longitude": "-90.11392037520632"
    }
  },
  {
    "service_request": "2023-1040884",
    "request_type": "Roads/Drainage",
    "request_reason": "Pothole",
    "date_created": "2023-10-04T22:47:36.000",
    "date_modified": "2023-10-04T22:47:36.000",
    "request_status": "Pending",
    "responsible_agency": "Department of Public Works",
    "final_address": "1075 Prytania St",
    "address_councildis": "B",
    "status": "Pending",
    "rowid": "1040884",
    "final_x": "3680348.15528",
    "final_y": "526534.69267",
    "longitude": "-90.07188073227375",
    "latitude": "29.941822682868306",
    "geocoded_column": {
      "latitude": "29.941822682868306",
      "longitude": "-90.07188073227375"
    }
  },
  {
    "service_request": "2023-1040882",
    "request_type": "Roads/Drainage",
    "request_reason": "Road Shoulder Repair",
    "date_created": "2023-10-04T21:32:43.000",
    "date_modified": "2023-10-04T21:32:43.000",
    "request_status": "Pending",
    "responsible_agency": "Department of Public Works",
    "final_address": "4300 BLK Coliseum St",
    "address_councildis": "B",
    "status": "Pending",
    "rowid": "1040882",
    "final_x": "3671171.73078",
    "final_y": "519844.933195",
    "longitude": "-90.10107981563857",
    "latitude": "29.923702589131413",
    "geocoded_column": {
      "latitude": "29.923702589131413",
      "longitude": "-90.10107981563857"
    }
  },
  {
    "service_request": "2023-1040881",
    "request_type": "Roads/Drainage",
    "request_reason": "Pothole",
    "date_created": "2023-10-04T21:18:34.000",
    "date_modified": "2023-10-04T21:18:34.000",
    "request_status": "Pending",
    "responsible_agency": "Department of Public Works",
    "final_address": "1221 Constantinople St",
    "address_councildis": "B",
    "status": "Pending",
    "rowid": "1040881",
    "final_x": "3672464.70081",
    "final_y": "520181.419896",
    "longitude": "-90.09698691327688",
    "latitude": "29.92458952289487",
    "geocoded_column": {
      "latitude": "29.92458952289487",
      "longitude": "-90.09698691327688"
    }
  },
  {
    "service_request": "2023-1040880",
    "request_type": "Traffic Signals/Signs/Striping/Streetlights",
    "request_reason": "Street Light Outage/Malfunction",
    "date_created": "2023-10-04T21:02:49.000",
    "date_modified": "2023-10-04T21:02:50.000",
    "request_status": "Pending",
    "responsible_agency": "Department of Public Works",
    "final_address": "2606 Gordon St, New Orleans, Louisiana, 70117",
    "address_councildis": "E",
    "status": "Assigned to Contractor",
    "contractor": "Legacy Professional Services",
    "rowid": "1040880",
    "final_x": "3701309.80452",
    "final_y": "538869.135625",
    "longitude": "-90.00524955372448",
    "latitude": "29.975086821609285",
    "geocoded_column": {
      "latitude": "29.975086821609285",
      "longitude": "-90.00524955372448"
    }
  },
  {
    "service_request": "2023-1040878",
    "request_type": "Trash/Recycling",
    "request_reason": "Order Recycling Cart",
    "date_created": "2023-10-04T20:44:25.000",
    "date_modified": "2023-10-04T20:44:25.000",
    "request_status": "Pending",
    "responsible_agency": "Department of Sanitation",
    "final_address": "2620 DAbadie St",
    "address_councildis": "D",
    "status": "Pending",
    "rowid": "1040878",
    "final_x": "3679334.12847",
    "final_y": "540855.945931",
    "longitude": "-90.07458551970393",
    "latitude": "29.98123192163742",
    "geocoded_column": {
      "latitude": "29.98123192163742",
      "longitude": "-90.07458551970393"
    }
  },
  {
    "service_request": "2023-1040877",
    "request_type": "Abandoned Vehicles",
    "request_reason": "Abandoned/Junk Vehicles",
    "date_created": "2023-10-04T20:42:31.000",
    "date_modified": "2023-10-04T20:42:31.000",
    "request_status": "Pending",
    "responsible_agency": "Department of Public Works",
    "final_address": "1839 Bienville Ave",
    "address_councildis": "B",
    "status": "Pending",
    "rowid": "1040877",
    "final_x": "3678359.84731",
    "final_y": "533885.561221",
    "longitude": "-90.07790395556597",
    "latitude": "29.96209514616115",
    "geocoded_column": {
      "latitude": "29.96209514616115",
      "longitude": "-90.07790395556597"
    }
  },
  {
    "service_request": "2023-1040876",
    "request_type": "Trash/Recycling",
    "request_reason": "Order Trash Cart",
    "date_created": "2023-10-04T20:23:09.000",
    "date_modified": "2023-10-04T20:23:10.000",
    "request_status": "Pending",
    "responsible_agency": "Department of Sanitation",
    "final_address": "3426 Fourth St",
    "address_councildis": "B",
    "status": "Assigned to Contractor",
    "contractor": "Richards Disposal",
    "rowid": "1040876",
    "final_x": "3672522.37543",
    "final_y": "528171.892352",
    "longitude": "-90.09653259826018",
    "latitude": "29.94655902034419",
    "geocoded_column": {
      "latitude": "29.94655902034419",
      "longitude": "-90.09653259826018"
    }
  },
  {
    "service_request": "2023-1040875",
    "request_type": "Trash/Recycling",
    "request_reason": "Order Trash Cart",
    "date_created": "2023-10-04T20:22:00.000",
    "date_modified": "2023-10-04T20:22:01.000",
    "request_status": "Pending",
    "responsible_agency": "Department of Sanitation",
    "final_address": "3422 Fourth St",
    "address_councildis": "B",
    "status": "Assigned to Contractor",
    "contractor": "Richards Disposal",
    "rowid": "1040875",
    "final_x": "3672536.61159",
    "final_y": "528152.100735",
    "longitude": "-90.09648832405098",
    "latitude": "29.946504177365274",
    "geocoded_column": {
      "latitude": "29.946504177365274",
      "longitude": "-90.09648832405098"
    }
  },
  {
    "service_request": "2023-1040874",
    "request_type": "Trash/Recycling",
    "request_reason": "Order Trash Cart",
    "date_created": "2023-10-04T20:20:52.000",
    "date_modified": "2023-10-04T20:20:53.000",
    "request_status": "Pending",
    "responsible_agency": "Department of Sanitation",
    "final_address": "3418 Fourth St",
    "address_councildis": "B",
    "status": "Assigned to Contractor",
    "contractor": "Richards Disposal",
    "rowid": "1040874",
    "final_x": "3672548.4171",
    "final_y": "528137.517311",
    "longitude": "-90.09645154682086",
    "latitude": "29.94646372733749",
    "geocoded_column": {
      "latitude": "29.94646372733749",
      "longitude": "-90.09645154682086"
    }
  },
  {
    "service_request": "2023-1040873",
    "request_type": "Trash/Recycling",
    "request_reason": "Illegal Dumping",
    "date_created": "2023-10-04T20:19:00.000",
    "date_modified": "2023-10-04T20:19:00.000",
    "request_status": "Pending",
    "responsible_agency": "Department of Sanitation",
    "status": "Pending",
    "rowid": "1040873",
    "longitude": "0.0",
    "latitude": "0.0",
    "geocoded_column": {
      "latitude": "0.0",
      "longitude": "0.0"
    }
  },
  {
    "service_request": "2023-1040872",
    "request_type": "Abandoned Vehicles",
    "request_reason": "Abandoned/Junk Vehicles",
    "date_created": "2023-10-04T19:37:43.000",
    "date_modified": "2023-10-04T19:37:43.000",
    "request_status": "Pending",
    "responsible_agency": "Department of Public Works",
    "final_address": "8000 BLK Hampson St",
    "address_councildis": "A",
    "status": "Pending",
    "rowid": "1040872",
    "final_x": "3661007.04475",
    "final_y": "526900.80655",
    "longitude": "-90.1329328501134",
    "latitude": "29.943400684553307",
    "geocoded_column": {
      "latitude": "29.943400684553307",
      "longitude": "-90.1329328501134"
    }
  },
  {
    "service_request": "2023-1040871",
    "request_type": "Abandoned Vehicles",
    "request_reason": "Abandoned/Junk Vehicles",
    "date_created": "2023-10-04T19:33:27.000",
    "date_modified": "2023-10-04T19:33:27.000",
    "request_status": "Pending",
    "responsible_agency": "Department of Public Works",
    "final_address": "8000 BLK Hampson St",
    "address_councildis": "A",
    "status": "Pending",
    "rowid": "1040871",
    "final_x": "3661007.04475",
    "final_y": "526900.80655",
    "longitude": "-90.1329328501134",
    "latitude": "29.943400684553307",
    "geocoded_column": {
      "latitude": "29.943400684553307",
      "longitude": "-90.1329328501134"
    }
  },
  {
    "service_request": "2023-1040870",
    "request_type": "Trash/Recycling",
    "request_reason": "Request a Large Item Pick Up",
    "date_created": "2023-10-04T19:17:44.000",
    "date_modified": "2023-10-04T19:17:45.000",
    "request_status": "Pending",
    "responsible_agency": "Department of Sanitation",
    "final_address": "2614 Magnolia St",
    "address_councildis": "B",
    "status": "Assigned to Contractor",
    "contractor": "Richards Disposal",
    "rowid": "1040870",
    "final_x": "3674179.60468",
    "final_y": "526062.194686",
    "longitude": "-90.09137232414128",
    "latitude": "29.940708755145405",
    "geocoded_column": {
      "latitude": "29.940708755145405",
      "longitude": "-90.09137232414128"
    }
  },
  {
    "service_request": "2023-1040869",
    "request_type": "Trash/Recycling",
    "request_reason": "Replace Trash Cart",
    "date_created": "2023-10-04T19:02:58.000",
    "date_modified": "2023-10-04T19:02:59.000",
    "request_status": "Pending",
    "responsible_agency": "Department of Sanitation",
    "final_address": "3417 Short St",
    "address_councildis": "B",
    "status": "Assigned to Contractor",
    "contractor": "Richards Disposal",
    "rowid": "1040869",
    "final_x": "3667730.21799",
    "final_y": "533975.050821",
    "longitude": "-90.11146781890355",
    "latitude": "29.962657164509324",
    "geocoded_column": {
      "latitude": "29.962657164509324",
      "longitude": "-90.11146781890355"
    }
  },
  {
    "service_request": "2023-1040868",
    "request_type": "Trash/Recycling",
    "request_reason": "MIssed Recycling Pick-Up",
    "date_created": "2023-10-04T18:39:28.000",
    "date_modified": "2023-10-04T18:39:29.000",
    "request_status": "Pending",
    "responsible_agency": "Department of Sanitation",
    "final_address": "1232 S Saratoga St",
    "address_councildis": "B",
    "status": "Assigned to Contractor",
    "contractor": "Richards Disposal",
    "rowid": "1040868",
    "final_x": "3677946.82242",
    "final_y": "527161.711039",
    "longitude": "-90.0794405778039",
    "latitude": "29.943619247997038",
    "geocoded_column": {
      "latitude": "29.943619247997038",
      "longitude": "-90.0794405778039"
    }
  },
  {
    "service_request": "2023-1040867",
    "request_type": "Trash/Recycling",
    "request_reason": "Request a Large Item Pick Up",
    "date_created": "2023-10-04T18:32:59.000",
    "date_modified": "2023-10-04T18:32:59.000",
    "request_status": "Pending",
    "responsible_agency": "Department of Sanitation",
    "final_address": "2000 S Carrollton Ave",
    "address_councildis": "A",
    "status": "Assigned to Contractor",
    "contractor": "Richards Disposal",
    "rowid": "1040867",
    "final_x": "3663869.15655",
    "final_y": "530500.026242",
    "longitude": "-90.12377643009548",
    "latitude": "29.953214623781495",
    "geocoded_column": {
      "latitude": "29.953214623781495",
      "longitude": "-90.12377643009548"
    }
  },
  {
    "service_request": "2023-1040866",
    "request_type": "Roads/Drainage",
    "request_reason": "Road Shoulder Repair",
    "date_created": "2023-10-04T18:24:05.000",
    "date_modified": "2023-10-04T18:24:05.000",
    "request_status": "Pending",
    "responsible_agency": "Department of Public Works",
    "final_address": "1126 S Genois St",
    "address_councildis": "B",
    "status": "Pending",
    "rowid": "1040866",
    "final_x": "3669574.75335",
    "final_y": "532871.584004",
    "longitude": "-90.10568033969645",
    "latitude": "29.9595687839319",
    "geocoded_column": {
      "latitude": "29.9595687839319",
      "longitude": "-90.10568033969645"
    }
  },
  {
    "service_request": "2023-1040865",
    "request_type": "Trash/Recycling",
    "request_reason": "Request a Large Item Pick Up",
    "date_created": "2023-10-04T18:03:48.000",
    "date_modified": "2023-10-04T18:03:49.000",
    "request_status": "Pending",
    "responsible_agency": "Department of Sanitation",
    "final_address": "529 S Galvez St",
    "address_councildis": "B",
    "status": "Assigned to Contractor",
    "contractor": "Richards Disposal",
    "rowid": "1040865",
    "final_x": "3675596.2468",
    "final_y": "532254.590467",
    "longitude": "-90.086687032129",
    "latitude": "29.957693492371817",
    "geocoded_column": {
      "latitude": "29.957693492371817",
      "longitude": "-90.086687032129"
    }
  },
  {
    "service_request": "2023-1040864",
    "request_type": "Trash/Recycling",
    "request_reason": "MIssed Recycling Pick-Up",
    "date_created": "2023-10-04T17:51:53.000",
    "date_modified": "2023-10-04T17:51:54.000",
    "request_status": "Pending",
    "responsible_agency": "Department of Sanitation",
    "final_address": "719 Ninth St",
    "address_councildis": "B",
    "status": "Assigned to Contractor",
    "contractor": "Richards Disposal",
    "rowid": "1040864",
    "final_x": "3676638.94773",
    "final_y": "518953.604919",
    "longitude": "-90.0838524787258",
    "latitude": "29.92108892410324",
    "geocoded_column": {
      "latitude": "29.92108892410324",
      "longitude": "-90.0838524787258"
    }
  },
  {
    "service_request": "2023-1040863",
    "request_type": "Trash/Recycling",
    "request_reason": "Missed Trash Pick-Up",
    "date_created": "2023-10-04T17:51:19.000",
    "date_modified": "2023-10-04T17:51:19.000",
    "request_status": "Pending",
    "responsible_agency": "Department of Sanitation",
    "final_address": "308 River Oaks Dr",
    "address_councildis": "C",
    "status": "Assigned to Contractor",
    "contractor": "Richards Disposal",
    "rowid": "1040863",
    "final_x": "3701625.74775",
    "final_y": "522578.530426",
    "longitude": "-90.0048482382677",
    "latitude": "29.93028337318351",
    "geocoded_column": {
      "latitude": "29.93028337318351",
      "longitude": "-90.0048482382677"
    }
  },
  {
    "service_request": "2023-1040862",
    "request_type": "Traffic Signals/Signs/Striping/Streetlights",
    "request_reason": "Street Light Outage/Malfunction",
    "date_created": "2023-10-04T17:48:41.000",
    "date_modified": "2023-10-04T17:48:42.000",
    "request_status": "Pending",
    "responsible_agency": "Department of Public Works",
    "final_address": "840 Congress St",
    "address_councildis": "C",
    "status": "Assigned to Contractor",
    "contractor": "Legacy Professional Services",
    "rowid": "1040862",
    "final_x": "3690485.50051",
    "final_y": "534761.175174",
    "longitude": "-90.03958188915408",
    "latitude": "29.964131905516734",
    "geocoded_column": {
      "latitude": "29.964131905516734",
      "longitude": "-90.03958188915408"
    }
  },
  {
    "service_request": "2023-1040861",
    "request_type": "Abandoned Vehicles",
    "request_reason": "Abandoned/Junk Vehicles",
    "date_created": "2023-10-04T17:48:33.000",
    "date_modified": "2023-10-04T17:48:33.000",
    "request_status": "Pending",
    "responsible_agency": "Department of Public Works",
    "final_address": "2526 Aubry St",
    "address_councildis": "D",
    "status": "Pending",
    "rowid": "1040861",
    "final_x": "3679966.10171",
    "final_y": "540841.308491",
    "longitude": "-90.07258997015768",
    "latitude": "29.981172569286805",
    "geocoded_column": {
      "latitude": "29.981172569286805",
      "longitude": "-90.07258997015768"
    }
  },
  {
    "service_request": "2023-1040860",
    "request_type": "Trash/Recycling",
    "request_reason": "Replace Trash Cart",
    "date_created": "2023-10-04T17:46:20.000",
    "date_modified": "2023-10-04T17:46:20.000",
    "request_status": "Pending",
    "responsible_agency": "Department of Sanitation",
    "final_address": "1724 Clio St",
    "address_councildis": "B",
    "status": "Assigned to Contractor",
    "contractor": "Richards Disposal",
    "rowid": "1040860",
    "final_x": "3679138.50799",
    "final_y": "526693.81171",
    "longitude": "-90.0756943257652",
    "latitude": "29.942296769216746",
    "geocoded_column": {
      "latitude": "29.942296769216746",
      "longitude": "-90.0756943257652"
    }
  },
  {
    "service_request": "2023-1040859",
    "request_type": "Traffic Signals/Signs/Striping/Streetlights",
    "request_reason": "Traffic Sign Missing/Damaged",
    "date_created": "2023-10-04T17:45:41.000",
    "date_modified": "2023-10-04T17:45:41.000",
    "request_status": "Pending",
    "responsible_agency": "Department of Public Works",
    "final_address": "UNION ST & CARONDELET ST",
    "address_councildis": "B",
    "status": "Pending",
    "rowid": "1040859",
    "final_x": "3680469.2",
    "final_y": "530022.58",
    "longitude": "-90.07137729016073",
    "latitude": "29.951409540395698",
    "geocoded_column": {
      "latitude": "29.951409540395698",
      "longitude": "-90.07137729016073"
    }
  },
  {
    "service_request": "2023-1040858",
    "request_type": "Trash/Recycling",
    "request_reason": "Request a Large Item Pick Up",
    "date_created": "2023-10-04T17:45:08.000",
    "date_modified": "2023-10-04T17:45:09.000",
    "request_status": "Pending",
    "responsible_agency": "Department of Sanitation",
    "final_address": "4920 Dryades St",
    "address_councildis": "B",
    "status": "Assigned to Contractor",
    "contractor": "Richards Disposal",
    "rowid": "1040858",
    "final_x": "3668904.73338",
    "final_y": "521685.405177",
    "longitude": "-90.1081738005452",
    "latitude": "29.928830143455674",
    "geocoded_column": {
      "latitude": "29.928830143455674",
      "longitude": "-90.1081738005452"
    }
  },
  {
    "service_request": "2023-1040857",
    "request_type": "Traffic Signals/Signs/Striping/Streetlights",
    "request_reason": "Traffic Sign Missing/Damaged",
    "date_created": "2023-10-04T17:44:27.000",
    "date_modified": "2023-10-04T17:44:27.000",
    "request_status": "Pending",
    "responsible_agency": "Department of Public Works",
    "final_address": "IBERVILLE ST & N DORGENOIS ST",
    "address_councildis": "B",
    "status": "Pending",
    "rowid": "1040857",
    "final_x": "3676062.4",
    "final_y": "535113.88",
    "longitude": "-90.08511669943111",
    "latitude": "29.965541621714788",
    "geocoded_column": {
      "latitude": "29.965541621714788",
      "longitude": "-90.08511669943111"
    }
  },
  {
    "service_request": "2023-1040856",
    "request_type": "Trash/Recycling",
    "request_reason": "Missed Trash Pick-Up",
    "date_created": "2023-10-04T17:35:54.000",
    "date_modified": "2023-10-04T17:35:55.000",
    "request_status": "Pending",
    "responsible_agency": "Department of Sanitation",
    "final_address": "4742 Corinne St",
    "address_councildis": "E",
    "status": "Assigned to Contractor",
    "contractor": "Waste Pro",
    "rowid": "1040856",
    "final_x": "3714948.57707",
    "final_y": "556923.433818",
    "longitude": "-89.96149259107838",
    "latitude": "30.02428745970195",
    "geocoded_column": {
      "latitude": "30.02428745970195",
      "longitude": "-89.96149259107838"
    }
  },
  {
    "service_request": "2023-1040855",
    "request_type": "Trash/Recycling",
    "request_reason": "Missed Trash Pick-Up",
    "date_created": "2023-10-04T17:33:13.000",
    "date_modified": "2023-10-04T17:33:14.000",
    "request_status": "Pending",
    "responsible_agency": "Department of Sanitation",
    "final_address": "426 Belleville St",
    "address_councildis": "C",
    "status": "Assigned to Contractor",
    "contractor": "Richards Disposal",
    "rowid": "1040855",
    "final_x": "3687905.86703",
    "final_y": "530112.152577",
    "longitude": "-90.04789282455167",
    "latitude": "29.95142853414297",
    "geocoded_column": {
      "latitude": "29.95142853414297",
      "longitude": "-90.04789282455167"
    }
  },
  {
    "service_request": "2023-1040854",
    "request_type": "Trash/Recycling",
    "request_reason": "Request a Large Item Pick Up",
    "date_created": "2023-10-04T17:26:48.000",
    "date_modified": "2023-10-04T17:26:48.000",
    "request_status": "Pending",
    "responsible_agency": "Department of Sanitation",
    "final_address": "422 Nashville Ave",
    "address_councildis": "A",
    "status": "Assigned to Contractor",
    "contractor": "Richards Disposal",
    "rowid": "1040854",
    "final_x": "3665211.66138",
    "final_y": "517867.52127",
    "longitude": "-90.11995975189367",
    "latitude": "29.918440221829414",
    "geocoded_column": {
      "latitude": "29.918440221829414",
      "longitude": "-90.11995975189367"
    }
  },
  {
    "service_request": "2023-1040853",
    "request_type": "Roads/Drainage",
    "request_reason": "Street Subsidence (Sinking)",
    "date_created": "2023-10-04T17:26:12.000",
    "date_modified": "2023-10-04T17:26:12.000",
    "request_status": "Pending",
    "responsible_agency": "Department of Public Works",
    "final_address": "1700 BLK Leon C Simon Dr",
    "address_councildis": "D",
    "status": "Pending",
    "rowid": "1040853",
    "final_x": "3679663.32732",
    "final_y": "555878.512702",
    "longitude": "-90.0730238789815",
    "latitude": "30.02252868005549",
    "geocoded_column": {
      "latitude": "30.02252868005549",
      "longitude": "-90.0730238789815"
    }
  },
  {
    "service_request": "2023-1040852",
    "request_type": "Trash/Recycling",
    "request_reason": "MIssed Recycling Pick-Up",
    "date_created": "2023-10-04T17:24:02.000",
    "date_modified": "2023-10-04T17:24:03.000",
    "request_status": "Pending",
    "responsible_agency": "Department of Sanitation",
    "final_address": "640 Lizardi St",
    "address_councildis": "E",
    "status": "Assigned to Contractor",
    "contractor": "Waste Pro",
    "rowid": "1040852",
    "final_x": "3696069.6536",
    "final_y": "532623.366404",
    "longitude": "-90.0220249691599",
    "latitude": "29.958079140525424",
    "geocoded_column": {
      "latitude": "29.958079140525424",
      "longitude": "-90.0220249691599"
    }
  },
  {
    "service_request": "2023-1040850",
    "request_type": "Trash/Recycling",
    "request_reason": "Request a Large Item Pick Up",
    "date_created": "2023-10-04T17:08:21.000",
    "date_modified": "2023-10-04T17:08:21.000",
    "request_status": "Pending",
    "responsible_agency": "Department of Sanitation",
    "final_address": "5521 S Eastover Dr",
    "address_councildis": "E",
    "status": "Assigned to Contractor",
    "contractor": "Waste Pro",
    "rowid": "1040850",
    "final_x": "3719429.31641",
    "final_y": "561832.660959",
    "longitude": "-89.9471467918438",
    "latitude": "30.03763758795301",
    "geocoded_column": {
      "latitude": "30.03763758795301",
      "longitude": "-89.9471467918438"
    }
  },
  {
    "service_request": "2023-1040848",
    "request_type": "Trash/Recycling",
    "request_reason": "Request a Large Item Pick Up",
    "date_created": "2023-10-04T17:05:07.000",
    "date_modified": "2023-10-04T17:05:07.000",
    "request_status": "Pending",
    "responsible_agency": "Department of Sanitation",
    "final_address": "3314 Aurora Dr",
    "address_councildis": "C",
    "status": "Assigned to Contractor",
    "contractor": "Richards Disposal",
    "rowid": "1040848",
    "final_x": "3706984.49726",
    "final_y": "518615.265271",
    "longitude": "-89.98807854518702",
    "latitude": "29.919213857538622",
    "geocoded_column": {
      "latitude": "29.919213857538622",
      "longitude": "-89.98807854518702"
    }
  },
  {
    "service_request": "2023-1040849",
    "request_type": "Trash/Recycling",
    "request_reason": "Request a Large Item Pick Up",
    "date_created": "2023-10-04T17:05:07.000",
    "date_modified": "2023-10-04T17:05:07.000",
    "request_status": "Pending",
    "responsible_agency": "Department of Sanitation",
    "final_address": "3314 Aurora Dr",
    "address_councildis": "C",
    "status": "Assigned to Contractor",
    "contractor": "Richards Disposal",
    "rowid": "1040849",
    "final_x": "3706984.49726",
    "final_y": "518615.265271",
    "longitude": "-89.98807854518702",
    "latitude": "29.919213857538622",
    "geocoded_column": {
      "latitude": "29.919213857538622",
      "longitude": "-89.98807854518702"
    }
  },
  {
    "service_request": "2023-1040847",
    "request_type": "Traffic Signals/Signs/Striping/Streetlights",
    "request_reason": "Street Light Outage/Malfunction",
    "date_created": "2023-10-04T17:05:06.000",
    "date_modified": "2023-10-04T17:05:07.000",
    "request_status": "Pending",
    "responsible_agency": "Department of Public Works",
    "final_address": "N GALVEZ ST & DESIRE ST",
    "address_councildis": "D",
    "status": "Assigned to Contractor",
    "contractor": "Legacy Professional Services",
    "rowid": "1040847",
    "final_x": "3691110.6",
    "final_y": "539473.98",
    "longitude": "-90.03743957088977",
    "latitude": "29.977071033033496",
    "geocoded_column": {
      "latitude": "29.977071033033496",
      "longitude": "-90.03743957088977"
    }
  },
  {
    "service_request": "2023-1040846",
    "request_type": "Property Maintenance",
    "request_reason": "Property Maintenance",
    "date_created": "2023-10-04T17:03:22.000",
    "date_modified": "2023-10-04T17:03:22.000",
    "request_status": "Pending",
    "responsible_agency": "Department of Code Enforcement",
    "final_address": "8624 Hickory St",
    "address_councildis": "A",
    "status": "Pending",
    "rowid": "1040846",
    "final_x": "3661888.58599",
    "final_y": "531256.994434",
    "longitude": "-90.13000514682275",
    "latitude": "29.955353380891857",
    "geocoded_column": {
      "latitude": "29.955353380891857",
      "longitude": "-90.13000514682275"
    }
  },
  {
    "service_request": "2023-1040845",
    "request_type": "Trash/Recycling",
    "request_reason": "Order Trash Cart",
    "date_created": "2023-10-04T17:02:24.000",
    "date_modified": "2023-10-04T17:02:25.000",
    "request_status": "Pending",
    "responsible_agency": "Department of Sanitation",
    "final_address": "2329 Jackson Ave",
    "address_councildis": "B",
    "status": "Assigned to Contractor",
    "contractor": "Richards Disposal",
    "rowid": "1040845",
    "final_x": "3675690.79016",
    "final_y": "526280.542398",
    "longitude": "-90.0865937458183",
    "latitude": "29.941264014747297",
    "geocoded_column": {
      "latitude": "29.941264014747297",
      "longitude": "-90.0865937458183"
    }
  },
  {
    "service_request": "2023-1040844",
    "request_type": "Trash/Recycling",
    "request_reason": "Request a Large Item Pick Up",
    "date_created": "2023-10-04T16:59:49.000",
    "date_modified": "2023-10-04T16:59:50.000",
    "request_status": "Pending",
    "responsible_agency": "Department of Sanitation",
    "final_address": "6000 Burgundy St",
    "address_councildis": "E",
    "status": "Assigned to Contractor",
    "contractor": "Waste Pro",
    "rowid": "1040844",
    "final_x": "3698876.49264",
    "final_y": "532650.859332",
    "longitude": "-90.01316080658339",
    "latitude": "29.95806611425129",
    "geocoded_column": {
      "latitude": "29.95806611425129",
      "longitude": "-90.01316080658339"
    }
  },
  {
    "service_request": "2023-1040843",
    "request_type": "Abandoned Vehicles",
    "request_reason": "Abandoned/Junk Vehicles",
    "date_created": "2023-10-04T16:56:59.000",
    "date_modified": "2023-10-04T16:56:59.000",
    "request_status": "Pending",
    "responsible_agency": "Department of Public Works",
    "final_address": "801 Frenchmen St Apt 1",
    "address_councildis": "C",
    "status": "Pending",
    "rowid": "1040843",
    "final_x": "3684707.56879",
    "final_y": "535279.38759",
    "longitude": "-90.05780984856258",
    "latitude": "29.96573492719452",
    "geocoded_column": {
      "latitude": "29.96573492719452",
      "longitude": "-90.05780984856258"
    }
  },
  {
    "service_request": "2023-1040842",
    "request_type": "Trash/Recycling",
    "request_reason": "Repair Trash Cart",
    "date_created": "2023-10-04T16:47:14.000",
    "date_modified": "2023-10-04T16:47:15.000",
    "request_status": "Pending",
    "responsible_agency": "Department of Sanitation",
    "final_address": "2310 Ap Tureaud Ave",
    "address_councildis": "D",
    "status": "Assigned to Contractor",
    "contractor": "IV Waste",
    "rowid": "1040842",
    "final_x": "3681556.90882",
    "final_y": "540608.940363",
    "longitude": "-90.06757359228664",
    "latitude": "29.980485414147648",
    "geocoded_column": {
      "latitude": "29.980485414147648",
      "longitude": "-90.06757359228664"
    }
  },
  {
    "service_request": "2023-1040841",
    "request_type": "Trash/Recycling",
    "request_reason": "MIssed Recycling Pick-Up",
    "date_created": "2023-10-04T16:41:57.000",
    "date_modified": "2023-10-04T16:41:58.000",
    "request_status": "Pending",
    "responsible_agency": "Department of Sanitation",
    "final_address": "423 S Solomon St",
    "address_councildis": "A",
    "status": "Assigned to Contractor",
    "contractor": "Richards Disposal",
    "rowid": "1040841",
    "final_x": "3669684.00743",
    "final_y": "537605.832264",
    "longitude": "-90.10517510291825",
    "latitude": "29.972583168970633",
    "geocoded_column": {
      "latitude": "29.972583168970633",
      "longitude": "-90.10517510291825"
    }
  },
  {
    "service_request": "2023-1040840",
    "request_type": "Property Maintenance",
    "request_reason": "Property Maintenance",
    "date_created": "2023-10-04T16:41:33.000",
    "date_modified": "2023-10-04T16:42:31.000",
    "request_status": "Pending",
    "responsible_agency": "Department of Code Enforcement",
    "final_address": "3801 Tchoupitoulas St, New Orleans, Louisiana, 70115",
    "address_councildis": "B",
    "rowid": "1040840",
    "final_x": "3673671.26804",
    "final_y": "517749.470262",
    "longitude": "-90.09326126339094",
    "latitude": "29.917866587178136",
    "geocoded_column": {
      "latitude": "29.917866587178136",
      "longitude": "-90.09326126339094"
    }
  },
  {
    "service_request": "2023-1040839",
    "request_type": "Abandoned Vehicles",
    "request_reason": "Abandoned/Junk Vehicles",
    "date_created": "2023-10-04T16:39:29.000",
    "date_modified": "2023-10-04T16:39:30.000",
    "request_status": "Pending",
    "responsible_agency": "Department of Public Works",
    "final_address": "2600 BLK Third St",
    "address_councildis": "B",
    "status": "Pending",
    "rowid": "1040839",
    "final_x": "3674351.5758",
    "final_y": "526029.922793",
    "longitude": "-90.09083048575927",
    "latitude": "29.940614891583678",
    "geocoded_column": {
      "latitude": "29.940614891583678",
      "longitude": "-90.09083048575927"
    }
  },
  {
    "service_request": "2023-1040838",
    "request_type": "Abandoned Vehicles",
    "request_reason": "Abandoned/Junk Vehicles",
    "date_created": "2023-10-04T16:37:11.000",
    "date_modified": "2023-10-04T16:37:11.000",
    "request_status": "Pending",
    "responsible_agency": "Department of Public Works",
    "final_address": "3008 Banks St",
    "address_councildis": "B",
    "status": "Pending",
    "rowid": "1040838",
    "final_x": "3673497.61409",
    "final_y": "534914.265478",
    "longitude": "-90.09322302136167",
    "latitude": "29.965069323482602",
    "geocoded_column": {
      "latitude": "29.965069323482602",
      "longitude": "-90.09322302136167"
    }
  },
  {
    "service_request": "2023-1040837",
    "request_type": "Trash/Recycling",
    "request_reason": "Request a Large Item Pick Up",
    "date_created": "2023-10-04T16:35:30.000",
    "date_modified": "2023-10-04T16:35:30.000",
    "request_status": "Pending",
    "responsible_agency": "Department of Sanitation",
    "final_address": "8927 Willow St",
    "address_councildis": "A",
    "status": "Assigned to Contractor",
    "contractor": "Richards Disposal",
    "rowid": "1040837",
    "final_x": "3660209.40627",
    "final_y": "530975.683074",
    "longitude": "-90.135316701187",
    "latitude": "29.95462824662377",
    "geocoded_column": {
      "latitude": "29.95462824662377",
      "longitude": "-90.135316701187"
    }
  },
  {
    "service_request": "2023-1040836",
    "request_type": "Trash/Recycling",
    "request_reason": "Order Recycling Cart",
    "date_created": "2023-10-04T16:26:43.000",
    "date_modified": "2023-10-04T16:26:43.000",
    "request_status": "Pending",
    "responsible_agency": "Department of Sanitation",
    "final_address": "7644 Lehigh St Apt A",
    "address_councildis": "E",
    "status": "Pending",
    "rowid": "1040836",
    "final_x": "3710424.90705",
    "final_y": "565802.690915",
    "longitude": "-89.97545393759191",
    "latitude": "30.048850023028635",
    "geocoded_column": {
      "latitude": "30.048850023028635",
      "longitude": "-89.97545393759191"
    }
  },
  {
    "service_request": "2023-1040835",
    "request_type": "Trash/Recycling",
    "request_reason": "Request a Large Item Pick Up",
    "date_created": "2023-10-04T16:22:51.000",
    "date_modified": "2023-10-04T16:22:52.000",
    "request_status": "Pending",
    "responsible_agency": "Department of Sanitation",
    "final_address": "821 Louisiana Ave",
    "address_councildis": "B",
    "status": "Assigned to Contractor",
    "contractor": "Richards Disposal",
    "rowid": "1040835",
    "final_x": "3675528.5099",
    "final_y": "518833.833591",
    "longitude": "-90.0873617479501",
    "latitude": "29.92079283991565",
    "geocoded_column": {
      "latitude": "29.92079283991565",
      "longitude": "-90.0873617479501"
    }
  },
  {
    "service_request": "2023-1040834",
    "request_type": "Trash/Recycling",
    "request_reason": "Request a Large Item Pick Up",
    "date_created": "2023-10-04T16:22:49.000",
    "date_modified": "2023-10-04T16:24:30.000",
    "request_status": "Pending",
    "responsible_agency": "Department of Sanitation",
    "final_address": "5651 Paris Ave",
    "address_councildis": "D",
    "status": "Assigned to Contractor",
    "contractor": "IV Waste",
    "rowid": "1040834",
    "final_x": "3679175.83323",
    "final_y": "553366.536407",
    "longitude": "-90.07465143349559",
    "latitude": "30.01563639201733",
    "geocoded_column": {
      "latitude": "30.01563639201733",
      "longitude": "-90.07465143349559"
    }
  },
  {
    "service_request": "2023-1040833",
    "request_type": "Trash/Recycling",
    "request_reason": "Request a Large Item Pick Up",
    "date_created": "2023-10-04T16:22:08.000",
    "date_modified": "2023-10-04T16:22:09.000",
    "request_status": "Pending",
    "responsible_agency": "Department of Sanitation",
    "final_address": "1222 Moss St",
    "address_councildis": "A",
    "status": "Assigned to Contractor",
    "contractor": "Richards Disposal",
    "rowid": "1040833",
    "final_x": "3675252.22536",
    "final_y": "539959.449802",
    "longitude": "-90.08750882629359",
    "latitude": "29.97888953163875",
    "geocoded_column": {
      "latitude": "29.97888953163875",
      "longitude": "-90.08750882629359"
    }
  },
  {
    "service_request": "2023-1040832",
    "request_type": "Abandoned Vehicles",
    "request_reason": "Abandoned/Junk Vehicles",
    "date_created": "2023-10-04T16:19:11.000",
    "date_modified": "2023-10-04T16:19:11.000",
    "request_status": "Pending",
    "responsible_agency": "Department of Public Works",
    "final_address": "2600 BLK Saint Ann St",
    "address_councildis": "D",
    "status": "Pending",
    "rowid": "1040832",
    "final_x": "3677151.65419",
    "final_y": "537042.697028",
    "longitude": "-90.08161033875214",
    "latitude": "29.970812540284026",
    "geocoded_column": {
      "latitude": "29.970812540284026",
      "longitude": "-90.08161033875214"
    }
  },
  {
    "service_request": "2023-1040831",
    "request_type": "Trash/Recycling",
    "request_reason": "Return Trash Cart",
    "date_created": "2023-10-04T16:18:05.000",
    "date_modified": "2023-10-04T16:18:05.000",
    "request_status": "Pending",
    "responsible_agency": "Department of Sanitation",
    "final_address": "6600 Bellaire Dr",
    "address_councildis": "A",
    "status": "Assigned to Contractor",
    "contractor": "IV Waste",
    "rowid": "1040831",
    "final_x": "3664479.69581",
    "final_y": "552053.81103",
    "longitude": "-90.12112860909873",
    "latitude": "30.01246255342101",
    "geocoded_column": {
      "latitude": "30.01246255342101",
      "longitude": "-90.12112860909873"
    }
  },
  {
    "service_request": "2023-1040830",
    "request_type": "Trash/Recycling",
    "request_reason": "Repair Trash Cart",
    "date_created": "2023-10-04T16:16:51.000",
    "date_modified": "2023-10-04T16:16:52.000",
    "request_status": "Pending",
    "responsible_agency": "Department of Sanitation",
    "final_address": "1237 Washington Ave",
    "address_councildis": "B",
    "status": "Assigned to Contractor",
    "contractor": "Richards Disposal",
    "rowid": "1040830",
    "final_x": "3676728.83227",
    "final_y": "521443.049977",
    "longitude": "-90.08348303979818",
    "latitude": "29.92793139692747",
    "geocoded_column": {
      "latitude": "29.92793139692747",
      "longitude": "-90.08348303979818"
    }
  },
  {
    "service_request": "2023-1040829",
    "request_type": "Traffic Signals/Signs/Striping/Streetlights",
    "request_reason": "Traffic Signal Malfunctioning/Damaged",
    "date_created": "2023-10-04T16:16:17.000",
    "date_modified": "2023-10-04T16:16:18.000",
    "request_status": "Pending",
    "responsible_agency": "Department of Public Works",
    "final_address": "ST CHARLES AVE & NASHVILLE AVE",
    "address_councildis": "A",
    "status": "Pending",
    "rowid": "1040829",
    "final_x": "3666231.1",
    "final_y": "522124.98",
    "longitude": "-90.11659921430268",
    "latitude": "29.93011716947148",
    "geocoded_column": {
      "latitude": "29.93011716947148",
      "longitude": "-90.11659921430268"
    }
  },
  {
    "service_request": "2023-1040828",
    "request_type": "Trash/Recycling",
    "request_reason": "Repair Recycling Cart",
    "date_created": "2023-10-04T16:11:10.000",
    "date_modified": "2023-10-04T16:11:11.000",
    "request_status": "Pending",
    "responsible_agency": "Department of Sanitation",
    "final_address": "6324 Paris Ave",
    "address_councildis": "D",
    "status": "Pending",
    "rowid": "1040828",
    "final_x": "3678379.71029",
    "final_y": "556611.638234",
    "longitude": "-90.07705440701052",
    "latitude": "30.02458326628765",
    "geocoded_column": {
      "latitude": "30.02458326628765",
      "longitude": "-90.07705440701052"
    }
  },
  {
    "service_request": "2023-1040827",
    "request_type": "Trash/Recycling",
    "request_reason": "Repair Trash Cart",
    "date_created": "2023-10-04T16:10:26.000",
    "date_modified": "2023-10-04T16:10:26.000",
    "request_status": "Pending",
    "responsible_agency": "Department of Sanitation",
    "final_address": "6324 Paris Ave",
    "address_councildis": "D",
    "status": "Assigned to Contractor",
    "contractor": "IV Waste",
    "rowid": "1040827",
    "final_x": "3678379.71029",
    "final_y": "556611.638234",
    "longitude": "-90.07705440701052",
    "latitude": "30.02458326628765",
    "geocoded_column": {
      "latitude": "30.02458326628765",
      "longitude": "-90.07705440701052"
    }
  },
  {
    "service_request": "2023-1040825",
    "request_type": "Trash/Recycling",
    "request_reason": "Missed Trash Pick-Up",
    "date_created": "2023-10-04T16:09:17.000",
    "date_modified": "2023-10-04T16:09:17.000",
    "request_status": "Pending",
    "responsible_agency": "Department of Sanitation",
    "final_address": "4616 Marque Dr",
    "address_councildis": "E",
    "status": "Assigned to Contractor",
    "contractor": "Waste Pro",
    "rowid": "1040825",
    "final_x": "3710070.75173",
    "final_y": "555043.419993",
    "longitude": "-89.9769758009696",
    "latitude": "30.01927783051398",
    "geocoded_column": {
      "latitude": "30.01927783051398",
      "longitude": "-89.9769758009696"
    }
  },
  {
    "service_request": "2023-1040824",
    "request_type": "Trash/Recycling",
    "request_reason": "Request a Large Item Pick Up",
    "date_created": "2023-10-04T16:07:49.000",
    "date_modified": "2023-10-04T16:07:50.000",
    "request_status": "Pending",
    "responsible_agency": "Department of Sanitation",
    "final_address": "2834 Audubon St",
    "address_councildis": "B",
    "status": "Assigned to Contractor",
    "contractor": "Richards Disposal",
    "rowid": "1040824",
    "final_x": "3667653.79725",
    "final_y": "531362.177474",
    "longitude": "-90.11179710817754",
    "latitude": "29.955474863135596",
    "geocoded_column": {
      "latitude": "29.955474863135596",
      "longitude": "-90.11179710817754"
    }
  },
  {
    "service_request": "2023-1040823",
    "request_type": "Parks & Parkways",
    "request_reason": "Request Grass Cutting Service (City Owned Property)",
    "date_created": "2023-10-04T16:04:52.000",
    "date_modified": "2023-10-04T16:04:52.000",
    "request_status": "Pending",
    "responsible_agency": "Department of Parks & Parkway",
    "final_address": "3730 Toledano St",
    "address_councildis": "B",
    "status": "Pending",
    "rowid": "1040823",
    "final_x": "3671392.02254",
    "final_y": "529008.193152",
    "longitude": "-90.1000731148503",
    "latitude": "29.94889207326688",
    "geocoded_column": {
      "latitude": "29.94889207326688",
      "longitude": "-90.1000731148503"
    }
  },
  {
    "service_request": "2023-1040822",
    "request_type": "Parks & Parkways",
    "request_reason": "Request Tree Service (Right of Way/Public Property)",
    "date_created": "2023-10-04T16:03:45.000",
    "date_modified": "2023-10-04T16:03:46.000",
    "case_close_date": "2023-04-17T19:00:00.000",
    "request_status": "Pending",
    "responsible_agency": "Department of Parks & Parkway",
    "final_address": "6824 Louis Xiv St",
    "address_councildis": "A",
    "status": "Pending",
    "contractor": "Legacy Professional Services",
    "rowid": "1040822",
    "final_x": "3668493.68922",
    "final_y": "552928.129751",
    "longitude": "-90.10841705341161",
    "latitude": "30.014749248448318",
    "geocoded_column": {
      "latitude": "30.014749248448318",
      "longitude": "-90.10841705341161"
    }
  },
  {
    "service_request": "2023-1040821",
    "request_type": "Abandoned Vehicles",
    "request_reason": "Abandoned/Junk Vehicles",
    "date_created": "2023-10-04T16:03:15.000",
    "date_modified": "2023-10-04T16:03:15.000",
    "request_status": "Pending",
    "responsible_agency": "Department of Public Works",
    "final_address": "449 Elmira Ave",
    "address_councildis": "C",
    "status": "Pending",
    "rowid": "1040821",
    "final_x": "3688178.87663",
    "final_y": "529941.012033",
    "longitude": "-90.04703686221002",
    "latitude": "29.950949532122326",
    "geocoded_column": {
      "latitude": "29.950949532122326",
      "longitude": "-90.04703686221002"
    }
  },
  {
    "service_request": "2023-1040820",
    "request_type": "Traffic Signals/Signs/Striping/Streetlights",
    "request_reason": "Street Light Outage/Malfunction",
    "date_created": "2023-10-04T16:02:58.000",
    "date_modified": "2023-10-04T16:03:28.000",
    "request_status": "Pending",
    "responsible_agency": "Department of Public Works",
    "final_address": "7717 Devine Ave",
    "address_councildis": "E",
    "status": "Assigned to Contractor",
    "contractor": "Legacy Professional Services",
    "rowid": "1040820",
    "final_x": "3705579.40945",
    "final_y": "563363.9176",
    "longitude": "-89.99085878110809",
    "latitude": "30.042301363683492",
    "geocoded_column": {
      "latitude": "30.042301363683492",
      "longitude": "-89.99085878110809"
    }
  },
  {
    "service_request": "2023-1040819",
    "request_type": "Trash/Recycling",
    "request_reason": "Request a Large Item Pick Up",
    "date_created": "2023-10-04T16:00:22.000",
    "date_modified": "2023-10-04T16:00:23.000",
    "request_status": "Pending",
    "responsible_agency": "Department of Sanitation",
    "final_address": "941 Orleans Ave",
    "address_councildis": "C",
    "status": "Assigned to Contractor",
    "contractor": "Empire Services",
    "rowid": "1040819",
    "final_x": "3681892.31656",
    "final_y": "533296.362564",
    "longitude": "-90.06676952737882",
    "latitude": "29.96036815777393",
    "geocoded_column": {
      "latitude": "29.96036815777393",
      "longitude": "-90.06676952737882"
    }
  },
  {
    "service_request": "2023-1040818",
    "request_type": "Roads/Drainage",
    "request_reason": "Pothole",
    "date_created": "2023-10-04T16:00:04.000",
    "date_modified": "2023-10-04T16:00:04.000",
    "request_status": "Pending",
    "responsible_agency": "Department of Public Works",
    "final_address": "1315 Peniston St",
    "address_councildis": "B",
    "status": "Pending",
    "rowid": "1040818",
    "final_x": "3673101.31451",
    "final_y": "520423.11276",
    "longitude": "-90.09496908964098",
    "latitude": "29.925235197927364",
    "geocoded_column": {
      "latitude": "29.925235197927364",
      "longitude": "-90.09496908964098"
    }
  },
  {
    "service_request": "2023-1040817",
    "request_type": "Traffic Signals/Signs/Striping/Streetlights",
    "request_reason": "Street Light Outage/Malfunction",
    "date_created": "2023-10-04T15:59:48.000",
    "date_modified": "2023-10-04T15:59:48.000",
    "case_close_date": "2023-04-17T19:00:00.000",
    "request_status": "Pending",
    "responsible_agency": "Department of Public Works",
    "final_address": "6700 BLK Louis XIV St",
    "address_councildis": "A",
    "status": "Assigned to Contractor",
    "contractor": "Legacy Professional Services",
    "rowid": "1040817",
    "final_x": "3668540.27771",
    "final_y": "552382.695547",
    "longitude": "-90.10828828018127",
    "latitude": "30.01324812701911",
    "geocoded_column": {
      "latitude": "30.01324812701911",
      "longitude": "-90.10828828018127"
    }
  },
  {
    "service_request": "2023-1040816",
    "request_type": "Trash/Recycling",
    "request_reason": "Illegal Dumping",
    "date_created": "2023-10-04T15:59:07.000",
    "date_modified": "2023-10-04T15:59:07.000",
    "request_status": "Pending",
    "responsible_agency": "Department of Sanitation",
    "final_address": "3440 Peoples Ave",
    "address_councildis": "D",
    "status": "Pending",
    "rowid": "1040816",
    "final_x": "3688518.09801",
    "final_y": "545913.506704",
    "longitude": "-90.0453989034942",
    "latitude": "29.994857797045718",
    "geocoded_column": {
      "latitude": "29.994857797045718",
      "longitude": "-90.0453989034942"
    }
  },
  {
    "service_request": "2023-1040815",
    "request_type": "Traffic Signals/Signs/Striping/Streetlights",
    "request_reason": "Street Light Outage/Malfunction",
    "date_created": "2023-10-04T15:59:03.000",
    "date_modified": "2023-10-04T15:59:04.000",
    "case_close_date": "2023-04-17T19:00:00.000",
    "request_status": "Pending",
    "responsible_agency": "Department of Public Works",
    "final_address": "6800 BLK Louis XIV St",
    "address_councildis": "A",
    "status": "Assigned to Contractor",
    "contractor": "Legacy Professional Services",
    "rowid": "1040815",
    "final_x": "3668600.30154",
    "final_y": "553039.458341",
    "longitude": "-90.10807644778959",
    "latitude": "30.015052228614305",
    "geocoded_column": {
      "latitude": "30.015052228614305",
      "longitude": "-90.10807644778959"
    }
  },
  {
    "service_request": "2023-1040814",
    "request_type": "Trash/Recycling",
    "request_reason": "Order Trash Cart",
    "date_created": "2023-10-04T15:55:50.000",
    "date_modified": "2023-10-04T15:55:51.000",
    "request_status": "Pending",
    "responsible_agency": "Department of Sanitation",
    "final_address": "424 Millaudon St",
    "address_councildis": "A",
    "status": "Assigned to Contractor",
    "contractor": "Richards Disposal",
    "rowid": "1040814",
    "final_x": "3661986.79482",
    "final_y": "524850.415612",
    "longitude": "-90.1299075009294",
    "latitude": "29.937734501480048",
    "geocoded_column": {
      "latitude": "29.937734501480048",
      "longitude": "-90.1299075009294"
    }
  },
  {
    "service_request": "2023-1040813",
    "request_type": "Trash/Recycling",
    "request_reason": "Request a Large Item Pick Up",
    "date_created": "2023-10-04T15:54:07.000",
    "date_modified": "2023-10-04T15:54:08.000",
    "request_status": "Pending",
    "responsible_agency": "Department of Sanitation",
    "final_address": "7747 Downman Rd",
    "address_councildis": "D",
    "status": "Assigned to Contractor",
    "contractor": "Waste Pro",
    "rowid": "1040813",
    "final_x": "3694556.96099",
    "final_y": "559043.225372",
    "longitude": "-90.02584965473598",
    "latitude": "30.03077159807678",
    "geocoded_column": {
      "latitude": "30.03077159807678",
      "longitude": "-90.02584965473598"
    }
  },
  {
    "service_request": "2023-1040812",
    "request_type": "Trash/Recycling",
    "request_reason": "Request a Large Item Pick Up",
    "date_created": "2023-10-04T15:47:19.000",
    "date_modified": "2023-10-04T15:47:20.000",
    "request_status": "Pending",
    "responsible_agency": "Department of Sanitation",
    "final_address": "1528 S Robertson St",
    "address_councildis": "B",
    "status": "Assigned to Contractor",
    "contractor": "Richards Disposal",
    "rowid": "1040812",
    "final_x": "3676015.45243",
    "final_y": "527213.537151",
    "longitude": "-90.08553664703625",
    "latitude": "29.943819725548956",
    "geocoded_column": {
      "latitude": "29.943819725548956",
      "longitude": "-90.08553664703625"
    }
  },
  {
    "service_request": "2023-1040811",
    "request_type": "Abandoned Vehicles",
    "request_reason": "Abandoned/Junk Vehicles",
    "date_created": "2023-10-04T15:41:10.000",
    "date_modified": "2023-10-04T15:41:10.000",
    "request_status": "Pending",
    "responsible_agency": "Department of Public Works",
    "final_address": "2500 BLK Industry St",
    "address_councildis": "D",
    "status": "Pending",
    "rowid": "1040811",
    "final_x": "3687188.67414",
    "final_y": "543148.098203",
    "longitude": "-90.04969625284366",
    "latitude": "29.987294934352736",
    "geocoded_column": {
      "latitude": "29.987294934352736",
      "longitude": "-90.04969625284366"
    }
  },
  {
    "service_request": "2023-1040810",
    "request_type": "Abandoned Vehicles",
    "request_reason": "Abandoned/Junk Vehicles",
    "date_created": "2023-10-04T15:40:06.000",
    "date_modified": "2023-10-04T15:40:07.000",
    "request_status": "Pending",
    "responsible_agency": "Department of Public Works",
    "final_address": "2224 Dumaine St",
    "address_councildis": "D",
    "status": "Pending",
    "rowid": "1040810",
    "final_x": "3678621.65154",
    "final_y": "536354.216071",
    "longitude": "-90.07699174302094",
    "latitude": "29.96887521647944",
    "geocoded_column": {
      "latitude": "29.96887521647944",
      "longitude": "-90.07699174302094"
    }
  },
  {
    "service_request": "2023-1040809",
    "request_type": "Trash/Recycling",
    "request_reason": "MIssed Recycling Pick-Up",
    "date_created": "2023-10-04T15:31:06.000",
    "date_modified": "2023-10-04T15:31:06.000",
    "request_status": "Pending",
    "responsible_agency": "Department of Sanitation",
    "final_address": "4 N Oak Ridge Ct",
    "address_councildis": "E",
    "status": "Assigned to Contractor",
    "contractor": "Waste Pro",
    "rowid": "1040809",
    "final_x": "3713118.33413",
    "final_y": "567722.513636",
    "longitude": "-89.96686883190844",
    "latitude": "30.054040715019617",
    "geocoded_column": {
      "latitude": "30.054040715019617",
      "longitude": "-89.96686883190844"
    }
  },
  {
    "service_request": "2023-1040808",
    "request_type": "Trash/Recycling",
    "request_reason": "Replace Recycling Cart",
    "date_created": "2023-10-04T15:29:58.000",
    "date_modified": "2023-10-04T15:29:58.000",
    "request_status": "Pending",
    "responsible_agency": "Department of Sanitation",
    "final_address": "1309 Dufossat St",
    "address_councildis": "B",
    "status": "Pending",
    "rowid": "1040808",
    "final_x": "3668121.94113",
    "final_y": "520014.512312",
    "longitude": "-90.11070120619415",
    "latitude": "29.924258709343157",
    "geocoded_column": {
      "latitude": "29.924258709343157",
      "longitude": "-90.11070120619415"
    }
  },
  {
    "service_request": "2023-1040807",
    "request_type": "Roads/Drainage",
    "request_reason": "Pothole",
    "date_created": "2023-10-04T15:29:04.000",
    "date_modified": "2023-10-04T15:29:04.000",
    "request_status": "Pending",
    "responsible_agency": "Department of Public Works",
    "final_address": "1421 Constantinople St",
    "address_councildis": "B",
    "status": "Pending",
    "rowid": "1040807",
    "final_x": "3672433.24257",
    "final_y": "520667.657465",
    "longitude": "-90.09706965638372",
    "latitude": "29.925927453713577",
    "geocoded_column": {
      "latitude": "29.925927453713577",
      "longitude": "-90.09706965638372"
    }
  },
  {
    "service_request": "2023-1040806",
    "request_type": "Trash/Recycling",
    "request_reason": "Repair Trash Cart",
    "date_created": "2023-10-04T15:26:24.000",
    "date_modified": "2023-10-04T15:26:25.000",
    "request_status": "Pending",
    "responsible_agency": "Department of Sanitation",
    "final_address": "3411 Audubon Ct",
    "address_councildis": "B",
    "status": "Assigned to Contractor",
    "contractor": "Richards Disposal",
    "rowid": "1040806",
    "final_x": "3668922.50849",
    "final_y": "532781.062916",
    "longitude": "-90.10774304187755",
    "latitude": "29.95933907977648",
    "geocoded_column": {
      "latitude": "29.95933907977648",
      "longitude": "-90.10774304187755"
    }
  },
  {
    "service_request": "2023-1040805",
    "request_type": "Trash/Recycling",
    "request_reason": "Request a Large Item Pick Up",
    "date_created": "2023-10-04T15:25:43.000",
    "date_modified": "2023-10-04T15:25:43.000",
    "request_status": "Pending",
    "responsible_agency": "Department of Sanitation",
    "final_address": "3027 Chippewa St",
    "address_councildis": "B",
    "status": "Assigned to Contractor",
    "contractor": "Richards Disposal",
    "rowid": "1040805",
    "final_x": "3676988.10261",
    "final_y": "519032.917815",
    "longitude": "-90.08274762017898",
    "latitude": "29.921296535359925",
    "geocoded_column": {
      "latitude": "29.921296535359925",
      "longitude": "-90.08274762017898"
    }
  },
  {
    "service_request": "2023-1040804",
    "request_type": "Trash/Recycling",
    "request_reason": "Repair Recycling Cart",
    "date_created": "2023-10-04T15:24:32.000",
    "date_modified": "2023-10-04T15:24:33.000",
    "request_status": "Pending",
    "responsible_agency": "Department of Sanitation",
    "final_address": "337 Audubon St",
    "address_councildis": "A",
    "status": "Pending",
    "rowid": "1040804",
    "final_x": "3661788.36026",
    "final_y": "522323.375354",
    "longitude": "-90.13061771833101",
    "latitude": "29.930791665951123",
    "geocoded_column": {
      "latitude": "29.930791665951123",
      "longitude": "-90.13061771833101"
    }
  },
  {
    "service_request": "2023-1040803",
    "request_type": "Trash/Recycling",
    "request_reason": "Repair Trash Cart",
    "date_created": "2023-10-04T15:24:13.000",
    "date_modified": "2023-10-04T15:24:14.000",
    "request_status": "Pending",
    "responsible_agency": "Department of Sanitation",
    "final_address": "337 Audubon St",
    "address_councildis": "A",
    "status": "Assigned to Contractor",
    "contractor": "Richards Disposal",
    "rowid": "1040803",
    "final_x": "3661788.36026",
    "final_y": "522323.375354",
    "longitude": "-90.13061771833101",
    "latitude": "29.930791665951123",
    "geocoded_column": {
      "latitude": "29.930791665951123",
      "longitude": "-90.13061771833101"
    }
  },
  {
    "service_request": "2023-1040802",
    "request_type": "Roads/Drainage",
    "request_reason": "Pothole",
    "date_created": "2023-10-04T15:23:28.000",
    "date_modified": "2023-10-04T15:23:28.000",
    "request_status": "Pending",
    "responsible_agency": "Department of Public Works",
    "final_address": "1312 Milan St",
    "address_councildis": "B",
    "status": "Pending",
    "rowid": "1040802",
    "final_x": "3671625.82823",
    "final_y": "520286.919608",
    "longitude": "-90.09963137110304",
    "latitude": "29.92490447494246",
    "geocoded_column": {
      "latitude": "29.92490447494246",
      "longitude": "-90.09963137110304"
    }
  },
  {
    "service_request": "2023-1040801",
    "request_type": "Trash/Recycling",
    "request_reason": "Request a Large Item Pick Up",
    "date_created": "2023-10-04T15:22:26.000",
    "date_modified": "2023-10-04T15:22:26.000",
    "request_status": "Pending",
    "responsible_agency": "Department of Sanitation",
    "status": "Assigned to Contractor",
    "rowid": "1040801",
    "longitude": "0.0",
    "latitude": "0.0",
    "geocoded_column": {
      "latitude": "0.0",
      "longitude": "0.0"
    }
  },
  {
    "service_request": "2023-1040800",
    "request_type": "Traffic Signals/Signs/Striping/Streetlights",
    "request_reason": "Traffic Sign Missing/Damaged",
    "date_created": "2023-10-04T15:19:24.000",
    "date_modified": "2023-10-04T15:19:24.000",
    "request_status": "Pending",
    "responsible_agency": "Department of Public Works",
    "final_address": "900 Bartholomew St HM",
    "address_councildis": "C",
    "status": "Pending",
    "rowid": "1040800",
    "final_x": "3691573.19504",
    "final_y": "534568.037061",
    "longitude": "-90.03615396198873",
    "latitude": "29.96356703012011",
    "geocoded_column": {
      "latitude": "29.96356703012011",
      "longitude": "-90.03615396198873"
    }
  },
  {
    "service_request": "2023-1040799",
    "request_type": "Roads/Drainage",
    "request_reason": "Pothole",
    "date_created": "2023-10-04T15:18:42.000",
    "date_modified": "2023-10-04T15:18:42.000",
    "request_status": "Pending",
    "responsible_agency": "Department of Public Works",
    "final_address": "4216 Chestnut St",
    "address_councildis": "B",
    "status": "Pending",
    "rowid": "1040799",
    "final_x": "3671574.31393",
    "final_y": "519539.203703",
    "longitude": "-90.09981939416457",
    "latitude": "29.922850019854593",
    "geocoded_column": {
      "latitude": "29.922850019854593",
      "longitude": "-90.09981939416457"
    }
  },
  {
    "service_request": "2023-1040798",
    "request_type": "Trash/Recycling",
    "request_reason": "Request a Large Item Pick Up",
    "date_created": "2023-10-04T15:17:45.000",
    "date_modified": "2023-10-04T15:17:45.000",
    "request_status": "Pending",
    "responsible_agency": "Department of Sanitation",
    "final_address": "4802 Shalimar Dr",
    "address_councildis": "D",
    "status": "Assigned to Contractor",
    "contractor": "Waste Pro",
    "rowid": "1040798",
    "final_x": "3697097.35677",
    "final_y": "554488.442776",
    "longitude": "-90.0179872126508",
    "latitude": "30.018167730526052",
    "geocoded_column": {
      "latitude": "30.018167730526052",
      "longitude": "-90.0179872126508"
    }
  },
  {
    "service_request": "2023-1040797",
    "request_type": "Parks & Parkways",
    "request_reason": "Request Tree Service (Right of Way/Public Property)",
    "date_created": "2023-10-04T15:17:10.000",
    "date_modified": "2023-10-04T15:17:44.000",
    "request_status": "Pending",
    "responsible_agency": "Department of Parks & Parkway",
    "final_address": "4489 Woodland Dr",
    "address_councildis": "C",
    "status": "Pending",
    "rowid": "1040797",
    "final_x": "3705600.29489",
    "final_y": "513468.85029",
    "longitude": "-89.99263780373855",
    "latitude": "29.905107599164392",
    "geocoded_column": {
      "latitude": "29.905107599164392",
      "longitude": "-89.99263780373855"
    }
  },
  {
    "service_request": "2023-1040796",
    "request_type": "Trash/Recycling",
    "request_reason": "Missed Trash Pick-Up",
    "date_created": "2023-10-04T15:16:47.000",
    "date_modified": "2023-10-04T15:16:50.000",
    "request_status": "Pending",
    "responsible_agency": "Department of Sanitation",
    "final_address": "4900 Eastview Dr",
    "address_councildis": "E",
    "status": "Assigned to Contractor",
    "contractor": "Waste Pro",
    "rowid": "1040796",
    "final_x": "3704972.51639",
    "final_y": "556084.626586",
    "longitude": "-89.99304587673423",
    "latitude": "30.02230569846241",
    "geocoded_column": {
      "latitude": "30.02230569846241",
      "longitude": "-89.99304587673423"
    }
  },
  {
    "service_request": "2023-1040795",
    "request_type": "Roads/Drainage",
    "request_reason": "Pothole",
    "date_created": "2023-10-04T15:13:15.000",
    "date_modified": "2023-10-04T15:13:15.000",
    "request_status": "Pending",
    "responsible_agency": "Department of Public Works",
    "final_address": "1423 General Pershing St",
    "address_councildis": "B",
    "status": "Pending",
    "rowid": "1040795",
    "final_x": "3671330.69185",
    "final_y": "520571.244024",
    "longitude": "-90.1005533659415",
    "latitude": "29.925695010510914",
    "geocoded_column": {
      "latitude": "29.925695010510914",
      "longitude": "-90.1005533659415"
    }
  },
  {
    "service_request": "2023-1040794",
    "request_type": "Trash/Recycling",
    "request_reason": "Order Recycling Cart",
    "date_created": "2023-10-04T15:07:29.000",
    "date_modified": "2023-10-04T15:08:19.000",
    "request_status": "Pending",
    "responsible_agency": "Department of Sanitation",
    "final_address": "1817 Reynes St",
    "address_councildis": "E",
    "status": "Pending",
    "rowid": "1040794",
    "final_x": "3696863.50947",
    "final_y": "537069.511496",
    "longitude": "-90.0193572092044",
    "latitude": "29.970279454358625",
    "geocoded_column": {
      "latitude": "29.970279454358625",
      "longitude": "-90.0193572092044"
    }
  },
  {
    "service_request": "2023-1040793",
    "request_type": "Trash/Recycling",
    "request_reason": "Order Trash Cart",
    "date_created": "2023-10-04T15:06:53.000",
    "date_modified": "2023-10-04T15:08:51.000",
    "request_status": "Pending",
    "responsible_agency": "Department of Sanitation",
    "final_address": "1817 Reynes St",
    "address_councildis": "E",
    "status": "Assigned to Contractor",
    "contractor": "Waste Pro",
    "rowid": "1040793",
    "final_x": "3696863.50947",
    "final_y": "537069.511496",
    "longitude": "-90.0193572092044",
    "latitude": "29.970279454358625",
    "geocoded_column": {
      "latitude": "29.970279454358625",
      "longitude": "-90.0193572092044"
    }
  },
  {
    "service_request": "2023-1040792",
    "request_type": "Trash/Recycling",
    "request_reason": "Request a Large Item Pick Up",
    "date_created": "2023-10-04T15:00:45.000",
    "date_modified": "2023-10-04T15:00:45.000",
    "request_status": "Pending",
    "responsible_agency": "Department of Sanitation",
    "final_address": "819 France St",
    "address_councildis": "C",
    "status": "Assigned to Contractor",
    "contractor": "IV Waste",
    "rowid": "1040792",
    "final_x": "3692176.30589",
    "final_y": "534173.485573",
    "longitude": "-90.03426353433369",
    "latitude": "29.962463364482012",
    "geocoded_column": {
      "latitude": "29.962463364482012",
      "longitude": "-90.03426353433369"
    }
  },
  {
    "service_request": "2023-1040791",
    "request_type": "Trash/Recycling",
    "request_reason": "Missed Trash Pick-Up",
    "date_created": "2023-10-04T14:51:52.000",
    "date_modified": "2023-10-04T14:51:52.000",
    "request_status": "Pending",
    "responsible_agency": "Department of Sanitation",
    "final_address": "61 Tradewinds Ct",
    "address_councildis": "E",
    "status": "Assigned to Contractor",
    "contractor": "Waste Pro",
    "rowid": "1040791",
    "final_x": "3715415.28171",
    "final_y": "570620.553767",
    "longitude": "-89.95949898692555",
    "latitude": "30.061933612513506",
    "geocoded_column": {
      "latitude": "30.061933612513506",
      "longitude": "-89.95949898692555"
    }
  },
  {
    "service_request": "2023-1040790",
    "request_type": "Trash/Recycling",
    "request_reason": "Order Trash Cart",
    "date_created": "2023-10-04T14:50:28.000",
    "date_modified": "2023-10-04T14:50:28.000",
    "request_status": "Pending",
    "responsible_agency": "Department of Sanitation",
    "final_address": "2106 Tennessee St",
    "address_councildis": "E",
    "status": "Assigned to Contractor",
    "contractor": "Waste Pro",
    "rowid": "1040790",
    "final_x": "3696710.05226",
    "final_y": "538165.384777",
    "longitude": "-90.01980216728006",
    "latitude": "29.973297550911663",
    "geocoded_column": {
      "latitude": "29.973297550911663",
      "longitude": "-90.01980216728006"
    }
  },
  {
    "service_request": "2023-1040788",
    "request_type": "Trash/Recycling",
    "request_reason": "Order Trash Cart",
    "date_created": "2023-10-04T14:48:37.000",
    "date_modified": "2023-10-04T14:48:38.000",
    "case_close_date": "2023-10-01T19:00:00.000",
    "request_status": "Pending",
    "responsible_agency": "Department of Sanitation",
    "final_address": "2108 Tennessee St",
    "address_councildis": "E",
    "status": "Assigned to Contractor",
    "contractor": "Waste Pro",
    "rowid": "1040788",
    "final_x": "3696716.79011",
    "final_y": "538183.814089",
    "longitude": "-90.01978022067104",
    "latitude": "29.973348012520596",
    "geocoded_column": {
      "latitude": "29.973348012520596",
      "longitude": "-90.01978022067104"
    }
  },
  {
    "service_request": "2023-1040787",
    "request_type": "Mosquito, Termite & Rodent Control",
    "request_reason": "Mosquito Complaint",
    "date_created": "2023-10-04T14:48:24.000",
    "date_modified": "2023-10-04T14:48:24.000",
    "request_status": "Pending",
    "responsible_agency": "Mosquito, Termite & Rodent Control Board",
    "final_address": "6002 Chef Menteur Hwy",
    "address_councildis": "E",
    "status": "Pending",
    "rowid": "1040787",
    "final_x": "3696786.21309",
    "final_y": "551027.369621",
    "longitude": "-90.01909573259807",
    "latitude": "30.008660897066488",
    "geocoded_column": {
      "latitude": "30.008660897066488",
      "longitude": "-90.01909573259807"
    }
  },
  {
    "service_request": "2023-1040786",
    "request_type": "Trash/Recycling",
    "request_reason": "Order Recycling Cart",
    "date_created": "2023-10-04T14:48:17.000",
    "date_modified": "2023-10-04T14:49:10.000",
    "case_close_date": "2023-10-01T19:00:00.000",
    "request_status": "Pending",
    "responsible_agency": "Department of Sanitation",
    "final_address": "2108 Tennessee St",
    "address_councildis": "E",
    "status": "Pending",
    "rowid": "1040786",
    "final_x": "3696716.79011",
    "final_y": "538183.814089",
    "longitude": "-90.01978022067104",
    "latitude": "29.973348012520596",
    "geocoded_column": {
      "latitude": "29.973348012520596",
      "longitude": "-90.01978022067104"
    }
  },
  {
    "service_request": "2023-1040785",
    "request_type": "Trash/Recycling",
    "request_reason": "Order Recycling Cart",
    "date_created": "2023-10-04T14:47:54.000",
    "date_modified": "2023-10-04T14:47:54.000",
    "case_close_date": "2023-10-01T19:00:00.000",
    "request_status": "Pending",
    "responsible_agency": "Department of Sanitation",
    "final_address": "2106 Tennessee St",
    "address_councildis": "E",
    "status": "Pending",
    "contractor": "Waste Pro",
    "rowid": "1040785",
    "final_x": "3696710.05226",
    "final_y": "538165.384777",
    "longitude": "-90.01980216728006",
    "latitude": "29.973297550911663",
    "geocoded_column": {
      "latitude": "29.973297550911663",
      "longitude": "-90.01980216728006"
    }
  },
  {
    "service_request": "2023-1040784",
    "request_type": "Trash/Recycling",
    "request_reason": "Request a Large Item Pick Up",
    "date_created": "2023-10-04T14:46:58.000",
    "date_modified": "2023-10-04T14:46:59.000",
    "case_close_date": "2023-10-01T19:00:00.000",
    "request_status": "Pending",
    "responsible_agency": "Department of Sanitation",
    "final_address": "2106 Tennessee St",
    "address_councildis": "E",
    "status": "Assigned to Contractor",
    "contractor": "Waste Pro",
    "rowid": "1040784",
    "final_x": "3696710.05226",
    "final_y": "538165.384777",
    "longitude": "-90.01980216728006",
    "latitude": "29.973297550911663",
    "geocoded_column": {
      "latitude": "29.973297550911663",
      "longitude": "-90.01980216728006"
    }
  },
  {
    "service_request": "2023-1040783",
    "request_type": "Roads/Drainage",
    "request_reason": "Street Subsidence (Sinking)",
    "date_created": "2023-10-04T14:44:27.000",
    "date_modified": "2023-10-04T14:44:27.000",
    "request_status": "Pending",
    "responsible_agency": "Department of Public Works",
    "final_address": "5000 BLK Woodland Dr",
    "address_councildis": "C",
    "status": "Pending",
    "rowid": "1040783",
    "final_x": "3705930.68521",
    "final_y": "513156.456414",
    "longitude": "-89.99160663002222",
    "latitude": "29.90423798908856",
    "geocoded_column": {
      "latitude": "29.90423798908856",
      "longitude": "-89.99160663002222"
    }
  },
  {
    "service_request": "2023-1040782",
    "request_type": "Traffic Signals/Signs/Striping/Streetlights",
    "request_reason": "Street Light Outage/Malfunction",
    "date_created": "2023-10-04T14:40:38.000",
    "date_modified": "2023-10-04T14:40:38.000",
    "request_status": "Pending",
    "responsible_agency": "Department of Public Works",
    "final_address": "4588 Marque Dr",
    "address_councildis": "E",
    "status": "Assigned to Contractor",
    "contractor": "Legacy Professional Services",
    "rowid": "1040782",
    "final_x": "3710094.82443",
    "final_y": "554808.125592",
    "longitude": "-89.97690854097513",
    "latitude": "30.018630079114928",
    "geocoded_column": {
      "latitude": "30.018630079114928",
      "longitude": "-89.97690854097513"
    }
  },
  {
    "service_request": "2023-1040781",
    "request_type": "Traffic Signals/Signs/Striping/Streetlights",
    "request_reason": "Additional signage",
    "date_created": "2023-10-04T14:39:07.000",
    "date_modified": "2023-10-04T14:39:07.000",
    "request_status": "Pending",
    "responsible_agency": "Department of Public Works",
    "final_address": "2300 BLK Valence St",
    "address_councildis": "B",
    "status": "Pending",
    "rowid": "1040781",
    "final_x": "3669476.76829",
    "final_y": "523409.619307",
    "longitude": "-90.10630971120007",
    "latitude": "29.9335543500567",
    "geocoded_column": {
      "latitude": "29.9335543500567",
      "longitude": "-90.10630971120007"
    }
  },
  {
    "service_request": "2023-1040780",
    "request_type": "Roads/Drainage",
    "request_reason": "Accessibility Ramps, Curbs and Sidewalk Repair",
    "date_created": "2023-10-04T14:37:38.000",
    "date_modified": "2023-10-04T14:37:38.000",
    "request_status": "Pending",
    "responsible_agency": "Department of Public Works",
    "final_address": "1205 St Charles Ave",
    "address_councildis": "B",
    "status": "Pending",
    "rowid": "1040780",
    "final_x": "3679654.76706",
    "final_y": "526356.192382",
    "longitude": "-90.07407609579455",
    "latitude": "29.94135283774421",
    "geocoded_column": {
      "latitude": "29.94135283774421",
      "longitude": "-90.07407609579455"
    }
  },
  {
    "service_request": "2023-1040778",
    "request_type": "Traffic Signals/Signs/Striping/Streetlights",
    "request_reason": "Street Light Outage/Malfunction",
    "date_created": "2023-10-04T14:37:14.000",
    "date_modified": "2023-10-04T14:37:14.000",
    "request_status": "Pending",
    "responsible_agency": "Department of Public Works",
    "final_address": "VALENCE ST & S LIBERTY ST",
    "address_councildis": "B",
    "status": "Assigned to Contractor",
    "contractor": "Legacy Professional Services",
    "rowid": "1040778",
    "final_x": "3669497.5",
    "final_y": "523242.18",
    "longitude": "-90.10624992288712",
    "latitude": "29.93309333523494",
    "geocoded_column": {
      "latitude": "29.93309333523494",
      "longitude": "-90.10624992288712"
    }
  },
  {
    "service_request": "2023-1040777",
    "request_type": "Property Maintenance",
    "request_reason": "Property Maintenance",
    "date_created": "2023-10-04T14:37:07.000",
    "date_modified": "2023-10-04T14:37:07.000",
    "request_status": "Pending",
    "responsible_agency": "Department of Code Enforcement",
    "final_address": "937 Fats Domino Ave",
    "address_councildis": "E",
    "status": "Pending",
    "rowid": "1040777",
    "final_x": "3697942.42627",
    "final_y": "533287.40378",
    "longitude": "-90.01608720362415",
    "latitude": "29.959845944005593",
    "geocoded_column": {
      "latitude": "29.959845944005593",
      "longitude": "-90.01608720362415"
    }
  },
  {
    "service_request": "2023-1040776",
    "request_type": "Trash/Recycling",
    "request_reason": "Request a Large Item Pick Up",
    "date_created": "2023-10-04T14:35:39.000",
    "date_modified": "2023-10-04T14:35:40.000",
    "request_status": "Pending",
    "responsible_agency": "Department of Sanitation",
    "final_address": "1622 Nie Prkwy",
    "address_councildis": "C",
    "status": "Assigned to Contractor",
    "contractor": "Richards Disposal",
    "rowid": "1040776",
    "final_x": "3701271.35332",
    "final_y": "524920.133372",
    "longitude": "-90.00588136125636",
    "latitude": "29.93673326004419",
    "geocoded_column": {
      "latitude": "29.93673326004419",
      "longitude": "-90.00588136125636"
    }
  },
  {
    "service_request": "2023-1040775",
    "request_type": "Trash/Recycling",
    "request_reason": "Repair Trash Cart",
    "date_created": "2023-10-04T14:35:17.000",
    "date_modified": "2023-10-04T14:35:18.000",
    "request_status": "Pending",
    "responsible_agency": "Department of Sanitation",
    "final_address": "11430 Hayne Blvd",
    "address_councildis": "E",
    "status": "Assigned to Contractor",
    "contractor": "Waste Pro",
    "rowid": "1040775",
    "final_x": "3710974.63787",
    "final_y": "567918.310309",
    "longitude": "-89.97363713207777",
    "latitude": "30.054649194434788",
    "geocoded_column": {
      "latitude": "30.054649194434788",
      "longitude": "-89.97363713207777"
    }
  },
  {
    "service_request": "2023-1040774",
    "request_type": "Trash/Recycling",
    "request_reason": "MIssed Recycling Pick-Up",
    "date_created": "2023-10-04T14:33:30.000",
    "date_modified": "2023-10-04T14:33:30.000",
    "request_status": "Pending",
    "responsible_agency": "Department of Sanitation",
    "final_address": "1619 Baronne St",
    "address_councildis": "B",
    "status": "Assigned to Contractor",
    "contractor": "Richards Disposal",
    "rowid": "1040774",
    "final_x": "3678137.23336",
    "final_y": "525632.473597",
    "longitude": "-90.0788922581242",
    "latitude": "29.939408620451598",
    "geocoded_column": {
      "latitude": "29.939408620451598",
      "longitude": "-90.0788922581242"
    }
  },
  {
    "service_request": "2023-1040773",
    "request_type": "Property Maintenance",
    "request_reason": "Property Maintenance",
    "date_created": "2023-10-04T14:33:09.000",
    "date_modified": "2023-10-04T14:33:09.000",
    "request_status": "Pending",
    "responsible_agency": "Department of Code Enforcement",
    "final_address": "1205 Lizardi St",
    "address_councildis": "E",
    "status": "Pending",
    "rowid": "1040773",
    "final_x": "3696682.40208",
    "final_y": "534531.526149",
    "longitude": "-90.02002102968407",
    "latitude": "29.96330660852937",
    "geocoded_column": {
      "latitude": "29.96330660852937",
      "longitude": "-90.02002102968407"
    }
  },
  {
    "service_request": "2023-1040772",
    "request_type": "Roads/Drainage",
    "request_reason": "Road Shoulder Repair",
    "date_created": "2023-10-04T14:33:03.000",
    "date_modified": "2023-10-04T14:33:03.000",
    "request_status": "Pending",
    "responsible_agency": "Department of Public Works",
    "final_address": "2700 BLK Johnny Jackson Jr Blvd",
    "address_councildis": "D",
    "status": "Pending",
    "rowid": "1040772",
    "final_x": "3691233.19788",
    "final_y": "542448.593696",
    "longitude": "-90.03694607749595",
    "latitude": "29.98524634440939",
    "geocoded_column": {
      "latitude": "29.98524634440939",
      "longitude": "-90.03694607749595"
    }
  },
  {
    "service_request": "2023-1040771",
    "request_type": "Traffic Signals/Signs/Striping/Streetlights",
    "request_reason": "Traffic Signal Malfunctioning/Damaged",
    "date_created": "2023-10-04T14:32:03.000",
    "date_modified": "2023-10-04T14:32:03.000",
    "request_status": "Pending",
    "responsible_agency": "Department of Public Works",
    "final_address": "5726 St Charles Ave",
    "address_councildis": "A",
    "status": "Pending",
    "rowid": "1040771",
    "final_x": "3666288.55757",
    "final_y": "522017.200314",
    "longitude": "-90.1164214428881",
    "latitude": "29.929819131740146",
    "geocoded_column": {
      "latitude": "29.929819131740146",
      "longitude": "-90.1164214428881"
    }
  },
  {
    "service_request": "2023-1040770",
    "request_type": "Traffic Signals/Signs/Striping/Streetlights",
    "request_reason": "Traffic Signal Malfunctioning/Damaged",
    "date_created": "2023-10-04T14:31:25.000",
    "date_modified": "2023-10-04T14:31:26.000",
    "request_status": "Pending",
    "responsible_agency": "Department of Public Works",
    "final_address": "ST CHARLES AVE & NASHVILLE AVE",
    "address_councildis": "A",
    "status": "Pending",
    "rowid": "1040770",
    "final_x": "3666231.1",
    "final_y": "522124.98",
    "longitude": "-90.11659921430268",
    "latitude": "29.93011716947148",
    "geocoded_column": {
      "latitude": "29.93011716947148",
      "longitude": "-90.11659921430268"
    }
  },
  {
    "service_request": "2023-1040769",
    "request_type": "Trash/Recycling",
    "request_reason": "Replace Recycling Cart",
    "date_created": "2023-10-04T14:24:50.000",
    "date_modified": "2023-10-04T14:24:50.000",
    "request_status": "Pending",
    "responsible_agency": "Department of Sanitation",
    "final_address": "1422 Carondelet St",
    "address_councildis": "B",
    "status": "Pending",
    "rowid": "1040769",
    "final_x": "3678903.56219",
    "final_y": "525848.647293",
    "longitude": "-90.07646537122979",
    "latitude": "29.939979935700194",
    "geocoded_column": {
      "latitude": "29.939979935700194",
      "longitude": "-90.07646537122979"
    }
  },
  {
    "service_request": "2023-1040768",
    "request_type": "Trash/Recycling",
    "request_reason": "Repair Trash Cart",
    "date_created": "2023-10-04T14:24:30.000",
    "date_modified": "2023-10-04T14:24:31.000",
    "request_status": "Pending",
    "responsible_agency": "Department of Sanitation",
    "final_address": "1006 Arabella St",
    "address_councildis": "A",
    "status": "Assigned to Contractor",
    "contractor": "Richards Disposal",
    "rowid": "1040768",
    "final_x": "3665951.15296",
    "final_y": "519690.163",
    "longitude": "-90.11756451911462",
    "latitude": "29.923430362250787",
    "geocoded_column": {
      "latitude": "29.923430362250787",
      "longitude": "-90.11756451911462"
    }
  },
  {
    "service_request": "2023-1040767",
    "request_type": "Trash/Recycling",
    "request_reason": "MIssed Recycling Pick-Up",
    "date_created": "2023-10-04T14:22:11.000",
    "date_modified": "2023-10-04T14:22:11.000",
    "request_status": "Pending",
    "responsible_agency": "Department of Sanitation",
    "final_address": "4718 Lurline St",
    "address_councildis": "E",
    "status": "Assigned to Contractor",
    "contractor": "Waste Pro",
    "rowid": "1040767",
    "final_x": "3711915.11486",
    "final_y": "555937.896089",
    "longitude": "-89.9711147026227",
    "latitude": "30.02167712972963",
    "geocoded_column": {
      "latitude": "30.02167712972963",
      "longitude": "-89.9711147026227"
    }
  },
  {
    "service_request": "2023-1040766",
    "request_type": "Roads/Drainage",
    "request_reason": "Accessibility Ramps, Curbs and Sidewalk Repair",
    "date_created": "2023-10-04T14:21:39.000",
    "date_modified": "2023-10-04T14:21:39.000",
    "request_status": "Pending",
    "responsible_agency": "Department of Public Works",
    "final_address": "7923 Hammond St",
    "address_councildis": "E",
    "status": "Pending",
    "rowid": "1040766",
    "final_x": "3704495.34762",
    "final_y": "555638.091609",
    "longitude": "-89.99457008629562",
    "latitude": "30.02109323792914",
    "geocoded_column": {
      "latitude": "30.02109323792914",
      "longitude": "-89.99457008629562"
    }
  },
  {
    "service_request": "2023-1040765",
    "request_type": "Tax and Revenue",
    "request_reason": "Occupational License Tax",
    "date_created": "2023-10-04T14:16:17.000",
    "date_modified": "2023-10-04T14:16:18.000",
    "request_status": "Pending",
    "responsible_agency": "Bureau of Revenue",
    "status": "Pending",
    "rowid": "1040765",
    "longitude": "0.0",
    "latitude": "0.0",
    "geocoded_column": {
      "latitude": "0.0",
      "longitude": "0.0"
    }
  },
  {
    "service_request": "2023-1040764",
    "request_type": "Roads/Drainage",
    "request_reason": "Street Subsidence (Sinking)",
    "date_created": "2023-10-04T14:13:14.000",
    "date_modified": "2023-10-04T14:13:14.000",
    "request_status": "Pending",
    "responsible_agency": "Department of Public Works",
    "final_address": "1454 Joseph St",
    "address_councildis": "A",
    "status": "Pending",
    "rowid": "1040764",
    "final_x": "3666627.06823",
    "final_y": "521408.042297",
    "longitude": "-90.11537325950617",
    "latitude": "29.928134250682373",
    "geocoded_column": {
      "latitude": "29.928134250682373",
      "longitude": "-90.11537325950617"
    }
  },
  {
    "service_request": "2023-1040763",
    "request_type": "Trash/Recycling",
    "request_reason": "Order Recycling Cart",
    "date_created": "2023-10-04T14:10:15.000",
    "date_modified": "2023-10-04T14:10:20.000",
    "request_status": "Pending",
    "responsible_agency": "Department of Sanitation",
    "final_address": "2206 Marengo St",
    "address_councildis": "B",
    "status": "Pending",
    "rowid": "1040763",
    "final_x": "3671691.23412",
    "final_y": "523176.064891",
    "longitude": "-90.09932668735516",
    "latitude": "29.932846760319308",
    "geocoded_column": {
      "latitude": "29.932846760319308",
      "longitude": "-90.09932668735516"
    }
  },
  {
    "service_request": "2023-1040762",
    "request_type": "Roads/Drainage",
    "request_reason": "Street Subsidence (Sinking)",
    "date_created": "2023-10-04T14:10:11.000",
    "date_modified": "2023-10-04T14:10:11.000",
    "request_status": "Pending",
    "responsible_agency": "Department of Public Works",
    "final_address": "5000 BLK Woodland Dr",
    "address_councildis": "C",
    "status": "Pending",
    "rowid": "1040762",
    "final_x": "3705981.42986",
    "final_y": "513198.767353",
    "longitude": "-89.99144491648066",
    "latitude": "29.904352695770985",
    "geocoded_column": {
      "latitude": "29.904352695770985",
      "longitude": "-89.99144491648066"
    }
  },
  {
    "service_request": "2023-1040760",
    "request_type": "Trash/Recycling",
    "request_reason": "Order Trash Cart",
    "date_created": "2023-10-04T14:02:59.000",
    "date_modified": "2023-10-04T14:03:00.000",
    "request_status": "Pending",
    "responsible_agency": "Department of Sanitation",
    "final_address": "3301 Clouet St",
    "address_councildis": "D",
    "status": "Assigned to Contractor",
    "contractor": "IV Waste",
    "rowid": "1040760",
    "final_x": "3691275.06716",
    "final_y": "544696.631695",
    "longitude": "-90.03673348209232",
    "latitude": "29.991426336115595",
    "geocoded_column": {
      "latitude": "29.991426336115595",
      "longitude": "-90.03673348209232"
    }
  },
  {
    "service_request": "2023-1040759",
    "request_type": "Property Maintenance",
    "request_reason": "Property Maintenance",
    "date_created": "2023-10-04T14:01:52.000",
    "date_modified": "2023-10-04T14:01:52.000",
    "request_status": "Pending",
    "responsible_agency": "Department of Code Enforcement",
    "final_address": "233 Decatur St",
    "address_councildis": "C",
    "status": "Pending",
    "rowid": "1040759",
    "final_x": "3682188.17468",
    "final_y": "530779.769218",
    "longitude": "-90.06592316937477",
    "latitude": "29.95343938670711",
    "geocoded_column": {
      "latitude": "29.95343938670711",
      "longitude": "-90.06592316937477"
    }
  },
  {
    "service_request": "2023-1040758",
    "request_type": "Property Maintenance",
    "request_reason": "Property Maintenance",
    "date_created": "2023-10-04T13:56:27.000",
    "date_modified": "2023-10-04T13:56:27.000",
    "request_status": "Pending",
    "responsible_agency": "Department of Code Enforcement",
    "final_address": "8963 Birch St",
    "address_councildis": "A",
    "status": "Pending",
    "rowid": "1040758",
    "final_x": "3660538.78931",
    "final_y": "531748.868163",
    "longitude": "-90.13425108281598",
    "latitude": "29.9567447831358",
    "geocoded_column": {
      "latitude": "29.9567447831358",
      "longitude": "-90.13425108281598"
    }
  },
  {
    "service_request": "2023-1040757",
    "request_type": "Traffic Signals/Signs/Striping/Streetlights",
    "request_reason": "Additional signage",
    "date_created": "2023-10-04T13:55:57.000",
    "date_modified": "2023-10-04T13:55:57.000",
    "request_status": "Pending",
    "responsible_agency": "Department of Public Works",
    "final_address": "ORLEANS AVE & FRENCH ST",
    "address_councildis": "A",
    "status": "Pending",
    "rowid": "1040757",
    "final_x": "3671001.7",
    "final_y": "548371.38",
    "longitude": "-90.10064781710533",
    "latitude": "30.00214583113974",
    "geocoded_column": {
      "latitude": "30.00214583113974",
      "longitude": "-90.10064781710533"
    }
  },
  {
    "service_request": "2023-1040756",
    "request_type": "Property Maintenance",
    "request_reason": "Property Maintenance",
    "date_created": "2023-10-04T13:54:52.000",
    "date_modified": "2023-10-04T13:54:52.000",
    "request_status": "Pending",
    "responsible_agency": "Department of Code Enforcement",
    "final_address": "8965 Birch St",
    "address_councildis": "A",
    "status": "Pending",
    "rowid": "1040756",
    "final_x": "3660507.22726",
    "final_y": "531776.289795",
    "longitude": "-90.13434984015453",
    "latitude": "29.956821091919767",
    "geocoded_column": {
      "latitude": "29.956821091919767",
      "longitude": "-90.13434984015453"
    }
  },
  {
    "service_request": "2023-1040755",
    "request_type": "Traffic Signals/Signs/Striping/Streetlights",
    "request_reason": "Additional signage",
    "date_created": "2023-10-04T13:50:48.000",
    "date_modified": "2023-10-04T13:50:49.000",
    "request_status": "Pending",
    "responsible_agency": "Department of Public Works",
    "final_address": "2319 Valence St",
    "address_councildis": "B",
    "status": "Pending",
    "rowid": "1040755",
    "final_x": "3669665.94535",
    "final_y": "523424.605691",
    "longitude": "-90.10571198089197",
    "latitude": "29.933589986147087",
    "geocoded_column": {
      "latitude": "29.933589986147087",
      "longitude": "-90.10571198089197"
    }
  },
  {
    "service_request": "2023-1040754",
    "request_type": "Roads/Drainage",
    "request_reason": "Pothole",
    "date_created": "2023-10-04T13:42:16.000",
    "date_modified": "2023-10-04T13:42:17.000",
    "request_status": "Pending",
    "responsible_agency": "Department of Public Works",
    "final_address": "1518 First St",
    "address_councildis": "B",
    "status": "Pending",
    "rowid": "1040754",
    "final_x": "3677116.83842",
    "final_y": "522905.006971",
    "longitude": "-90.08220780251573",
    "latitude": "29.93193965915099",
    "geocoded_column": {
      "latitude": "29.93193965915099",
      "longitude": "-90.08220780251573"
    }
  },
  {
    "service_request": "2023-1040753",
    "request_type": "Traffic Signals/Signs/Striping/Streetlights",
    "request_reason": "Street Light Outage/Malfunction",
    "date_created": "2023-10-04T13:41:45.000",
    "date_modified": "2023-10-04T13:41:46.000",
    "request_status": "Pending",
    "responsible_agency": "Department of Public Works",
    "final_address": "2319 Valence St",
    "address_councildis": "B",
    "status": "Assigned to Contractor",
    "contractor": "Legacy Professional Services",
    "rowid": "1040753",
    "final_x": "3669665.94535",
    "final_y": "523424.605691",
    "longitude": "-90.10571198089197",
    "latitude": "29.933589986147087",
    "geocoded_column": {
      "latitude": "29.933589986147087",
      "longitude": "-90.10571198089197"
    }
  },
  {
    "service_request": "2023-1040752",
    "request_type": "Abandoned Vehicles",
    "request_reason": "Abandoned/Junk Vehicles",
    "date_created": "2023-10-04T13:40:36.000",
    "date_modified": "2023-10-04T13:40:36.000",
    "request_status": "Pending",
    "responsible_agency": "Department of Public Works",
    "final_address": "2404 Ap Tureaud Ave",
    "address_councildis": "D",
    "status": "Pending",
    "rowid": "1040752",
    "final_x": "3681543.74895",
    "final_y": "540909.840907",
    "longitude": "-90.06760465869583",
    "latitude": "29.981313185305673",
    "geocoded_column": {
      "latitude": "29.981313185305673",
      "longitude": "-90.06760465869583"
    }
  },
  {
    "service_request": "2023-1040750",
    "request_type": "Roads/Drainage",
    "request_reason": "Accessibility Ramps, Curbs and Sidewalk Repair",
    "date_created": "2023-10-04T13:38:05.000",
    "date_modified": "2023-10-04T13:38:06.000",
    "request_status": "Pending",
    "responsible_agency": "Department of Public Works",
    "final_address": "1518 First St",
    "address_councildis": "B",
    "status": "Pending",
    "rowid": "1040750",
    "final_x": "3677116.83842",
    "final_y": "522905.006971",
    "longitude": "-90.08220780251573",
    "latitude": "29.93193965915099",
    "geocoded_column": {
      "latitude": "29.93193965915099",
      "longitude": "-90.08220780251573"
    }
  },
  {
    "service_request": "2023-1040749",
    "request_type": "Trash/Recycling",
    "request_reason": "Order Recycling Cart",
    "date_created": "2023-10-04T13:37:19.000",
    "date_modified": "2023-10-04T13:37:20.000",
    "request_status": "Pending",
    "responsible_agency": "Department of Sanitation",
    "final_address": "3920 Orleans Ave",
    "address_councildis": "A",
    "status": "Pending",
    "rowid": "1040749",
    "final_x": "3673044.08539",
    "final_y": "539734.933514",
    "longitude": "-90.09449065158466",
    "latitude": "29.97833801789642",
    "geocoded_column": {
      "latitude": "29.97833801789642",
      "longitude": "-90.09449065158466"
    }
  },
  {
    "service_request": "2023-1040748",
    "request_type": "Trash/Recycling",
    "request_reason": "Order Trash Cart",
    "date_created": "2023-10-04T13:37:10.000",
    "date_modified": "2023-10-04T13:37:11.000",
    "request_status": "Pending",
    "responsible_agency": "Department of Sanitation",
    "final_address": "3920 Orleans Ave",
    "address_councildis": "A",
    "status": "Assigned to Contractor",
    "contractor": "Richards Disposal",
    "rowid": "1040748",
    "final_x": "3673044.08539",
    "final_y": "539734.933514",
    "longitude": "-90.09449065158466",
    "latitude": "29.97833801789642",
    "geocoded_column": {
      "latitude": "29.97833801789642",
      "longitude": "-90.09449065158466"
    }
  },
  {
    "service_request": "2023-1040747",
    "request_type": "Trash/Recycling",
    "request_reason": "Repair Trash Cart",
    "date_created": "2023-10-04T13:32:34.000",
    "date_modified": "2023-10-04T13:32:35.000",
    "request_status": "Pending",
    "responsible_agency": "Department of Sanitation",
    "final_address": "8728 Plum St",
    "address_councildis": "A",
    "status": "Assigned to Contractor",
    "contractor": "Richards Disposal",
    "rowid": "1040747",
    "final_x": "3660410.39872",
    "final_y": "530203.055873",
    "longitude": "-90.1347075618921",
    "latitude": "29.95249799014472",
    "geocoded_column": {
      "latitude": "29.95249799014472",
      "longitude": "-90.1347075618921"
    }
  },
  {
    "service_request": "2023-1040746",
    "request_type": "Trash/Recycling",
    "request_reason": "Missed Trash Pick-Up",
    "date_created": "2023-10-04T13:25:44.000",
    "date_modified": "2023-10-04T13:25:45.000",
    "request_status": "Pending",
    "responsible_agency": "Department of Sanitation",
    "final_address": "9235 Lake Forest Blvd",
    "address_councildis": "E",
    "status": "Assigned to Contractor",
    "contractor": "Waste Pro",
    "rowid": "1040746",
    "final_x": "3708042.09848",
    "final_y": "558669.1903",
    "longitude": "-89.98325061416197",
    "latitude": "30.029313155771835",
    "geocoded_column": {
      "latitude": "30.029313155771835",
      "longitude": "-89.98325061416197"
    }
  },
  {
    "service_request": "2023-1040745",
    "request_type": "Trash/Recycling",
    "request_reason": "Request a Large Item Pick Up",
    "date_created": "2023-10-04T13:23:59.000",
    "date_modified": "2023-10-04T13:24:00.000",
    "request_status": "Pending",
    "responsible_agency": "Department of Sanitation",
    "final_address": "917 Thalia St",
    "address_councildis": "B",
    "status": "Assigned to Contractor",
    "contractor": "Richards Disposal",
    "rowid": "1040745",
    "final_x": "3681183.92591",
    "final_y": "525116.528957",
    "longitude": "-90.06929142583014",
    "latitude": "29.937897878712683",
    "geocoded_column": {
      "latitude": "29.937897878712683",
      "longitude": "-90.06929142583014"
    }
  },