[
  {
    "service_request": "2024-1108053",
    "request_type": "Roads/Drainage",
    "request_reason": "Pothole",
    "date_created": "2024-06-28T23:51:41.000",
    "date_modified": "2024-06-28T23:51:41.000",
    "request_status": "Pending",
    "responsible_agency": "Department of Public Works",
    "final_address": "1312 Milan St",
    "address_councildis": "B",
    "status": "Pending",
    "rowid": "1108053",
    "final_x": "3671625.82823",
    "final_y": "520286.919608",
    "longitude": "-90.09963137110304",
    "latitude": "29.92490447494246",
    "geocoded_column": {
      "latitude": "29.92490447494246",
      "longitude": "-90.09963137110304"
    }
  },
  {
    "service_request": "2024-1108052",
    "request_type": "Roads/Drainage",
    "request_reason": "Pothole",
    "date_created": "2024-06-28T23:49:46.000",
    "date_modified": "2024-06-28T23:49:46.000",
    "request_status": "Pending",
    "responsible_agency": "Department of Public Works",
    "final_address": "1112 Constantinople St",
    "address_councildis": "B",
    "status": "Pending",
    "rowid": "1108052",
    "final_x": "3672348.95259",
    "final_y": "519796.384952",
    "longitude": "-90.09736540233975",
    "latitude": "29.923534233550217",
    "geocoded_column": {
      "latitude": "29.923534233550217",
      "longitude": "-90.09736540233975"
    }
  },
  {
    "service_request": "2024-1108049",
    "request_type": "Roads/Drainage",
    "request_reason": "Pothole",
    "date_created": "2024-06-28T22:36:53.000",
    "date_modified": "2024-06-28T22:36:53.000",
    "request_status": "Pending",
    "responsible_agency": "Department of Public Works",
    "final_address": "1400 BLK Valence St",
    "address_councildis": "B",
    "status": "Pending",
    "rowid": "1108049",
    "final_x": "3669784.65285",
    "final_y": "520336.257015",
    "longitude": "-90.1054417057675",
    "latitude": "29.925094517046503",
    "geocoded_column": {
      "latitude": "29.925094517046503",
      "longitude": "-90.1054417057675"
    }
  },
  {
    "service_request": "2024-1108048",
    "request_type": "Trash/Recycling",
    "request_reason": "Request a Large Item Pick Up",
    "date_created": "2024-06-28T21:58:15.000",
    "date_modified": "2024-06-28T21:58:15.000",
    "request_status": "Pending",
    "responsible_agency": "Department of Sanitation",
    "final_address": "1623 Fourth St Unit 4",
    "address_councildis": "B",
    "status": "Assigned to Contractor",
    "contractor": "IV Waste",
    "rowid": "1108048",
    "final_x": "3676158.36251",
    "final_y": "522964.609211",
    "longitude": "-90.08523156334768",
    "latitude": "29.932132287648976",
    "geocoded_column": {
      "latitude": "29.932132287648976",
      "longitude": "-90.08523156334768"
    }
  },
  {
    "service_request": "2024-1108047",
    "request_type": "Roads/Drainage",
    "request_reason": "Pothole",
    "date_created": "2024-06-28T21:39:17.000",
    "date_modified": "2024-06-28T21:39:17.000",
    "request_status": "Pending",
    "responsible_agency": "Department of Public Works",
    "final_address": "5710 Garfield St",
    "address_councildis": "A",
    "status": "Pending",
    "rowid": "1108047",
    "final_x": "3666210.39777",
    "final_y": "521252.848057",
    "longitude": "-90.11669380107593",
    "latitude": "29.927719687236237",
    "geocoded_column": {
      "latitude": "29.927719687236237",
      "longitude": "-90.11669380107593"
    }
  },
  {
    "service_request": "2024-1108046",
    "request_type": "Traffic Signals/Signs/Striping/Streetlights",
    "request_reason": "Traffic Signal Malfunctioning/Damaged",
    "date_created": "2024-06-28T19:36:54.000",
    "date_modified": "2024-06-28T19:36:54.000",
    "request_status": "Pending",
    "responsible_agency": "Department of Public Works",
    "final_address": "3341 Magazine St",
    "address_councildis": "B",
    "status": "Pending",
    "rowid": "1108046",
    "final_x": "3675081.68334",
    "final_y": "519705.104824",
    "longitude": "-90.08874230437921",
    "latitude": "29.92320190816573",
    "geocoded_column": {
      "latitude": "29.92320190816573",
      "longitude": "-90.08874230437921"
    }
  },
  {
    "service_request": "2024-1108045",
    "request_type": "Trash/Recycling",
    "request_reason": "Request a Large Item Pick Up",
    "date_created": "2024-06-28T19:16:37.000",
    "date_modified": "2024-06-28T19:16:38.000",
    "request_status": "Pending",
    "responsible_agency": "Department of Sanitation",
    "final_address": "3027 Audubon St",
    "address_councildis": "B",
    "status": "Assigned to Contractor",
    "contractor": "IV Waste",
    "rowid": "1108045",
    "final_x": "3668075.57345",
    "final_y": "531820.719363",
    "longitude": "-90.11044983402758",
    "latitude": "29.956723332488394",
    "geocoded_column": {
      "latitude": "29.956723332488394",
      "longitude": "-90.11044983402758"
    }
  },
  {
    "service_request": "2024-1108044",
    "request_type": "Roads/Drainage",
    "request_reason": "Catch Basin - Clogged",
    "date_created": "2024-06-28T19:14:27.000",
    "date_modified": "2024-06-28T19:14:27.000",
    "request_status": "Pending",
    "responsible_agency": "Department of Public Works",
    "final_address": "8700 BLK Stroelitz St",
    "address_councildis": "A",
    "status": "Pending",
    "rowid": "1108044",
    "final_x": "3666251.74817",
    "final_y": "536501.383478",
    "longitude": "-90.11605189486822",
    "latitude": "29.96964701124",
    "geocoded_column": {
      "latitude": "29.96964701124",
      "longitude": "-90.11605189486822"
    }
  },
  {
    "service_request": "2024-1108043",
    "request_type": "Abandoned Vehicles",
    "request_reason": "Abandoned/Junk Vehicles",
    "date_created": "2024-06-28T18:44:24.000",
    "date_modified": "2024-06-28T18:44:24.000",
    "request_status": "Pending",
    "responsible_agency": "Department of Public Works",
    "final_address": "2523 Gravier St",
    "address_councildis": "B",
    "status": "Pending",
    "rowid": "1108043",
    "final_x": "3674753.67995",
    "final_y": "533009.331396",
    "longitude": "-90.08932174257129",
    "latitude": "29.959793956332224",
    "geocoded_column": {
      "latitude": "29.959793956332224",
      "longitude": "-90.08932174257129"
    }
  },
  {
    "service_request": "2024-1108042",
    "request_type": "Trash/Recycling",
    "request_reason": "Replace Trash Cart",
    "date_created": "2024-06-28T18:42:05.000",
    "date_modified": "2024-06-28T18:42:06.000",
    "request_status": "Pending",
    "responsible_agency": "Department of Sanitation",
    "final_address": "1900 Peniston St",
    "address_councildis": "B",
    "status": "Assigned to Contractor",
    "contractor": "IV Waste",
    "rowid": "1108042",
    "final_x": "3672577.84372",
    "final_y": "522199.436602",
    "longitude": "-90.09656100131933",
    "latitude": "29.930135063259357",
    "geocoded_column": {
      "latitude": "29.930135063259357",
      "longitude": "-90.09656100131933"
    }
  },
  {
    "service_request": "2024-1108041",
    "request_type": "Trash/Recycling",
    "request_reason": "Request a Large Item Pick Up",
    "date_created": "2024-06-28T18:41:18.000",
    "date_modified": "2024-06-28T18:41:19.000",
    "request_status": "Pending",
    "responsible_agency": "Department of Sanitation",
    "final_address": "517 S Scott St",
    "address_councildis": "B",
    "status": "Assigned to Contractor",
    "contractor": "IV Waste",
    "rowid": "1108041",
    "final_x": "3670682.44059",
    "final_y": "536449.778119",
    "longitude": "-90.1020610950129",
    "latitude": "29.96937494515967",
    "geocoded_column": {
      "latitude": "29.96937494515967",
      "longitude": "-90.1020610950129"
    }
  },
  {
    "service_request": "2024-1108040",
    "request_type": "Trash/Recycling",
    "request_reason": "Request a Large Item Pick Up",
    "date_created": "2024-06-28T18:41:03.000",
    "date_modified": "2024-06-28T18:41:03.000",
    "request_status": "Pending",
    "responsible_agency": "Department of Sanitation",
    "final_address": "2737 Amelia St",
    "address_councildis": "B",
    "status": "Assigned to Contractor",
    "contractor": "IV Waste",
    "rowid": "1108040",
    "final_x": "3672144.70196",
    "final_y": "525274.596541",
    "longitude": "-90.09782368759977",
    "latitude": "29.938603606485994",
    "geocoded_column": {
      "latitude": "29.938603606485994",
      "longitude": "-90.09782368759977"
    }
  },
  {
    "service_request": "2024-1108039",
    "request_type": "Roads/Drainage",
    "request_reason": "Pothole",
    "date_created": "2024-06-28T18:35:31.000",
    "date_modified": "2024-06-28T18:35:31.000",
    "request_status": "Pending",
    "responsible_agency": "Department of Public Works",
    "final_address": "800 BLK Evelina St",
    "address_councildis": "C",
    "status": "Pending",
    "rowid": "1108039",
    "final_x": "3688016.93561",
    "final_y": "529479.491026",
    "longitude": "-90.04756454103128",
    "latitude": "29.94968550513387",
    "geocoded_column": {
      "latitude": "29.94968550513387",
      "longitude": "-90.04756454103128"
    }
  },
  {
    "service_request": "2024-1108038",
    "request_type": "Roads/Drainage",
    "request_reason": "Pothole",
    "date_created": "2024-06-28T18:31:50.000",
    "date_modified": "2024-06-28T18:31:50.000",
    "request_status": "Pending",
    "responsible_agency": "Department of Public Works",
    "final_address": "900 BLK Evelina St",
    "address_councildis": "C",
    "status": "Pending",
    "rowid": "1108038",
    "final_x": "3688339.48713",
    "final_y": "529464.372617",
    "longitude": "-90.04654663769753",
    "latitude": "29.949633978590846",
    "geocoded_column": {
      "latitude": "29.949633978590846",
      "longitude": "-90.04654663769753"
    }
  },
  {
    "service_request": "2024-1108037",
    "request_type": "Abandoned Vehicles",
    "request_reason": "Abandoned/Junk Vehicles",
    "date_created": "2024-06-28T18:23:01.000",
    "date_modified": "2024-06-28T18:23:01.000",
    "request_status": "Pending",
    "responsible_agency": "Department of Public Works",
    "final_address": "2523 Gravier St",
    "address_councildis": "B",
    "status": "Pending",
    "rowid": "1108037",
    "final_x": "3674753.67995",
    "final_y": "533009.331396",
    "longitude": "-90.08932174257129",
    "latitude": "29.959793956332224",
    "geocoded_column": {
      "latitude": "29.959793956332224",
      "longitude": "-90.08932174257129"
    }
  },
  {
    "service_request": "2024-1108036",
    "request_type": "Abandoned Vehicles",
    "request_reason": "Abandoned/Junk Vehicles",
    "date_created": "2024-06-28T18:21:04.000",
    "date_modified": "2024-06-28T18:21:04.000",
    "request_status": "Pending",
    "responsible_agency": "Department of Public Works",
    "final_address": "2523 Gravier St",
    "address_councildis": "B",
    "status": "Pending",
    "rowid": "1108036",
    "final_x": "3674753.67995",
    "final_y": "533009.331396",
    "longitude": "-90.08932174257129",
    "latitude": "29.959793956332224",
    "geocoded_column": {
      "latitude": "29.959793956332224",
      "longitude": "-90.08932174257129"
    }
  },
  {
    "service_request": "2024-1108035",
    "request_type": "Trash/Recycling",
    "request_reason": "Replace Trash Cart",
    "date_created": "2024-06-28T18:14:31.000",
    "date_modified": "2024-06-28T18:14:32.000",
    "request_status": "Pending",
    "responsible_agency": "Department of Sanitation",
    "final_address": "424 Calhoun St",
    "address_councildis": "A",
    "status": "Assigned to Contractor",
    "contractor": "IV Waste",
    "rowid": "1108035",
    "final_x": "3662940.67219",
    "final_y": "518620.994807",
    "longitude": "-90.1271030541637",
    "latitude": "29.920577969937938",
    "geocoded_column": {
      "latitude": "29.920577969937938",
      "longitude": "-90.1271030541637"
    }
  },
  {
    "service_request": "2024-1108034",
    "request_type": "Property Maintenance",
    "request_reason": "Property Maintenance",
    "date_created": "2024-06-28T18:09:31.000",
    "date_modified": "2024-06-28T18:09:31.000",
    "request_status": "Pending",
    "responsible_agency": "Department of Code Enforcement",
    "final_address": "620 Washington Ave",
    "address_councildis": "B",
    "status": "Pending",
    "rowid": "1108034",
    "final_x": "3677895.51758",
    "final_y": "519475.925111",
    "longitude": "-90.07986801367525",
    "latitude": "29.922487399024053",
    "geocoded_column": {
      "latitude": "29.922487399024053",
      "longitude": "-90.07986801367525"
    }
  },
  {
    "service_request": "2024-1108033",
    "request_type": "Roads/Drainage",
    "request_reason": "Street Flooding / Drainage",
    "date_created": "2024-06-28T18:05:01.000",
    "date_modified": "2024-06-28T18:05:01.000",
    "request_status": "Pending",
    "responsible_agency": "Department of Public Works",
    "final_address": "North Solomon Street & Saint Peter Street",
    "address_councildis": "A",
    "status": "Pending",
    "rowid": "1108033",
    "final_x": "3671889.35214",
    "final_y": "540440.202379",
    "longitude": "-90.09811371366553",
    "latitude": "29.98031154487021",
    "geocoded_column": {
      "latitude": "29.98031154487021",
      "longitude": "-90.09811371366553"
    }
  },
  {
    "service_request": "2024-1108032",
    "request_type": "Trash/Recycling",
    "request_reason": "Replace Trash Cart",
    "date_created": "2024-06-28T17:46:13.000",
    "date_modified": "2024-06-28T17:46:14.000",
    "request_status": "Pending",
    "responsible_agency": "Department of Sanitation",
    "final_address": "1207 France St",
    "address_councildis": "D",
    "status": "Assigned to Contractor",
    "contractor": "IV Waste",
    "rowid": "1108032",
    "final_x": "3692529.84361",
    "final_y": "535578.38311",
    "longitude": "-90.03309677360788",
    "latitude": "29.9663153125797",
    "geocoded_column": {
      "latitude": "29.9663153125797",
      "longitude": "-90.03309677360788"
    }
  },
  {
    "service_request": "2024-1108031",
    "request_type": "Trash/Recycling",
    "request_reason": "Request a Large Item Pick Up",
    "date_created": "2024-06-28T17:43:29.000",
    "date_modified": "2024-06-28T17:43:30.000",
    "request_status": "Pending",
    "responsible_agency": "Department of Sanitation",
    "final_address": "1207 France St",
    "address_councildis": "D",
    "status": "Assigned to Contractor",
    "contractor": "IV Waste",
    "rowid": "1108031",
    "final_x": "3692529.84361",
    "final_y": "535578.38311",
    "longitude": "-90.03309677360788",
    "latitude": "29.9663153125797",
    "geocoded_column": {
      "latitude": "29.9663153125797",
      "longitude": "-90.03309677360788"
    }
  },
  {
    "service_request": "2024-1108030",
    "request_type": "Trash/Recycling",
    "request_reason": "Order Trash Cart",
    "date_created": "2024-06-28T17:28:33.000",
    "date_modified": "2024-06-28T17:28:33.000",
    "request_status": "Pending",
    "responsible_agency": "Department of Sanitation",
    "final_address": "4822 Conti St",
    "address_councildis": "A",
    "status": "Assigned to Contractor",
    "contractor": "IV Waste",
    "rowid": "1108030",
    "final_x": "3669331.70503",
    "final_y": "541092.39662",
    "longitude": "-90.10616981378516",
    "latitude": "29.982180422070368",
    "geocoded_column": {
      "latitude": "29.982180422070368",
      "longitude": "-90.10616981378516"
    }
  },
  {
    "service_request": "2024-1108029",
    "request_type": "Roads/Drainage",
    "request_reason": "Pothole",
    "date_created": "2024-06-28T17:19:41.000",
    "date_modified": "2024-06-28T17:19:41.000",
    "request_status": "Pending",
    "responsible_agency": "Department of Public Works",
    "final_address": "1521 Webster St",
    "address_councildis": "A",
    "status": "Pending",
    "rowid": "1108029",
    "final_x": "3665172.71917",
    "final_y": "522143.293626",
    "longitude": "-90.11993975188861",
    "latitude": "29.93019838632039",
    "geocoded_column": {
      "latitude": "29.93019838632039",
      "longitude": "-90.11993975188861"
    }
  },
  {
    "service_request": "2024-1108028",
    "request_type": "Traffic Signals/Signs/Striping/Streetlights",
    "request_reason": "Street Light Outage/Malfunction",
    "date_created": "2024-06-28T17:19:37.000",
    "date_modified": "2024-06-28T17:19:38.000",
    "request_status": "Pending",
    "responsible_agency": "Department of Public Works",
    "final_address": "4024 S Inwood Ave",
    "address_councildis": "C",
    "status": "Assigned to Contractor",
    "contractor": "Legacy Professional Services",
    "rowid": "1108028",
    "final_x": "3705312.13265",
    "final_y": "513176.755442",
    "longitude": "-89.99355802860697",
    "latitude": "29.90431370580039",
    "geocoded_column": {
      "latitude": "29.90431370580039",
      "longitude": "-89.99355802860697"
    }
  },
  {
    "service_request": "2024-1108027",
    "request_type": "Traffic Signals/Signs/Striping/Streetlights",
    "request_reason": "Street Light Outage/Malfunction",
    "date_created": "2024-06-28T17:16:02.000",
    "date_modified": "2024-06-28T17:16:03.000",
    "request_status": "Pending",
    "responsible_agency": "Department of Public Works",
    "final_address": "4048 S Inwood Ave",
    "address_councildis": "C",
    "status": "Assigned to Contractor",
    "contractor": "Legacy Professional Services",
    "rowid": "1108027",
    "final_x": "3705114.75979",
    "final_y": "513003.385521",
    "longitude": "-89.99418733115928",
    "latitude": "29.903843341783336",
    "geocoded_column": {
      "latitude": "29.903843341783336",
      "longitude": "-89.99418733115928"
    }
  },
  {
    "service_request": "2024-1108026",
    "request_type": "Trash/Recycling",
    "request_reason": "Request a Large Item Pick Up",
    "date_created": "2024-06-28T17:09:10.000",
    "date_modified": "2024-06-28T17:09:10.000",
    "request_status": "Pending",
    "responsible_agency": "Department of Sanitation",
    "final_address": "2435 Governor Nicholls St",
    "address_councildis": "D",
    "status": "Assigned to Contractor",
    "contractor": "IV Waste",
    "rowid": "1108026",
    "final_x": "3678720.42453",
    "final_y": "537783.581832",
    "longitude": "-90.07663030392345",
    "latitude": "29.97280250421531",
    "geocoded_column": {
      "latitude": "29.97280250421531",
      "longitude": "-90.07663030392345"
    }
  },
  {
    "service_request": "2024-1108025",
    "request_type": "Trash/Recycling",
    "request_reason": "Replace Recycling Cart",
    "date_created": "2024-06-28T17:01:33.000",
    "date_modified": "2024-06-28T17:01:33.000",
    "request_status": "Pending",
    "responsible_agency": "Department of Sanitation",
    "final_address": "3640 Rue Delphine",
    "address_councildis": "C",
    "status": "Pending",
    "rowid": "1108025",
    "final_x": "3703082.81911",
    "final_y": "517139.214261",
    "longitude": "-90.00044826761842",
    "latitude": "29.915280601949295",
    "geocoded_column": {
      "latitude": "29.915280601949295",
      "longitude": "-90.00044826761842"
    }
  },
  {
    "service_request": "2024-1108024",
    "request_type": "Trash/Recycling",
    "request_reason": "Illegal Dumping",
    "date_created": "2024-06-28T17:00:28.000",
    "date_modified": "2024-06-28T17:00:29.000",
    "request_status": "Pending",
    "responsible_agency": "Department of Sanitation",
    "final_address": "1600 Desire St",
    "address_councildis": "D",
    "status": "Pending",
    "rowid": "1108024",
    "final_x": "3690634.8856",
    "final_y": "537604.135624",
    "longitude": "-90.03900873362228",
    "latitude": "29.97194440826865",
    "geocoded_column": {
      "latitude": "29.97194440826865",
      "longitude": "-90.03900873362228"
    }
  },
  {
    "service_request": "2024-1108023",
    "request_type": "Roads/Drainage",
    "request_reason": "Pothole",
    "date_created": "2024-06-28T16:55:50.000",
    "date_modified": "2024-06-28T16:55:50.000",
    "request_status": "Pending",
    "responsible_agency": "Department of Public Works",
    "final_address": "FRANKLIN AVE & PAINTERS ST",
    "address_councildis": "C",
    "status": "Pending",
    "rowid": "1108023",
    "final_x": "3687449.8",
    "final_y": "538042.08",
    "longitude": "-90.04905221757366",
    "latitude": "29.973247145014994",
    "geocoded_column": {
      "latitude": "29.973247145014994",
      "longitude": "-90.04905221757366"
    }
  },
  {
    "service_request": "2024-1108022",
    "request_type": "Property Maintenance",
    "request_reason": "Property Maintenance",
    "date_created": "2024-06-28T16:53:53.000",
    "date_modified": "2024-06-28T16:53:54.000",
    "request_status": "Pending",
    "responsible_agency": "Department of Code Enforcement",
    "final_address": "4819 Longfellow Dr",
    "address_councildis": "E",
    "status": "Pending",
    "rowid": "1108022",
    "final_x": "3709640.80753",
    "final_y": "556307.516826",
    "longitude": "-89.97828703176401",
    "latitude": "30.022767590092524",
    "geocoded_column": {
      "latitude": "30.022767590092524",
      "longitude": "-89.97828703176401"
    }
  },
  {
    "service_request": "2024-1108021",
    "request_type": "Mosquito, Termite & Rodent Control",
    "request_reason": "Mosquito Complaint",
    "date_created": "2024-06-28T16:50:54.000",
    "date_modified": "2024-06-28T16:50:54.000",
    "request_status": "Pending",
    "responsible_agency": "Mosquito, Termite & Rodent Control Board",
    "final_address": "3641 Rue Nichole",
    "address_councildis": "C",
    "status": "Pending",
    "rowid": "1108021",
    "final_x": "3703931.91518",
    "final_y": "517122.099829",
    "longitude": "-89.99776885827487",
    "latitude": "29.91520635732211",
    "geocoded_column": {
      "latitude": "29.91520635732211",
      "longitude": "-89.99776885827487"
    }
  },
  {
    "service_request": "2024-1108020",
    "request_type": "Trash/Recycling",
    "request_reason": "Request a Large Item Pick Up",
    "date_created": "2024-06-28T16:48:21.000",
    "date_modified": "2024-06-28T16:48:21.000",
    "request_status": "Pending",
    "responsible_agency": "Department of Sanitation",
    "final_address": "817 Egania St",
    "address_councildis": "E",
    "status": "Assigned to Contractor",
    "contractor": "Waste Pro",
    "rowid": "1108020",
    "final_x": "3696567.95146",
    "final_y": "533080.553796",
    "longitude": "-90.0204349501939",
    "latitude": "29.959320554908984",
    "geocoded_column": {
      "latitude": "29.959320554908984",
      "longitude": "-90.0204349501939"
    }
  },
  {
    "service_request": "2024-1108018",
    "request_type": "Trash/Recycling",
    "request_reason": "Replace Trash Cart",
    "date_created": "2024-06-28T16:31:59.000",
    "date_modified": "2024-06-28T16:32:00.000",
    "request_status": "Pending",
    "responsible_agency": "Department of Sanitation",
    "final_address": "4715 Laine Ave",
    "address_councildis": "E",
    "status": "Assigned to Contractor",
    "contractor": "Waste Pro",
    "rowid": "1108018",
    "final_x": "3705763.10603",
    "final_y": "555233.997337",
    "longitude": "-89.99057932440196",
    "latitude": "30.019941346293766",
    "geocoded_column": {
      "latitude": "30.019941346293766",
      "longitude": "-89.99057932440196"
    }
  },
  {
    "service_request": "2024-1108017",
    "request_type": "Traffic Signals/Signs/Striping/Streetlights",
    "request_reason": "Traffic Signal Malfunctioning/Damaged",
    "date_created": "2024-06-28T16:31:14.000",
    "date_modified": "2024-06-28T16:31:14.000",
    "request_status": "Pending",
    "responsible_agency": "Department of Public Works",
    "final_address": "1700 N Rampart St",
    "address_councildis": "C",
    "status": "Pending",
    "rowid": "1108017",
    "final_x": "3683162.43733",
    "final_y": "535610.629126",
    "longitude": "-90.0626777121484",
    "latitude": "29.96669293104856",
    "geocoded_column": {
      "latitude": "29.96669293104856",
      "longitude": "-90.0626777121484"
    }
  },
  {
    "service_request": "2024-1108016",
    "request_type": "Property Maintenance",
    "request_reason": "Property Maintenance",
    "date_created": "2024-06-28T16:29:30.000",
    "date_modified": "2024-06-28T16:29:30.000",
    "request_status": "Pending",
    "responsible_agency": "Department of Code Enforcement",
    "final_address": "7501 Read Blvd",
    "address_councildis": "E",
    "status": "Pending",
    "rowid": "1108016",
    "final_x": "3708822.53694",
    "final_y": "564231.252641",
    "longitude": "-89.98057697134303",
    "latitude": "30.044581313103176",
    "geocoded_column": {
      "latitude": "30.044581313103176",
      "longitude": "-89.98057697134303"
    }
  },
  {
    "service_request": "2024-1108015",
    "request_type": "Property Maintenance",
    "request_reason": "Property Maintenance",
    "date_created": "2024-06-28T16:23:03.000",
    "date_modified": "2024-06-28T16:23:03.000",
    "request_status": "Pending",
    "responsible_agency": "Department of Code Enforcement",
    "final_address": "7679 Shorewood Blvd",
    "address_councildis": "E",
    "status": "Pending",
    "rowid": "1108015",
    "final_x": "3719577.00569",
    "final_y": "572997.705769",
    "longitude": "-89.9462529378159",
    "latitude": "30.06833192627783",
    "geocoded_column": {
      "latitude": "30.06833192627783",
      "longitude": "-89.9462529378159"
    }
  },
  {
    "service_request": "2024-1108014",
    "request_type": "Trash/Recycling",
    "request_reason": "Request a Large Item Pick Up",
    "date_created": "2024-06-28T16:22:41.000",
    "date_modified": "2024-06-28T16:23:01.000",
    "request_status": "Pending",
    "responsible_agency": "Department of Sanitation",
    "final_address": "4634 Redwood St",
    "address_councildis": "E",
    "status": "Assigned to Contractor",
    "contractor": "Waste Pro",
    "rowid": "1108014",
    "final_x": "3712477.71582",
    "final_y": "555505.511001",
    "longitude": "-89.9693533142604",
    "latitude": "30.020469838018094",
    "geocoded_column": {
      "latitude": "30.020469838018094",
      "longitude": "-89.9693533142604"
    }
  },
  {
    "service_request": "2024-1108013",
    "request_type": "Roads/Drainage",
    "request_reason": "Street Subsidence (Sinking)",
    "date_created": "2024-06-28T16:17:22.000",
    "date_modified": "2024-06-28T16:17:22.000",
    "request_status": "Pending",
    "responsible_agency": "Department of Public Works",
    "final_address": "3162 Toulouse St",
    "address_councildis": "A",
    "status": "Pending",
    "rowid": "1108013",
    "final_x": "3674779.4596",
    "final_y": "537782.166984",
    "longitude": "-90.08907667563817",
    "latitude": "29.97291687270167",
    "geocoded_column": {
      "latitude": "29.97291687270167",
      "longitude": "-90.08907667563817"
    }
  },
  {
    "service_request": "2024-1108012",
    "request_type": "Trash/Recycling",
    "request_reason": "Request a Large Item Pick Up",
    "date_created": "2024-06-28T16:16:06.000",
    "date_modified": "2024-06-28T16:16:07.000",
    "request_status": "Pending",
    "responsible_agency": "Department of Sanitation",
    "final_address": "5020 Annunciation St",
    "address_councildis": "B",
    "status": "Assigned to Contractor",
    "contractor": "IV Waste",
    "rowid": "1108012",
    "final_x": "3668437.74977",
    "final_y": "517468.06367",
    "longitude": "-90.10979013863628",
    "latitude": "29.917247509598944",
    "geocoded_column": {
      "latitude": "29.917247509598944",
      "longitude": "-90.10979013863628"
    }
  },
  {
    "service_request": "2024-1108011",
    "request_type": "Traffic Signals/Signs/Striping/Streetlights",
    "request_reason": "Street Light Outage/Malfunction",
    "date_created": "2024-06-28T16:14:23.000",
    "date_modified": "2024-06-28T16:14:24.000",
    "request_status": "Pending",
    "responsible_agency": "Department of Public Works",
    "final_address": "1820 Rosiere St",
    "address_councildis": "D",
    "status": "Assigned to Contractor",
    "contractor": "Legacy Professional Services",
    "rowid": "1108011",
    "final_x": "3678989.04386",
    "final_y": "542331.727437",
    "longitude": "-90.07562429117344",
    "latitude": "29.98530022636632",
    "geocoded_column": {
      "latitude": "29.98530022636632",
      "longitude": "-90.07562429117344"
    }
  },
  {
    "service_request": "2024-1108010",
    "request_type": "Trash/Recycling",
    "request_reason": "Illegal Dumping",
    "date_created": "2024-06-28T16:06:40.000",
    "date_modified": "2024-06-28T16:06:41.000",
    "request_status": "Pending",
    "responsible_agency": "Department of Sanitation",
    "final_address": "2217 Lapeyrouse St",
    "address_councildis": "D",
    "status": "Pending",
    "rowid": "1108010",
    "final_x": "3680409.9741",
    "final_y": "539176.524106",
    "longitude": "-90.07124593664615",
    "latitude": "29.976581554199818",
    "geocoded_column": {
      "latitude": "29.976581554199818",
      "longitude": "-90.07124593664615"
    }
  },
  {
    "service_request": "2024-1108009",
    "request_type": "Traffic Signals/Signs/Striping/Streetlights",
    "request_reason": "Street Light Outage/Malfunction",
    "date_created": "2024-06-28T16:01:17.000",
    "date_modified": "2024-06-28T16:01:18.000",
    "request_status": "Pending",
    "responsible_agency": "Department of Public Works",
    "final_address": "4440 Bancroft Dr",
    "address_councildis": "D",
    "status": "Assigned to Contractor",
    "contractor": "Legacy Professional Services",
    "rowid": "1108009",
    "final_x": "3676468.48366",
    "final_y": "548618.372115",
    "longitude": "-90.08336908363442",
    "latitude": "30.002662129325408",
    "geocoded_column": {
      "latitude": "30.002662129325408",
      "longitude": "-90.08336908363442"
    }
  },
  {
    "service_request": "2024-1108008",
    "request_type": "Trash/Recycling",
    "request_reason": "Replace Trash Cart",
    "date_created": "2024-06-28T16:00:44.000",
    "date_modified": "2024-06-28T16:00:45.000",
    "request_status": "Pending",
    "responsible_agency": "Department of Sanitation",
    "final_address": "3506 Gentilly Blvd",
    "address_councildis": "D",
    "status": "Assigned to Contractor",
    "contractor": "IV Waste",
    "rowid": "1108008",
    "final_x": "3685486.58914",
    "final_y": "548512.910546",
    "longitude": "-90.05488346047478",
    "latitude": "30.002098566819427",
    "geocoded_column": {
      "latitude": "30.002098566819427",
      "longitude": "-90.05488346047478"
    }
  },
  {
    "service_request": "2024-1108007",
    "request_type": "Roads/Drainage",
    "request_reason": "Street Subsidence (Sinking)",
    "date_created": "2024-06-28T15:58:23.000",
    "date_modified": "2024-06-28T15:58:24.000",
    "request_status": "Pending",
    "responsible_agency": "Department of Public Works",
    "final_address": "KINNEIL RD & WRIGHT RD",
    "address_councildis": "E",
    "status": "Pending",
    "rowid": "1108007",
    "final_x": "3711764.5",
    "final_y": "564530.38",
    "longitude": "-89.97126786899389",
    "latitude": "30.045307964270908",
    "geocoded_column": {
      "latitude": "30.045307964270908",
      "longitude": "-89.97126786899389"
    }
  },
  {
    "service_request": "2024-1108006",
    "request_type": "Abandoned Vehicles",
    "request_reason": "Abandoned/Junk Vehicles",
    "date_created": "2024-06-28T15:57:14.000",
    "date_modified": "2024-06-28T15:57:14.000",
    "request_status": "Pending",
    "responsible_agency": "Department of Public Works",
    "final_address": "1001 Stanton Rd",
    "address_councildis": "C",
    "status": "Pending",
    "rowid": "1108006",
    "final_x": "3721620.78527",
    "final_y": "518114.21599",
    "longitude": "-89.94189904242201",
    "latitude": "29.917355551016247",
    "geocoded_column": {
      "latitude": "29.917355551016247",
      "longitude": "-89.94189904242201"
    }
  },
  {
    "service_request": "2024-1108005",
    "request_type": "Trash/Recycling",
    "request_reason": "Order Trash Cart",
    "date_created": "2024-06-28T15:56:55.000",
    "date_modified": "2024-06-28T15:56:55.000",
    "request_status": "Pending",
    "responsible_agency": "Department of Sanitation",
    "final_address": "2421 Eads St",
    "address_councildis": "D",
    "status": "Assigned to Contractor",
    "contractor": "IV Waste",
    "rowid": "1108005",
    "final_x": "3687918.65974",
    "final_y": "541537.952396",
    "longitude": "-90.0474475673584",
    "latitude": "29.982845100857826",
    "geocoded_column": {
      "latitude": "29.982845100857826",
      "longitude": "-90.0474475673584"
    }
  },
  {
    "service_request": "2024-1108004",
    "request_type": "Healthy Homes",
    "request_reason": "Healthy Homes",
    "date_created": "2024-06-28T15:51:10.000",
    "date_modified": "2024-06-28T15:51:11.000",
    "request_status": "Pending",
    "responsible_agency": "Department of Code Enforcement",
    "final_address": "1210 Belleville St",
    "address_councildis": "C",
    "status": "Pending",
    "rowid": "1108004",
    "final_x": "3687778.52681",
    "final_y": "527049.333502",
    "longitude": "-90.04840334958116",
    "latitude": "29.943010754226737",
    "geocoded_column": {
      "latitude": "29.943010754226737",
      "longitude": "-90.04840334958116"
    }
  },
  {
    "service_request": "2024-1108003",
    "request_type": "Trash/Recycling",
    "request_reason": "Request a Large Item Pick Up",
    "date_created": "2024-06-28T15:47:54.000",
    "date_modified": "2024-06-28T15:47:54.000",
    "request_status": "Pending",
    "responsible_agency": "Department of Sanitation",
    "final_address": "7641 Hansbrough Ave",
    "address_councildis": "E",
    "status": "Assigned to Contractor",
    "contractor": "Waste Pro",
    "rowid": "1108003",
    "final_x": "3707591.89016",
    "final_y": "564650.248033",
    "longitude": "-89.9844507594385",
    "latitude": "30.045773274198638",
    "geocoded_column": {
      "latitude": "30.045773274198638",
      "longitude": "-89.9844507594385"
    }
  },
  {
    "service_request": "2024-1108002",
    "request_type": "Property Maintenance",
    "request_reason": "Property Maintenance",
    "date_created": "2024-06-28T15:47:14.000",
    "date_modified": "2024-06-28T15:47:14.000",
    "request_status": "Pending",
    "responsible_agency": "Department of Code Enforcement",
    "final_address": "1210 Belleville St",
    "address_councildis": "C",
    "status": "Pending",
    "rowid": "1108002",
    "final_x": "3687778.52681",
    "final_y": "527049.333502",
    "longitude": "-90.04840334958116",
    "latitude": "29.943010754226737",
    "geocoded_column": {
      "latitude": "29.943010754226737",
      "longitude": "-90.04840334958116"
    }
  },
  {
    "service_request": "2024-1108001",
    "request_type": "Trash/Recycling",
    "request_reason": "Request a Large Item Pick Up",
    "date_created": "2024-06-28T15:46:52.000",
    "date_modified": "2024-06-28T15:46:52.000",
    "request_status": "Pending",
    "responsible_agency": "Department of Sanitation",
    "final_address": "7661 Dune Dr",
    "address_councildis": "E",
    "status": "Assigned to Contractor",
    "contractor": "Waste Pro",
    "rowid": "1108001",
    "final_x": "3715302.53752",
    "final_y": "569276.18679",
    "longitude": "-89.95990630437994",
    "latitude": "30.058240875335773",
    "geocoded_column": {
      "latitude": "30.058240875335773",
      "longitude": "-89.95990630437994"
    }
  },
  {
    "service_request": "2024-1108000",
    "request_type": "Traffic Signals/Signs/Striping/Streetlights",
    "request_reason": "Street Light Outage/Malfunction",
    "date_created": "2024-06-28T15:46:44.000",
    "date_modified": "2024-06-28T15:46:45.000",
    "request_status": "Pending",
    "responsible_agency": "Department of Public Works",
    "final_address": "ROYAL ST & ANDRY ST",
    "address_councildis": "E",
    "status": "Assigned to Contractor",
    "contractor": "Legacy Professional Services",
    "rowid": "1108000",
    "final_x": "3696754.5",
    "final_y": "532484.98",
    "longitude": "-90.01986743570971",
    "latitude": "29.957677058742345",
    "geocoded_column": {
      "latitude": "29.957677058742345",
      "longitude": "-90.01986743570971"
    }
  },
  {
    "service_request": "2024-1107999",
    "request_type": "Trash/Recycling",
    "request_reason": "Request a Large Item Pick Up",
    "date_created": "2024-06-28T15:43:55.000",
    "date_modified": "2024-06-28T15:43:56.000",
    "request_status": "Pending",
    "responsible_agency": "Department of Sanitation",
    "final_address": "3515 N Claiborne Ave",
    "address_councildis": "D",
    "status": "Assigned to Contractor",
    "contractor": "IV Waste",
    "rowid": "1107999",
    "final_x": "3691060.39894",
    "final_y": "537543.223688",
    "longitude": "-90.03766707434649",
    "latitude": "29.9717636988118",
    "geocoded_column": {
      "latitude": "29.9717636988118",
      "longitude": "-90.03766707434649"
    }
  },
  {
    "service_request": "2024-1107998",
    "request_type": "Abandoned Vehicles",
    "request_reason": "Abandoned/Junk Vehicles",
    "date_created": "2024-06-28T15:41:42.000",
    "date_modified": "2024-06-28T15:41:42.000",
    "request_status": "Pending",
    "responsible_agency": "Department of Public Works",
    "final_address": "2719 S Robertson St",
    "address_councildis": "B",
    "status": "Pending",
    "rowid": "1107998",
    "final_x": "3674035.50312",
    "final_y": "525661.724733",
    "longitude": "-90.09184097725526",
    "latitude": "29.939611887690873",
    "geocoded_column": {
      "latitude": "29.939611887690873",
      "longitude": "-90.09184097725526"
    }
  },
  {
    "service_request": "2024-1107997",
    "request_type": "Trash/Recycling",
    "request_reason": "Request a Large Item Pick Up",
    "date_created": "2024-06-28T15:39:00.000",
    "date_modified": "2024-06-28T15:39:01.000",
    "request_status": "Pending",
    "responsible_agency": "Department of Sanitation",
    "final_address": "1941 N Tonti St",
    "address_councildis": "D",
    "status": "Assigned to Contractor",
    "contractor": "IV Waste",
    "rowid": "1107997",
    "final_x": "3682467.247",
    "final_y": "540579.741003",
    "longitude": "-90.06469937606026",
    "latitude": "29.980377443916677",
    "geocoded_column": {
      "latitude": "29.980377443916677",
      "longitude": "-90.06469937606026"
    }
  },
  {
    "service_request": "2024-1107996",
    "request_type": "Trash/Recycling",
    "request_reason": "Return Trash Cart",
    "date_created": "2024-06-28T15:38:37.000",
    "date_modified": "2024-06-28T15:38:38.000",
    "request_status": "Pending",
    "responsible_agency": "Department of Sanitation",
    "final_address": "919 Cambronne St",
    "address_councildis": "A",
    "status": "Assigned to Contractor",
    "contractor": "IV Waste",
    "rowid": "1107996",
    "final_x": "3660680.72896",
    "final_y": "528499.978112",
    "longitude": "-90.13391026753807",
    "latitude": "29.94780729304099",
    "geocoded_column": {
      "latitude": "29.94780729304099",
      "longitude": "-90.13391026753807"
    }
  },
  {
    "service_request": "2024-1107995",
    "request_type": "Trash/Recycling",
    "request_reason": "Request a Large Item Pick Up",
    "date_created": "2024-06-28T15:36:24.000",
    "date_modified": "2024-06-28T15:36:25.000",
    "request_status": "Pending",
    "responsible_agency": "Department of Sanitation",
    "final_address": "2437 George Nick Connor Dr",
    "address_councildis": "D",
    "status": "Assigned to Contractor",
    "contractor": "IV Waste",
    "rowid": "1107995",
    "final_x": "3681211.9268",
    "final_y": "541146.172876",
    "longitude": "-90.06864446538594",
    "latitude": "29.981973090117794",
    "geocoded_column": {
      "latitude": "29.981973090117794",
      "longitude": "-90.06864446538594"
    }
  },
  {
    "service_request": "2024-1107994",
    "request_type": "Trash/Recycling",
    "request_reason": "Request a Large Item Pick Up",
    "date_created": "2024-06-28T15:34:02.000",
    "date_modified": "2024-06-28T15:34:03.000",
    "request_status": "Pending",
    "responsible_agency": "Department of Sanitation",
    "final_address": "7095 Edgefield Dr",
    "address_councildis": "E",
    "status": "Assigned to Contractor",
    "contractor": "Waste Pro",
    "rowid": "1107994",
    "final_x": "3718586.25023",
    "final_y": "569528.63703",
    "longitude": "-89.94951732889695",
    "latitude": "30.05882637719464",
    "geocoded_column": {
      "latitude": "30.05882637719464",
      "longitude": "-89.94951732889695"
    }
  },
  {
    "service_request": "2024-1107993",
    "request_type": "Trash/Recycling",
    "request_reason": "Replace Trash Cart",
    "date_created": "2024-06-28T15:32:21.000",
    "date_modified": "2024-06-28T15:32:22.000",
    "request_status": "Pending",
    "responsible_agency": "Department of Sanitation",
    "final_address": "934 N Gayoso St",
    "address_councildis": "A",
    "status": "Assigned to Contractor",
    "contractor": "IV Waste",
    "rowid": "1107993",
    "final_x": "3676374.97838",
    "final_y": "538463.724681",
    "longitude": "-90.08401424916364",
    "latitude": "29.97474318742815",
    "geocoded_column": {
      "latitude": "29.97474318742815",
      "longitude": "-90.08401424916364"
    }
  },
  {
    "service_request": "2024-1107992",
    "request_type": "Trash/Recycling",
    "request_reason": "Order Trash Cart",
    "date_created": "2024-06-28T15:29:29.000",
    "date_modified": "2024-06-28T15:29:30.000",
    "request_status": "Pending",
    "responsible_agency": "Department of Sanitation",
    "final_address": "3400 Paris Ave",
    "address_councildis": "D",
    "status": "Assigned to Contractor",
    "contractor": "IV Waste",
    "rowid": "1107992",
    "final_x": "3679663.44667",
    "final_y": "544803.317007",
    "longitude": "-90.0734082941748",
    "latitude": "29.992075859438955",
    "geocoded_column": {
      "latitude": "29.992075859438955",
      "longitude": "-90.0734082941748"
    }
  },
  {
    "service_request": "2024-1107991",
    "request_type": "Abandoned Vehicles",
    "request_reason": "Abandoned/Junk Vehicles",
    "date_created": "2024-06-28T15:29:23.000",
    "date_modified": "2024-06-28T15:29:23.000",
    "request_status": "Pending",
    "responsible_agency": "Department of Public Works",
    "final_address": "2106 Marais St",
    "address_councildis": "C",
    "status": "Pending",
    "rowid": "1107991",
    "final_x": "3684646.05442",
    "final_y": "536608.310919",
    "longitude": "-90.05795739721242",
    "latitude": "29.969390888717662",
    "geocoded_column": {
      "latitude": "29.969390888717662",
      "longitude": "-90.05795739721242"
    }
  },
  {
    "service_request": "2024-1107990",
    "request_type": "Abandoned Vehicles",
    "request_reason": "Abandoned/Junk Vehicles",
    "date_created": "2024-06-28T15:27:57.000",
    "date_modified": "2024-06-28T15:27:57.000",
    "request_status": "Pending",
    "responsible_agency": "Department of Public Works",
    "final_address": "ZIMPLE ST & AUDUBON ST",
    "address_councildis": "A",
    "status": "Pending",
    "rowid": "1107990",
    "final_x": "3664211.9",
    "final_y": "526026.98",
    "longitude": "-90.12284339816497",
    "latitude": "29.94090523291735",
    "geocoded_column": {
      "latitude": "29.94090523291735",
      "longitude": "-90.12284339816497"
    }
  },
  {
    "service_request": "2024-1107989",
    "request_type": "Roads/Drainage",
    "request_reason": "Street Subsidence (Sinking)",
    "date_created": "2024-06-28T15:25:13.000",
    "date_modified": "2024-06-28T15:25:42.000",
    "request_status": "Pending",
    "responsible_agency": "Department of Public Works",
    "final_address": "4995 Burgundy St",
    "address_councildis": "E",
    "status": "Pending",
    "rowid": "1107989",
    "final_x": "3695691.65763",
    "final_y": "533559.516869",
    "longitude": "-90.0231847692555",
    "latitude": "29.96066511325112",
    "geocoded_column": {
      "latitude": "29.96066511325112",
      "longitude": "-90.0231847692555"
    }
  },
  {
    "service_request": "2024-1107988",
    "request_type": "Traffic Signals/Signs/Striping/Streetlights",
    "request_reason": "Street Light Outage/Malfunction",
    "date_created": "2024-06-28T15:23:11.000",
    "date_modified": "2024-06-28T15:23:12.000",
    "request_status": "Pending",
    "responsible_agency": "Department of Public Works",
    "final_address": "111 Sherwood Forest Dr",
    "address_councildis": "A",
    "status": "Assigned to Contractor",
    "contractor": "Legacy Professional Services",
    "rowid": "1107988",
    "final_x": "3673251.92449",
    "final_y": "541213.726924",
    "longitude": "-90.09378369375018",
    "latitude": "29.98239801362571",
    "geocoded_column": {
      "latitude": "29.98239801362571",
      "longitude": "-90.09378369375018"
    }
  },
  {
    "service_request": "2024-1107987",
    "request_type": "Roads/Drainage",
    "request_reason": "Catch Basin - Clogged",
    "date_created": "2024-06-28T15:18:13.000",
    "date_modified": "2024-06-28T15:18:13.000",
    "request_status": "Pending",
    "responsible_agency": "Department of Public Works",
    "final_address": "3436 Laurel St",
    "address_councildis": "B",
    "status": "Pending",
    "rowid": "1107987",
    "final_x": "3675041.81025",
    "final_y": "518794.319095",
    "longitude": "-90.08889939249703",
    "latitude": "29.9206987308935",
    "geocoded_column": {
      "latitude": "29.9206987308935",
      "longitude": "-90.08889939249703"
    }
  },
  {
    "service_request": "2024-1107986",
    "request_type": "Trash/Recycling",
    "request_reason": "Missed Trash Pick-Up",
    "date_created": "2024-06-28T15:16:25.000",
    "date_modified": "2024-06-28T17:11:32.000",
    "case_close_date": "2024-06-28T12:11:32.000",
    "request_status": "Closed",
    "responsible_agency": "Department of Sanitation",
    "final_address": "3436 Laurel St",
    "address_councildis": "B",
    "status": "Invalid Request",
    "contractor": "IV Waste",
    "contractor_action": "Invalid Request",
    "rowid": "1107986",
    "final_x": "3675041.81025",
    "final_y": "518794.319095",
    "longitude": "-90.08889939249703",
    "latitude": "29.9206987308935",
    "geocoded_column": {
      "latitude": "29.9206987308935",
      "longitude": "-90.08889939249703"
    }
  },
  {
    "service_request": "2024-1107985",
    "request_type": "Traffic Signals/Signs/Striping/Streetlights",
    "request_reason": "Street Light Outage/Malfunction",
    "date_created": "2024-06-28T15:12:04.000",
    "date_modified": "2024-06-28T15:12:05.000",
    "request_status": "Pending",
    "responsible_agency": "Department of Public Works",
    "final_address": "530 St Andrew St",
    "address_councildis": "B",
    "status": "Assigned to Contractor",
    "contractor": "Legacy Professional Services",
    "rowid": "1107985",
    "final_x": "3680758.59451",
    "final_y": "521036.435193",
    "longitude": "-90.07077616469992",
    "latitude": "29.926691861285445",
    "geocoded_column": {
      "latitude": "29.926691861285445",
      "longitude": "-90.07077616469992"
    }
  },
  {
    "service_request": "2024-1107984",
    "request_type": "Property Maintenance",
    "request_reason": "Property Maintenance",
    "date_created": "2024-06-28T15:11:17.000",
    "date_modified": "2024-06-28T15:11:17.000",
    "request_status": "Pending",
    "responsible_agency": "Department of Code Enforcement",
    "final_address": "1632 Delery St",
    "address_councildis": "E",
    "status": "Pending",
    "rowid": "1107984",
    "final_x": "3701200.85501",
    "final_y": "534969.195526",
    "longitude": "-90.00573634978556",
    "latitude": "29.96436686798867",
    "geocoded_column": {
      "latitude": "29.96436686798867",
      "longitude": "-90.00573634978556"
    }
  },
  {
    "service_request": "2024-1107983",
    "request_type": "Trash/Recycling",
    "request_reason": "Request a Large Item Pick Up",
    "date_created": "2024-06-28T15:07:47.000",
    "date_modified": "2024-06-28T15:07:50.000",
    "request_status": "Pending",
    "responsible_agency": "Department of Sanitation",
    "final_address": "3222 Dumaine St",
    "address_councildis": "A",
    "status": "Assigned to Contractor",
    "contractor": "IV Waste",
    "rowid": "1107983",
    "final_x": "3675230.33569",
    "final_y": "538948.563658",
    "longitude": "-90.08761267297743",
    "latitude": "29.976110595374372",
    "geocoded_column": {
      "latitude": "29.976110595374372",
      "longitude": "-90.08761267297743"
    }
  },
  {
    "service_request": "2024-1107982",
    "request_type": "Trash/Recycling",
    "request_reason": "Replace Trash Cart",
    "date_created": "2024-06-28T15:05:02.000",
    "date_modified": "2024-06-28T15:05:03.000",
    "request_status": "Pending",
    "responsible_agency": "Department of Sanitation",
    "final_address": "3310 Pauger St Apt B",
    "address_councildis": "D",
    "status": "Assigned to Contractor",
    "contractor": "IV Waste",
    "rowid": "1107982",
    "final_x": "3683356.00271",
    "final_y": "541838.79982",
    "longitude": "-90.06184818229735",
    "latitude": "29.983812327098438",
    "geocoded_column": {
      "latitude": "29.983812327098438",
      "longitude": "-90.06184818229735"
    }
  },
  {
    "service_request": "2024-1107981",
    "request_type": "Trash/Recycling",
    "request_reason": "Replace Trash Cart",
    "date_created": "2024-06-28T15:04:45.000",
    "date_modified": "2024-06-28T15:04:46.000",
    "request_status": "Pending",
    "responsible_agency": "Department of Sanitation",
    "final_address": "3310 Pauger St Apt A",
    "address_councildis": "D",
    "status": "Assigned to Contractor",
    "contractor": "IV Waste",
    "rowid": "1107981",
    "final_x": "3683374.36559",
    "final_y": "541839.455628",
    "longitude": "-90.06179015956474",
    "latitude": "29.98381357004652",
    "geocoded_column": {
      "latitude": "29.98381357004652",
      "longitude": "-90.06179015956474"
    }
  },
  {
    "service_request": "2024-1107980",
    "request_type": "Property Maintenance",
    "request_reason": "Property Maintenance",
    "date_created": "2024-06-28T15:04:31.000",
    "date_modified": "2024-06-28T15:04:32.000",
    "request_status": "Pending",
    "responsible_agency": "Department of Code Enforcement",
    "final_address": "9313 Forshey St",
    "address_councildis": "A",
    "status": "Pending",
    "rowid": "1107980",
    "final_x": "3663822.54861",
    "final_y": "536875.935368",
    "longitude": "-90.12371106808882",
    "latitude": "29.970747640884714",
    "geocoded_column": {
      "latitude": "29.970747640884714",
      "longitude": "-90.12371106808882"
    }
  },
  {
    "service_request": "2024-1107979",
    "request_type": "Trash/Recycling",
    "request_reason": "Order Recycling Cart",
    "date_created": "2024-06-28T15:02:48.000",
    "date_modified": "2024-06-28T15:02:48.000",
    "request_status": "Pending",
    "responsible_agency": "Department of Sanitation",
    "final_address": "1232 Poland Ave",
    "address_councildis": "D",
    "status": "Pending",
    "rowid": "1107979",
    "final_x": "3693135.54499",
    "final_y": "535642.056646",
    "longitude": "-90.0311817024848",
    "latitude": "29.966471479582466",
    "geocoded_column": {
      "latitude": "29.966471479582466",
      "longitude": "-90.0311817024848"
    }
  },
  {
    "service_request": "2024-1107978",
    "request_type": "Abandoned Vehicles",
    "request_reason": "Abandoned/Junk Vehicles",
    "date_created": "2024-06-28T14:59:16.000",
    "date_modified": "2024-06-28T14:59:16.000",
    "request_status": "Pending",
    "responsible_agency": "Department of Public Works",
    "final_address": "425 Park Blvd",
    "address_councildis": "C",
    "status": "Pending",
    "rowid": "1107978",
    "final_x": "3687008.61282",
    "final_y": "525765.573309",
    "longitude": "-90.05087951462478",
    "latitude": "29.939504565422556",
    "geocoded_column": {
      "latitude": "29.939504565422556",
      "longitude": "-90.05087951462478"
    }
  },
  {
    "service_request": "2024-1107977",
    "request_type": "Trash/Recycling",
    "request_reason": "Order Recycling Cart",
    "date_created": "2024-06-28T14:58:31.000",
    "date_modified": "2024-06-28T14:58:31.000",
    "request_status": "Pending",
    "responsible_agency": "Department of Sanitation",
    "final_address": "5527 Woodlawn Pl",
    "address_councildis": "A",
    "status": "Pending",
    "rowid": "1107977",
    "final_x": "3667512.96065",
    "final_y": "544263.020751",
    "longitude": "-90.1118075511241",
    "latitude": "29.990951993847425",
    "geocoded_column": {
      "latitude": "29.990951993847425",
      "longitude": "-90.1118075511241"
    }
  },
  {
    "service_request": "2024-1107976",
    "request_type": "Property Maintenance",
    "request_reason": "Property Maintenance",
    "date_created": "2024-06-28T14:57:40.000",
    "date_modified": "2024-06-28T14:57:41.000",
    "request_status": "Pending",
    "responsible_agency": "Department of Code Enforcement",
    "final_address": "425 Park Blvd",
    "address_councildis": "C",
    "status": "Pending",
    "rowid": "1107976",
    "final_x": "3687008.61282",
    "final_y": "525765.573309",
    "longitude": "-90.05087951462478",
    "latitude": "29.939504565422556",
    "geocoded_column": {
      "latitude": "29.939504565422556",
      "longitude": "-90.05087951462478"
    }
  },
  {
    "service_request": "2024-1107975",
    "request_type": "Roads/Drainage",
    "request_reason": "Pothole",
    "date_created": "2024-06-28T14:49:56.000",
    "date_modified": "2024-06-28T14:49:56.000",
    "request_status": "Pending",
    "responsible_agency": "Department of Public Works",
    "final_address": "804 Webster St",
    "address_councildis": "A",
    "status": "Pending",
    "rowid": "1107975",
    "final_x": "3664124.39348",
    "final_y": "519522.014135",
    "longitude": "-90.1233365457699",
    "latitude": "29.923021174551675",
    "geocoded_column": {
      "latitude": "29.923021174551675",
      "longitude": "-90.1233365457699"
    }
  },
  {
    "service_request": "2024-1107974",
    "request_type": "Trash/Recycling",
    "request_reason": "Repair Trash Cart",
    "date_created": "2024-06-28T14:49:40.000",
    "date_modified": "2024-06-28T14:49:40.000",
    "request_status": "Pending",
    "responsible_agency": "Department of Sanitation",
    "final_address": "2409 Magnolia St",
    "address_councildis": "B",
    "status": "Assigned to Contractor",
    "contractor": "IV Waste",
    "rowid": "1107974",
    "final_x": "3674673.15688",
    "final_y": "526483.713726",
    "longitude": "-90.08979965006387",
    "latitude": "29.941853075513386",
    "geocoded_column": {
      "latitude": "29.941853075513386",
      "longitude": "-90.08979965006387"
    }
  },
  {
    "service_request": "2024-1107973",
    "request_type": "Trash/Recycling",
    "request_reason": "Request a Large Item Pick Up",
    "date_created": "2024-06-28T14:49:17.000",
    "date_modified": "2024-06-28T14:49:17.000",
    "request_status": "Pending",
    "responsible_agency": "Department of Sanitation",
    "final_address": "6928 E Laverne St",
    "address_councildis": "D",
    "status": "Assigned to Contractor",
    "contractor": "Waste Pro",
    "rowid": "1107973",
    "final_x": "3697117.02563",
    "final_y": "556686.854618",
    "longitude": "-90.01784532124445",
    "latitude": "30.024211908139605",
    "geocoded_column": {
      "latitude": "30.024211908139605",
      "longitude": "-90.01784532124445"
    }
  },
  {
    "service_request": "2024-1107972",
    "request_type": "Abandoned Vehicles",
    "request_reason": "Abandoned/Junk Vehicles",
    "date_created": "2024-06-28T14:48:12.000",
    "date_modified": "2024-06-28T14:55:23.000",
    "request_status": "Pending",
    "responsible_agency": "Department of Public Works",
    "final_address": "3700 BLK Live Oak St",
    "address_councildis": "A",
    "status": "Pending",
    "rowid": "1107972",
    "final_x": "3664649.94953",
    "final_y": "538125.1988",
    "longitude": "-90.12105628242459",
    "latitude": "29.974158657653824",
    "geocoded_column": {
      "latitude": "29.974158657653824",
      "longitude": "-90.12105628242459"
    }
  },
  {
    "service_request": "2024-1107971",
    "request_type": "Roads/Drainage",
    "request_reason": "Pothole",
    "date_created": "2024-06-28T14:48:02.000",
    "date_modified": "2024-06-28T14:48:02.000",
    "request_status": "Pending",
    "responsible_agency": "Department of Public Works",
    "final_address": "6070 Chestnut St",
    "address_councildis": "A",
    "status": "Pending",
    "rowid": "1107971",
    "final_x": "3664412.78983",
    "final_y": "519991.592952",
    "longitude": "-90.12241052146828",
    "latitude": "29.92430399204139",
    "geocoded_column": {
      "latitude": "29.92430399204139",
      "longitude": "-90.12241052146828"
    }
  },
  {
    "service_request": "2024-1107970",
    "request_type": "Roads/Drainage",
    "request_reason": "Pothole",
    "date_created": "2024-06-28T14:46:51.000",
    "date_modified": "2024-06-28T14:46:51.000",
    "request_status": "Pending",
    "responsible_agency": "Department of Public Works",
    "final_address": "829 Nashville Ave",
    "address_councildis": "A",
    "status": "Pending",
    "rowid": "1107970",
    "final_x": "3665630.14445",
    "final_y": "519222.413111",
    "longitude": "-90.11859347985998",
    "latitude": "29.922153558399792",
    "geocoded_column": {
      "latitude": "29.922153558399792",
      "longitude": "-90.11859347985998"
    }
  },
  {
    "service_request": "2024-1107969",
    "request_type": "Trash/Recycling",
    "request_reason": "Order Trash Cart",
    "date_created": "2024-06-28T14:45:22.000",
    "date_modified": "2024-06-28T14:45:23.000",
    "request_status": "Pending",
    "responsible_agency": "Department of Sanitation",
    "final_address": "4408 Laine Ave",
    "address_councildis": "E",
    "status": "Assigned to Contractor",
    "contractor": "Waste Pro",
    "rowid": "1107969",
    "final_x": "3705845.90865",
    "final_y": "553463.905815",
    "longitude": "-89.99038324687696",
    "latitude": "30.015071608658236",
    "geocoded_column": {
      "latitude": "30.015071608658236",
      "longitude": "-89.99038324687696"
    }
  },
  {
    "service_request": "2024-1107968",
    "request_type": "Trash/Recycling",
    "request_reason": "Illegal Dumping",
    "date_created": "2024-06-28T14:45:18.000",
    "date_modified": "2024-06-28T14:45:18.000",
    "request_status": "Pending",
    "responsible_agency": "Department of Sanitation",
    "final_address": "7919 Lacombe St",
    "address_councildis": "E",
    "status": "Pending",
    "rowid": "1107968",
    "final_x": "3709135.74353",
    "final_y": "566234.893219",
    "longitude": "-89.97951228539816",
    "latitude": "30.05008034879479",
    "geocoded_column": {
      "latitude": "30.05008034879479",
      "longitude": "-89.97951228539816"
    }
  },
  {
    "service_request": "2024-1107967",
    "request_type": "Abandoned Vehicles",
    "request_reason": "Abandoned/Junk Vehicles",
    "date_created": "2024-06-28T14:44:04.000",
    "date_modified": "2024-06-28T14:44:04.000",
    "request_status": "Pending",
    "responsible_agency": "Department of Public Works",
    "final_address": "4600 Downman Rd",
    "address_councildis": "D",
    "status": "Pending",
    "rowid": "1107967",
    "final_x": "3695892.19907",
    "final_y": "553819.169239",
    "longitude": "-90.02181924240527",
    "latitude": "30.01636546478141",
    "geocoded_column": {
      "latitude": "30.01636546478141",
      "longitude": "-90.02181924240527"
    }
  },
  {
    "service_request": "2024-1107966",
    "request_type": "Trash/Recycling",
    "request_reason": "Illegal Dumping",
    "date_created": "2024-06-28T14:43:30.000",
    "date_modified": "2024-06-28T14:43:30.000",
    "request_status": "Pending",
    "responsible_agency": "Department of Sanitation",
    "final_address": "2021 N Tonti St",
    "address_councildis": "D",
    "status": "Pending",
    "rowid": "1107966",
    "final_x": "3682958.29532",
    "final_y": "540627.993867",
    "longitude": "-90.06314674795094",
    "latitude": "29.98049516419119",
    "geocoded_column": {
      "latitude": "29.98049516419119",
      "longitude": "-90.06314674795094"
    }
  },
  {
    "service_request": "2024-1107965",
    "request_type": "Trash/Recycling",
    "request_reason": "Request a Large Item Pick Up",
    "date_created": "2024-06-28T14:41:12.000",
    "date_modified": "2024-06-28T14:41:13.000",
    "request_status": "Pending",
    "responsible_agency": "Department of Sanitation",
    "final_address": "7530 Adventure Ave",
    "address_councildis": "E",
    "status": "Assigned to Contractor",
    "contractor": "Waste Pro",
    "rowid": "1107965",
    "final_x": "3725681.94425",
    "final_y": "570441.683559",
    "longitude": "-89.92705337299283",
    "latitude": "30.061099335648525",
    "geocoded_column": {
      "latitude": "30.061099335648525",
      "longitude": "-89.92705337299283"
    }
  },
  {
    "service_request": "2024-1107964",
    "request_type": "Trash/Recycling",
    "request_reason": "Replace Trash Cart",
    "date_created": "2024-06-28T14:38:48.000",
    "date_modified": "2024-06-28T14:38:49.000",
    "request_status": "Pending",
    "responsible_agency": "Department of Sanitation",
    "final_address": "5112 Lakeview Ct",
    "address_councildis": "E",
    "status": "Assigned to Contractor",
    "contractor": "Waste Pro",
    "rowid": "1107964",
    "final_x": "3698750.44714",
    "final_y": "556092.73097",
    "longitude": "-90.01270567851296",
    "latitude": "30.022526631141385",
    "geocoded_column": {
      "latitude": "30.022526631141385",
      "longitude": "-90.01270567851296"
    }
  },
  {
    "service_request": "2024-1107963",
    "request_type": "Abandoned Vehicles",
    "request_reason": "Abandoned/Junk Vehicles",
    "date_created": "2024-06-28T14:36:02.000",
    "date_modified": "2024-06-28T14:36:02.000",
    "request_status": "Pending",
    "responsible_agency": "Department of Public Works",
    "final_address": "1000 BLK Stanton Rd",
    "address_councildis": "C",
    "status": "Pending",
    "rowid": "1107963",
    "final_x": "3720272.27038",
    "final_y": "516662.993365",
    "longitude": "-89.94621093682117",
    "latitude": "29.913410167120865",
    "geocoded_column": {
      "latitude": "29.913410167120865",
      "longitude": "-89.94621093682117"
    }
  },
  {
    "service_request": "2024-1107962",
    "request_type": "Mosquito, Termite & Rodent Control",
    "request_reason": "Non-Rodent Complaint (Mice, Possums, Snakes)",
    "date_created": "2024-06-28T14:35:00.000",
    "date_modified": "2024-06-28T14:35:01.000",
    "request_status": "Pending",
    "responsible_agency": "Mosquito, Termite & Rodent Control Board",
    "final_address": "5190 Canal Blvd",
    "address_councildis": "A",
    "status": "Pending",
    "rowid": "1107962",
    "final_x": "3667707.86138",
    "final_y": "542281.719885",
    "longitude": "-90.11125865244507",
    "latitude": "29.98549837703443",
    "geocoded_column": {
      "latitude": "29.98549837703443",
      "longitude": "-90.11125865244507"
    }
  },
  {
    "service_request": "2024-1107961",
    "request_type": "Trash/Recycling",
    "request_reason": "Repair Trash Cart",
    "date_created": "2024-06-28T14:31:06.000",
    "date_modified": "2024-06-28T14:31:06.000",
    "request_status": "Pending",
    "responsible_agency": "Department of Sanitation",
    "final_address": "3133 Eads St",
    "address_councildis": "D",
    "status": "Assigned to Contractor",
    "contractor": "IV Waste",
    "rowid": "1107961",
    "final_x": "3687665.287",
    "final_y": "544586.416847",
    "longitude": "-90.04813984869814",
    "latitude": "29.99123510634466",
    "geocoded_column": {
      "latitude": "29.99123510634466",
      "longitude": "-90.04813984869814"
    }
  },
  {
    "service_request": "2024-1107960",
    "request_type": "Roads/Drainage",
    "request_reason": "Street Flooding / Drainage",
    "date_created": "2024-06-28T14:29:14.000",
    "date_modified": "2024-06-28T14:29:14.000",
    "request_status": "Pending",
    "responsible_agency": "Department of Public Works",
    "final_address": "1327 Hillary St",
    "address_councildis": "A",
    "status": "Pending",
    "rowid": "1107960",
    "final_x": "3663746.1081",
    "final_y": "527527.606783",
    "longitude": "-90.12426400110098",
    "latitude": "29.945044998785786",
    "geocoded_column": {
      "latitude": "29.945044998785786",
      "longitude": "-90.12426400110098"
    }
  },
  {
    "service_request": "2024-1107959",
    "request_type": "Trash/Recycling",
    "request_reason": "Request a Large Item Pick Up",
    "date_created": "2024-06-28T14:27:59.000",
    "date_modified": "2024-06-28T14:28:00.000",
    "request_status": "Pending",
    "responsible_agency": "Department of Sanitation",
    "final_address": "6028 Catina St",
    "address_councildis": "A",
    "status": "Assigned to Contractor",
    "contractor": "IV Waste",
    "rowid": "1107959",
    "final_x": "3666708.33108",
    "final_y": "547812.983314",
    "longitude": "-90.11422988928973",
    "latitude": "30.000736734326313",
    "geocoded_column": {
      "latitude": "30.000736734326313",
      "longitude": "-90.11422988928973"
    }
  },
  {
    "service_request": "2024-1107958",
    "request_type": "Roads/Drainage",
    "request_reason": "Damaged Sidewalk",
    "date_created": "2024-06-28T14:20:17.000",
    "date_modified": "2024-06-28T14:20:17.000",
    "request_status": "Pending",
    "responsible_agency": "Department of Public Works",
    "final_address": "334 Pine St",
    "address_councildis": "A",
    "status": "Pending",
    "rowid": "1107958",
    "final_x": "3661727.11219",
    "final_y": "523457.096507",
    "longitude": "-90.13077350916909",
    "latitude": "29.93391081035991",
    "geocoded_column": {
      "latitude": "29.93391081035991",
      "longitude": "-90.13077350916909"
    }
  },
  {
    "service_request": "2024-1107957",
    "request_type": "Parks & Parkways",
    "request_reason": "Request Tree Service (Right of Way/Public Property)",
    "date_created": "2024-06-28T14:17:08.000",
    "date_modified": "2024-06-28T14:17:08.000",
    "request_status": "Pending",
    "responsible_agency": "Department of Parks & Parkway",
    "final_address": "CANAL BLVD & HARRISON AVE",
    "address_councildis": "A",
    "status": "Pending",
    "rowid": "1107957",
    "final_x": "3668723.1",
    "final_y": "549310.28",
    "longitude": "-90.10781447934356",
    "latitude": "30.00479468473077",
    "geocoded_column": {
      "latitude": "30.00479468473077",
      "longitude": "-90.10781447934356"
    }
  },
  {
    "service_request": "2024-1107956",
    "request_type": "Parks & Parkways",
    "request_reason": "Request Tree Service (Right of Way/Public Property)",
    "date_created": "2024-06-28T14:16:22.000",
    "date_modified": "2024-06-28T14:16:22.000",
    "request_status": "Pending",
    "responsible_agency": "Department of Parks & Parkway",
    "final_address": "ARGONNE BLVD & HARRISON AVE",
    "address_councildis": "A",
    "status": "Pending",
    "rowid": "1107956",
    "final_x": "3670361.8",
    "final_y": "549162.68",
    "longitude": "-90.10264249196207",
    "latitude": "30.0043405428806",
    "geocoded_column": {
      "latitude": "30.0043405428806",
      "longitude": "-90.10264249196207"
    }
  },
  {
    "service_request": "2024-1107955",
    "request_type": "Trash/Recycling",
    "request_reason": "Repair Trash Cart",
    "date_created": "2024-06-28T14:16:08.000",
    "date_modified": "2024-06-28T14:16:21.000",
    "request_status": "Pending",
    "responsible_agency": "Department of Sanitation",
    "final_address": "2013 Foucher St",
    "address_councildis": "B",
    "status": "Assigned to Contractor",
    "contractor": "IV Waste",
    "rowid": "1107955",
    "final_x": "3673013.87963",
    "final_y": "522769.234618",
    "longitude": "-90.09516506719164",
    "latitude": "29.931688875583387",
    "geocoded_column": {
      "latitude": "29.931688875583387",
      "longitude": "-90.09516506719164"
    }
  },
  {
    "service_request": "2024-1107954",
    "request_type": "Trash/Recycling",
    "request_reason": "Missed Trash Pick-Up",
    "date_created": "2024-06-28T14:15:35.000",
    "date_modified": "2024-06-28T14:32:21.000",
    "case_close_date": "2024-06-28T09:32:21.000",
    "request_status": "Closed",
    "responsible_agency": "Department of Sanitation",
    "final_address": "2908 General Ogden St",
    "address_councildis": "A",
    "status": "Invalid Request",
    "contractor": "IV Waste",
    "contractor_action": "Invalid Request",
    "rowid": "1107954",
    "final_x": "3664015.8041",
    "final_y": "534885.767942",
    "longitude": "-90.12316712124785",
    "latitude": "29.96526972540178",
    "geocoded_column": {
      "latitude": "29.96526972540178",
      "longitude": "-90.12316712124785"
    }
  },
  {
    "service_request": "2024-1107953",
    "request_type": "Trash/Recycling",
    "request_reason": "Repair Trash Cart",
    "date_created": "2024-06-28T14:12:39.000",
    "date_modified": "2024-06-28T14:12:39.000",
    "request_status": "Pending",
    "responsible_agency": "Department of Sanitation",
    "final_address": "1019 Congress St",
    "address_councildis": "C",
    "status": "Assigned to Contractor",
    "contractor": "IV Waste",
    "rowid": "1107953",
    "final_x": "3690701.50896",
    "final_y": "535306.039366",
    "longitude": "-90.0388803176976",
    "latitude": "29.965623383110906",
    "geocoded_column": {
      "latitude": "29.965623383110906",
      "longitude": "-90.0388803176976"
    }
  },
  {
    "service_request": "2024-1107952",
    "request_type": "Parks & Parkways",
    "request_reason": "Request Tree Service (Right of Way/Public Property)",
    "date_created": "2024-06-28T14:12:35.000",
    "date_modified": "2024-06-28T14:12:36.000",
    "request_status": "Pending",
    "responsible_agency": "Department of Parks & Parkway",
    "final_address": "872 Florida Blvd",
    "address_councildis": "A",
    "status": "Pending",
    "rowid": "1107952",
    "final_x": "3669432.45006",
    "final_y": "545189.497743",
    "longitude": "-90.1057129689375",
    "latitude": "29.99344308199599",
    "geocoded_column": {
      "latitude": "29.99344308199599",
      "longitude": "-90.1057129689375"
    }
  },
  {
    "service_request": "2024-1107951",
    "request_type": "Trash/Recycling",
    "request_reason": "Missed Trash Pick-Up",
    "date_created": "2024-06-28T14:10:56.000",
    "date_modified": "2024-06-28T14:48:46.000",
    "case_close_date": "2024-06-28T09:48:46.000",
    "request_status": "Closed",
    "responsible_agency": "Department of Sanitation",
    "final_address": "6934 Thor Ct",
    "address_councildis": "E",
    "status": "Assigned to Contractor",
    "contractor": "Waste Pro",
    "contractor_action": "Invalid Request",
    "rowid": "1107951",
    "final_x": "3702743.68881",
    "final_y": "558546.894364",
    "longitude": "-89.99999784247949",
    "latitude": "30.029147479529087",
    "geocoded_column": {
      "latitude": "30.029147479529087",
      "longitude": "-89.99999784247949"
    }
  },
  {
    "service_request": "2024-1107950",
    "request_type": "Trash/Recycling",
    "request_reason": "Missed Trash Pick-Up",
    "date_created": "2024-06-28T14:10:08.000",
    "date_modified": "2024-06-28T14:50:28.000",
    "case_close_date": "2024-06-28T09:50:28.000",
    "request_status": "Closed",
    "responsible_agency": "Department of Sanitation",
    "final_address": "4505 Dale St",
    "address_councildis": "E",
    "status": "Assigned to Contractor",
    "contractor": "Waste Pro",
    "contractor_action": "Invalid Request",
    "rowid": "1107950",
    "final_x": "3699597.24029",
    "final_y": "553710.358167",
    "longitude": "-90.01011696045066",
    "latitude": "30.015949150384692",
    "geocoded_column": {
      "latitude": "30.015949150384692",
      "longitude": "-90.01011696045066"
    }
  },
  {
    "service_request": "2024-1107949",
    "request_type": "Trash/Recycling",
    "request_reason": "Order Recycling Cart",
    "date_created": "2024-06-28T14:09:35.000",
    "date_modified": "2024-06-28T14:09:36.000",
    "request_status": "Pending",
    "responsible_agency": "Department of Sanitation",
    "final_address": "425 Calhoun St",
    "address_councildis": "A",
    "status": "Pending",
    "rowid": "1107949",
    "final_x": "3663020.24736",
    "final_y": "518613.072311",
    "longitude": "-90.12685213442548",
    "latitude": "29.92055388191776",
    "geocoded_column": {
      "latitude": "29.92055388191776",
      "longitude": "-90.12685213442548"
    }
  },
  {
    "service_request": "2024-1107948",
    "request_type": "Parks & Parkways",
    "request_reason": "Request Tree Service (Right of Way/Public Property)",
    "date_created": "2024-06-28T14:09:22.000",
    "date_modified": "2024-06-28T14:09:22.000",
    "request_status": "Pending",
    "responsible_agency": "Department of Parks & Parkway",
    "final_address": "7044 Mayo Rd",
    "address_councildis": "E",
    "status": "Pending",
    "rowid": "1107948",
    "final_x": "3701450.9002",
    "final_y": "558884.290332",
    "longitude": "-90.004070621789",
    "latitude": "30.030116487937242",
    "geocoded_column": {
      "latitude": "30.030116487937242",
      "longitude": "-90.004070621789"
    }
  },
  {
    "service_request": "2024-1107947",
    "request_type": "Trash/Recycling",
    "request_reason": "Repair Recycling Cart",
    "date_created": "2024-06-28T14:07:36.000",
    "date_modified": "2024-06-28T14:07:37.000",
    "request_status": "Pending",
    "responsible_agency": "Department of Sanitation",
    "final_address": "7131 Ridgefield Dr",
    "address_councildis": "E",
    "status": "Pending",
    "rowid": "1107947",
    "final_x": "3719161.58866",
    "final_y": "570019.015846",
    "longitude": "-89.94768001296606",
    "latitude": "30.06015559706482",
    "geocoded_column": {
      "latitude": "30.06015559706482",
      "longitude": "-89.94768001296606"
    }
  },
  {
    "service_request": "2024-1107946",
    "request_type": "Property Maintenance",
    "request_reason": "Property Maintenance",
    "date_created": "2024-06-28T14:05:46.000",
    "date_modified": "2024-06-28T14:05:47.000",
    "request_status": "Pending",
    "responsible_agency": "Department of Code Enforcement",
    "final_address": "3412 Robert St",
    "address_councildis": "B",
    "status": "Pending",
    "rowid": "1107946",
    "final_x": "3668898.84129",
    "final_y": "527410.585791",
    "longitude": "-90.10799912977353",
    "latitude": "29.94457272180244",
    "geocoded_column": {
      "latitude": "29.94457272180244",
      "longitude": "-90.10799912977353"
    }
  },
  {
    "service_request": "2024-1107945",
    "request_type": "Trash/Recycling",
    "request_reason": "Order Recycling Cart",
    "date_created": "2024-06-28T14:03:53.000",
    "date_modified": "2024-06-28T14:03:53.000",
    "request_status": "Pending",
    "responsible_agency": "Department of Sanitation",
    "final_address": "3322 Canal St",
    "address_councildis": "B",
    "status": "Pending",
    "rowid": "1107945",
    "final_x": "3673357.11624",
    "final_y": "536511.574727",
    "longitude": "-90.09361213136305",
    "latitude": "29.9694655660717",
    "geocoded_column": {
      "latitude": "29.9694655660717",
      "longitude": "-90.09361213136305"
    }
  },
  {
    "service_request": "2024-1107944",
    "request_type": "Trash/Recycling",
    "request_reason": "Replace Trash Cart",
    "date_created": "2024-06-28T14:03:02.000",
    "date_modified": "2024-06-28T14:03:03.000",
    "request_status": "Pending",
    "responsible_agency": "Department of Sanitation",
    "final_address": "3322 Canal St",
    "address_councildis": "B",
    "status": "Assigned to Contractor",
    "contractor": "IV Waste",
    "rowid": "1107944",
    "final_x": "3673357.11624",
    "final_y": "536511.574727",
    "longitude": "-90.09361213136305",
    "latitude": "29.9694655660717",
    "geocoded_column": {
      "latitude": "29.9694655660717",
      "longitude": "-90.09361213136305"
    }
  },
  {
    "service_request": "2024-1107943",
    "request_type": "Trash/Recycling",
    "request_reason": "Replace Trash Cart",
    "date_created": "2024-06-28T13:59:57.000",
    "date_modified": "2024-06-28T13:59:57.000",
    "request_status": "Pending",
    "responsible_agency": "Department of Sanitation",
    "final_address": "178 Aurora Dr",
    "address_councildis": "C",
    "status": "Assigned to Contractor",
    "contractor": "Richards Disposal",
    "rowid": "1107943",
    "final_x": "3706924.4986",
    "final_y": "520991.159929",
    "longitude": "-89.98817988920007",
    "latitude": "29.925748675819236",
    "geocoded_column": {
      "latitude": "29.925748675819236",
      "longitude": "-89.98817988920007"
    }
  },
  {
    "service_request": "2024-1107942",
    "request_type": "Parks & Parkways",
    "request_reason": "Request Grass Cutting Service (City Owned Property)",
    "date_created": "2024-06-28T13:59:43.000",
    "date_modified": "2024-06-28T13:59:44.000",
    "request_status": "Pending",
    "responsible_agency": "Department of Parks & Parkway",
    "final_address": "BEHRMAN AVE & MARDI GRAS BLVD",
    "address_councildis": "C",
    "status": "Pending",
    "rowid": "1107942",
    "final_x": "3691880.9",
    "final_y": "522616.78",
    "longitude": "-90.03560969944105",
    "latitude": "29.930695611369778",
    "geocoded_column": {
      "latitude": "29.930695611369778",
      "longitude": "-90.03560969944105"
    }
  },
  {
    "service_request": "2024-1107941",
    "request_type": "Trash/Recycling",
    "request_reason": "Illegal Dumping",
    "date_created": "2024-06-28T13:57:54.000",
    "date_modified": "2024-06-28T13:57:55.000",
    "request_status": "Pending",
    "responsible_agency": "Department of Sanitation",
    "final_address": "1278 Saux Ln",
    "address_councildis": "C",
    "status": "Pending",
    "rowid": "1107941",
    "final_x": "3692679.63293",
    "final_y": "526824.694398",
    "longitude": "-90.03293747033452",
    "latitude": "29.94224104144344",
    "geocoded_column": {
      "latitude": "29.94224104144344",
      "longitude": "-90.03293747033452"
    }
  },
  {
    "service_request": "2024-1107940",
    "request_type": "Trash/Recycling",
    "request_reason": "Repair Trash Cart",
    "date_created": "2024-06-28T13:56:32.000",
    "date_modified": "2024-06-28T13:57:11.000",
    "request_status": "Pending",
    "responsible_agency": "Department of Sanitation",
    "final_address": "1326 Alvar St",
    "address_councildis": "D",
    "status": "Assigned to Contractor",
    "contractor": "IV Waste",
    "rowid": "1107940",
    "final_x": "3691681.37993",
    "final_y": "536341.624647",
    "longitude": "-90.03574890162635",
    "latitude": "29.968440404014242",
    "geocoded_column": {
      "latitude": "29.968440404014242",
      "longitude": "-90.03574890162635"
    }
  },
  {
    "service_request": "2024-1107939",
    "request_type": "Traffic Signals/Signs/Striping/Streetlights",
    "request_reason": "Traffic Sign Missing/Damaged",
    "date_created": "2024-06-28T13:55:04.000",
    "date_modified": "2024-06-28T13:55:04.000",
    "request_status": "Pending",
    "responsible_agency": "Department of Public Works",
    "final_address": "ST ANTHONY ST & N ROCHEBLAVE ST",
    "address_councildis": "D",
    "status": "Pending",
    "rowid": "1107939",
    "final_x": "3683127.7",
    "final_y": "540974.38",
    "longitude": "-90.06259956274691",
    "latitude": "29.981442440040052",
    "geocoded_column": {
      "latitude": "29.981442440040052",
      "longitude": "-90.06259956274691"
    }
  },
  {
    "service_request": "2024-1107938",
    "request_type": "Utility Poles",
    "request_reason": "Utility Pole Leaning",
    "date_created": "2024-06-28T13:55:00.000",
    "date_modified": "2024-06-28T13:55:05.000",
    "request_status": "Pending",
    "responsible_agency": "Utility Company Collective",
    "final_address": "2410 Pauger St",
    "address_councildis": "D",
    "status": "Pending",
    "rowid": "1107938",
    "final_x": "3683650.5334",
    "final_y": "538542.409545",
    "longitude": "-90.0610335061764",
    "latitude": "29.974739418484006",
    "geocoded_column": {
      "latitude": "29.974739418484006",
      "longitude": "-90.0610335061764"
    }
  },
  {
    "service_request": "2024-1107937",
    "request_type": "Trash/Recycling",
    "request_reason": "Return Trash Cart",
    "date_created": "2024-06-28T13:54:25.000",
    "date_modified": "2024-06-28T13:54:26.000",
    "request_status": "Pending",
    "responsible_agency": "Department of Sanitation",
    "final_address": "3031 Esplanade Ave Apt A",
    "address_councildis": "A",
    "status": "Assigned to Contractor",
    "contractor": "IV Waste",
    "rowid": "1107937",
    "final_x": "3676652.78555",
    "final_y": "540232.131467",
    "longitude": "-90.08307592405797",
    "latitude": "29.97959736704469",
    "geocoded_column": {
      "latitude": "29.97959736704469",
      "longitude": "-90.08307592405797"
    }
  },
  {
    "service_request": "2024-1107935",
    "request_type": "Trash/Recycling",
    "request_reason": "Request a Large Item Pick Up",
    "date_created": "2024-06-28T13:52:34.000",
    "date_modified": "2024-06-28T13:52:35.000",
    "request_status": "Pending",
    "responsible_agency": "Department of Sanitation",
    "final_address": "4832 Ray Ave",
    "address_councildis": "E",
    "status": "Assigned to Contractor",
    "contractor": "Waste Pro",
    "rowid": "1107935",
    "final_x": "3698666.25943",
    "final_y": "554871.214616",
    "longitude": "-90.01301616413555",
    "latitude": "30.019170593787972",
    "geocoded_column": {
      "latitude": "30.019170593787972",
      "longitude": "-90.01301616413555"
    }
  },
  {
    "service_request": "2024-1107934",
    "request_type": "Trash/Recycling",
    "request_reason": "Replace Trash Cart",
    "date_created": "2024-06-28T13:51:12.000",
    "date_modified": "2024-06-28T13:51:13.000",
    "request_status": "Pending",
    "responsible_agency": "Department of Sanitation",
    "final_address": "2739 Danbury Dr",
    "address_councildis": "C",
    "status": "Assigned to Contractor",
    "contractor": "Richards Disposal",
    "rowid": "1107934",
    "final_x": "3703593.14538",
    "final_y": "520650.471225",
    "longitude": "-89.99870841488634",
    "latitude": "29.924919014365543",
    "geocoded_column": {
      "latitude": "29.924919014365543",
      "longitude": "-89.99870841488634"
    }
  },
  {
    "service_request": "2024-1107933",
    "request_type": "Trash/Recycling",
    "request_reason": "Order Recycling Cart",
    "date_created": "2024-06-28T13:51:02.000",
    "date_modified": "2024-06-28T13:51:03.000",
    "request_status": "Pending",
    "responsible_agency": "Department of Sanitation",
    "final_address": "4155 Patterson St",
    "address_councildis": "C",
    "status": "Pending",
    "rowid": "1107933",
    "final_x": "3699495.428",
    "final_y": "525781.665405",
    "longitude": "-90.0114566270099",
    "latitude": "29.939158625615168",
    "geocoded_column": {
      "latitude": "29.939158625615168",
      "longitude": "-90.0114566270099"
    }
  },
  {
    "service_request": "2024-1107932",
    "request_type": "Traffic Signals/Signs/Striping/Streetlights",
    "request_reason": "Street Light Outage/Malfunction",
    "date_created": "2024-06-28T13:45:55.000",
    "date_modified": "2024-06-28T13:45:56.000",
    "request_status": "Pending",
    "responsible_agency": "Department of Public Works",
    "final_address": "3429 Robert St",
    "address_councildis": "B",
    "status": "Assigned to Contractor",
    "contractor": "Legacy Professional Services",
    "rowid": "1107932",
    "final_x": "3668985.00583",
    "final_y": "527599.294271",
    "longitude": "-90.10772070924658",
    "latitude": "29.94508907495242",
    "geocoded_column": {
      "latitude": "29.94508907495242",
      "longitude": "-90.10772070924658"
    }
  },
  {
    "service_request": "2024-1107931",
    "request_type": "Trash/Recycling",
    "request_reason": "Replace Recycling Cart",
    "date_created": "2024-06-28T13:45:12.000",
    "date_modified": "2024-06-28T13:45:12.000",
    "request_status": "Pending",
    "responsible_agency": "Department of Sanitation",
    "final_address": "2739 Danbury Dr",
    "address_councildis": "C",
    "status": "Pending",
    "rowid": "1107931",
    "final_x": "3703593.14538",
    "final_y": "520650.471225",
    "longitude": "-89.99870841488634",
    "latitude": "29.924919014365543",
    "geocoded_column": {
      "latitude": "29.924919014365543",
      "longitude": "-89.99870841488634"
    }
  },
  {
    "service_request": "2024-1107930",
    "request_type": "Trash/Recycling",
    "request_reason": "Request a Large Item Pick Up",
    "date_created": "2024-06-28T13:43:48.000",
    "date_modified": "2024-06-28T13:43:48.000",
    "request_status": "Pending",
    "responsible_agency": "Department of Sanitation",
    "final_address": "4742 Sandalwood St",
    "address_councildis": "E",
    "status": "Assigned to Contractor",
    "contractor": "Waste Pro",
    "rowid": "1107930",
    "final_x": "3712154.43198",
    "final_y": "556141.808922",
    "longitude": "-89.97035086764139",
    "latitude": "30.022229984754258",
    "geocoded_column": {
      "latitude": "30.022229984754258",
      "longitude": "-89.97035086764139"
    }
  },
  {
    "service_request": "2024-1107928",
    "request_type": "Roads/Drainage",
    "request_reason": "Road Shoulder Repair",
    "date_created": "2024-06-28T13:42:00.000",
    "date_modified": "2024-06-28T13:42:00.000",
    "request_status": "Pending",
    "responsible_agency": "Department of Public Works",
    "final_address": "1314 Webster St",
    "address_councildis": "A",
    "status": "Pending",
    "rowid": "1107928",
    "final_x": "3664719.14957",
    "final_y": "521176.679929",
    "longitude": "-90.12140387903943",
    "latitude": "29.927553702734272",
    "geocoded_column": {
      "latitude": "29.927553702734272",
      "longitude": "-90.12140387903943"
    }
  },
  {
    "service_request": "2024-1107927",
    "request_type": "Property Maintenance",
    "request_reason": "Property Maintenance",
    "date_created": "2024-06-28T13:41:16.000",
    "date_modified": "2024-06-28T13:41:17.000",
    "request_status": "Pending",
    "responsible_agency": "Department of Code Enforcement",
    "final_address": "442 Leboeuf St",
    "address_councildis": "C",
    "status": "Pending",
    "rowid": "1107927",
    "final_x": "3689905.5766",
    "final_y": "529901.368641",
    "longitude": "-90.04158624286595",
    "latitude": "29.95078711522796",
    "geocoded_column": {
      "latitude": "29.95078711522796",
      "longitude": "-90.04158624286595"
    }
  },
  {
    "service_request": "2024-1107926",
    "request_type": "Property Maintenance",
    "request_reason": "Property Maintenance",
    "date_created": "2024-06-28T13:39:48.000",
    "date_modified": "2024-06-28T13:39:49.000",
    "request_status": "Pending",
    "responsible_agency": "Department of Code Enforcement",
    "final_address": "1028 L. B. Landry Ave",
    "address_councildis": "C",
    "status": "Pending",
    "rowid": "1107926",
    "final_x": "3690226.25155",
    "final_y": "527545.610815",
    "longitude": "-90.04065763266766",
    "latitude": "29.944299646115482",
    "geocoded_column": {
      "latitude": "29.944299646115482",
      "longitude": "-90.04065763266766"
    }
  },
  {
    "service_request": "2024-1107925",
    "request_type": "Parks & Parkways",
    "request_reason": "Request Tree Service (Right of Way/Public Property)",
    "date_created": "2024-06-28T13:34:01.000",
    "date_modified": "2024-06-28T13:34:02.000",
    "request_status": "Pending",
    "responsible_agency": "Department of Parks & Parkway",
    "final_address": "OWENS BLVD & ST BERNARD AVE",
    "address_councildis": "D",
    "status": "Pending",
    "rowid": "1107925",
    "final_x": "3676778.1",
    "final_y": "548856.08",
    "longitude": "-90.08238276534604",
    "latitude": "30.00330645119",
    "geocoded_column": {
      "latitude": "30.00330645119",
      "longitude": "-90.08238276534604"
    }
  },
  {
    "service_request": "2024-1107924",
    "request_type": "Trash/Recycling",
    "request_reason": "Request a Large Item Pick Up",
    "date_created": "2024-06-28T13:29:11.000",
    "date_modified": "2024-06-28T13:29:12.000",
    "request_status": "Pending",
    "responsible_agency": "Department of Sanitation",
    "final_address": "5043 Par Four Dr",
    "address_councildis": "E",
    "status": "Assigned to Contractor",
    "contractor": "Waste Pro",
    "rowid": "1107924",
    "final_x": "3719320.64057",
    "final_y": "559719.920221",
    "longitude": "-89.94757097684236",
    "latitude": "30.031832021696008",
    "geocoded_column": {
      "latitude": "30.031832021696008",
      "longitude": "-89.94757097684236"
    }
  },
  {
    "service_request": "2024-1107923",
    "request_type": "Trash/Recycling",
    "request_reason": "Request a Large Item Pick Up",
    "date_created": "2024-06-28T13:27:52.000",
    "date_modified": "2024-06-28T13:27:52.000",
    "request_status": "Pending",
    "responsible_agency": "Department of Sanitation",
    "final_address": "7212 Salem Dr",
    "address_councildis": "E",
    "status": "Assigned to Contractor",
    "contractor": "Waste Pro",
    "rowid": "1107923",
    "final_x": "3706288.21323",
    "final_y": "561510.751583",
    "longitude": "-89.9886874330708",
    "latitude": "30.037183037597",
    "geocoded_column": {
      "latitude": "30.037183037597",
      "longitude": "-89.9886874330708"
    }
  },
  {
    "service_request": "2024-1107921",
    "request_type": "Trash/Recycling",
    "request_reason": "Return Recycling Cart",
    "date_created": "2024-06-28T13:22:43.000",
    "date_modified": "2024-06-28T13:22:43.000",
    "request_status": "Pending",
    "responsible_agency": "Department of Sanitation",
    "final_address": "8432 Oleander St",
    "address_councildis": "A",
    "status": "Pending",
    "rowid": "1107921",
    "final_x": "3665764.57274",
    "final_y": "534518.435589",
    "longitude": "-90.11765688382394",
    "latitude": "29.9642087820016",
    "geocoded_column": {
      "latitude": "29.9642087820016",
      "longitude": "-90.11765688382394"
    }
  },
  {
    "service_request": "2024-1107920",
    "request_type": "Trash/Recycling",
    "request_reason": "Illegal Dumping",
    "date_created": "2024-06-28T13:19:44.000",
    "date_modified": "2024-06-28T13:19:44.000",
    "request_status": "Pending",
    "responsible_agency": "Department of Sanitation",
    "final_address": "200 BLK Iberville St",
    "address_councildis": "C",
    "status": "Pending",
    "rowid": "1107920",
    "final_x": "3682550.87141",
    "final_y": "530186.250439",
    "longitude": "-90.06479867598568",
    "latitude": "29.9517963751702",
    "geocoded_column": {
      "latitude": "29.9517963751702",
      "longitude": "-90.06479867598568"
    }
  },
  {
    "service_request": "2024-1107919",
    "request_type": "Trash/Recycling",
    "request_reason": "Request a Large Item Pick Up",
    "date_created": "2024-06-28T13:17:35.000",
    "date_modified": "2024-06-28T13:17:36.000",
    "request_status": "Pending",
    "responsible_agency": "Department of Sanitation",
    "final_address": "2116 Bienville Ave",
    "address_councildis": "B",
    "status": "Assigned to Contractor",
    "contractor": "IV Waste",
    "rowid": "1107919",
    "final_x": "3677570.17691",
    "final_y": "534325.076933",
    "longitude": "-90.0803824398211",
    "latitude": "29.963327431847656",
    "geocoded_column": {
      "latitude": "29.963327431847656",
      "longitude": "-90.0803824398211"
    }
  },
  {
    "service_request": "2024-1107918",
    "request_type": "Trash/Recycling",
    "request_reason": "Order Recycling Cart",
    "date_created": "2024-06-28T13:17:06.000",
    "date_modified": "2024-06-28T13:17:06.000",
    "request_status": "Pending",
    "responsible_agency": "Department of Sanitation",
    "final_address": "5411 Eads St",
    "address_councildis": "D",
    "status": "Pending",
    "rowid": "1107918",
    "final_x": "3687002.03663",
    "final_y": "553047.364183",
    "longitude": "-90.04993555343908",
    "latitude": "30.01452007977139",
    "geocoded_column": {
      "latitude": "30.01452007977139",
      "longitude": "-90.04993555343908"
    }
  },
  {
    "service_request": "2024-1107917",
    "request_type": "Trash/Recycling",
    "request_reason": "Repair Trash Cart",
    "date_created": "2024-06-28T13:08:04.000",
    "date_modified": "2024-06-28T13:08:04.000",
    "request_status": "Pending",
    "responsible_agency": "Department of Sanitation",
    "final_address": "3600 Rue Mignon",
    "address_councildis": "C",
    "status": "Assigned to Contractor",
    "contractor": "Richards Disposal",
    "rowid": "1107917",
    "final_x": "3703376.85271",
    "final_y": "517407.093493",
    "longitude": "-89.99951035400294",
    "latitude": "29.916007769882555",
    "geocoded_column": {
      "latitude": "29.916007769882555",
      "longitude": "-89.99951035400294"
    }
  },
  {
    "service_request": "2024-1107916",
    "request_type": "Property Maintenance",
    "request_reason": "Property Maintenance",
    "date_created": "2024-06-28T13:05:14.000",
    "date_modified": "2024-06-28T13:05:15.000",
    "request_status": "Pending",
    "responsible_agency": "Department of Code Enforcement",
    "final_address": "4646 Stemway Dr",
    "address_councildis": "D",
    "status": "Pending",
    "rowid": "1107916",
    "final_x": "3696888.75299",
    "final_y": "553737.765591",
    "longitude": "-90.01867353163085",
    "latitude": "30.01611023430476",
    "geocoded_column": {
      "latitude": "30.01611023430476",
      "longitude": "-90.01867353163085"
    }
  },
  {
    "service_request": "2024-1107915",
    "request_type": "Trash/Recycling",
    "request_reason": "Return Recycling Cart",
    "date_created": "2024-06-28T13:01:00.000",
    "date_modified": "2024-06-28T13:01:01.000",
    "request_status": "Pending",
    "responsible_agency": "Department of Sanitation",
    "final_address": "5900 Paris Ave",
    "address_councildis": "D",
    "status": "Pending",
    "rowid": "1107915",
    "final_x": "3678833.5115",
    "final_y": "554129.472472",
    "longitude": "-90.07570655719843",
    "latitude": "30.017744525214244",
    "geocoded_column": {
      "latitude": "30.017744525214244",
      "longitude": "-90.07570655719843"
    }
  },
  {
    "service_request": "2024-1107914",
    "request_type": "Trash/Recycling",
    "request_reason": "Request a Large Item Pick Up",
    "date_created": "2024-06-28T12:58:12.000",
    "date_modified": "2024-06-28T12:58:13.000",
    "request_status": "Pending",
    "responsible_agency": "Department of Sanitation",
    "final_address": "6019 Franklin Ave",
    "address_councildis": "D",
    "status": "Assigned to Contractor",
    "contractor": "IV Waste",
    "rowid": "1107914",
    "final_x": "3686492.8141",
    "final_y": "555380.859033",
    "longitude": "-90.0514619632428",
    "latitude": "30.02095200290788",
    "geocoded_column": {
      "latitude": "30.02095200290788",
      "longitude": "-90.0514619632428"
    }
  },
  {
    "service_request": "2024-1107913",
    "request_type": "Trash/Recycling",
    "request_reason": "Order Trash Cart",
    "date_created": "2024-06-28T12:51:48.000",
    "date_modified": "2024-06-28T12:51:48.000",
    "request_status": "Pending",
    "responsible_agency": "Department of Sanitation",
    "final_address": "6327 Dwyer Rd",
    "address_councildis": "D",
    "status": "Assigned to Contractor",
    "contractor": "Waste Pro",
    "rowid": "1107913",
    "final_x": "3697621.24701",
    "final_y": "555220.950809",
    "longitude": "-90.01630532362003",
    "latitude": "30.020165303605197",
    "geocoded_column": {
      "latitude": "30.020165303605197",
      "longitude": "-90.01630532362003"
    }
  },
  {
    "service_request": "2024-1107912",
    "request_type": "Property Maintenance",
    "request_reason": "Property Maintenance",
    "date_created": "2024-06-28T12:46:59.000",
    "date_modified": "2024-06-28T12:46:59.000",
    "request_status": "Pending",
    "responsible_agency": "Department of Code Enforcement",
    "final_address": "2815 Painters St",
    "address_councildis": "D",
    "status": "Pending",
    "rowid": "1107912",
    "final_x": "3687074.44738",
    "final_y": "543255.596238",
    "longitude": "-90.050053251162",
    "latitude": "29.987594033680846",
    "geocoded_column": {
      "latitude": "29.987594033680846",
      "longitude": "-90.050053251162"
    }
  },
  {
    "service_request": "2024-1107911",
    "request_type": "Trash/Recycling",
    "request_reason": "Request a Large Item Pick Up",
    "date_created": "2024-06-28T12:41:35.000",
    "date_modified": "2024-06-28T12:41:36.000",
    "request_status": "Pending",
    "responsible_agency": "Department of Sanitation",
    "final_address": "7934 Haney Dr",
    "address_councildis": "E",
    "status": "Assigned to Contractor",
    "contractor": "Waste Pro",
    "rowid": "1107911",
    "final_x": "3711906.62085",
    "final_y": "568204.681253",
    "longitude": "-89.97068060474777",
    "latitude": "30.05540615614996",
    "geocoded_column": {
      "latitude": "30.05540615614996",
      "longitude": "-89.97068060474777"
    }
  },
  {
    "service_request": "2024-1107910",
    "request_type": "Trash/Recycling",
    "request_reason": "Repair Trash Cart",
    "date_created": "2024-06-28T12:41:29.000",
    "date_modified": "2024-06-28T12:41:30.000",
    "request_status": "Pending",
    "responsible_agency": "Department of Sanitation",
    "final_address": "6530 Manchester St",
    "address_councildis": "E",
    "status": "Assigned to Contractor",
    "contractor": "Waste Pro",
    "rowid": "1107910",
    "final_x": "3697501.94608",
    "final_y": "559286.006621",
    "longitude": "-90.01653466877308",
    "latitude": "30.031346425058203",
    "geocoded_column": {
      "latitude": "30.031346425058203",
      "longitude": "-90.01653466877308"
    }
  },
  {
    "service_request": "2024-1107909",
    "request_type": "Trash/Recycling",
    "request_reason": "Request a Large Item Pick Up",
    "date_created": "2024-06-28T12:41:01.000",
    "date_modified": "2024-06-28T12:41:02.000",
    "request_status": "Pending",
    "responsible_agency": "Department of Sanitation",
    "final_address": "1419 Columbus St",
    "address_councildis": "C",
    "status": "Assigned to Contractor",
    "contractor": "IV Waste",
    "rowid": "1107909",
    "final_x": "3682169.88124",
    "final_y": "536891.842504",
    "longitude": "-90.06576743685777",
    "latitude": "29.97024605365494",
    "geocoded_column": {
      "latitude": "29.97024605365494",
      "longitude": "-90.06576743685777"
    }
  },