[
  {
    "service_request": "2023-971620",
    "request_type": "Abandoned Vehicles",
    "request_reason": "Abandoned/Junk Vehicles",
    "date_created": "2023-01-30T22:52:06.000",
    "date_modified": "2023-01-30T22:52:06.000",
    "request_status": "Pending",
    "responsible_agency": "Department of Public Works",
    "final_address": "5524 Annunciation St",
    "address_councildis": "A",
    "status": "Pending",
    "rowid": "971620",
    "final_x": "3665953.20493",
    "final_y": "517510.83583",
    "longitude": "-90.11763102940023",
    "latitude": "29.917437835700692",
    "geocoded_column": {
      "latitude": "29.917437835700692",
      "longitude": "-90.11763102940023"
    }
  },
  {
    "service_request": "2023-971619",
    "request_type": "Trash/Recycling",
    "request_reason": "Illegal Dumping",
    "date_created": "2023-01-30T22:44:30.000",
    "date_modified": "2023-01-30T22:44:30.000",
    "request_status": "Pending",
    "responsible_agency": "Department of Sanitation",
    "final_address": "1331 Kerlerec St",
    "address_councildis": "C",
    "status": "Pending",
    "rowid": "971619",
    "final_x": "3682344.80405",
    "final_y": "536315.698631",
    "longitude": "-90.06523514909632",
    "latitude": "29.968656535010044",
    "geocoded_column": {
      "latitude": "29.968656535010044",
      "longitude": "-90.06523514909632"
    }
  },
  {
    "service_request": "2023-971618",
    "request_type": "Trash/Recycling",
    "request_reason": "Replace Recycling Cart",
    "date_created": "2023-01-30T22:32:16.000",
    "date_modified": "2023-01-30T22:32:16.000",
    "request_status": "Pending",
    "responsible_agency": "Department of Sanitation",
    "final_address": "212 Alonzo St",
    "address_councildis": "A",
    "status": "Pending",
    "rowid": "971618",
    "final_x": "3664471.77088",
    "final_y": "517167.838325",
    "longitude": "-90.12231854418529",
    "latitude": "29.916537834419888",
    "geocoded_column": {
      "latitude": "29.916537834419888",
      "longitude": "-90.12231854418529"
    }
  },
  {
    "service_request": "2023-971617",
    "request_type": "Property Maintenance",
    "request_reason": "Property Maintenance",
    "date_created": "2023-01-30T22:10:16.000",
    "date_modified": "2023-01-30T22:10:16.000",
    "request_status": "Pending",
    "responsible_agency": "Department of Code Enforcement",
    "final_address": "1729 First St",
    "address_councildis": "B",
    "status": "Pending",
    "rowid": "971617",
    "final_x": "3676626.88001",
    "final_y": "523763.048251",
    "longitude": "-90.08372501032048",
    "latitude": "29.934313693423135",
    "geocoded_column": {
      "latitude": "29.934313693423135",
      "longitude": "-90.08372501032048"
    }
  },
  {
    "service_request": "2023-971616",
    "request_type": "Health Related Request",
    "request_reason": "Noise Ordinance Complaint",
    "date_created": "2023-01-30T22:05:36.000",
    "date_modified": "2023-01-30T22:05:36.000",
    "request_status": "Pending",
    "responsible_agency": "Health Department",
    "final_address": "1009 N Claiborne Ave, New Orleans, Louisiana, 70116",
    "address_councildis": "D",
    "status": "Pending",
    "rowid": "971616",
    "final_x": "3680417.66101",
    "final_y": "535635.218886",
    "longitude": "-90.07134484150656",
    "latitude": "29.966843952035386",
    "geocoded_column": {
      "latitude": "29.966843952035386",
      "longitude": "-90.07134484150656"
    }
  },
  {
    "service_request": "2023-971615",
    "request_type": "Health Related Request",
    "request_reason": "Noise Ordinance Complaint",
    "date_created": "2023-01-30T21:51:33.000",
    "date_modified": "2023-01-30T21:51:33.000",
    "request_status": "Pending",
    "responsible_agency": "Health Department",
    "final_address": "1009 N Claiborne Ave, New Orleans, Louisiana, 70116",
    "address_councildis": "D",
    "status": "Pending",
    "rowid": "971615",
    "final_x": "3680417.66101",
    "final_y": "535635.218886",
    "longitude": "-90.07134484150656",
    "latitude": "29.966843952035386",
    "geocoded_column": {
      "latitude": "29.966843952035386",
      "longitude": "-90.07134484150656"
    }
  },
  {
    "service_request": "2023-971614",
    "request_type": "Traffic Signals/Signs/Striping/Streetlights",
    "request_reason": "Street Light Outage/Malfunction",
    "date_created": "2023-01-30T21:44:36.000",
    "date_modified": "2023-01-30T21:44:37.000",
    "request_status": "Pending",
    "responsible_agency": "Department of Public Works",
    "final_address": "2600 Valence St",
    "address_councildis": "B",
    "status": "Assigned to Contractor",
    "contractor": "Legacy Professional Services",
    "rowid": "971614",
    "final_x": "3669336.48078",
    "final_y": "524309.893436",
    "longitude": "-90.10672216795712",
    "latitude": "29.936033944649584",
    "geocoded_column": {
      "latitude": "29.936033944649584",
      "longitude": "-90.10672216795712"
    }
  },
  {
    "service_request": "2023-971613",
    "request_type": "Trash/Recycling",
    "request_reason": "Missed Trash Pick-Up",
    "date_created": "2023-01-30T21:09:05.000",
    "date_modified": "2023-01-30T21:09:05.000",
    "request_status": "Pending",
    "responsible_agency": "Department of Sanitation",
    "final_address": "2601 Calhoun St",
    "address_councildis": "A",
    "status": "Assigned to Contractor",
    "contractor": "Richards Disposal",
    "rowid": "971613",
    "final_x": "3666374.15777",
    "final_y": "526372.882942",
    "longitude": "-90.11600513664193",
    "latitude": "29.941793368244124",
    "geocoded_column": {
      "latitude": "29.941793368244124",
      "longitude": "-90.11600513664193"
    }
  },
  {
    "service_request": "2023-971611",
    "request_type": "Trash/Recycling",
    "request_reason": "Request a Large Item Pick Up",
    "date_created": "2023-01-30T20:29:09.000",
    "date_modified": "2023-01-30T20:29:10.000",
    "request_status": "Pending",
    "responsible_agency": "Department of Sanitation",
    "final_address": "4021 Cleveland Ave",
    "address_councildis": "A",
    "status": "Assigned to Contractor",
    "contractor": "Richards Disposal",
    "rowid": "971611",
    "final_x": "3671100.35681",
    "final_y": "537865.193609",
    "longitude": "-90.10069319323783",
    "latitude": "29.973254506589637",
    "geocoded_column": {
      "latitude": "29.973254506589637",
      "longitude": "-90.10069319323783"
    }
  },
  {
    "service_request": "2023-971610",
    "request_type": "Trash/Recycling",
    "request_reason": "MIssed Recycling Pick-Up",
    "date_created": "2023-01-30T20:25:19.000",
    "date_modified": "2023-01-30T20:25:20.000",
    "request_status": "Pending",
    "responsible_agency": "Department of Sanitation",
    "final_address": "918 Sumner St",
    "address_councildis": "C",
    "status": "Assigned to Contractor",
    "contractor": "Richards Disposal",
    "rowid": "971610",
    "final_x": "3691183.65904",
    "final_y": "528038.415359",
    "longitude": "-90.03761724045557",
    "latitude": "29.945624955713534",
    "geocoded_column": {
      "latitude": "29.945624955713534",
      "longitude": "-90.03761724045557"
    }
  },
  {
    "service_request": "2023-971609",
    "request_type": "Traffic Signals/Signs/Striping/Streetlights",
    "request_reason": "Street Light Outage/Malfunction",
    "date_created": "2023-01-30T20:24:12.000",
    "date_modified": "2023-01-30T20:24:13.000",
    "request_status": "Pending",
    "responsible_agency": "Department of Public Works",
    "final_address": "2045 Lakeshore Dr",
    "address_councildis": "D",
    "status": "Assigned to Contractor",
    "contractor": "Legacy Professional Services",
    "rowid": "971609",
    "final_x": "3682608.32309",
    "final_y": "559197.068124",
    "longitude": "-90.06360220605082",
    "latitude": "30.031564086054733",
    "geocoded_column": {
      "latitude": "30.031564086054733",
      "longitude": "-90.06360220605082"
    }
  },
  {
    "service_request": "2023-971608",
    "request_type": "Trash/Recycling",
    "request_reason": "Request a Large Item Pick Up",
    "date_created": "2023-01-30T20:13:26.000",
    "date_modified": "2023-01-30T20:13:27.000",
    "request_status": "Pending",
    "responsible_agency": "Department of Sanitation",
    "final_address": "23 Marywood Ct",
    "address_councildis": "E",
    "status": "Assigned to Contractor",
    "contractor": "Waste Pro",
    "rowid": "971608",
    "final_x": "3712573.18898",
    "final_y": "566767.833379",
    "longitude": "-89.96862782607204",
    "latitude": "30.051433597452853",
    "geocoded_column": {
      "latitude": "30.051433597452853",
      "longitude": "-89.96862782607204"
    }
  },
  {
    "service_request": "2023-971606",
    "request_type": "Property Maintenance",
    "request_reason": "Property Maintenance",
    "date_created": "2023-01-30T20:04:43.000",
    "date_modified": "2023-01-30T20:04:43.000",
    "request_status": "Pending",
    "responsible_agency": "Department of Code Enforcement",
    "final_address": "4000 St Claude Ave",
    "address_councildis": "C",
    "status": "Pending",
    "rowid": "971606",
    "final_x": "3691865.73648",
    "final_y": "535248.04583",
    "longitude": "-90.03520582243148",
    "latitude": "29.965427705776385",
    "geocoded_column": {
      "latitude": "29.965427705776385",
      "longitude": "-90.03520582243148"
    }
  },
  {
    "service_request": "2023-971605",
    "request_type": "Trash/Recycling",
    "request_reason": "Replace Recycling Cart",
    "date_created": "2023-01-30T19:57:01.000",
    "date_modified": "2023-01-30T19:57:01.000",
    "request_status": "Pending",
    "responsible_agency": "Department of Sanitation",
    "final_address": "7054 Orleans Ave",
    "address_councildis": "A",
    "status": "Pending",
    "rowid": "971605",
    "final_x": "3671449.85089",
    "final_y": "554281.213912",
    "longitude": "-90.09903094056394",
    "latitude": "30.018382523947242",
    "geocoded_column": {
      "latitude": "30.018382523947242",
      "longitude": "-90.09903094056394"
    }
  },
  {
    "service_request": "2023-971604",
    "request_type": "Trash/Recycling",
    "request_reason": "Replace Trash Cart",
    "date_created": "2023-01-30T19:36:21.000",
    "date_modified": "2023-01-30T19:36:22.000",
    "request_status": "Pending",
    "responsible_agency": "Department of Sanitation",
    "final_address": "2737 Lavender St",
    "address_councildis": "D",
    "status": "Assigned to Contractor",
    "contractor": "IV Waste",
    "rowid": "971604",
    "final_x": "3688122.25833",
    "final_y": "547055.447441",
    "longitude": "-90.04660880465295",
    "latitude": "29.998009949728633",
    "geocoded_column": {
      "latitude": "29.998009949728633",
      "longitude": "-90.04660880465295"
    }
  },
  {
    "service_request": "2023-971603",
    "request_type": "Trash/Recycling",
    "request_reason": "MIssed Recycling Pick-Up",
    "date_created": "2023-01-30T19:33:03.000",
    "date_modified": "2023-01-30T19:33:04.000",
    "request_status": "Pending",
    "responsible_agency": "Department of Sanitation",
    "final_address": "2301 Laharpe St",
    "address_councildis": "D",
    "status": "Assigned to Contractor",
    "contractor": "IV Waste",
    "rowid": "971603",
    "final_x": "3680002.51586",
    "final_y": "539076.442826",
    "longitude": "-90.0725362926276",
    "latitude": "29.976318699342986",
    "geocoded_column": {
      "latitude": "29.976318699342986",
      "longitude": "-90.0725362926276"
    }
  },
  {
    "service_request": "2023-971602",
    "request_type": "Traffic Signals/Signs/Striping/Streetlights",
    "request_reason": "Street Light Outage/Malfunction",
    "date_created": "2023-01-30T18:36:51.000",
    "date_modified": "2023-01-30T18:36:52.000",
    "request_status": "Pending",
    "responsible_agency": "Department of Public Works",
    "final_address": "5661 Catina St",
    "address_councildis": "A",
    "status": "Assigned to Contractor",
    "contractor": "Legacy Professional Services",
    "rowid": "971602",
    "final_x": "3666704.69473",
    "final_y": "545226.211919",
    "longitude": "-90.11432831278773",
    "latitude": "29.993624108255926",
    "geocoded_column": {
      "latitude": "29.993624108255926",
      "longitude": "-90.11432831278773"
    }
  },
  {
    "service_request": "2023-971601",
    "request_type": "Traffic Signals/Signs/Striping/Streetlights",
    "request_reason": "Street Light Outage/Malfunction",
    "date_created": "2023-01-30T18:35:08.000",
    "date_modified": "2023-01-30T18:35:08.000",
    "request_status": "Pending",
    "responsible_agency": "Department of Public Works",
    "final_address": "5661 Catina St",
    "address_councildis": "A",
    "status": "Assigned to Contractor",
    "contractor": "Legacy Professional Services",
    "rowid": "971601",
    "final_x": "3666704.69473",
    "final_y": "545226.211919",
    "longitude": "-90.11432831278773",
    "latitude": "29.993624108255926",
    "geocoded_column": {
      "latitude": "29.993624108255926",
      "longitude": "-90.11432831278773"
    }
  },
  {
    "service_request": "2023-971600",
    "request_type": "Trash/Recycling",
    "request_reason": "Repair Trash Cart",
    "date_created": "2023-01-30T18:33:54.000",
    "date_modified": "2023-01-30T18:33:55.000",
    "request_status": "Pending",
    "responsible_agency": "Department of Sanitation",
    "final_address": "3020 Audubon St",
    "address_councildis": "B",
    "status": "Assigned to Contractor",
    "contractor": "Richards Disposal",
    "rowid": "971600",
    "final_x": "3668006.6073",
    "final_y": "531841.054531",
    "longitude": "-90.11066692252852",
    "latitude": "29.956781271183573",
    "geocoded_column": {
      "latitude": "29.956781271183573",
      "longitude": "-90.11066692252852"
    }
  },
  {
    "service_request": "2023-971599",
    "request_type": "Traffic Signals/Signs/Striping/Streetlights",
    "request_reason": "Street Light Outage/Malfunction",
    "date_created": "2023-01-30T18:32:34.000",
    "date_modified": "2023-01-30T18:32:34.000",
    "request_status": "Pending",
    "responsible_agency": "Department of Public Works",
    "final_address": "5661 Catina St",
    "address_councildis": "A",
    "status": "Assigned to Contractor",
    "contractor": "Legacy Professional Services",
    "rowid": "971599",
    "final_x": "3666704.69473",
    "final_y": "545226.211919",
    "longitude": "-90.11432831278773",
    "latitude": "29.993624108255926",
    "geocoded_column": {
      "latitude": "29.993624108255926",
      "longitude": "-90.11432831278773"
    }
  },
  {
    "service_request": "2023-971598",
    "request_type": "Traffic Signals/Signs/Striping/Streetlights",
    "request_reason": "Street Light Outage/Malfunction",
    "date_created": "2023-01-30T18:29:47.000",
    "date_modified": "2023-01-30T18:29:48.000",
    "request_status": "Pending",
    "responsible_agency": "Department of Public Works",
    "final_address": "5661 Catina St",
    "address_councildis": "A",
    "status": "Assigned to Contractor",
    "contractor": "Legacy Professional Services",
    "rowid": "971598",
    "final_x": "3666704.69473",
    "final_y": "545226.211919",
    "longitude": "-90.11432831278773",
    "latitude": "29.993624108255926",
    "geocoded_column": {
      "latitude": "29.993624108255926",
      "longitude": "-90.11432831278773"
    }
  },
  {
    "service_request": "2023-971597",
    "request_type": "Trash/Recycling",
    "request_reason": "Replace Trash Cart",
    "date_created": "2023-01-30T18:26:31.000",
    "date_modified": "2023-01-30T18:26:31.000",
    "request_status": "Pending",
    "responsible_agency": "Department of Sanitation",
    "final_address": "1640 Steeple Chase Ln",
    "address_councildis": "C",
    "status": "Assigned to Contractor",
    "contractor": "Richards Disposal",
    "rowid": "971597",
    "final_x": "3700009.52266",
    "final_y": "524604.50694",
    "longitude": "-90.00987650245617",
    "latitude": "29.935905532102254",
    "geocoded_column": {
      "latitude": "29.935905532102254",
      "longitude": "-90.00987650245617"
    }
  },
  {
    "service_request": "2023-971596",
    "request_type": "Trash/Recycling",
    "request_reason": "Order Recycling Cart",
    "date_created": "2023-01-30T18:22:54.000",
    "date_modified": "2023-01-30T18:22:54.000",
    "request_status": "Pending",
    "responsible_agency": "Department of Sanitation",
    "final_address": "820 Belleville St",
    "address_councildis": "C",
    "status": "Pending",
    "rowid": "971596",
    "final_x": "3687851.79395",
    "final_y": "528549.419456",
    "longitude": "-90.04811890576087",
    "latitude": "29.947133220488677",
    "geocoded_column": {
      "latitude": "29.947133220488677",
      "longitude": "-90.04811890576087"
    }
  },
  {
    "service_request": "2023-971594",
    "request_type": "Abandoned Vehicles",
    "request_reason": "Abandoned/Junk Vehicles",
    "date_created": "2023-01-30T18:19:22.000",
    "date_modified": "2023-01-30T18:19:22.000",
    "request_status": "Pending",
    "responsible_agency": "Department of Public Works",
    "final_address": "3334 Grand Route St John St",
    "address_councildis": "A",
    "status": "Pending",
    "rowid": "971594",
    "final_x": "3675496.74606",
    "final_y": "540299.792139",
    "longitude": "-90.08672484144358",
    "latitude": "29.979818043747027",
    "geocoded_column": {
      "latitude": "29.979818043747027",
      "longitude": "-90.08672484144358"
    }
  },
  {
    "service_request": "2023-971593",
    "request_type": "Traffic Signals/Signs/Striping/Streetlights",
    "request_reason": "Street Light Outage/Malfunction",
    "date_created": "2023-01-30T18:18:55.000",
    "date_modified": "2023-01-30T18:19:43.000",
    "request_status": "Pending",
    "responsible_agency": "Department of Public Works",
    "final_address": "5012 Revel St",
    "address_councildis": "E",
    "status": "Assigned to Contractor",
    "contractor": "Legacy Professional Services",
    "rowid": "971593",
    "final_x": "3725079.27532",
    "final_y": "562017.367647",
    "longitude": "-89.92928466933667",
    "latitude": "30.037956306754257",
    "geocoded_column": {
      "latitude": "30.037956306754257",
      "longitude": "-89.92928466933667"
    }
  },
  {
    "service_request": "2023-971592",
    "request_type": "Traffic Signals/Signs/Striping/Streetlights",
    "request_reason": "Street Light Outage/Malfunction",
    "date_created": "2023-01-30T18:18:34.000",
    "date_modified": "2023-01-30T18:18:34.000",
    "request_status": "Pending",
    "responsible_agency": "Department of Public Works",
    "final_address": "1839 Bordeaux St",
    "address_councildis": "B",
    "status": "Assigned to Contractor",
    "contractor": "Legacy Professional Services",
    "rowid": "971592",
    "final_x": "3669329.85428",
    "final_y": "521753.37337",
    "longitude": "-90.10682947979618",
    "latitude": "29.92900452881874",
    "geocoded_column": {
      "latitude": "29.92900452881874",
      "longitude": "-90.10682947979618"
    }
  },
  {
    "service_request": "2023-971591",
    "request_type": "Trash/Recycling",
    "request_reason": "Replace Trash Cart",
    "date_created": "2023-01-30T17:55:01.000",
    "date_modified": "2023-01-30T17:55:02.000",
    "request_status": "Pending",
    "responsible_agency": "Department of Sanitation",
    "final_address": "1820 N Prieur St",
    "address_councildis": "D",
    "status": "Assigned to Contractor",
    "contractor": "IV Waste",
    "rowid": "971591",
    "final_x": "3682729.08783",
    "final_y": "539049.022538",
    "longitude": "-90.06392593198652",
    "latitude": "29.976160528581396",
    "geocoded_column": {
      "latitude": "29.976160528581396",
      "longitude": "-90.06392593198652"
    }
  },
  {
    "service_request": "2023-971590",
    "request_type": "Roads/Drainage",
    "request_reason": "Man hole cover issue",
    "date_created": "2023-01-30T17:54:56.000",
    "date_modified": "2023-01-30T17:54:56.000",
    "request_status": "Pending",
    "responsible_agency": "Department of Public Works",
    "final_address": "2715 N Claiborne Ave",
    "address_councildis": "D",
    "status": "Pending",
    "rowid": "971590",
    "final_x": "3688045.59855",
    "final_y": "538280.571209",
    "longitude": "-90.04716211621383",
    "latitude": "29.973884536799815",
    "geocoded_column": {
      "latitude": "29.973884536799815",
      "longitude": "-90.04716211621383"
    }
  },
  {
    "service_request": "2023-971589",
    "request_type": "Roads/Drainage",
    "request_reason": "Bicycle Hazardous Incident Reporting",
    "date_created": "2023-01-30T17:46:26.000",
    "date_modified": "2023-01-30T17:46:26.000",
    "request_status": "Pending",
    "responsible_agency": "Health Department",
    "final_address": "1300 St Bernard Ave",
    "address_councildis": "C",
    "status": "Pending",
    "rowid": "971589",
    "final_x": "3682811.5492",
    "final_y": "536558.891399",
    "longitude": "-90.06375263366567",
    "latitude": "29.969311019635704",
    "geocoded_column": {
      "latitude": "29.969311019635704",
      "longitude": "-90.06375263366567"
    }
  },
  {
    "service_request": "2023-971588",
    "request_type": "Trash/Recycling",
    "request_reason": "Request a Large Item Pick Up",
    "date_created": "2023-01-30T17:44:06.000",
    "date_modified": "2023-01-30T17:44:06.000",
    "request_status": "Pending",
    "responsible_agency": "Department of Sanitation",
    "final_address": "5406 Hawthorne Pl",
    "address_councildis": "A",
    "status": "Assigned to Contractor",
    "contractor": "IV Waste",
    "rowid": "971588",
    "final_x": "3667703.92404",
    "final_y": "543138.278605",
    "longitude": "-90.1112422333185",
    "latitude": "29.98785373767484",
    "geocoded_column": {
      "latitude": "29.98785373767484",
      "longitude": "-90.1112422333185"
    }
  },
  {
    "service_request": "2023-971587",
    "request_type": "Roads/Drainage",
    "request_reason": "Street Subsidence (Sinking)",
    "date_created": "2023-01-30T17:41:06.000",
    "date_modified": "2023-01-30T17:41:06.000",
    "request_status": "Pending",
    "responsible_agency": "Department of Public Works",
    "final_address": "2715 N Claiborne Ave",
    "address_councildis": "D",
    "status": "Pending",
    "rowid": "971587",
    "final_x": "3688045.59855",
    "final_y": "538280.571209",
    "longitude": "-90.04716211621383",
    "latitude": "29.973884536799815",
    "geocoded_column": {
      "latitude": "29.973884536799815",
      "longitude": "-90.04716211621383"
    }
  },
  {
    "service_request": "2023-971586",
    "request_type": "Trash/Recycling",
    "request_reason": "MIssed Recycling Pick-Up",
    "date_created": "2023-01-30T17:39:18.000",
    "date_modified": "2023-01-30T17:39:19.000",
    "request_status": "Pending",
    "responsible_agency": "Department of Sanitation",
    "final_address": "5521 Grand Bayou Dr",
    "address_councildis": "E",
    "status": "Assigned to Contractor",
    "contractor": "Waste Pro",
    "rowid": "971586",
    "final_x": "3725194.86476",
    "final_y": "563910.315361",
    "longitude": "-89.92884605810693",
    "latitude": "30.04315723554845",
    "geocoded_column": {
      "latitude": "30.04315723554845",
      "longitude": "-89.92884605810693"
    }
  },
  {
    "service_request": "2023-971585",
    "request_type": "Trash/Recycling",
    "request_reason": "MIssed Recycling Pick-Up",
    "date_created": "2023-01-30T17:37:36.000",
    "date_modified": "2023-01-30T17:37:37.000",
    "request_status": "Pending",
    "responsible_agency": "Department of Sanitation",
    "final_address": "5521 Grand Bayou Dr",
    "address_councildis": "E",
    "status": "Assigned to Contractor",
    "contractor": "Waste Pro",
    "rowid": "971585",
    "final_x": "3725194.86476",
    "final_y": "563910.315361",
    "longitude": "-89.92884605810693",
    "latitude": "30.04315723554845",
    "geocoded_column": {
      "latitude": "30.04315723554845",
      "longitude": "-89.92884605810693"
    }
  },
  {
    "service_request": "2023-971584",
    "request_type": "Trash/Recycling",
    "request_reason": "Illegal Dumping",
    "date_created": "2023-01-30T17:37:35.000",
    "date_modified": "2023-01-30T17:37:35.000",
    "request_status": "Pending",
    "responsible_agency": "Department of Sanitation",
    "final_address": "1237 Charbonnet St",
    "address_councildis": "E",
    "status": "Pending",
    "rowid": "971584",
    "final_x": "3698841.41687",
    "final_y": "534274.101765",
    "longitude": "-90.01321251188844",
    "latitude": "29.96253056461232",
    "geocoded_column": {
      "latitude": "29.96253056461232",
      "longitude": "-90.01321251188844"
    }
  },
  {
    "service_request": "2023-971583",
    "request_type": "Trash/Recycling",
    "request_reason": "Request a Large Item Pick Up",
    "date_created": "2023-01-30T17:36:10.000",
    "date_modified": "2023-01-30T17:36:10.000",
    "request_status": "Pending",
    "responsible_agency": "Department of Sanitation",
    "final_address": "3336 Trafalgar St",
    "address_councildis": "A",
    "status": "Assigned to Contractor",
    "contractor": "IV Waste",
    "rowid": "971583",
    "final_x": "3677860.63246",
    "final_y": "543141.854605",
    "longitude": "-90.07916046615235",
    "latitude": "29.987561802230548",
    "geocoded_column": {
      "latitude": "29.987561802230548",
      "longitude": "-90.07916046615235"
    }
  },
  {
    "service_request": "2023-971582",
    "request_type": "Trash/Recycling",
    "request_reason": "Repair Recycling Cart",
    "date_created": "2023-01-30T17:35:27.000",
    "date_modified": "2023-01-30T17:35:27.000",
    "request_status": "Pending",
    "responsible_agency": "Department of Sanitation",
    "final_address": "8311 Lomond Rd",
    "address_councildis": "E",
    "status": "Pending",
    "rowid": "971582",
    "final_x": "3703106.11018",
    "final_y": "561858.607263",
    "longitude": "-89.99873072114866",
    "latitude": "30.038241796872054",
    "geocoded_column": {
      "latitude": "30.038241796872054",
      "longitude": "-89.99873072114866"
    }
  },
  {
    "service_request": "2023-971581",
    "request_type": "Roads/Drainage",
    "request_reason": "Pothole",
    "date_created": "2023-01-30T17:34:09.000",
    "date_modified": "2023-01-30T17:34:09.000",
    "request_status": "Pending",
    "responsible_agency": "Department of Public Works",
    "final_address": "920 Poeyfarre St",
    "address_councildis": "B",
    "status": "Pending",
    "rowid": "971581",
    "final_x": "3681386.82191",
    "final_y": "526445.697534",
    "longitude": "-90.0686045498335",
    "latitude": "29.941546493588717",
    "geocoded_column": {
      "latitude": "29.941546493588717",
      "longitude": "-90.0686045498335"
    }
  },
  {
    "service_request": "2023-971580",
    "request_type": "Property Maintenance",
    "request_reason": "Property Maintenance",
    "date_created": "2023-01-30T17:17:40.000",
    "date_modified": "2023-01-30T17:17:40.000",
    "request_status": "Pending",
    "responsible_agency": "Department of Code Enforcement",
    "final_address": "7142 Bunker Hill Rd",
    "address_councildis": "E",
    "status": "Pending",
    "rowid": "971580",
    "final_x": "3705670.89745",
    "final_y": "560824.003678",
    "longitude": "-89.99066370549136",
    "latitude": "30.03531465558472",
    "geocoded_column": {
      "latitude": "30.03531465558472",
      "longitude": "-89.99066370549136"
    }
  },
  {
    "service_request": "2023-971579",
    "request_type": "Trash/Recycling",
    "request_reason": "Repair Recycling Cart",
    "date_created": "2023-01-30T17:15:16.000",
    "date_modified": "2023-01-30T17:15:16.000",
    "request_status": "Pending",
    "responsible_agency": "Department of Sanitation",
    "final_address": "1929 Wilton Dr",
    "address_councildis": "D",
    "status": "Pending",
    "rowid": "971579",
    "final_x": "3681575.44168",
    "final_y": "550972.878549",
    "longitude": "-90.06715334186674",
    "latitude": "30.00898200349482",
    "geocoded_column": {
      "latitude": "30.00898200349482",
      "longitude": "-90.06715334186674"
    }
  },
  {
    "service_request": "2023-971578",
    "request_type": "Roads/Drainage",
    "request_reason": "Road Shoulder Repair",
    "date_created": "2023-01-30T17:13:29.000",
    "date_modified": "2023-01-30T17:13:29.000",
    "request_status": "Pending",
    "responsible_agency": "Department of Public Works",
    "final_address": "7320 Cohn St",
    "address_councildis": "A",
    "status": "Pending",
    "rowid": "971578",
    "final_x": "3665143.03648",
    "final_y": "528780.374144",
    "longitude": "-90.11981155765223",
    "latitude": "29.94844910078265",
    "geocoded_column": {
      "latitude": "29.94844910078265",
      "longitude": "-90.11981155765223"
    }
  },
  {
    "service_request": "2023-971577",
    "request_type": "Trash/Recycling",
    "request_reason": "Request a Large Item Pick Up",
    "date_created": "2023-01-30T17:13:27.000",
    "date_modified": "2023-01-30T17:13:28.000",
    "request_status": "Pending",
    "responsible_agency": "Department of Sanitation",
    "final_address": "5515 Wimbledon Ct",
    "address_councildis": "C",
    "status": "Assigned to Contractor",
    "contractor": "Richards Disposal",
    "rowid": "971577",
    "final_x": "3704417.65527",
    "final_y": "519026.183927",
    "longitude": "-89.99616556214815",
    "latitude": "29.920426355117772",
    "geocoded_column": {
      "latitude": "29.920426355117772",
      "longitude": "-89.99616556214815"
    }
  },
  {
    "service_request": "2023-971576",
    "request_type": "Roads/Drainage",
    "request_reason": "Alley Way",
    "date_created": "2023-01-30T17:12:34.000",
    "date_modified": "2023-01-30T17:12:34.000",
    "request_status": "Pending",
    "responsible_agency": "Department of Public Works",
    "final_address": "6301 Canal Blvd",
    "address_councildis": "A",
    "status": "Pending",
    "rowid": "971576",
    "final_x": "3668805.38932",
    "final_y": "549369.744083",
    "longitude": "-90.10755250041724",
    "latitude": "30.004955769971186",
    "geocoded_column": {
      "latitude": "30.004955769971186",
      "longitude": "-90.10755250041724"
    }
  },
  {
    "service_request": "2023-971575",
    "request_type": "Trash/Recycling",
    "request_reason": "Missed Trash Pick-Up",
    "date_created": "2023-01-30T17:09:29.000",
    "date_modified": "2023-01-30T17:09:29.000",
    "request_status": "Pending",
    "responsible_agency": "Department of Sanitation",
    "final_address": "900 Moss St",
    "address_councildis": "A",
    "status": "Assigned to Contractor",
    "contractor": "Richards Disposal",
    "rowid": "971575",
    "final_x": "3674785.98837",
    "final_y": "539382.80193",
    "longitude": "-90.08900116020503",
    "latitude": "29.97731787774235",
    "geocoded_column": {
      "latitude": "29.97731787774235",
      "longitude": "-90.08900116020503"
    }
  },
  {
    "service_request": "2023-971574",
    "request_type": "Trash/Recycling",
    "request_reason": "Request a Large Item Pick Up",
    "date_created": "2023-01-30T17:04:08.000",
    "date_modified": "2023-01-30T17:04:09.000",
    "request_status": "Pending",
    "responsible_agency": "Department of Sanitation",
    "final_address": "2639 Valentine Ct",
    "address_councildis": "C",
    "status": "Assigned to Contractor",
    "contractor": "Richards Disposal",
    "rowid": "971574",
    "final_x": "3699033.38084",
    "final_y": "521171.126713",
    "longitude": "-90.01308307377346",
    "latitude": "29.926495886125274",
    "geocoded_column": {
      "latitude": "29.926495886125274",
      "longitude": "-90.01308307377346"
    }
  },
  {
    "service_request": "2023-971573",
    "request_type": "Trash/Recycling",
    "request_reason": "Missed Trash Pick-Up",
    "date_created": "2023-01-30T17:01:26.000",
    "date_modified": "2023-01-30T17:01:27.000",
    "request_status": "Pending",
    "responsible_agency": "Department of Sanitation",
    "final_address": "1610 S Gayoso St",
    "address_councildis": "B",
    "status": "Assigned to Contractor",
    "contractor": "Richards Disposal",
    "rowid": "971573",
    "final_x": "3670644.55559",
    "final_y": "530472.602178",
    "longitude": "-90.10238352404896",
    "latitude": "29.952940816937037",
    "geocoded_column": {
      "latitude": "29.952940816937037",
      "longitude": "-90.10238352404896"
    }
  },
  {
    "service_request": "2023-971572",
    "request_type": "Trash/Recycling",
    "request_reason": "Missed Trash Pick-Up",
    "date_created": "2023-01-30T16:58:29.000",
    "date_modified": "2023-01-30T16:58:29.000",
    "request_status": "Pending",
    "responsible_agency": "Department of Sanitation",
    "final_address": "4216 Dauphine St",
    "address_councildis": "C",
    "status": "Assigned to Contractor",
    "contractor": "IV Waste",
    "rowid": "971572",
    "final_x": "3692243.76713",
    "final_y": "533945.727557",
    "longitude": "-90.03405865736505",
    "latitude": "29.961835006645487",
    "geocoded_column": {
      "latitude": "29.961835006645487",
      "longitude": "-90.03405865736505"
    }
  },
  {
    "service_request": "2023-971571",
    "request_type": "Trash/Recycling",
    "request_reason": "Request a Large Item Pick Up",
    "date_created": "2023-01-30T16:56:09.000",
    "date_modified": "2023-01-30T16:56:09.000",
    "request_status": "Pending",
    "responsible_agency": "Department of Sanitation",
    "final_address": "7150 E Renaissance Ct",
    "address_councildis": "E",
    "status": "Assigned to Contractor",
    "contractor": "Waste Pro",
    "rowid": "971571",
    "final_x": "3717110.134",
    "final_y": "567968.859173",
    "longitude": "-89.95424248673785",
    "latitude": "30.054586567089927",
    "geocoded_column": {
      "latitude": "30.054586567089927",
      "longitude": "-89.95424248673785"
    }
  },
  {
    "service_request": "2023-971570",
    "request_type": "Trash/Recycling",
    "request_reason": "Order Trash Cart",
    "date_created": "2023-01-30T16:50:42.000",
    "date_modified": "2023-01-30T16:50:43.000",
    "request_status": "Pending",
    "responsible_agency": "Department of Sanitation",
    "final_address": "2434 Dumaine St",
    "address_councildis": "D",
    "status": "Assigned to Contractor",
    "contractor": "Richards Disposal",
    "rowid": "971570",
    "final_x": "3677996.58139",
    "final_y": "536836.770504",
    "longitude": "-90.07894907186035",
    "latitude": "29.97022090628544",
    "geocoded_column": {
      "latitude": "29.97022090628544",
      "longitude": "-90.07894907186035"
    }
  },
  {
    "service_request": "2023-971569",
    "request_type": "Trash/Recycling",
    "request_reason": "Missed Trash Pick-Up",
    "date_created": "2023-01-30T16:49:59.000",
    "date_modified": "2023-01-30T16:50:00.000",
    "request_status": "Pending",
    "responsible_agency": "Department of Sanitation",
    "final_address": "2626 Urquhart St",
    "address_councildis": "C",
    "status": "Assigned to Contractor",
    "contractor": "IV Waste",
    "rowid": "971569",
    "final_x": "3687513.42607",
    "final_y": "537112.036104",
    "longitude": "-90.04888419987422",
    "latitude": "29.970687889330748",
    "geocoded_column": {
      "latitude": "29.970687889330748",
      "longitude": "-90.04888419987422"
    }
  },
  {
    "service_request": "2023-971568",
    "request_type": "Trash/Recycling",
    "request_reason": "MIssed Recycling Pick-Up",
    "date_created": "2023-01-30T16:49:41.000",
    "date_modified": "2023-01-30T16:49:41.000",
    "request_status": "Pending",
    "responsible_agency": "Department of Sanitation",
    "final_address": "222 Bermuda St",
    "address_councildis": "C",
    "status": "Assigned to Contractor",
    "contractor": "Richards Disposal",
    "rowid": "971568",
    "final_x": "3686189.28252",
    "final_y": "530959.197314",
    "longitude": "-90.05328306967309",
    "latitude": "29.953810456675818",
    "geocoded_column": {
      "latitude": "29.953810456675818",
      "longitude": "-90.05328306967309"
    }
  },
  {
    "service_request": "2023-971567",
    "request_type": "Trash/Recycling",
    "request_reason": "Request a Large Item Pick Up",
    "date_created": "2023-01-30T16:49:31.000",
    "date_modified": "2023-01-30T16:49:31.000",
    "request_status": "Pending",
    "responsible_agency": "Department of Sanitation",
    "final_address": "721 Upperline St",
    "address_councildis": "B",
    "status": "Assigned to Contractor",
    "contractor": "Richards Disposal",
    "rowid": "971567",
    "final_x": "3669062.88814",
    "final_y": "518077.874614",
    "longitude": "-90.10779634001662",
    "latitude": "29.918905927791354",
    "geocoded_column": {
      "latitude": "29.918905927791354",
      "longitude": "-90.10779634001662"
    }
  },
  {
    "service_request": "2023-971566",
    "request_type": "Trash/Recycling",
    "request_reason": "Request a Large Item Pick Up",
    "date_created": "2023-01-30T16:47:53.000",
    "date_modified": "2023-01-30T16:47:53.000",
    "request_status": "Pending",
    "responsible_agency": "Department of Sanitation",
    "final_address": "3603 Iberville St",
    "address_councildis": "B",
    "status": "Assigned to Contractor",
    "contractor": "Richards Disposal",
    "rowid": "971566",
    "final_x": "3672854.78779",
    "final_y": "537606.712328",
    "longitude": "-90.09516115656062",
    "latitude": "29.972491758786973",
    "geocoded_column": {
      "latitude": "29.972491758786973",
      "longitude": "-90.09516115656062"
    }
  },
  {
    "service_request": "2023-971565",
    "request_type": "Trash/Recycling",
    "request_reason": "Replace Trash Cart",
    "date_created": "2023-01-30T16:46:42.000",
    "date_modified": "2023-01-30T16:46:42.000",
    "request_status": "Pending",
    "responsible_agency": "Department of Sanitation",
    "final_address": "4726 Longfellow Dr",
    "address_councildis": "E",
    "status": "Assigned to Contractor",
    "contractor": "Waste Pro",
    "rowid": "971565",
    "final_x": "3709563.08542",
    "final_y": "555730.877593",
    "longitude": "-89.97855415622827",
    "latitude": "30.021184584549083",
    "geocoded_column": {
      "latitude": "30.021184584549083",
      "longitude": "-89.97855415622827"
    }
  },
  {
    "service_request": "2023-971564",
    "request_type": "Traffic Signals/Signs/Striping/Streetlights",
    "request_reason": "Request for Stop Sign",
    "date_created": "2023-01-30T16:46:40.000",
    "date_modified": "2023-01-30T16:46:40.000",
    "request_status": "Pending",
    "responsible_agency": "Department of Public Works",
    "final_address": "1800 BLK Port St",
    "address_councildis": "D",
    "status": "Pending",
    "rowid": "971564",
    "final_x": "3688136.22901",
    "final_y": "539202.940739",
    "longitude": "-90.04684317974203",
    "latitude": "29.976417930453",
    "geocoded_column": {
      "latitude": "29.976417930453",
      "longitude": "-90.04684317974203"
    }
  },
  {
    "service_request": "2023-971563",
    "request_type": "Trash/Recycling",
    "request_reason": "MIssed Recycling Pick-Up",
    "date_created": "2023-01-30T16:45:02.000",
    "date_modified": "2023-01-30T16:46:31.000",
    "request_status": "Pending",
    "responsible_agency": "Department of Sanitation",
    "final_address": "1212 Constance St",
    "address_councildis": "B",
    "status": "Assigned to Contractor",
    "contractor": "Richards Disposal",
    "rowid": "971563",
    "final_x": "3681001.56117",
    "final_y": "525409.784573",
    "longitude": "-90.06985695735747",
    "latitude": "29.938709764676556",
    "geocoded_column": {
      "latitude": "29.938709764676556",
      "longitude": "-90.06985695735747"
    }
  },
  {
    "service_request": "2023-971562",
    "request_type": "Trash/Recycling",
    "request_reason": "MIssed Recycling Pick-Up",
    "date_created": "2023-01-30T16:44:12.000",
    "date_modified": "2023-01-30T16:44:13.000",
    "request_status": "Pending",
    "responsible_agency": "Department of Sanitation",
    "final_address": "4866 Lurline St",
    "address_councildis": "E",
    "status": "Assigned to Contractor",
    "contractor": "Waste Pro",
    "rowid": "971562",
    "final_x": "3711824.2965",
    "final_y": "556855.124826",
    "longitude": "-89.97136721325357",
    "latitude": "30.024202116501456",
    "geocoded_column": {
      "latitude": "30.024202116501456",
      "longitude": "-89.97136721325357"
    }
  },
  {
    "service_request": "2023-971561",
    "request_type": "Trash/Recycling",
    "request_reason": "MIssed Recycling Pick-Up",
    "date_created": "2023-01-30T16:43:30.000",
    "date_modified": "2023-01-30T16:43:31.000",
    "request_status": "Pending",
    "responsible_agency": "Department of Sanitation",
    "final_address": "11 Grand Canyon Dr",
    "address_councildis": "C",
    "status": "Assigned to Contractor",
    "contractor": "Richards Disposal",
    "rowid": "971561",
    "final_x": "3699463.06628",
    "final_y": "517427.78367",
    "longitude": "-90.01186296337428",
    "latitude": "29.916189352110166",
    "geocoded_column": {
      "latitude": "29.916189352110166",
      "longitude": "-90.01186296337428"
    }
  },
  {
    "service_request": "2023-971560",
    "request_type": "Trash/Recycling",
    "request_reason": "Request a Large Item Pick Up",
    "date_created": "2023-01-30T16:40:01.000",
    "date_modified": "2023-01-30T16:40:02.000",
    "request_status": "Pending",
    "responsible_agency": "Department of Sanitation",
    "final_address": "11293 Fernley Dr",
    "address_councildis": "E",
    "status": "Assigned to Contractor",
    "contractor": "Waste Pro",
    "rowid": "971560",
    "final_x": "3717934.03775",
    "final_y": "560293.454557",
    "longitude": "-89.95193081717439",
    "latitude": "30.033455046424063",
    "geocoded_column": {
      "latitude": "30.033455046424063",
      "longitude": "-89.95193081717439"
    }
  },
  {
    "service_request": "2023-971559",
    "request_type": "Roads/Drainage",
    "request_reason": "Pothole",
    "date_created": "2023-01-30T16:39:35.000",
    "date_modified": "2023-01-30T16:39:35.000",
    "request_status": "Pending",
    "responsible_agency": "Department of Public Works",
    "final_address": "BURGUNDY ST & CLOUET ST",
    "address_councildis": "C",
    "status": "Pending",
    "rowid": "971559",
    "final_x": "3688802.5",
    "final_y": "535210.48",
    "longitude": "-90.04488068845392",
    "latitude": "29.965419480097385",
    "geocoded_column": {
      "latitude": "29.965419480097385",
      "longitude": "-90.04488068845392"
    }
  },
  {
    "service_request": "2023-971558",
    "request_type": "Trash/Recycling",
    "request_reason": "Request a Large Item Pick Up",
    "date_created": "2023-01-30T16:39:13.000",
    "date_modified": "2023-01-30T16:39:14.000",
    "request_status": "Pending",
    "responsible_agency": "Department of Sanitation",
    "final_address": "924 Upperline St",
    "address_councildis": "B",
    "status": "Assigned to Contractor",
    "contractor": "Richards Disposal",
    "rowid": "971558",
    "final_x": "3668948.6793",
    "final_y": "518800.058615",
    "longitude": "-90.10813246488392",
    "latitude": "29.920895064146723",
    "geocoded_column": {
      "latitude": "29.920895064146723",
      "longitude": "-90.10813246488392"
    }
  },
  {
    "service_request": "2023-971557",
    "request_type": "Abandoned Vehicles",
    "request_reason": "Abandoned/Junk Vehicles",
    "date_created": "2023-01-30T16:35:28.000",
    "date_modified": "2023-01-30T16:35:28.000",
    "request_status": "Pending",
    "responsible_agency": "Department of Public Works",
    "final_address": "4943 Venus St",
    "address_councildis": "D",
    "status": "Pending",
    "rowid": "971557",
    "final_x": "3686487.5654",
    "final_y": "551272.387605",
    "longitude": "-90.05162375640897",
    "latitude": "30.009655378685977",
    "geocoded_column": {
      "latitude": "30.009655378685977",
      "longitude": "-90.05162375640897"
    }
  },
  {
    "service_request": "2023-971556",
    "request_type": "Trash/Recycling",
    "request_reason": "Repair Trash Cart",
    "date_created": "2023-01-30T16:34:02.000",
    "date_modified": "2023-01-30T16:34:03.000",
    "request_status": "Pending",
    "responsible_agency": "Department of Sanitation",
    "final_address": "4525 Toulouse St",
    "address_councildis": "A",
    "status": "Assigned to Contractor",
    "contractor": "Richards Disposal",
    "rowid": "971556",
    "final_x": "3670637.47412",
    "final_y": "540975.665675",
    "longitude": "-90.10204951367645",
    "latitude": "29.981820934762453",
    "geocoded_column": {
      "latitude": "29.981820934762453",
      "longitude": "-90.10204951367645"
    }
  },
  {
    "service_request": "2023-971555",
    "request_type": "Trash/Recycling",
    "request_reason": "Replace Trash Cart",
    "date_created": "2023-01-30T16:33:25.000",
    "date_modified": "2023-01-30T16:34:43.000",
    "request_status": "Pending",
    "responsible_agency": "Department of Sanitation",
    "final_address": "611 Dauphine St Unit B",
    "address_councildis": "C",
    "status": "Assigned to Contractor",
    "contractor": "Empire Services",
    "rowid": "971555",
    "final_x": "3681762.1732",
    "final_y": "532686.295684",
    "longitude": "-90.06720178005892",
    "latitude": "29.95869463668011",
    "geocoded_column": {
      "latitude": "29.95869463668011",
      "longitude": "-90.06720178005892"
    }
  },
  {
    "service_request": "2023-971554",
    "request_type": "Traffic Signals/Signs/Striping/Streetlights",
    "request_reason": "Street Light Knocked Down/Leaning",
    "date_created": "2023-01-30T16:32:30.000",
    "date_modified": "2023-01-30T16:32:32.000",
    "request_status": "Pending",
    "responsible_agency": "Department of Public Works",
    "final_address": "866 Lemoyne St",
    "address_councildis": "A",
    "status": "Pending",
    "contractor": "Legacy Professional Services",
    "rowid": "971554",
    "final_x": "3669349.19361",
    "final_y": "544848.376783",
    "longitude": "-90.10598750556164",
    "latitude": "29.99250756909275",
    "geocoded_column": {
      "latitude": "29.99250756909275",
      "longitude": "-90.10598750556164"
    }
  },
  {
    "service_request": "2023-971553",
    "request_type": "Property Maintenance",
    "request_reason": "Property Maintenance",
    "date_created": "2023-01-30T16:31:10.000",
    "date_modified": "2023-01-30T16:31:10.000",
    "request_status": "Pending",
    "responsible_agency": "Department of Code Enforcement",
    "final_address": "4950 Bundy Rd",
    "address_councildis": "E",
    "status": "Pending",
    "rowid": "971553",
    "final_x": "3709011.56836",
    "final_y": "556956.389786",
    "longitude": "-89.98025105306185",
    "latitude": "30.024572182655188",
    "geocoded_column": {
      "latitude": "30.024572182655188",
      "longitude": "-89.98025105306185"
    }
  },
  {
    "service_request": "2023-971552",
    "request_type": "Trash/Recycling",
    "request_reason": "Request a Large Item Pick Up",
    "date_created": "2023-01-30T16:31:09.000",
    "date_modified": "2023-01-30T16:31:10.000",
    "request_status": "Pending",
    "responsible_agency": "Department of Sanitation",
    "final_address": "5218 Arts St",
    "address_councildis": "D",
    "status": "Assigned to Contractor",
    "contractor": "IV Waste",
    "rowid": "971552",
    "final_x": "3685728.71305",
    "final_y": "552291.58863",
    "longitude": "-90.05398528326633",
    "latitude": "30.012481127287916",
    "geocoded_column": {
      "latitude": "30.012481127287916",
      "longitude": "-90.05398528326633"
    }
  },
  {
    "service_request": "2023-971551",
    "request_type": "Trash/Recycling",
    "request_reason": "Replace Trash Cart",
    "date_created": "2023-01-30T16:27:53.000",
    "date_modified": "2023-01-30T16:27:53.000",
    "request_status": "Pending",
    "responsible_agency": "Department of Sanitation",
    "final_address": "4800 Cleveland Ave",
    "address_councildis": "A",
    "status": "Assigned to Contractor",
    "contractor": "Richards Disposal",
    "rowid": "971551",
    "final_x": "3668492.1874",
    "final_y": "539707.030474",
    "longitude": "-90.10886818476337",
    "latitude": "29.97839582905405",
    "geocoded_column": {
      "latitude": "29.97839582905405",
      "longitude": "-90.10886818476337"
    }
  },
  {
    "service_request": "2023-971550",
    "request_type": "Abandoned Vehicles",
    "request_reason": "Abandoned/Junk Vehicles",
    "date_created": "2023-01-30T16:24:49.000",
    "date_modified": "2023-01-30T16:24:49.000",
    "request_status": "Pending",
    "responsible_agency": "Department of Public Works",
    "final_address": "610 S Scott St",
    "address_councildis": "B",
    "status": "Pending",
    "rowid": "971550",
    "final_x": "3670537.9531",
    "final_y": "536130.730887",
    "longitude": "-90.10252822201873",
    "latitude": "29.968501940572175",
    "geocoded_column": {
      "latitude": "29.968501940572175",
      "longitude": "-90.10252822201873"
    }
  },
  {
    "service_request": "2023-971549",
    "request_type": "Trash/Recycling",
    "request_reason": "Illegal Dumping",
    "date_created": "2023-01-30T16:24:23.000",
    "date_modified": "2023-01-30T16:24:24.000",
    "request_status": "Pending",
    "responsible_agency": "Department of Code Enforcement",
    "final_address": "2033 Desire St",
    "address_councildis": "D",
    "status": "Pending",
    "rowid": "971549",
    "final_x": "3691131.33456",
    "final_y": "539374.204298",
    "longitude": "-90.03737764877226",
    "latitude": "29.976796040532896",
    "geocoded_column": {
      "latitude": "29.976796040532896",
      "longitude": "-90.03737764877226"
    }
  },
  {
    "service_request": "2023-971548",
    "request_type": "Trash/Recycling",
    "request_reason": "MIssed Recycling Pick-Up",
    "date_created": "2023-01-30T16:18:59.000",
    "date_modified": "2023-01-30T16:18:59.000",
    "request_status": "Pending",
    "responsible_agency": "Department of Sanitation",
    "final_address": "1562 St Denis St",
    "address_councildis": "D",
    "status": "Assigned to Contractor",
    "contractor": "IV Waste",
    "rowid": "971548",
    "final_x": "3679437.93",
    "final_y": "545819.450896",
    "longitude": "-90.07408538125772",
    "latitude": "29.994876685798843",
    "geocoded_column": {
      "latitude": "29.994876685798843",
      "longitude": "-90.07408538125772"
    }
  },
  {
    "service_request": "2023-971547",
    "request_type": "Trash/Recycling",
    "request_reason": "Order Trash Cart",
    "date_created": "2023-01-30T16:17:00.000",
    "date_modified": "2023-01-30T16:17:01.000",
    "request_status": "Pending",
    "responsible_agency": "Department of Sanitation",
    "final_address": "2711 Third St",
    "address_councildis": "B",
    "status": "Assigned to Contractor",
    "contractor": "Richards Disposal",
    "rowid": "971547",
    "final_x": "3674229.16782",
    "final_y": "526274.744702",
    "longitude": "-90.09120857008621",
    "latitude": "29.941291720822615",
    "geocoded_column": {
      "latitude": "29.941291720822615",
      "longitude": "-90.09120857008621"
    }
  },
  {
    "service_request": "2023-971546",
    "request_type": "Trash/Recycling",
    "request_reason": "Missed Trash Pick-Up",
    "date_created": "2023-01-30T16:16:59.000",
    "date_modified": "2023-01-30T16:38:50.000",
    "case_close_date": "2023-01-30T10:38:50.000",
    "request_status": "Closed",
    "responsible_agency": "Department of Sanitation",
    "final_address": "7810 Unity Dr",
    "address_councildis": "E",
    "status": "Assigned to Contractor",
    "contractor": "Waste Pro",
    "contractor_action": "Completed",
    "rowid": "971546",
    "final_x": "3711722.87486",
    "final_y": "567451.185124",
    "longitude": "-89.9712896941914",
    "latitude": "30.053340355759737",
    "geocoded_column": {
      "latitude": "30.053340355759737",
      "longitude": "-89.9712896941914"
    }
  },
  {
    "service_request": "2023-971545",
    "request_type": "Traffic Signals/Signs/Striping/Streetlights",
    "request_reason": "Street Light Outage/Malfunction",
    "date_created": "2023-01-30T16:15:44.000",
    "date_modified": "2023-01-30T16:15:44.000",
    "request_status": "Pending",
    "responsible_agency": "Department of Public Works",
    "final_address": "818 Ursulines Ave",
    "address_councildis": "C",
    "status": "Assigned to Contractor",
    "contractor": "Legacy Professional Services",
    "rowid": "971545",
    "final_x": "3683003.83343",
    "final_y": "533933.123845",
    "longitude": "-90.06323730196664",
    "latitude": "29.96208520338457",
    "geocoded_column": {
      "latitude": "29.96208520338457",
      "longitude": "-90.06323730196664"
    }
  },
  {
    "service_request": "2023-971544",
    "request_type": "Traffic Signals/Signs/Striping/Streetlights",
    "request_reason": "Street Light Outage/Malfunction",
    "date_created": "2023-01-30T16:12:58.000",
    "date_modified": "2023-01-30T16:12:58.000",
    "request_status": "Pending",
    "responsible_agency": "Department of Public Works",
    "final_address": "818 Ursulines Ave",
    "address_councildis": "C",
    "status": "Assigned to Contractor",
    "contractor": "Legacy Professional Services",
    "rowid": "971544",
    "final_x": "3683003.83343",
    "final_y": "533933.123845",
    "longitude": "-90.06323730196664",
    "latitude": "29.96208520338457",
    "geocoded_column": {
      "latitude": "29.96208520338457",
      "longitude": "-90.06323730196664"
    }
  },
  {
    "service_request": "2023-971543",
    "request_type": "Property Maintenance",
    "request_reason": "Property Maintenance",
    "date_created": "2023-01-30T16:12:26.000",
    "date_modified": "2023-01-30T16:12:26.000",
    "request_status": "Pending",
    "responsible_agency": "Department of Code Enforcement",
    "final_address": "415 Warrington Dr",
    "address_councildis": "D",
    "status": "Pending",
    "rowid": "971543",
    "final_x": "3681588.65692",
    "final_y": "548297.416018",
    "longitude": "-90.067204990747",
    "latitude": "30.001625041260425",
    "geocoded_column": {
      "latitude": "30.001625041260425",
      "longitude": "-90.067204990747"
    }
  },
  {
    "service_request": "2023-971542",
    "request_type": "Traffic Signals/Signs/Striping/Streetlights",
    "request_reason": "Street Light Outage/Malfunction",
    "date_created": "2023-01-30T16:10:13.000",
    "date_modified": "2023-01-30T16:10:14.000",
    "request_status": "Pending",
    "responsible_agency": "Department of Public Works",
    "final_address": "818 Ursulines Ave",
    "address_councildis": "C",
    "status": "Assigned to Contractor",
    "contractor": "Legacy Professional Services",
    "rowid": "971542",
    "final_x": "3683003.83343",
    "final_y": "533933.123845",
    "longitude": "-90.06323730196664",
    "latitude": "29.96208520338457",
    "geocoded_column": {
      "latitude": "29.96208520338457",
      "longitude": "-90.06323730196664"
    }
  },
  {
    "service_request": "2023-971541",
    "request_type": "Trash/Recycling",
    "request_reason": "MIssed Recycling Pick-Up",
    "date_created": "2023-01-30T16:09:42.000",
    "date_modified": "2023-01-30T16:09:43.000",
    "request_status": "Pending",
    "responsible_agency": "Department of Sanitation",
    "final_address": "5018 Revel St",
    "address_councildis": "E",
    "status": "Assigned to Contractor",
    "contractor": "Waste Pro",
    "rowid": "971541",
    "final_x": "3725087.93881",
    "final_y": "562062.662431",
    "longitude": "-89.92925553691377",
    "latitude": "30.038080556849305",
    "geocoded_column": {
      "latitude": "30.038080556849305",
      "longitude": "-89.92925553691377"
    }
  },
  {
    "service_request": "2023-971540",
    "request_type": "Trash/Recycling",
    "request_reason": "Order Trash Cart",
    "date_created": "2023-01-30T16:07:28.000",
    "date_modified": "2023-01-30T16:07:29.000",
    "request_status": "Pending",
    "responsible_agency": "Department of Sanitation",
    "final_address": "8830 Dinkins St",
    "address_councildis": "E",
    "status": "Assigned to Contractor",
    "contractor": "Waste Pro",
    "rowid": "971540",
    "final_x": "3704605.3283",
    "final_y": "563304.969248",
    "longitude": "-89.99393940963023",
    "latitude": "30.042170622804253",
    "geocoded_column": {
      "latitude": "30.042170622804253",
      "longitude": "-89.99393940963023"
    }
  },
  {
    "service_request": "2023-971539",
    "request_type": "Mosquito, Termite & Rodent Control",
    "request_reason": "Rodent Complaint (Rats)",
    "date_created": "2023-01-30T16:07:08.000",
    "date_modified": "2023-01-30T16:07:09.000",
    "request_status": "Pending",
    "responsible_agency": "Mosquito, Termite & Rodent Control Board",
    "final_address": "2918 General Taylor St",
    "address_councildis": "B",
    "status": "Pending",
    "rowid": "971539",
    "final_x": "3671492.41473",
    "final_y": "525712.109309",
    "longitude": "-90.09986816292287",
    "latitude": "29.93982594776329",
    "geocoded_column": {
      "latitude": "29.93982594776329",
      "longitude": "-90.09986816292287"
    }
  },
  {
    "service_request": "2023-971538",
    "request_type": "Trash/Recycling",
    "request_reason": "MIssed Recycling Pick-Up",
    "date_created": "2023-01-30T16:01:49.000",
    "date_modified": "2023-01-30T16:01:50.000",
    "request_status": "Pending",
    "responsible_agency": "Department of Sanitation",
    "final_address": "4320 Annunciation St",
    "address_councildis": "B",
    "status": "Assigned to Contractor",
    "contractor": "Richards Disposal",
    "rowid": "971538",
    "final_x": "3671390.66139",
    "final_y": "517739.359158",
    "longitude": "-90.10046024386679",
    "latitude": "29.917906454301942",
    "geocoded_column": {
      "latitude": "29.917906454301942",
      "longitude": "-90.10046024386679"
    }
  },
  {
    "service_request": "2023-971537",
    "request_type": "Abandoned Vehicles",
    "request_reason": "Abandoned/Junk Vehicles",
    "date_created": "2023-01-30T15:58:18.000",
    "date_modified": "2023-01-30T15:58:19.000",
    "request_status": "Pending",
    "responsible_agency": "Department of Public Works",
    "final_address": "2100 BLK Governor Nicholls St",
    "address_councildis": "D",
    "status": "Pending",
    "rowid": "971537",
    "final_x": "3679609.42913",
    "final_y": "537040.127151",
    "longitude": "-90.0738484693597",
    "latitude": "29.970731419892513",
    "geocoded_column": {
      "latitude": "29.970731419892513",
      "longitude": "-90.0738484693597"
    }
  },
  {
    "service_request": "2023-971536",
    "request_type": "Trash/Recycling",
    "request_reason": "Repair Trash Cart",
    "date_created": "2023-01-30T15:58:16.000",
    "date_modified": "2023-01-30T15:58:17.000",
    "request_status": "Pending",
    "responsible_agency": "Department of Sanitation",
    "final_address": "4110 Hollygrove St",
    "address_councildis": "A",
    "status": "Assigned to Contractor",
    "contractor": "Richards Disposal",
    "rowid": "971536",
    "final_x": "3666583.96045",
    "final_y": "538223.107081",
    "longitude": "-90.11494491917391",
    "latitude": "29.974371468923717",
    "geocoded_column": {
      "latitude": "29.974371468923717",
      "longitude": "-90.11494491917391"
    }
  },
  {
    "service_request": "2023-971535",
    "request_type": "Trash/Recycling",
    "request_reason": "Illegal Dumping",
    "date_created": "2023-01-30T15:55:05.000",
    "date_modified": "2023-01-30T15:55:05.000",
    "request_status": "Pending",
    "responsible_agency": "Department of Sanitation",
    "final_address": "1443 N Roman St",
    "address_councildis": "D",
    "status": "Pending",
    "rowid": "971535",
    "final_x": "3680930.1604",
    "final_y": "537387.672392",
    "longitude": "-90.06966533643815",
    "latitude": "29.971647066052427",
    "geocoded_column": {
      "latitude": "29.971647066052427",
      "longitude": "-90.06966533643815"
    }
  },
  {
    "service_request": "2023-971534",
    "request_type": "Trash/Recycling",
    "request_reason": "Request a Large Item Pick Up",
    "date_created": "2023-01-30T15:53:34.000",
    "date_modified": "2023-01-30T15:53:35.000",
    "request_status": "Pending",
    "responsible_agency": "Department of Sanitation",
    "final_address": "4318 Mendez St",
    "address_councildis": "D",
    "status": "Assigned to Contractor",
    "contractor": "IV Waste",
    "rowid": "971534",
    "final_x": "3689849.43267",
    "final_y": "553734.114007",
    "longitude": "-90.04091473700183",
    "latitude": "30.01632038786491",
    "geocoded_column": {
      "latitude": "30.01632038786491",
      "longitude": "-90.04091473700183"
    }
  },
  {
    "service_request": "2023-971533",
    "request_type": "Trash/Recycling",
    "request_reason": "Order Recycling Cart",
    "date_created": "2023-01-30T15:48:07.000",
    "date_modified": "2023-01-30T15:48:07.000",
    "request_status": "Pending",
    "responsible_agency": "Department of Sanitation",
    "final_address": "7929 Forshey St",
    "address_councildis": "B",
    "status": "Pending",
    "rowid": "971533",
    "final_x": "3667429.52263",
    "final_y": "533577.420421",
    "longitude": "-90.11243075726449",
    "latitude": "29.96157262541748",
    "geocoded_column": {
      "latitude": "29.96157262541748",
      "longitude": "-90.11243075726449"
    }
  },
  {
    "service_request": "2023-971532",
    "request_type": "Trash/Recycling",
    "request_reason": "Request a Large Item Pick Up",
    "date_created": "2023-01-30T15:44:07.000",
    "date_modified": "2023-01-30T15:44:07.000",
    "request_status": "Pending",
    "responsible_agency": "Department of Sanitation",
    "final_address": "918 Foucher St Apt 1",
    "address_councildis": "B",
    "status": "Assigned to Contractor",
    "contractor": "Richards Disposal",
    "rowid": "971532",
    "final_x": "3674303.09294",
    "final_y": "518765.083511",
    "longitude": "-90.09123218649236",
    "latitude": "29.92064038184057",
    "geocoded_column": {
      "latitude": "29.92064038184057",
      "longitude": "-90.09123218649236"
    }
  },
  {
    "service_request": "2023-971531",
    "request_type": "Trash/Recycling",
    "request_reason": "Order Recycling Cart",
    "date_created": "2023-01-30T15:38:12.000",
    "date_modified": "2023-01-30T15:38:13.000",
    "request_status": "Pending",
    "responsible_agency": "Department of Sanitation",
    "final_address": "6149 Dover Pl",
    "address_councildis": "C",
    "status": "Pending",
    "rowid": "971531",
    "final_x": "3706862.37233",
    "final_y": "519022.404023",
    "longitude": "-89.98844894459596",
    "latitude": "29.920337289374682",
    "geocoded_column": {
      "latitude": "29.920337289374682",
      "longitude": "-89.98844894459596"
    }
  },
  {
    "service_request": "2023-971530",
    "request_type": "Abandoned Vehicles",
    "request_reason": "Abandoned/Junk Vehicles",
    "date_created": "2023-01-30T15:32:48.000",
    "date_modified": "2023-01-30T15:32:48.000",
    "request_status": "Pending",
    "responsible_agency": "Department of Public Works",
    "final_address": "2113 Gallier St",
    "address_councildis": "D",
    "status": "Pending",
    "rowid": "971530",
    "final_x": "3691470.96124",
    "final_y": "539510.785162",
    "longitude": "-90.03630012228444",
    "latitude": "29.97716102293979",
    "geocoded_column": {
      "latitude": "29.97716102293979",
      "longitude": "-90.03630012228444"
    }
  },
  {
    "service_request": "2023-971529",
    "request_type": "Roads/Drainage",
    "request_reason": "Catch Basin - Clogged",
    "date_created": "2023-01-30T15:32:47.000",
    "date_modified": "2023-01-30T15:34:46.000",
    "request_status": "Pending",
    "responsible_agency": "Department of Public Works",
    "final_address": "531 Emerald St",
    "address_councildis": "D",
    "status": "Pending",
    "rowid": "971529",
    "final_x": "3668382.75809",
    "final_y": "555138.555545",
    "longitude": "-90.10869290152866",
    "latitude": "30.020830397617605",
    "geocoded_column": {
      "latitude": "30.020830397617605",
      "longitude": "-90.10869290152866"
    }
  },
  {
    "service_request": "2023-971528",
    "request_type": "Trash/Recycling",
    "request_reason": "Order Trash Cart",
    "date_created": "2023-01-30T15:21:33.000",
    "date_modified": "2023-01-30T15:21:34.000",
    "request_status": "Pending",
    "responsible_agency": "Department of Sanitation",
    "final_address": "6330 Orleans Ave",
    "address_councildis": "A",
    "status": "Assigned to Contractor",
    "contractor": "IV Waste",
    "rowid": "971528",
    "final_x": "3671031.47284",
    "final_y": "549392.450707",
    "longitude": "-90.1005190557366",
    "latitude": "30.004952537669542",
    "geocoded_column": {
      "latitude": "30.004952537669542",
      "longitude": "-90.1005190557366"
    }
  },
  {
    "service_request": "2023-971527",
    "request_type": "Trash/Recycling",
    "request_reason": "Replace Trash Cart",
    "date_created": "2023-01-30T15:20:46.000",
    "date_modified": "2023-01-30T15:20:47.000",
    "request_status": "Pending",
    "responsible_agency": "Department of Sanitation",
    "final_address": "8336 Belfast St",
    "address_councildis": "A",
    "status": "Assigned to Contractor",
    "contractor": "Richards Disposal",
    "rowid": "971527",
    "final_x": "3664841.04768",
    "final_y": "533000.807364",
    "longitude": "-90.12062403281487",
    "latitude": "29.960062711363086",
    "geocoded_column": {
      "latitude": "29.960062711363086",
      "longitude": "-90.12062403281487"
    }
  },
  {
    "service_request": "2023-971526",
    "request_type": "Trash/Recycling",
    "request_reason": "Order Recycling Cart",
    "date_created": "2023-01-30T15:18:12.000",
    "date_modified": "2023-01-30T15:18:12.000",
    "request_status": "Pending",
    "responsible_agency": "Department of Sanitation",
    "final_address": "6426 Eads St",
    "address_councildis": "D",
    "status": "Pending",
    "rowid": "971526",
    "final_x": "3686597.50338",
    "final_y": "557007.598106",
    "longitude": "-90.05107365623039",
    "latitude": "30.02542171070815",
    "geocoded_column": {
      "latitude": "30.02542171070815",
      "longitude": "-90.05107365623039"
    }
  },
  {
    "service_request": "2023-971525",
    "request_type": "Traffic Signals/Signs/Striping/Streetlights",
    "request_reason": "Street Light Outage/Malfunction",
    "date_created": "2023-01-30T15:16:39.000",
    "date_modified": "2023-01-30T15:16:40.000",
    "request_status": "Pending",
    "responsible_agency": "Department of Public Works",
    "final_address": "9100 BLK Belfast St",
    "address_councildis": "A",
    "status": "Assigned to Contractor",
    "contractor": "Legacy Professional Services",
    "rowid": "971525",
    "final_x": "3662852.82977",
    "final_y": "534855.320169",
    "longitude": "-90.1268407653208",
    "latitude": "29.96521972582224",
    "geocoded_column": {
      "latitude": "29.96521972582224",
      "longitude": "-90.1268407653208"
    }
  },
  {
    "service_request": "2023-971524",
    "request_type": "Property Maintenance",
    "request_reason": "Property Maintenance",
    "date_created": "2023-01-30T15:12:53.000",
    "date_modified": "2023-01-30T15:12:53.000",
    "request_status": "Pending",
    "responsible_agency": "Department of Code Enforcement",
    "final_address": "2347 Filmore Ave, New Orleans, Louisiana, 70122",
    "address_councildis": "D",
    "status": "Pending",
    "rowid": "971524",
    "final_x": "3684982.76713",
    "final_y": "552578.339158",
    "longitude": "-90.05633195673104",
    "latitude": "30.013292465998287",
    "geocoded_column": {
      "latitude": "30.013292465998287",
      "longitude": "-90.05633195673104"
    }
  },
  {
    "service_request": "2023-971523",
    "request_type": "Traffic Signals/Signs/Striping/Streetlights",
    "request_reason": "Street Light Outage/Malfunction",
    "date_created": "2023-01-30T15:12:05.000",
    "date_modified": "2023-01-30T15:12:06.000",
    "request_status": "Pending",
    "responsible_agency": "Department of Public Works",
    "final_address": "9933 E Wheaton Cir",
    "address_councildis": "E",
    "status": "Assigned to Contractor",
    "contractor": "Legacy Professional Services",
    "rowid": "971523",
    "final_x": "3708915.41489",
    "final_y": "562438.431391",
    "longitude": "-89.98035034126885",
    "latitude": "30.03964875508514",
    "geocoded_column": {
      "latitude": "30.03964875508514",
      "longitude": "-89.98035034126885"
    }
  },
  {
    "service_request": "2023-971522",
    "request_type": "Trash/Recycling",
    "request_reason": "Request a Large Item Pick Up",
    "date_created": "2023-01-30T15:07:17.000",
    "date_modified": "2023-01-30T15:07:17.000",
    "request_status": "Pending",
    "responsible_agency": "Department of Sanitation",
    "final_address": "4421 Laine Ave",
    "address_councildis": "E",
    "status": "Assigned to Contractor",
    "contractor": "Waste Pro",
    "rowid": "971522",
    "final_x": "3705985.96945",
    "final_y": "553516.305623",
    "longitude": "-89.98993878381756",
    "latitude": "30.015211173596796",
    "geocoded_column": {
      "latitude": "30.015211173596796",
      "longitude": "-89.98993878381756"
    }
  },
  {
    "service_request": "2023-971520",
    "request_type": "Trash/Recycling",
    "request_reason": "Request a Large Item Pick Up",
    "date_created": "2023-01-30T15:05:40.000",
    "date_modified": "2023-01-30T15:05:43.000",
    "request_status": "Pending",
    "responsible_agency": "Department of Sanitation",
    "final_address": "1822 S Gayoso St",
    "address_councildis": "B",
    "status": "Assigned to Contractor",
    "contractor": "Richards Disposal",
    "rowid": "971520",
    "final_x": "3670238.2697",
    "final_y": "529851.751169",
    "longitude": "-90.103687436738",
    "latitude": "29.951245675643673",
    "geocoded_column": {
      "latitude": "29.951245675643673",
      "longitude": "-90.103687436738"
    }
  },
  {
    "service_request": "2023-971519",
    "request_type": "Trash/Recycling",
    "request_reason": "MIssed Recycling Pick-Up",
    "date_created": "2023-01-30T15:02:20.000",
    "date_modified": "2023-01-30T16:00:25.000",
    "request_status": "Pending",
    "responsible_agency": "Department of Sanitation",
    "final_address": "2954 Fortin St",
    "address_councildis": "A",
    "status": "Assigned to Contractor",
    "contractor": "IV Waste",
    "rowid": "971519",
    "final_x": "3677328.44014",
    "final_y": "540901.057547",
    "longitude": "-90.08091884114711",
    "latitude": "29.981416394248384",
    "geocoded_column": {
      "latitude": "29.981416394248384",
      "longitude": "-90.08091884114711"
    }
  },
  {
    "service_request": "2023-971517",
    "request_type": "Trash/Recycling",
    "request_reason": "Order Trash Cart",
    "date_created": "2023-01-30T15:00:24.000",
    "date_modified": "2023-01-30T15:00:25.000",
    "request_status": "Pending",
    "responsible_agency": "Department of Sanitation",
    "final_address": "3709 Alfred St",
    "address_councildis": "D",
    "status": "Assigned to Contractor",
    "contractor": "IV Waste",
    "rowid": "971517",
    "final_x": "3677835.65051",
    "final_y": "545817.01",
    "longitude": "-90.07914688672952",
    "latitude": "29.994918294389137",
    "geocoded_column": {
      "latitude": "29.994918294389137",
      "longitude": "-90.07914688672952"
    }
  },
  {
    "service_request": "2023-971516",
    "request_type": "Traffic Signals/Signs/Striping/Streetlights",
    "request_reason": "Street Light Outage/Malfunction",
    "date_created": "2023-01-30T15:00:21.000",
    "date_modified": "2023-01-30T15:00:22.000",
    "request_status": "Pending",
    "responsible_agency": "Department of Public Works",
    "final_address": "4518 S Galvez St",
    "address_councildis": "B",
    "status": "Assigned to Contractor",
    "contractor": "Legacy Professional Services",
    "rowid": "971516",
    "final_x": "3669631.43463",
    "final_y": "527335.043647",
    "longitude": "-90.10568866572686",
    "latitude": "29.94434344373677",
    "geocoded_column": {
      "latitude": "29.94434344373677",
      "longitude": "-90.10568866572686"
    }
  },
  {
    "service_request": "2023-971515",
    "request_type": "Trash/Recycling",
    "request_reason": "Request a Large Item Pick Up",
    "date_created": "2023-01-30T14:53:03.000",
    "date_modified": "2023-01-30T14:53:04.000",
    "request_status": "Pending",
    "responsible_agency": "Department of Sanitation",
    "final_address": "3323 Constance St",
    "address_councildis": "B",
    "status": "Assigned to Contractor",
    "contractor": "Richards Disposal",
    "rowid": "971515",
    "final_x": "3675353.47752",
    "final_y": "519399.017655",
    "longitude": "-90.08789485471031",
    "latitude": "29.922352146645018",
    "geocoded_column": {
      "latitude": "29.922352146645018",
      "longitude": "-90.08789485471031"
    }
  },
  {
    "service_request": "2023-971514",
    "request_type": "Trash/Recycling",
    "request_reason": "Request a Large Item Pick Up",
    "date_created": "2023-01-30T14:52:40.000",
    "date_modified": "2023-01-30T14:52:41.000",
    "request_status": "Pending",
    "responsible_agency": "Department of Sanitation",
    "final_address": "32 Hawk St",
    "address_councildis": "D",
    "status": "Assigned to Contractor",
    "contractor": "IV Waste",
    "rowid": "971514",
    "final_x": "3672486.36455",
    "final_y": "555720.977241",
    "longitude": "-90.0957067980446",
    "latitude": "30.022310615912698",
    "geocoded_column": {
      "latitude": "30.022310615912698",
      "longitude": "-90.0957067980446"
    }
  },
  {
    "service_request": "2023-971513",
    "request_type": "Trash/Recycling",
    "request_reason": "MIssed Recycling Pick-Up",
    "date_created": "2023-01-30T14:48:52.000",
    "date_modified": "2023-01-30T14:49:39.000",
    "request_status": "Pending",
    "responsible_agency": "Department of Sanitation",
    "final_address": "3439 Blythe St",
    "address_councildis": "C",
    "status": "Assigned to Contractor",
    "contractor": "Richards Disposal",
    "rowid": "971513",
    "final_x": "3712126.86846",
    "final_y": "518039.604918",
    "longitude": "-89.97186844808374",
    "latitude": "29.91746398661057",
    "geocoded_column": {
      "latitude": "29.91746398661057",
      "longitude": "-89.97186844808374"
    }
  },
  {
    "service_request": "2023-971512",
    "request_type": "Abandoned Vehicles",
    "request_reason": "Abandoned/Junk Vehicles",
    "date_created": "2023-01-30T14:43:40.000",
    "date_modified": "2023-01-30T14:43:40.000",
    "request_status": "Pending",
    "responsible_agency": "Department of Public Works",
    "final_address": "2700 Milan St",
    "address_councildis": "B",
    "status": "Pending",
    "rowid": "971512",
    "final_x": "3671171.96059",
    "final_y": "524849.09062",
    "longitude": "-90.10090919090537",
    "latitude": "29.937462407545436",
    "geocoded_column": {
      "latitude": "29.937462407545436",
      "longitude": "-90.10090919090537"
    }
  },
  {
    "service_request": "2023-971511",
    "request_type": "Abandoned Vehicles",
    "request_reason": "Abandoned/Junk Vehicles",
    "date_created": "2023-01-30T14:43:08.000",
    "date_modified": "2023-01-30T14:43:08.000",
    "request_status": "Pending",
    "responsible_agency": "Department of Public Works",
    "final_address": "4607 LaSalle St",
    "address_councildis": "B",
    "status": "Pending",
    "rowid": "971511",
    "final_x": "3669738.70599",
    "final_y": "523657.099835",
    "longitude": "-90.10547441366721",
    "latitude": "29.934227126667082",
    "geocoded_column": {
      "latitude": "29.934227126667082",
      "longitude": "-90.10547441366721"
    }
  },
  {
    "service_request": "2023-971510",
    "request_type": "Trash/Recycling",
    "request_reason": "Missed Trash Pick-Up",
    "date_created": "2023-01-30T14:39:15.000",
    "date_modified": "2023-01-30T14:39:16.000",
    "request_status": "Pending",
    "responsible_agency": "Department of Sanitation",
    "final_address": "1519 Clio St",
    "address_councildis": "B",
    "status": "Assigned to Contractor",
    "contractor": "Richards Disposal",
    "rowid": "971510",
    "final_x": "3680029.01269",
    "final_y": "526205.63603",
    "longitude": "-90.07289975933006",
    "latitude": "29.940927543440537",
    "geocoded_column": {
      "latitude": "29.940927543440537",
      "longitude": "-90.07289975933006"
    }
  },
  {
    "service_request": "2023-971509",
    "request_type": "Abandoned Vehicles",
    "request_reason": "Abandoned/Junk Vehicles",
    "date_created": "2023-01-30T14:39:13.000",
    "date_modified": "2023-01-30T14:39:13.000",
    "request_status": "Pending",
    "responsible_agency": "Department of Public Works",
    "final_address": "2714 Milan St",
    "address_councildis": "B",
    "status": "Pending",
    "rowid": "971509",
    "final_x": "3671161.1355",
    "final_y": "524938.149629",
    "longitude": "-90.10094034250916",
    "latitude": "29.93770761112329",
    "geocoded_column": {
      "latitude": "29.93770761112329",
      "longitude": "-90.10094034250916"
    }
  },
  {
    "service_request": "2023-971508",
    "request_type": "Trash/Recycling",
    "request_reason": "Order Trash Cart",
    "date_created": "2023-01-30T14:35:46.000",
    "date_modified": "2023-01-30T14:35:47.000",
    "request_status": "Pending",
    "responsible_agency": "Department of Sanitation",
    "final_address": "1002 Tupelo St",
    "address_councildis": "E",
    "status": "Assigned to Contractor",
    "contractor": "Waste Pro",
    "rowid": "971508",
    "final_x": "3699314.02788",
    "final_y": "532959.793284",
    "longitude": "-90.01176794957738",
    "latitude": "29.95890170444201",
    "geocoded_column": {
      "latitude": "29.95890170444201",
      "longitude": "-90.01176794957738"
    }
  },
  {
    "service_request": "2023-971507",
    "request_type": "Trash/Recycling",
    "request_reason": "Order Recycling Cart",
    "date_created": "2023-01-30T14:33:37.000",
    "date_modified": "2023-01-30T14:33:38.000",
    "request_status": "Pending",
    "responsible_agency": "Department of Sanitation",
    "final_address": "956 Germain St",
    "address_councildis": "A",
    "status": "Pending",
    "rowid": "971507",
    "final_x": "3670428.20634",
    "final_y": "547671.706962",
    "longitude": "-90.10248329860799",
    "latitude": "30.000238925746064",
    "geocoded_column": {
      "latitude": "30.000238925746064",
      "longitude": "-90.10248329860799"
    }
  },
  {
    "service_request": "2023-971506",
    "request_type": "Trash/Recycling",
    "request_reason": "Order Recycling Cart",
    "date_created": "2023-01-30T14:32:40.000",
    "date_modified": "2023-01-30T14:32:40.000",
    "request_status": "Pending",
    "responsible_agency": "Department of Sanitation",
    "final_address": "6069 Argonne Blvd",
    "address_councildis": "A",
    "status": "Pending",
    "rowid": "971506",
    "final_x": "3670253.09473",
    "final_y": "547651.432082",
    "longitude": "-90.10303717522396",
    "latitude": "30.00018834788651",
    "geocoded_column": {
      "latitude": "30.00018834788651",
      "longitude": "-90.10303717522396"
    }
  },
  {
    "service_request": "2023-971505",
    "request_type": "Trash/Recycling",
    "request_reason": "Illegal Dumping",
    "date_created": "2023-01-30T14:31:32.000",
    "date_modified": "2023-01-30T14:31:32.000",
    "request_status": "Pending",
    "responsible_agency": "Department of Sanitation",
    "final_address": "11331 Lake Forest Blvd",
    "address_councildis": "E",
    "status": "Pending",
    "rowid": "971505",
    "final_x": "3717204.45714",
    "final_y": "562560.991904",
    "longitude": "-89.95415009457436",
    "latitude": "30.039714022198723",
    "geocoded_column": {
      "latitude": "30.039714022198723",
      "longitude": "-89.95415009457436"
    }
  },
  {
    "service_request": "2023-971504",
    "request_type": "Trash/Recycling",
    "request_reason": "Repair Trash Cart",
    "date_created": "2023-01-30T14:31:02.000",
    "date_modified": "2023-01-30T14:31:03.000",
    "request_status": "Pending",
    "responsible_agency": "Department of Sanitation",
    "final_address": "4926 Strasbourg Pl",
    "address_councildis": "E",
    "status": "Assigned to Contractor",
    "contractor": "Waste Pro",
    "rowid": "971504",
    "final_x": "3725790.6055",
    "final_y": "561703.323423",
    "longitude": "-89.92704890119569",
    "latitude": "30.037068829192815",
    "geocoded_column": {
      "latitude": "30.037068829192815",
      "longitude": "-89.92704890119569"
    }
  },
  {
    "service_request": "2023-971503",
    "request_type": "Trash/Recycling",
    "request_reason": "Missed Trash Pick-Up",
    "date_created": "2023-01-30T14:28:28.000",
    "date_modified": "2023-01-30T14:28:29.000",
    "request_status": "Pending",
    "responsible_agency": "Department of Sanitation",
    "final_address": "334 N Rocheblave St",
    "address_councildis": "B",
    "status": "Assigned to Contractor",
    "contractor": "Richards Disposal",
    "rowid": "971503",
    "final_x": "3676840.43336",
    "final_y": "535372.772934",
    "longitude": "-90.08265077736874",
    "latitude": "29.96623016185205",
    "geocoded_column": {
      "latitude": "29.96623016185205",
      "longitude": "-90.08265077736874"
    }
  },
  {
    "service_request": "2023-971502",
    "request_type": "Trash/Recycling",
    "request_reason": "MIssed Recycling Pick-Up",
    "date_created": "2023-01-30T14:27:17.000",
    "date_modified": "2023-01-30T14:28:07.000",
    "request_status": "Pending",
    "responsible_agency": "Department of Sanitation",
    "final_address": "8321 Grant St",
    "address_councildis": "E",
    "status": "Assigned to Contractor",
    "contractor": "Waste Pro",
    "rowid": "971502",
    "final_x": "3706046.929",
    "final_y": "554487.875224",
    "longitude": "-89.98971018634757",
    "latitude": "30.017880650419887",
    "geocoded_column": {
      "latitude": "30.017880650419887",
      "longitude": "-89.98971018634757"
    }
  },
  {
    "service_request": "2023-971501",
    "request_type": "Abandoned Vehicles",
    "request_reason": "Abandoned/Junk Vehicles",
    "date_created": "2023-01-30T14:24:52.000",
    "date_modified": "2023-01-30T14:24:52.000",
    "request_status": "Pending",
    "responsible_agency": "Department of Public Works",
    "final_address": "217 N Prieur St",
    "address_councildis": "B",
    "status": "Pending",
    "rowid": "971501",
    "final_x": "3677800.92373",
    "final_y": "533987.327749",
    "longitude": "-90.07966543638403",
    "latitude": "29.962391796172422",
    "geocoded_column": {
      "latitude": "29.962391796172422",
      "longitude": "-90.07966543638403"
    }
  },
  {
    "service_request": "2023-971500",
    "request_type": "Trash/Recycling",
    "request_reason": "Order Trash Cart",
    "date_created": "2023-01-30T14:24:16.000",
    "date_modified": "2023-01-30T14:24:17.000",
    "request_status": "Pending",
    "responsible_agency": "Department of Sanitation",
    "final_address": "5617 Providence Pl",
    "address_councildis": "D",
    "status": "Assigned to Contractor",
    "contractor": "IV Waste",
    "rowid": "971500",
    "final_x": "3688370.9526",
    "final_y": "554093.759768",
    "longitude": "-90.04557330807083",
    "latitude": "30.01735505097218",
    "geocoded_column": {
      "latitude": "30.01735505097218",
      "longitude": "-90.04557330807083"
    }
  },
  {
    "service_request": "2023-971497",
    "request_type": "Roads/Drainage",
    "request_reason": "Pothole",
    "date_created": "2023-01-30T14:23:37.000",
    "date_modified": "2023-01-30T14:23:58.000",
    "request_status": "Pending",
    "responsible_agency": "Department of Public Works",
    "final_address": "ELYSIAN FIELDS AVE & GENTILLY BLVD",
    "address_councildis": "D",
    "status": "Pending",
    "rowid": "971497",
    "final_x": "3684059.79",
    "final_y": "547584.11",
    "longitude": "-90.05942349799389",
    "latitude": "29.99958839427118",
    "geocoded_column": {
      "latitude": "29.99958839427118",
      "longitude": "-90.05942349799389"
    }
  },
  {
    "service_request": "2023-971496",
    "request_type": "Mosquito, Termite & Rodent Control",
    "request_reason": "Rodent Complaint (Rats)",
    "date_created": "2023-01-30T14:22:57.000",
    "date_modified": "2023-01-30T14:22:57.000",
    "request_status": "Pending",
    "responsible_agency": "Mosquito, Termite & Rodent Control Board",
    "final_address": "3119 Chippewa St",
    "address_councildis": "B",
    "status": "Pending",
    "rowid": "971496",
    "final_x": "3676769.12174",
    "final_y": "518887.504759",
    "longitude": "-90.08344385339427",
    "latitude": "29.920903266219582",
    "geocoded_column": {
      "latitude": "29.920903266219582",
      "longitude": "-90.08344385339427"
    }
  },
  {
    "service_request": "2023-971495",
    "request_type": "Property Maintenance",
    "request_reason": "Property Maintenance",
    "date_created": "2023-01-30T14:21:00.000",
    "date_modified": "2023-01-30T14:21:00.000",
    "request_status": "Pending",
    "responsible_agency": "Department of Code Enforcement",
    "final_address": "4230 Stephen Girard Ave",
    "address_councildis": "D",
    "status": "Pending",
    "rowid": "971495",
    "final_x": "3690193.77462",
    "final_y": "549881.349012",
    "longitude": "-90.03996417315886",
    "latitude": "30.005716022052756",
    "geocoded_column": {
      "latitude": "30.005716022052756",
      "longitude": "-90.03996417315886"
    }
  },
  {
    "service_request": "2023-971494",
    "request_type": "Trash/Recycling",
    "request_reason": "Repair Trash Cart",
    "date_created": "2023-01-30T14:20:33.000",
    "date_modified": "2023-01-30T14:20:34.000",
    "request_status": "Pending",
    "responsible_agency": "Department of Sanitation",
    "final_address": "4834 Stephen Girard Ave",
    "address_councildis": "D",
    "status": "Assigned to Contractor",
    "contractor": "IV Waste",
    "rowid": "971494",
    "final_x": "3692113.20893",
    "final_y": "550757.673941",
    "longitude": "-90.03386886647093",
    "latitude": "30.00806587998718",
    "geocoded_column": {
      "latitude": "30.00806587998718",
      "longitude": "-90.03386886647093"
    }
  },
  {
    "service_request": "2023-971493",
    "request_type": "Trash/Recycling",
    "request_reason": "Repair Recycling Cart",
    "date_created": "2023-01-30T14:20:30.000",
    "date_modified": "2023-01-30T14:20:30.000",
    "request_status": "Pending",
    "responsible_agency": "Department of Sanitation",
    "final_address": "5806 W Louis Prima Dr",
    "address_councildis": "E",
    "status": "Pending",
    "rowid": "971493",
    "final_x": "3715515.39186",
    "final_y": "562453.671711",
    "longitude": "-89.95949206437257",
    "latitude": "30.03947472744739",
    "geocoded_column": {
      "latitude": "30.03947472744739",
      "longitude": "-89.95949206437257"
    }
  },
  {
    "service_request": "2023-971492",
    "request_type": "Trash/Recycling",
    "request_reason": "MIssed Recycling Pick-Up",
    "date_created": "2023-01-30T14:17:53.000",
    "date_modified": "2023-01-30T14:17:54.000",
    "request_status": "Pending",
    "responsible_agency": "Department of Sanitation",
    "final_address": "7711 Redfish St",
    "address_councildis": "E",
    "status": "Assigned to Contractor",
    "contractor": "Waste Pro",
    "rowid": "971492",
    "final_x": "3698800.94244",
    "final_y": "560476.98851",
    "longitude": "-90.01238642417394",
    "latitude": "30.034580054874983",
    "geocoded_column": {
      "latitude": "30.034580054874983",
      "longitude": "-90.01238642417394"
    }
  },
  {
    "service_request": "2023-971491",
    "request_type": "Roads/Drainage",
    "request_reason": "Pothole",
    "date_created": "2023-01-30T14:14:01.000",
    "date_modified": "2023-01-30T14:14:01.000",
    "request_status": "Pending",
    "responsible_agency": "Department of Public Works",
    "final_address": "2023 N Robertson St",
    "address_councildis": "C",
    "status": "Pending",
    "rowid": "971491",
    "final_x": "3684313.46729",
    "final_y": "537762.008008",
    "longitude": "-90.05896721078686",
    "latitude": "29.972573329461067",
    "geocoded_column": {
      "latitude": "29.972573329461067",
      "longitude": "-90.05896721078686"
    }
  },
  {
    "service_request": "2023-971490",
    "request_type": "Traffic Signals/Signs/Striping/Streetlights",
    "request_reason": "Additional signage",
    "date_created": "2023-01-30T14:04:03.000",
    "date_modified": "2023-01-30T14:04:04.000",
    "request_status": "Pending",
    "responsible_agency": "Department of Public Works",
    "final_address": "2600 BLK Calhoun St",
    "address_councildis": "A",
    "status": "Pending",
    "rowid": "971490",
    "final_x": "3666379.65671",
    "final_y": "526489.439591",
    "longitude": "-90.11598386569283",
    "latitude": "29.942113700911804",
    "geocoded_column": {
      "latitude": "29.942113700911804",
      "longitude": "-90.11598386569283"
    }
  },
  {
    "service_request": "2023-971489",
    "request_type": "Traffic Signals/Signs/Striping/Streetlights",
    "request_reason": "Street Light Outage/Malfunction",
    "date_created": "2023-01-30T14:01:15.000",
    "date_modified": "2023-01-30T14:01:15.000",
    "request_status": "Pending",
    "responsible_agency": "Department of Public Works",
    "final_address": "2400 BLK Westbend Pkwy",
    "address_councildis": "C",
    "status": "Assigned to Contractor",
    "contractor": "Legacy Professional Services",
    "rowid": "971489",
    "final_x": "3696838.34185",
    "final_y": "522019.595184",
    "longitude": "-90.01998146585646",
    "latitude": "29.928898245082987",
    "geocoded_column": {
      "latitude": "29.928898245082987",
      "longitude": "-90.01998146585646"
    }
  },
  {
    "service_request": "2023-971488",
    "request_type": "Trash/Recycling",
    "request_reason": "Repair Trash Cart",
    "date_created": "2023-01-30T13:59:31.000",
    "date_modified": "2023-01-30T14:01:03.000",
    "request_status": "Pending",
    "responsible_agency": "Department of Sanitation",
    "final_address": "3149 Trafalgar St",
    "address_councildis": "A",
    "status": "Assigned to Contractor",
    "contractor": "IV Waste",
    "rowid": "971488",
    "final_x": "3678532.30466",
    "final_y": "543255.582414",
    "longitude": "-90.07703494651676",
    "latitude": "29.987854282135345",
    "geocoded_column": {
      "latitude": "29.987854282135345",
      "longitude": "-90.07703494651676"
    }
  },
  {
    "service_request": "2023-971487",
    "request_type": "Trash/Recycling",
    "request_reason": "Order Trash Cart",
    "date_created": "2023-01-30T13:55:28.000",
    "date_modified": "2023-01-30T13:55:29.000",
    "request_status": "Pending",
    "responsible_agency": "Department of Sanitation",
    "final_address": "2322 Jena St",
    "address_councildis": "B",
    "status": "Assigned to Contractor",
    "contractor": "Richards Disposal",
    "rowid": "971487",
    "final_x": "3670133.06631",
    "final_y": "523518.793467",
    "longitude": "-90.1042341112923",
    "latitude": "29.9338352029547",
    "geocoded_column": {
      "latitude": "29.9338352029547",
      "longitude": "-90.1042341112923"
    }
  },
  {
    "service_request": "2023-971486",
    "request_type": "Trash/Recycling",
    "request_reason": "Order Trash Cart",
    "date_created": "2023-01-30T13:51:26.000",
    "date_modified": "2023-01-30T13:51:29.000",
    "request_status": "Pending",
    "responsible_agency": "Department of Sanitation",
    "final_address": "4720 Raymond Joseph Dr",
    "address_councildis": "E",
    "status": "Assigned to Contractor",
    "contractor": "Waste Pro",
    "rowid": "971486",
    "final_x": "3703646.70513",
    "final_y": "555177.587225",
    "longitude": "-89.99726850200123",
    "latitude": "30.019854264091848",
    "geocoded_column": {
      "latitude": "30.019854264091848",
      "longitude": "-89.99726850200123"
    }
  },
  {
    "service_request": "2023-971485",
    "request_type": "Trash/Recycling",
    "request_reason": "Missed Trash Pick-Up",
    "date_created": "2023-01-30T13:49:10.000",
    "date_modified": "2023-01-30T13:49:11.000",
    "request_status": "Pending",
    "responsible_agency": "Department of Sanitation",
    "final_address": "4733 Raymond Joseph Dr",
    "address_councildis": "E",
    "status": "Assigned to Contractor",
    "contractor": "Waste Pro",
    "rowid": "971485",
    "final_x": "3703745.67908",
    "final_y": "555331.936857",
    "longitude": "-89.99695009069637",
    "latitude": "30.020275492617014",
    "geocoded_column": {
      "latitude": "30.020275492617014",
      "longitude": "-89.99695009069637"
    }
  },
  {
    "service_request": "2023-971484",
    "request_type": "Trash/Recycling",
    "request_reason": "Missed Trash Pick-Up",
    "date_created": "2023-01-30T13:49:00.000",
    "date_modified": "2023-01-30T13:49:01.000",
    "request_status": "Pending",
    "responsible_agency": "Department of Sanitation",
    "final_address": "4720 Raymond Joseph Dr",
    "address_councildis": "E",
    "status": "Assigned to Contractor",
    "contractor": "Waste Pro",
    "rowid": "971484",
    "final_x": "3703646.70513",
    "final_y": "555177.587225",
    "longitude": "-89.99726850200123",
    "latitude": "30.019854264091848",
    "geocoded_column": {
      "latitude": "30.019854264091848",
      "longitude": "-89.99726850200123"
    }
  },
  {
    "service_request": "2023-971483",
    "request_type": "Trash/Recycling",
    "request_reason": "Request a Large Item Pick Up",
    "date_created": "2023-01-30T13:46:11.000",
    "date_modified": "2023-01-30T13:46:11.000",
    "request_status": "Pending",
    "responsible_agency": "Department of Sanitation",
    "final_address": "811 Opelousas Ave",
    "address_councildis": "C",
    "status": "Assigned to Contractor",
    "contractor": "Richards Disposal",
    "rowid": "971483",
    "final_x": "3687924.93564",
    "final_y": "529038.100032",
    "longitude": "-90.04787066104254",
    "latitude": "29.948474669172093",
    "geocoded_column": {
      "latitude": "29.948474669172093",
      "longitude": "-90.04787066104254"
    }
  },
  {
    "service_request": "2023-971482",
    "request_type": "Roads/Drainage",
    "request_reason": "Street Subsidence (Sinking)",
    "date_created": "2023-01-30T13:42:10.000",
    "date_modified": "2023-01-30T13:42:10.000",
    "request_status": "Pending",
    "responsible_agency": "Department of Public Works",
    "final_address": "901 Ursulines Ave",
    "address_councildis": "C",
    "status": "Pending",
    "rowid": "971482",
    "final_x": "3682843.32879",
    "final_y": "534136.940293",
    "longitude": "-90.06373701937721",
    "latitude": "29.962650519674252",
    "geocoded_column": {
      "latitude": "29.962650519674252",
      "longitude": "-90.06373701937721"
    }
  },
  {
    "service_request": "2023-971481",
    "request_type": "Trash/Recycling",
    "request_reason": "Replace Recycling Cart",
    "date_created": "2023-01-30T13:37:53.000",
    "date_modified": "2023-01-30T13:37:53.000",
    "request_status": "Pending",
    "responsible_agency": "Department of Sanitation",
    "final_address": "719 Eleonore St",
    "address_councildis": "A",
    "status": "Pending",
    "rowid": "971481",
    "final_x": "3665229.71546",
    "final_y": "518889.047223",
    "longitude": "-90.11986861739202",
    "latitude": "29.92124857314591",
    "geocoded_column": {
      "latitude": "29.92124857314591",
      "longitude": "-90.11986861739202"
    }
  },
  {
    "service_request": "2023-971480",
    "request_type": "Trash/Recycling",
    "request_reason": "Order Trash Cart",
    "date_created": "2023-01-30T13:37:09.000",
    "date_modified": "2023-01-30T13:37:11.000",
    "request_status": "Pending",
    "responsible_agency": "Department of Sanitation",
    "final_address": "8718 Apricot St",
    "address_councildis": "A",
    "status": "Assigned to Contractor",
    "contractor": "Richards Disposal",
    "rowid": "971480",
    "final_x": "3664127.60583",
    "final_y": "534117.285253",
    "longitude": "-90.12283969313455",
    "latitude": "29.963153403021398",
    "geocoded_column": {
      "latitude": "29.963153403021398",
      "longitude": "-90.12283969313455"
    }
  },
  {
    "service_request": "2023-971479",
    "request_type": "Trash/Recycling",
    "request_reason": "Order Trash Cart",
    "date_created": "2023-01-30T13:35:42.000",
    "date_modified": "2023-01-30T13:35:43.000",
    "request_status": "Pending",
    "responsible_agency": "Department of Sanitation",
    "final_address": "1316 Eighth St",
    "address_councildis": "B",
    "status": "Assigned to Contractor",
    "contractor": "Richards Disposal",
    "rowid": "971479",
    "final_x": "3675583.6619",
    "final_y": "520932.581049",
    "longitude": "-90.08711560686326",
    "latitude": "29.926562069643744",
    "geocoded_column": {
      "latitude": "29.926562069643744",
      "longitude": "-90.08711560686326"
    }
  },
  {
    "service_request": "2023-971478",
    "request_type": "Roads/Drainage",
    "request_reason": "Pothole",
    "date_created": "2023-01-30T13:31:31.000",
    "date_modified": "2023-01-30T13:31:31.000",
    "request_status": "Pending",
    "responsible_agency": "Department of Public Works",
    "final_address": "6478 Memphis St",
    "address_councildis": "A",
    "status": "Pending",
    "rowid": "971478",
    "final_x": "3669402.36321",
    "final_y": "550600.567956",
    "longitude": "-90.10562486910295",
    "latitude": "30.008322531724886",
    "geocoded_column": {
      "latitude": "30.008322531724886",
      "longitude": "-90.10562486910295"
    }
  },
  {
    "service_request": "2023-971477",
    "request_type": "Trash/Recycling",
    "request_reason": "Missed Trash Pick-Up",
    "date_created": "2023-01-30T13:27:46.000",
    "date_modified": "2023-01-30T13:27:47.000",
    "request_status": "Pending",
    "responsible_agency": "Department of Sanitation",
    "final_address": "1310 N Galvez St",
    "address_councildis": "D",
    "status": "Assigned to Contractor",
    "contractor": "Richards Disposal",
    "rowid": "971477",
    "final_x": "3679799.89979",
    "final_y": "537496.192072",
    "longitude": "-90.07323110053386",
    "latitude": "29.971979683511766",
    "geocoded_column": {
      "latitude": "29.971979683511766",
      "longitude": "-90.07323110053386"
    }
  },