[
  {
    "service_request": "2025-1188742",
    "request_type": "Drainage",
    "request_reason": "Catch Basin Damaged",
    "date_created": "2025-05-01T23:29:55.000",
    "date_modified": "2025-05-01T23:29:57.000",
    "request_status": "Pending",
    "responsible_agency": "Sewerage & Water Board",
    "final_address": "2040 St Charles Ave",
    "address_councildis": "B",
    "status": "Pending",
    "rowid": "1188742",
    "final_x": "3678049.93326",
    "final_y": "523942.318268",
    "longitude": "-90.07922627833999",
    "latitude": "29.934763877545684",
    "geocoded_column": {
      "latitude": "29.934763877545684",
      "longitude": "-90.07922627833999"
    }
  },
  {
    "service_request": "2025-1188741",
    "request_type": "Abandoned Vehicles",
    "request_reason": "Abandoned/Junk Vehicles",
    "date_created": "2025-05-01T23:07:23.000",
    "date_modified": "2025-05-01T23:07:51.000",
    "request_status": "Pending",
    "responsible_agency": "Department of Public Works",
    "final_address": "1500 BLK Holiday Pl",
    "address_councildis": "C",
    "status": "Pending",
    "rowid": "1188741",
    "final_x": "3698954.397",
    "final_y": "525259.244873",
    "longitude": "-90.01318372046597",
    "latitude": "29.937739301675318",
    "geocoded_column": {
      "latitude": "29.937739301675318",
      "longitude": "-90.01318372046597"
    }
  },
  {
    "service_request": "2025-1188740",
    "request_type": "Property Maintenance",
    "request_reason": "Property Maintenance",
    "date_created": "2025-05-01T22:31:07.000",
    "date_modified": "2025-05-01T22:31:10.000",
    "request_status": "Pending",
    "responsible_agency": "Department of Code Enforcement",
    "final_address": "4621 Stephen Girard Ave",
    "address_councildis": "D",
    "status": "Pending",
    "rowid": "1188740",
    "final_x": "3691194.96764",
    "final_y": "550533.859988",
    "longitude": "-90.03677786032442",
    "latitude": "30.007479075508122",
    "geocoded_column": {
      "latitude": "30.007479075508122",
      "longitude": "-90.03677786032442"
    }
  },
  {
    "service_request": "2025-1188739",
    "request_type": "Property Maintenance",
    "request_reason": "Property Maintenance",
    "date_created": "2025-05-01T22:18:36.000",
    "date_modified": "2025-05-01T22:18:38.000",
    "request_status": "Pending",
    "responsible_agency": "Department of Code Enforcement",
    "final_address": "4629 Gaines St",
    "address_councildis": "D",
    "status": "Pending",
    "rowid": "1188739",
    "final_x": "3691079.16284",
    "final_y": "551388.660629",
    "longitude": "-90.03711316966044",
    "latitude": "30.009833064582338",
    "geocoded_column": {
      "latitude": "30.009833064582338",
      "longitude": "-90.03711316966044"
    }
  },
  {
    "service_request": "2025-1188738",
    "request_type": "Trash/Recycling",
    "request_reason": "Request a Large Item Pick Up",
    "date_created": "2025-05-01T22:12:44.000",
    "date_modified": "2025-05-01T22:12:47.000",
    "request_status": "Pending",
    "responsible_agency": "Department of Sanitation",
    "final_address": "4848 Eastview Dr",
    "address_councildis": "E",
    "status": "Assigned to Contractor",
    "contractor": "Waste Pro",
    "rowid": "1188738",
    "final_x": "3704976.11012",
    "final_y": "556033.546457",
    "longitude": "-89.99303640942786",
    "latitude": "30.022165132281128",
    "geocoded_column": {
      "latitude": "30.022165132281128",
      "longitude": "-89.99303640942786"
    }
  },
  {
    "service_request": "2025-1188737",
    "request_type": "Roads and Streets",
    "request_reason": "Street Subsidence (Sinking)",
    "date_created": "2025-05-01T21:19:15.000",
    "date_modified": "2025-05-01T21:19:17.000",
    "request_status": "Pending",
    "responsible_agency": "Department of Public Works",
    "final_address": "9705 Andover Dr",
    "address_councildis": "E",
    "status": "Pending",
    "rowid": "1188737",
    "final_x": "3708322.88164",
    "final_y": "561806.384223",
    "longitude": "-89.9822464623152",
    "latitude": "30.03793010079997",
    "geocoded_column": {
      "latitude": "30.03793010079997",
      "longitude": "-89.9822464623152"
    }
  },
  {
    "service_request": "2025-1188736",
    "request_type": "Trash/Recycling",
    "request_reason": "Request a Large Item Pick Up",
    "date_created": "2025-05-01T20:55:45.000",
    "date_modified": "2025-05-01T20:55:48.000",
    "request_status": "Pending",
    "responsible_agency": "Department of Sanitation",
    "final_address": "3117 Toulouse St",
    "address_councildis": "A",
    "status": "Assigned to Contractor",
    "contractor": "IV Waste",
    "rowid": "1188736",
    "final_x": "3675077.22299",
    "final_y": "537641.356744",
    "longitude": "-90.08814111339083",
    "latitude": "29.97252079842955",
    "geocoded_column": {
      "latitude": "29.97252079842955",
      "longitude": "-90.08814111339083"
    }
  },
  {
    "service_request": "2025-1188735",
    "request_type": "Trash/Recycling",
    "request_reason": "Order Trash Cart",
    "date_created": "2025-05-01T20:49:12.000",
    "date_modified": "2025-05-01T20:49:14.000",
    "request_status": "Pending",
    "responsible_agency": "Department of Sanitation",
    "final_address": "1600 N Dupre St",
    "address_councildis": "D",
    "status": "Assigned to Contractor",
    "contractor": "IV Waste",
    "rowid": "1188735",
    "final_x": "3678560.76923",
    "final_y": "540617.526475",
    "longitude": "-90.07703639638592",
    "latitude": "29.980599688162833",
    "geocoded_column": {
      "latitude": "29.980599688162833",
      "longitude": "-90.07703639638592"
    }
  },
  {
    "service_request": "2025-1188734",
    "request_type": "Abandoned Vehicles",
    "request_reason": "Abandoned/Junk Vehicles",
    "date_created": "2025-05-01T20:47:22.000",
    "date_modified": "2025-05-01T20:47:24.000",
    "request_status": "Pending",
    "responsible_agency": "Department of Public Works",
    "final_address": "409 S Cortez St",
    "address_councildis": "B",
    "status": "Pending",
    "rowid": "1188734",
    "final_x": "3671237.48052",
    "final_y": "536555.424967",
    "longitude": "-90.10030464053091",
    "latitude": "29.96964902722082",
    "geocoded_column": {
      "latitude": "29.96964902722082",
      "longitude": "-90.10030464053091"
    }
  },
  {
    "service_request": "2025-1188733",
    "request_type": "Trash/Recycling",
    "request_reason": "Order Trash Cart",
    "date_created": "2025-05-01T20:44:26.000",
    "date_modified": "2025-05-01T20:44:29.000",
    "request_status": "Pending",
    "responsible_agency": "Department of Sanitation",
    "final_address": "1600 N Dupre St",
    "address_councildis": "D",
    "status": "Assigned to Contractor",
    "contractor": "IV Waste",
    "rowid": "1188733",
    "final_x": "3678560.76923",
    "final_y": "540617.526475",
    "longitude": "-90.07703639638592",
    "latitude": "29.980599688162833",
    "geocoded_column": {
      "latitude": "29.980599688162833",
      "longitude": "-90.07703639638592"
    }
  },
  {
    "service_request": "2025-1188732",
    "request_type": "Streetlights",
    "request_reason": "Streetlight Outage/Malfunction",
    "date_created": "2025-05-01T20:30:54.000",
    "date_modified": "2025-05-01T20:30:57.000",
    "request_status": "Pending",
    "responsible_agency": "Department of Public Works",
    "final_address": "1115 Crete St",
    "address_councildis": "A",
    "status": "Pending",
    "contractor": "Legacy Professional Services",
    "rowid": "1188732",
    "final_x": "3677617.11163",
    "final_y": "538827.812617",
    "longitude": "-90.08007870441617",
    "latitude": "29.9757070068908",
    "geocoded_column": {
      "latitude": "29.9757070068908",
      "longitude": "-90.08007870441617"
    }
  },
  {
    "service_request": "2025-1188731",
    "request_type": "Trash/Recycling",
    "request_reason": "MIssed Recycling Pick-Up",
    "date_created": "2025-05-01T19:54:52.000",
    "date_modified": "2025-05-01T19:54:54.000",
    "request_status": "Pending",
    "responsible_agency": "Department of Sanitation",
    "final_address": "10 Palm Ter",
    "address_councildis": "B",
    "status": "Assigned to Contractor",
    "contractor": "IV Waste",
    "rowid": "1188731",
    "final_x": "3671773.60148",
    "final_y": "521238.328441",
    "longitude": "-90.09913254951194",
    "latitude": "29.927516168928225",
    "geocoded_column": {
      "latitude": "29.927516168928225",
      "longitude": "-90.09913254951194"
    }
  },
  {
    "service_request": "2025-1188730",
    "request_type": "Roads and Streets",
    "request_reason": "Sidewalk Damaged or Missing",
    "date_created": "2025-05-01T19:38:55.000",
    "date_modified": "2025-05-01T19:38:56.000",
    "request_status": "Pending",
    "responsible_agency": "Department of Public Works",
    "final_address": "8200 Willow St",
    "address_councildis": "A",
    "status": "Pending",
    "rowid": "1188730",
    "final_x": "3662101.86599",
    "final_y": "529136.635328",
    "longitude": "-90.12940203059486",
    "latitude": "29.949516915823203",
    "geocoded_column": {
      "latitude": "29.949516915823203",
      "longitude": "-90.12940203059486"
    }
  },
  {
    "service_request": "2025-1188729",
    "request_type": "Property Maintenance",
    "request_reason": "Property Maintenance",
    "date_created": "2025-05-01T19:24:22.000",
    "date_modified": "2025-05-01T19:24:24.000",
    "request_status": "Pending",
    "responsible_agency": "Department of Code Enforcement",
    "final_address": "8201 Nelson St",
    "address_councildis": "A",
    "status": "Pending",
    "rowid": "1188729",
    "final_x": "3664863.62432",
    "final_y": "532126.378371",
    "longitude": "-90.12058196539877",
    "latitude": "29.95765766031686",
    "geocoded_column": {
      "latitude": "29.95765766031686",
      "longitude": "-90.12058196539877"
    }
  },
  {
    "service_request": "2025-1188728",
    "request_type": "Abandoned Vehicles",
    "request_reason": "Abandoned/Junk Vehicles",
    "date_created": "2025-05-01T19:22:29.000",
    "date_modified": "2025-05-01T19:22:31.000",
    "request_status": "Pending",
    "responsible_agency": "Department of Public Works",
    "final_address": "8415 S Claiborne Ave",
    "address_councildis": "A",
    "status": "Pending",
    "rowid": "1188728",
    "final_x": "3664028.86919",
    "final_y": "532414.782915",
    "longitude": "-90.12320827256829",
    "latitude": "29.9584749457659",
    "geocoded_column": {
      "latitude": "29.9584749457659",
      "longitude": "-90.12320827256829"
    }
  },
  {
    "service_request": "2025-1188727",
    "request_type": "Trash/Recycling",
    "request_reason": "Repair Trash Cart",
    "date_created": "2025-05-01T19:13:56.000",
    "date_modified": "2025-05-01T19:13:59.000",
    "request_status": "Pending",
    "responsible_agency": "Department of Sanitation",
    "final_address": "3507 Danneel St",
    "address_councildis": "B",
    "status": "Assigned to Contractor",
    "contractor": "IV Waste",
    "rowid": "1188727",
    "final_x": "3673178.49019",
    "final_y": "522722.380474",
    "longitude": "-90.09464700833146",
    "latitude": "29.93155514984597",
    "geocoded_column": {
      "latitude": "29.93155514984597",
      "longitude": "-90.09464700833146"
    }
  },
  {
    "service_request": "2025-1188726",
    "request_type": "Trash/Recycling",
    "request_reason": "Request a Large Item Pick Up",
    "date_created": "2025-05-01T19:10:51.000",
    "date_modified": "2025-05-01T19:10:53.000",
    "request_status": "Pending",
    "responsible_agency": "Department of Sanitation",
    "final_address": "621 First St",
    "address_councildis": "B",
    "status": "Assigned to Contractor",
    "contractor": "IV Waste",
    "rowid": "1188726",
    "final_x": "3679004.1636",
    "final_y": "520156.274104",
    "longitude": "-90.07634490701231",
    "latitude": "29.92432474356475",
    "geocoded_column": {
      "latitude": "29.92432474356475",
      "longitude": "-90.07634490701231"
    }
  },
  {
    "service_request": "2025-1188725",
    "request_type": "General Services",
    "request_reason": "General Service Request",
    "date_created": "2025-05-01T19:04:14.000",
    "date_modified": "2025-05-01T19:04:16.000",
    "request_status": "Pending",
    "responsible_agency": "Orleans Parish Communication District",
    "final_address": "2006 Josephine St",
    "address_councildis": "B",
    "status": "Pending",
    "rowid": "1188725",
    "final_x": "3676867.51681",
    "final_y": "525239.792317",
    "longitude": "-90.0829144513562",
    "latitude": "29.938367037043424",
    "geocoded_column": {
      "latitude": "29.938367037043424",
      "longitude": "-90.0829144513562"
    }
  },
  {
    "service_request": "2025-1188724",
    "request_type": "Abandoned Vehicles",
    "request_reason": "Abandoned/Junk Vehicles",
    "date_created": "2025-05-01T18:51:05.000",
    "date_modified": "2025-05-01T18:51:08.000",
    "request_status": "Pending",
    "responsible_agency": "Department of Public Works",
    "final_address": "8237 Apricot St",
    "address_councildis": "A",
    "status": "Pending",
    "rowid": "1188724",
    "final_x": "3665372.41389",
    "final_y": "533087.166724",
    "longitude": "-90.11894319578644",
    "latitude": "29.960284697163896",
    "geocoded_column": {
      "latitude": "29.960284697163896",
      "longitude": "-90.11894319578644"
    }
  },
  {
    "service_request": "2025-1188723",
    "request_type": "Trash/Recycling",
    "request_reason": "Missed Trash Pick-Up",
    "date_created": "2025-05-01T18:05:46.000",
    "date_modified": "2025-05-01T18:05:48.000",
    "request_status": "Pending",
    "responsible_agency": "Department of Sanitation",
    "final_address": "3993 S Front St",
    "address_councildis": "B",
    "status": "Assigned to Contractor",
    "contractor": "IV Waste",
    "rowid": "1188723",
    "final_x": "3672704.029",
    "final_y": "517393.301301",
    "longitude": "-90.09632644752156",
    "latitude": "29.916915983460342",
    "geocoded_column": {
      "latitude": "29.916915983460342",
      "longitude": "-90.09632644752156"
    }
  },
  {
    "service_request": "2025-1188722",
    "request_type": "Trash/Recycling",
    "request_reason": "Request a Large Item Pick Up",
    "date_created": "2025-05-01T17:39:47.000",
    "date_modified": "2025-05-01T17:39:49.000",
    "request_status": "Pending",
    "responsible_agency": "Department of Sanitation",
    "final_address": "1500 Ursulines Ave",
    "address_councildis": "C",
    "status": "Assigned to Contractor",
    "contractor": "IV Waste",
    "rowid": "1188722",
    "final_x": "3681159.40335",
    "final_y": "535358.626246",
    "longitude": "-90.06901205928978",
    "latitude": "29.96606093355777",
    "geocoded_column": {
      "latitude": "29.96606093355777",
      "longitude": "-90.06901205928978"
    }
  },
  {
    "service_request": "2025-1188721",
    "request_type": "Mosquito, Termite & Rodent Control",
    "request_reason": "Mosquito Complaint",
    "date_created": "2025-05-01T17:37:27.000",
    "date_modified": "2025-05-01T17:37:29.000",
    "request_status": "Pending",
    "responsible_agency": "Mosquito, Termite & Rodent Control Board",
    "final_address": "5017 Shirley Taylor St",
    "address_councildis": "E",
    "status": "Pending",
    "rowid": "1188721",
    "final_x": "3697483.49053",
    "final_y": "539136.588554",
    "longitude": "-90.01732427813175",
    "latitude": "29.975943609597433",
    "geocoded_column": {
      "latitude": "29.975943609597433",
      "longitude": "-90.01732427813175"
    }
  },
  {
    "service_request": "2025-1188720",
    "request_type": "Property Maintenance",
    "request_reason": "Property Maintenance",
    "date_created": "2025-05-01T17:35:08.000",
    "date_modified": "2025-05-01T17:35:10.000",
    "request_status": "Pending",
    "responsible_agency": "Department of Code Enforcement",
    "final_address": "4629 Gaines St",
    "address_councildis": "D",
    "status": "Pending",
    "rowid": "1188720",
    "final_x": "3691079.16284",
    "final_y": "551388.660629",
    "longitude": "-90.03711316966044",
    "latitude": "30.009833064582338",
    "geocoded_column": {
      "latitude": "30.009833064582338",
      "longitude": "-90.03711316966044"
    }
  },
  {
    "service_request": "2025-1188719",
    "request_type": "Trash/Recycling",
    "request_reason": "Return Trash Cart",
    "date_created": "2025-05-01T16:58:59.000",
    "date_modified": "2025-05-01T16:59:01.000",
    "request_status": "Pending",
    "responsible_agency": "Department of Sanitation",
    "final_address": "2114 Jena St",
    "address_councildis": "B",
    "status": "Assigned to Contractor",
    "contractor": "IV Waste",
    "rowid": "1188719",
    "final_x": "3670175.6626",
    "final_y": "522731.64857",
    "longitude": "-90.10412629417095",
    "latitude": "29.931669550921004",
    "geocoded_column": {
      "latitude": "29.931669550921004",
      "longitude": "-90.10412629417095"
    }
  },
  {
    "service_request": "2025-1188718",
    "request_type": "Trash/Recycling",
    "request_reason": "Order Second Trash Cart",
    "date_created": "2025-05-01T16:57:30.000",
    "date_modified": "2025-05-01T16:57:32.000",
    "request_status": "Pending",
    "responsible_agency": "Department of Sanitation",
    "final_address": "929 St Maurice Ave",
    "address_councildis": "E",
    "status": "Assigned to Contractor",
    "contractor": "Waste Pro",
    "rowid": "1188718",
    "final_x": "3699644.585",
    "final_y": "532611.274564",
    "longitude": "-90.01073684320649",
    "latitude": "29.95793291471013",
    "geocoded_column": {
      "latitude": "29.95793291471013",
      "longitude": "-90.01073684320649"
    }
  },
  {
    "service_request": "2025-1188717",
    "request_type": "Trash/Recycling",
    "request_reason": "MIssed Recycling Pick-Up",
    "date_created": "2025-05-01T16:53:58.000",
    "date_modified": "2025-05-01T16:54:00.000",
    "request_status": "Pending",
    "responsible_agency": "Department of Sanitation",
    "final_address": "5121 St Charles Ave",
    "address_councildis": "B",
    "status": "Assigned to Contractor",
    "contractor": "IV Waste",
    "rowid": "1188717",
    "final_x": "3668246.2738",
    "final_y": "521242.317561",
    "longitude": "-90.11026736026271",
    "latitude": "29.927631135840503",
    "geocoded_column": {
      "latitude": "29.927631135840503",
      "longitude": "-90.11026736026271"
    }
  },
  {
    "service_request": "2025-1188716",
    "request_type": "Trash/Recycling",
    "request_reason": "Request a Large Item Pick Up",
    "date_created": "2025-05-01T16:53:25.000",
    "date_modified": "2025-05-01T16:53:27.000",
    "request_status": "Pending",
    "responsible_agency": "Department of Sanitation",
    "final_address": "3620 Annunciation St",
    "address_councildis": "B",
    "status": "Assigned to Contractor",
    "contractor": "IV Waste",
    "rowid": "1188716",
    "final_x": "3674347.06964",
    "final_y": "518172.687862",
    "longitude": "-90.09111364422056",
    "latitude": "29.919010172508006",
    "geocoded_column": {
      "latitude": "29.919010172508006",
      "longitude": "-90.09111364422056"
    }
  },
  {
    "service_request": "2025-1188715",
    "request_type": "Trash/Recycling",
    "request_reason": "Order Recycling Cart",
    "date_created": "2025-05-01T16:46:47.000",
    "date_modified": "2025-05-01T16:46:48.000",
    "request_status": "Pending",
    "responsible_agency": "Department of Sanitation",
    "final_address": "6014 St Anthony Ave",
    "address_councildis": "D",
    "status": "Pending",
    "rowid": "1188715",
    "final_x": "3681937.1734",
    "final_y": "554839.377368",
    "longitude": "-90.06587539088027",
    "latitude": "30.01960247414256",
    "geocoded_column": {
      "latitude": "30.01960247414256",
      "longitude": "-90.06587539088027"
    }
  },
  {
    "service_request": "2025-1188714",
    "request_type": "Trash/Recycling",
    "request_reason": "Request a Large Item Pick Up",
    "date_created": "2025-05-01T16:46:31.000",
    "date_modified": "2025-05-01T16:46:33.000",
    "request_status": "Pending",
    "responsible_agency": "Department of Sanitation",
    "final_address": "7331 Canterbury St",
    "address_councildis": "E",
    "status": "Assigned to Contractor",
    "contractor": "Waste Pro",
    "rowid": "1188714",
    "final_x": "3698976.67415",
    "final_y": "559247.8095",
    "longitude": "-90.01187588716543",
    "latitude": "30.031194715789955",
    "geocoded_column": {
      "latitude": "30.031194715789955",
      "longitude": "-90.01187588716543"
    }
  },
  {
    "service_request": "2025-1188713",
    "request_type": "Trash/Recycling",
    "request_reason": "Request a Large Item Pick Up",
    "date_created": "2025-05-01T16:45:13.000",
    "date_modified": "2025-05-01T16:45:16.000",
    "request_status": "Pending",
    "responsible_agency": "Department of Sanitation",
    "final_address": "1219 Casa Calvo St",
    "address_councildis": "C",
    "status": "Assigned to Contractor",
    "contractor": "Richards Disposal",
    "rowid": "1188713",
    "final_x": "3692044.87939",
    "final_y": "526832.823486",
    "longitude": "-90.03494122853364",
    "latitude": "29.94228318618194",
    "geocoded_column": {
      "latitude": "29.94228318618194",
      "longitude": "-90.03494122853364"
    }
  },
  {
    "service_request": "2025-1188712",
    "request_type": "Abandoned Vehicles",
    "request_reason": "Abandoned/Junk Vehicles",
    "date_created": "2025-05-01T16:45:01.000",
    "date_modified": "2025-05-01T16:45:04.000",
    "request_status": "Pending",
    "responsible_agency": "Department of Public Works",
    "final_address": "4908 Dodt Ave",
    "address_councildis": "E",
    "status": "Pending",
    "rowid": "1188712",
    "final_x": "3705272.55268",
    "final_y": "556163.039194",
    "longitude": "-89.99209494307124",
    "latitude": "30.022511649495048",
    "geocoded_column": {
      "latitude": "30.022511649495048",
      "longitude": "-89.99209494307124"
    }
  },
  {
    "service_request": "2025-1188711",
    "request_type": "Abandoned Vehicles",
    "request_reason": "Abandoned/Junk Vehicles",
    "date_created": "2025-05-01T16:41:53.000",
    "date_modified": "2025-05-01T16:41:55.000",
    "request_status": "Pending",
    "responsible_agency": "Department of Public Works",
    "final_address": "4908 Dodt Ave",
    "address_councildis": "E",
    "status": "Pending",
    "rowid": "1188711",
    "final_x": "3705272.55268",
    "final_y": "556163.039194",
    "longitude": "-89.99209494307124",
    "latitude": "30.022511649495048",
    "geocoded_column": {
      "latitude": "30.022511649495048",
      "longitude": "-89.99209494307124"
    }
  },
  {
    "service_request": "2025-1188710",
    "request_type": "Mosquito, Termite & Rodent Control",
    "request_reason": "Mosquito Complaint",
    "date_created": "2025-05-01T16:40:02.000",
    "date_modified": "2025-05-01T16:40:04.000",
    "request_status": "Pending",
    "responsible_agency": "Mosquito, Termite & Rodent Control Board",
    "final_address": "1527 Deslonde St",
    "address_councildis": "E",
    "status": "Pending",
    "rowid": "1188710",
    "final_x": "3695894.03389",
    "final_y": "536099.915079",
    "longitude": "-90.02245393302734",
    "latitude": "29.96764394311479",
    "geocoded_column": {
      "latitude": "29.96764394311479",
      "longitude": "-90.02245393302734"
    }
  },
  {
    "service_request": "2025-1188709",
    "request_type": "Utility Poles",
    "request_reason": "Wires Sagging/Hanging Low",
    "date_created": "2025-05-01T16:36:20.000",
    "date_modified": "2025-05-01T16:36:25.000",
    "request_status": "Pending",
    "responsible_agency": "Utility Company Collective",
    "final_address": "0 BLK Bamboo Rd",
    "status": "Pending",
    "rowid": "1188709",
    "final_x": "3663403.66299",
    "final_y": "539407.85962",
    "longitude": "-90.12494964049188",
    "latitude": "29.97772174538776",
    "geocoded_column": {
      "latitude": "29.97772174538776",
      "longitude": "-90.12494964049188"
    }
  },
  {
    "service_request": "2025-1188708",
    "request_type": "Trash/Recycling",
    "request_reason": "Missed Trash Pick-Up",
    "date_created": "2025-05-01T16:35:49.000",
    "date_modified": "2025-05-01T16:35:51.000",
    "request_status": "Pending",
    "responsible_agency": "Department of Sanitation",
    "final_address": "9952 Grant St",
    "address_councildis": "E",
    "status": "Assigned to Contractor",
    "contractor": "Waste Pro",
    "rowid": "1188708",
    "final_x": "3712509.95826",
    "final_y": "555133.311513",
    "longitude": "-89.9692654391003",
    "latitude": "30.019445380159866",
    "geocoded_column": {
      "latitude": "30.019445380159866",
      "longitude": "-89.9692654391003"
    }
  },
  {
    "service_request": "2025-1188707",
    "request_type": "Roads and Streets",
    "request_reason": "Pothole",
    "date_created": "2025-05-01T16:33:41.000",
    "date_modified": "2025-05-01T16:33:43.000",
    "request_status": "Pending",
    "responsible_agency": "Department of Public Works",
    "final_address": "7901 Buffalo St",
    "address_councildis": "E",
    "status": "Pending",
    "rowid": "1188707",
    "final_x": "3719474.28607",
    "final_y": "574007.854186",
    "longitude": "-89.94653900453636",
    "latitude": "30.071112827049767",
    "geocoded_column": {
      "latitude": "30.071112827049767",
      "longitude": "-89.94653900453636"
    }
  },
  {
    "service_request": "2025-1188706",
    "request_type": "Trash/Recycling",
    "request_reason": "Request a Large Item Pick Up",
    "date_created": "2025-05-01T16:33:00.000",
    "date_modified": "2025-05-01T16:33:03.000",
    "request_status": "Pending",
    "responsible_agency": "Department of Sanitation",
    "final_address": "2204 Third St",
    "address_councildis": "B",
    "status": "Assigned to Contractor",
    "contractor": "IV Waste",
    "rowid": "1188706",
    "final_x": "3675193.89729",
    "final_y": "524700.24902",
    "longitude": "-90.088216748371",
    "latitude": "29.936933582459005",
    "geocoded_column": {
      "latitude": "29.936933582459005",
      "longitude": "-90.088216748371"
    }
  },
  {
    "service_request": "2025-1188705",
    "request_type": "Property Maintenance",
    "request_reason": "Property Maintenance",
    "date_created": "2025-05-01T16:25:41.000",
    "date_modified": "2025-05-01T16:25:43.000",
    "request_status": "Pending",
    "responsible_agency": "Department of Code Enforcement",
    "final_address": "7718 Cohn St",
    "address_councildis": "A",
    "status": "Pending",
    "rowid": "1188705",
    "final_x": "3664551.26765",
    "final_y": "529286.268801",
    "longitude": "-90.12166313581278",
    "latitude": "29.949857367330175",
    "geocoded_column": {
      "latitude": "29.949857367330175",
      "longitude": "-90.12166313581278"
    }
  },
  {
    "service_request": "2025-1188704",
    "request_type": "Roads and Streets",
    "request_reason": "Street Subsidence (Sinking)",
    "date_created": "2025-05-01T16:24:05.000",
    "date_modified": "2025-05-01T16:24:07.000",
    "request_status": "Pending",
    "responsible_agency": "Department of Public Works",
    "final_address": "7560 Rochon Ave",
    "address_councildis": "E",
    "status": "Pending",
    "rowid": "1188704",
    "final_x": "3718823.21823",
    "final_y": "571412.275432",
    "longitude": "-89.94869635494393",
    "latitude": "30.06399772600298",
    "geocoded_column": {
      "latitude": "30.06399772600298",
      "longitude": "-89.94869635494393"
    }
  },
  {
    "service_request": "2025-1188703",
    "request_type": "Property Maintenance",
    "request_reason": "Property Maintenance",
    "date_created": "2025-05-01T16:21:12.000",
    "date_modified": "2025-05-01T16:21:13.000",
    "request_status": "Pending",
    "responsible_agency": "Department of Code Enforcement",
    "final_address": "8041 Wave Dr",
    "address_councildis": "E",
    "status": "Pending",
    "rowid": "1188703",
    "final_x": "3714065.3964",
    "final_y": "570122.969447",
    "longitude": "-89.96378474204845",
    "latitude": "30.060609893722436",
    "geocoded_column": {
      "latitude": "30.060609893722436",
      "longitude": "-89.96378474204845"
    }
  },
  {
    "service_request": "2025-1188702",
    "request_type": "Property Maintenance",
    "request_reason": "Property Maintenance",
    "date_created": "2025-05-01T16:18:41.000",
    "date_modified": "2025-05-01T16:18:43.000",
    "request_status": "Pending",
    "responsible_agency": "Department of Code Enforcement",
    "final_address": "7718 Cohn St",
    "address_councildis": "A",
    "status": "Pending",
    "rowid": "1188702",
    "final_x": "3664551.26765",
    "final_y": "529286.268801",
    "longitude": "-90.12166313581278",
    "latitude": "29.949857367330175",
    "geocoded_column": {
      "latitude": "29.949857367330175",
      "longitude": "-90.12166313581278"
    }
  },
  {
    "service_request": "2025-1188701",
    "request_type": "Trash/Recycling",
    "request_reason": "Request a Large Item Pick Up",
    "date_created": "2025-05-01T16:17:06.000",
    "date_modified": "2025-05-01T16:17:08.000",
    "request_status": "Pending",
    "responsible_agency": "Department of Sanitation",
    "final_address": "4666 Longfellow Dr",
    "address_councildis": "E",
    "status": "Assigned to Contractor",
    "contractor": "Waste Pro",
    "rowid": "1188701",
    "final_x": "3709598.93144",
    "final_y": "555371.742809",
    "longitude": "-89.97845431172493",
    "latitude": "30.020195938629954",
    "geocoded_column": {
      "latitude": "30.020195938629954",
      "longitude": "-89.97845431172493"
    }
  },
  {
    "service_request": "2025-1188700",
    "request_type": "Property Maintenance",
    "request_reason": "Property Maintenance",
    "date_created": "2025-05-01T16:16:15.000",
    "date_modified": "2025-05-01T16:16:16.000",
    "request_status": "Pending",
    "responsible_agency": "Department of Code Enforcement",
    "final_address": "7718 Cohn St",
    "address_councildis": "A",
    "status": "Pending",
    "rowid": "1188700",
    "final_x": "3664551.26765",
    "final_y": "529286.268801",
    "longitude": "-90.12166313581278",
    "latitude": "29.949857367330175",
    "geocoded_column": {
      "latitude": "29.949857367330175",
      "longitude": "-90.12166313581278"
    }
  },
  {
    "service_request": "2025-1188699",
    "request_type": "Trash/Recycling",
    "request_reason": "Request a Large Item Pick Up",
    "date_created": "2025-05-01T16:13:09.000",
    "date_modified": "2025-05-01T16:13:11.000",
    "request_status": "Pending",
    "responsible_agency": "Department of Sanitation",
    "final_address": "720 Philip St",
    "address_councildis": "B",
    "status": "Assigned to Contractor",
    "contractor": "IV Waste",
    "rowid": "1188699",
    "final_x": "3679307.27407",
    "final_y": "520789.751161",
    "longitude": "-90.07536613872674",
    "latitude": "29.9260574524507",
    "geocoded_column": {
      "latitude": "29.9260574524507",
      "longitude": "-90.07536613872674"
    }
  },
  {
    "service_request": "2025-1188698",
    "request_type": "Parks & Parkways",
    "request_reason": "Request Grass Cutting Service (City Owned Property)",
    "date_created": "2025-05-01T16:11:25.000",
    "date_modified": "2025-05-01T16:11:28.000",
    "request_status": "Pending",
    "responsible_agency": "Department of Parks & Parkway",
    "final_address": "5324 N Galvez St",
    "address_councildis": "E",
    "status": "Pending",
    "rowid": "1188698",
    "final_x": "3697990.90224",
    "final_y": "537648.572872",
    "longitude": "-90.01577577418092",
    "latitude": "29.971836068875117",
    "geocoded_column": {
      "latitude": "29.971836068875117",
      "longitude": "-90.01577577418092"
    }
  },
  {
    "service_request": "2025-1188697",
    "request_type": "Trash/Recycling",
    "request_reason": "Request a Large Item Pick Up",
    "date_created": "2025-05-01T16:10:54.000",
    "date_modified": "2025-05-01T16:10:56.000",
    "request_status": "Pending",
    "responsible_agency": "Department of Sanitation",
    "final_address": "5324 N Galvez St",
    "address_councildis": "E",
    "status": "Assigned to Contractor",
    "contractor": "Waste Pro",
    "rowid": "1188697",
    "final_x": "3697990.90224",
    "final_y": "537648.572872",
    "longitude": "-90.01577577418092",
    "latitude": "29.971836068875117",
    "geocoded_column": {
      "latitude": "29.971836068875117",
      "longitude": "-90.01577577418092"
    }
  },
  {
    "service_request": "2025-1188696",
    "request_type": "Trash/Recycling",
    "request_reason": "Replace Trash Cart",
    "date_created": "2025-05-01T16:10:29.000",
    "date_modified": "2025-05-01T16:10:31.000",
    "request_status": "Pending",
    "responsible_agency": "Department of Sanitation",
    "final_address": "4122 S Derbigny St",
    "address_councildis": "B",
    "status": "Assigned to Contractor",
    "contractor": "IV Waste",
    "rowid": "1188696",
    "final_x": "3671184.52603",
    "final_y": "526301.388798",
    "longitude": "-90.10082020259362",
    "latitude": "29.94145538460403",
    "geocoded_column": {
      "latitude": "29.94145538460403",
      "longitude": "-90.10082020259362"
    }
  },
  {
    "service_request": "2025-1188695",
    "request_type": "Trash/Recycling",
    "request_reason": "Request a Large Item Pick Up",
    "date_created": "2025-05-01T16:10:05.000",
    "date_modified": "2025-05-01T16:10:07.000",
    "request_status": "Pending",
    "responsible_agency": "Department of Sanitation",
    "final_address": "1742 Tricou St",
    "address_councildis": "E",
    "status": "Assigned to Contractor",
    "contractor": "Waste Pro",
    "rowid": "1188695",
    "final_x": "3701082.27505",
    "final_y": "535507.029958",
    "longitude": "-90.00609114014546",
    "latitude": "29.965849496475037",
    "geocoded_column": {
      "latitude": "29.965849496475037",
      "longitude": "-90.00609114014546"
    }
  },
  {
    "service_request": "2025-1188694",
    "request_type": "Roads and Streets",
    "request_reason": "Pothole",
    "date_created": "2025-05-01T16:09:20.000",
    "date_modified": "2025-05-01T16:09:22.000",
    "request_status": "Pending",
    "responsible_agency": "Department of Public Works",
    "final_address": "7542 Shorewood Blvd",
    "address_councildis": "E",
    "status": "Pending",
    "rowid": "1188694",
    "final_x": "3720137.17478",
    "final_y": "572540.606121",
    "longitude": "-89.94449966056986",
    "latitude": "30.067056437760044",
    "geocoded_column": {
      "latitude": "30.067056437760044",
      "longitude": "-89.94449966056986"
    }
  },
  {
    "service_request": "2025-1188693",
    "request_type": "Abandoned Vehicles",
    "request_reason": "Abandoned/Junk Vehicles",
    "date_created": "2025-05-01T16:07:12.000",
    "date_modified": "2025-05-01T16:07:14.000",
    "request_status": "Pending",
    "responsible_agency": "Department of Public Works",
    "final_address": "4122 S Derbigny St",
    "address_councildis": "B",
    "status": "Pending",
    "rowid": "1188693",
    "final_x": "3671184.52603",
    "final_y": "526301.388798",
    "longitude": "-90.10082020259362",
    "latitude": "29.94145538460403",
    "geocoded_column": {
      "latitude": "29.94145538460403",
      "longitude": "-90.10082020259362"
    }
  },
  {
    "service_request": "2025-1188692",
    "request_type": "Abandoned Vehicles",
    "request_reason": "Abandoned/Junk Vehicles",
    "date_created": "2025-05-01T16:00:29.000",
    "date_modified": "2025-05-01T16:01:52.000",
    "request_status": "Pending",
    "responsible_agency": "Department of Public Works",
    "final_address": "1800 St Bernard Ave",
    "address_councildis": "D",
    "status": "Inspected",
    "rowid": "1188692",
    "final_x": "3681766.26364",
    "final_y": "538494.435209",
    "longitude": "-90.06698616896747",
    "latitude": "29.97466490011377",
    "geocoded_column": {
      "latitude": "29.97466490011377",
      "longitude": "-90.06698616896747"
    }
  },
  {
    "service_request": "2025-1188691",
    "request_type": "Property Maintenance",
    "request_reason": "Property Maintenance",
    "date_created": "2025-05-01T15:59:54.000",
    "date_modified": "2025-05-01T15:59:56.000",
    "request_status": "Pending",
    "responsible_agency": "Department of Code Enforcement",
    "final_address": "8640 Chase St",
    "address_councildis": "E",
    "status": "Pending",
    "rowid": "1188691",
    "final_x": "3703847.54154",
    "final_y": "563490.678816",
    "longitude": "-89.99632744064843",
    "latitude": "30.04270558489277",
    "geocoded_column": {
      "latitude": "30.04270558489277",
      "longitude": "-89.99632744064843"
    }
  },
  {
    "service_request": "2025-1188690",
    "request_type": "Trash/Recycling",
    "request_reason": "Request a Large Item Pick Up",
    "date_created": "2025-05-01T15:58:58.000",
    "date_modified": "2025-05-01T15:59:00.000",
    "request_status": "Pending",
    "responsible_agency": "Department of Sanitation",
    "final_address": "8621 Chase St",
    "address_councildis": "E",
    "status": "Assigned to Contractor",
    "contractor": "Waste Pro",
    "rowid": "1188690",
    "final_x": "3703690.04561",
    "final_y": "563507.11152",
    "longitude": "-89.99682458149752",
    "latitude": "30.042755820420727",
    "geocoded_column": {
      "latitude": "30.042755820420727",
      "longitude": "-89.99682458149752"
    }
  },
  {
    "service_request": "2025-1188689",
    "request_type": "Roads and Streets",
    "request_reason": "Pothole",
    "date_created": "2025-05-01T15:57:19.000",
    "date_modified": "2025-05-01T15:57:23.000",
    "request_status": "Pending",
    "responsible_agency": "Department of Public Works",
    "final_address": "7252 Lakeshore Dr",
    "address_councildis": "D",
    "status": "Pending",
    "rowid": "1188689",
    "final_x": "3666800.08052",
    "final_y": "555252.519961",
    "longitude": "-90.11368988696351",
    "latitude": "30.021190175136482",
    "geocoded_column": {
      "latitude": "30.021190175136482",
      "longitude": "-90.11368988696351"
    }
  },
  {
    "service_request": "2025-1188688",
    "request_type": "Trash/Recycling",
    "request_reason": "Request a Large Item Pick Up",
    "date_created": "2025-05-01T15:57:19.000",
    "date_modified": "2025-05-01T15:57:21.000",
    "request_status": "Pending",
    "responsible_agency": "Department of Sanitation",
    "final_address": "8630 Chase St",
    "address_councildis": "E",
    "status": "Assigned to Contractor",
    "contractor": "Waste Pro",
    "rowid": "1188688",
    "final_x": "3703787.19479",
    "final_y": "563447.751584",
    "longitude": "-89.99651974193881",
    "latitude": "30.042589487952732",
    "geocoded_column": {
      "latitude": "30.042589487952732",
      "longitude": "-89.99651974193881"
    }
  },
  {
    "service_request": "2025-1188687",
    "request_type": "Trash/Recycling",
    "request_reason": "Request a Large Item Pick Up",
    "date_created": "2025-05-01T15:56:00.000",
    "date_modified": "2025-05-01T15:56:01.000",
    "request_status": "Pending",
    "responsible_agency": "Department of Sanitation",
    "final_address": "8523 Bill St",
    "address_councildis": "E",
    "status": "Assigned to Contractor",
    "contractor": "Waste Pro",
    "rowid": "1188687",
    "final_x": "3703564.94263",
    "final_y": "563173.846496",
    "longitude": "-89.99723223572232",
    "latitude": "30.041843484741747",
    "geocoded_column": {
      "latitude": "30.041843484741747",
      "longitude": "-89.99723223572232"
    }
  },
  {
    "service_request": "2025-1188686",
    "request_type": "Trash/Recycling",
    "request_reason": "Order Trash Cart",
    "date_created": "2025-05-01T15:54:52.000",
    "date_modified": "2025-05-01T19:48:20.000",
    "case_close_date": "2025-05-01T14:48:19.000",
    "request_status": "Closed",
    "responsible_agency": "Department of Sanitation",
    "final_address": "5802 Burgundy St",
    "address_councildis": "E",
    "status": "Duplicate Request",
    "contractor": "Waste Pro",
    "contractor_action": "Duplicate",
    "rowid": "1188686",
    "final_x": "3698452.44701",
    "final_y": "532780.777092",
    "longitude": "-90.01449509467274",
    "latitude": "29.958436768964518",
    "geocoded_column": {
      "latitude": "29.958436768964518",
      "longitude": "-90.01449509467274"
    }
  },
  {
    "service_request": "2025-1188685",
    "request_type": "Trash/Recycling",
    "request_reason": "Request a Large Item Pick Up",
    "date_created": "2025-05-01T15:54:12.000",
    "date_modified": "2025-05-01T15:54:14.000",
    "request_status": "Pending",
    "responsible_agency": "Department of Sanitation",
    "final_address": "8541 Bill St",
    "address_councildis": "E",
    "status": "Assigned to Contractor",
    "contractor": "Waste Pro",
    "rowid": "1188685",
    "final_x": "3703652.44906",
    "final_y": "563211.143328",
    "longitude": "-89.99695431002901",
    "latitude": "30.041943230415857",
    "geocoded_column": {
      "latitude": "30.041943230415857",
      "longitude": "-89.99695431002901"
    }
  },
  {
    "service_request": "2025-1188684",
    "request_type": "Abandoned Vehicles",
    "request_reason": "Abandoned/Junk Vehicles",
    "date_created": "2025-05-01T15:52:30.000",
    "date_modified": "2025-05-01T15:52:32.000",
    "request_status": "Pending",
    "responsible_agency": "Department of Public Works",
    "final_address": "5515 Montegut Dr",
    "address_councildis": "D",
    "status": "Pending",
    "rowid": "1188684",
    "final_x": "3689740.92815",
    "final_y": "553576.480663",
    "longitude": "-90.04126317917459",
    "latitude": "30.015890319308667",
    "geocoded_column": {
      "latitude": "30.015890319308667",
      "longitude": "-90.04126317917459"
    }
  },
  {
    "service_request": "2025-1188683",
    "request_type": "Parks & Parkways",
    "request_reason": "Request Tree Service (Right of Way/Public Property)",
    "date_created": "2025-05-01T15:47:21.000",
    "date_modified": "2025-05-01T15:47:25.000",
    "request_status": "Pending",
    "responsible_agency": "Department of Parks & Parkway",
    "final_address": "201 Millaudon St",
    "address_councildis": "A",
    "status": "Pending",
    "rowid": "1188683",
    "final_x": "3661080.90797",
    "final_y": "523673.982651",
    "longitude": "-90.13280638528813",
    "latitude": "29.934525811298574",
    "geocoded_column": {
      "latitude": "29.934525811298574",
      "longitude": "-90.13280638528813"
    }
  },
  {
    "service_request": "2025-1188682",
    "request_type": "Trash/Recycling",
    "request_reason": "Replace Trash Cart",
    "date_created": "2025-05-01T15:46:00.000",
    "date_modified": "2025-05-01T15:46:02.000",
    "request_status": "Pending",
    "responsible_agency": "Department of Sanitation",
    "final_address": "9201 Palmetto St",
    "address_councildis": "A",
    "status": "Assigned to Contractor",
    "contractor": "IV Waste",
    "rowid": "1188682",
    "final_x": "3665286.63488",
    "final_y": "538014.015433",
    "longitude": "-90.11904919616774",
    "latitude": "29.973834403331583",
    "geocoded_column": {
      "latitude": "29.973834403331583",
      "longitude": "-90.11904919616774"
    }
  },
  {
    "service_request": "2025-1188681",
    "request_type": "Trash/Recycling",
    "request_reason": "Order Second Trash Cart",
    "date_created": "2025-05-01T15:45:07.000",
    "date_modified": "2025-05-01T15:45:10.000",
    "request_status": "Pending",
    "responsible_agency": "Department of Sanitation",
    "final_address": "9201 Palmetto St",
    "address_councildis": "A",
    "status": "Assigned to Contractor",
    "contractor": "IV Waste",
    "rowid": "1188681",
    "final_x": "3665286.63488",
    "final_y": "538014.015433",
    "longitude": "-90.11904919616774",
    "latitude": "29.973834403331583",
    "geocoded_column": {
      "latitude": "29.973834403331583",
      "longitude": "-90.11904919616774"
    }
  },
  {
    "service_request": "2025-1188679",
    "request_type": "Property Maintenance",
    "request_reason": "Property Maintenance",
    "date_created": "2025-05-01T15:40:44.000",
    "date_modified": "2025-05-01T15:40:46.000",
    "request_status": "Pending",
    "responsible_agency": "Department of Code Enforcement",
    "final_address": "8640 Chase St",
    "address_councildis": "E",
    "status": "Pending",
    "rowid": "1188679",
    "final_x": "3703847.54154",
    "final_y": "563490.678816",
    "longitude": "-89.99632744064843",
    "latitude": "30.04270558489277",
    "geocoded_column": {
      "latitude": "30.04270558489277",
      "longitude": "-89.99632744064843"
    }
  },
  {
    "service_request": "2025-1188678",
    "request_type": "Property Maintenance",
    "request_reason": "Property Maintenance",
    "date_created": "2025-05-01T15:40:43.000",
    "date_modified": "2025-05-01T15:40:45.000",
    "request_status": "Pending",
    "responsible_agency": "Department of Code Enforcement",
    "final_address": "8640 Chase St",
    "address_councildis": "E",
    "status": "Pending",
    "rowid": "1188678",
    "final_x": "3703847.54154",
    "final_y": "563490.678816",
    "longitude": "-89.99632744064843",
    "latitude": "30.04270558489277",
    "geocoded_column": {
      "latitude": "30.04270558489277",
      "longitude": "-89.99632744064843"
    }
  },
  {
    "service_request": "2025-1188677",
    "request_type": "General Services",
    "request_reason": "General Service Request",
    "date_created": "2025-05-01T15:26:33.000",
    "date_modified": "2025-05-01T15:26:35.000",
    "request_status": "Pending",
    "responsible_agency": "Orleans Parish Communication District",
    "final_address": "1535 Canal St",
    "address_councildis": "C",
    "status": "Pending",
    "rowid": "1188677",
    "final_x": "3678936.45589",
    "final_y": "532521.076676",
    "longitude": "-90.07613038878848",
    "latitude": "29.958325892153642",
    "geocoded_column": {
      "latitude": "29.958325892153642",
      "longitude": "-90.07613038878848"
    }
  },
  {
    "service_request": "2025-1188676",
    "request_type": "Roads and Streets",
    "request_reason": "Pothole",
    "date_created": "2025-05-01T15:23:50.000",
    "date_modified": "2025-05-01T15:23:52.000",
    "request_status": "Pending",
    "responsible_agency": "Department of Public Works",
    "final_address": "4824 Mendez St",
    "address_councildis": "D",
    "status": "Pending",
    "rowid": "1188676",
    "final_x": "3691372.05923",
    "final_y": "554249.002648",
    "longitude": "-90.03608549859116",
    "latitude": "30.017688829550107",
    "geocoded_column": {
      "latitude": "30.017688829550107",
      "longitude": "-90.03608549859116"
    }
  },
  {
    "service_request": "2025-1188675",
    "request_type": "Trash/Recycling",
    "request_reason": "Order Trash Cart",
    "date_created": "2025-05-01T15:22:40.000",
    "date_modified": "2025-05-01T15:22:42.000",
    "request_status": "Pending",
    "responsible_agency": "Department of Sanitation",
    "final_address": "8800 Dinkins St",
    "address_councildis": "E",
    "status": "Assigned to Contractor",
    "contractor": "Waste Pro",
    "rowid": "1188675",
    "final_x": "3704445.58058",
    "final_y": "563223.663648",
    "longitude": "-89.99444727238149",
    "latitude": "30.041952197988547",
    "geocoded_column": {
      "latitude": "30.041952197988547",
      "longitude": "-89.99444727238149"
    }
  },
  {
    "service_request": "2025-1188674",
    "request_type": "Trash/Recycling",
    "request_reason": "Request a Large Item Pick Up",
    "date_created": "2025-05-01T15:21:32.000",
    "date_modified": "2025-05-01T18:59:11.000",
    "case_close_date": "2025-05-01T13:59:11.000",
    "request_status": "Closed",
    "responsible_agency": "Department of Sanitation",
    "final_address": "4858 Lurline St",
    "address_councildis": "E",
    "status": "Duplicate Request",
    "contractor": "Waste Pro",
    "contractor_action": "Duplicate",
    "rowid": "1188674",
    "final_x": "3711830.14827",
    "final_y": "556797.055706",
    "longitude": "-89.9713509039169",
    "latitude": "30.024042258033674",
    "geocoded_column": {
      "latitude": "30.024042258033674",
      "longitude": "-89.9713509039169"
    }
  },
  {
    "service_request": "2025-1188673",
    "request_type": "Trash/Recycling",
    "request_reason": "Request a Large Item Pick Up",
    "date_created": "2025-05-01T15:21:11.000",
    "date_modified": "2025-05-01T15:21:13.000",
    "request_status": "Pending",
    "responsible_agency": "Department of Sanitation",
    "final_address": "9005 Hickory St",
    "address_councildis": "A",
    "status": "Assigned to Contractor",
    "contractor": "IV Waste",
    "rowid": "1188673",
    "final_x": "3661006.47162",
    "final_y": "532144.078467",
    "longitude": "-90.1327612084773",
    "latitude": "29.957818018273002",
    "geocoded_column": {
      "latitude": "29.957818018273002",
      "longitude": "-90.1327612084773"
    }
  },
  {
    "service_request": "2025-1188672",
    "request_type": "Property Maintenance",
    "request_reason": "Property Maintenance",
    "date_created": "2025-05-01T15:17:56.000",
    "date_modified": "2025-05-01T15:43:16.000",
    "case_close_date": "2025-05-01T10:43:15.000",
    "request_status": "Closed",
    "responsible_agency": "Department of Code Enforcement",
    "final_address": "941 Tricou St",
    "address_councildis": "E",
    "status": "Referred to Code Enforcement",
    "rowid": "1188672",
    "final_x": "3699986.17181",
    "final_y": "532585.119428",
    "longitude": "-90.00965916976523",
    "latitude": "29.957850151639374",
    "geocoded_column": {
      "latitude": "29.957850151639374",
      "longitude": "-90.00965916976523"
    }
  },
  {
    "service_request": "2025-1188671",
    "request_type": "Trash/Recycling",
    "request_reason": "Repair Trash Cart",
    "date_created": "2025-05-01T15:17:43.000",
    "date_modified": "2025-05-01T15:17:45.000",
    "request_status": "Pending",
    "responsible_agency": "Department of Sanitation",
    "final_address": "124 N Bernadotte St",
    "address_councildis": "A",
    "status": "Assigned to Contractor",
    "contractor": "IV Waste",
    "rowid": "1188671",
    "final_x": "3669035.493",
    "final_y": "540278.703371",
    "longitude": "-90.10713290054521",
    "latitude": "29.97995176092481",
    "geocoded_column": {
      "latitude": "29.97995176092481",
      "longitude": "-90.10713290054521"
    }
  },
  {
    "service_request": "2025-1188670",
    "request_type": "Trash/Recycling",
    "request_reason": "Return Trash Cart",
    "date_created": "2025-05-01T15:15:33.000",
    "date_modified": "2025-05-01T15:15:34.000",
    "request_status": "Pending",
    "responsible_agency": "Department of Sanitation",
    "final_address": "1300 Marigny St",
    "address_councildis": "C",
    "status": "Assigned to Contractor",
    "contractor": "IV Waste",
    "rowid": "1188670",
    "final_x": "3685329.38153",
    "final_y": "537101.508616",
    "longitude": "-90.05578203389504",
    "latitude": "29.970726079847203",
    "geocoded_column": {
      "latitude": "29.970726079847203",
      "longitude": "-90.05578203389504"
    }
  },
  {
    "service_request": "2025-1188669",
    "request_type": "Mosquito, Termite & Rodent Control",
    "request_reason": "Rodent Complaint (Mice)",
    "date_created": "2025-05-01T15:12:51.000",
    "date_modified": "2025-05-01T15:12:53.000",
    "request_status": "Pending",
    "responsible_agency": "Mosquito, Termite & Rodent Control Board",
    "final_address": "4516 Annette St",
    "address_councildis": "D",
    "status": "Pending",
    "rowid": "1188669",
    "final_x": "3682057.37775",
    "final_y": "549209.544275",
    "longitude": "-90.06569237796626",
    "latitude": "30.00411881738482",
    "geocoded_column": {
      "latitude": "30.00411881738482",
      "longitude": "-90.06569237796626"
    }
  },
  {
    "service_request": "2025-1188668",
    "request_type": "Trash/Recycling",
    "request_reason": "Request a Large Item Pick Up",
    "date_created": "2025-05-01T15:11:16.000",
    "date_modified": "2025-05-01T15:11:17.000",
    "request_status": "Pending",
    "responsible_agency": "Department of Sanitation",
    "final_address": "6727 Dorian St",
    "address_councildis": "D",
    "status": "Assigned to Contractor",
    "contractor": "Waste Pro",
    "rowid": "1188668",
    "final_x": "3696521.00195",
    "final_y": "556029.016729",
    "longitude": "-90.01975246548467",
    "latitude": "30.02242190518372",
    "geocoded_column": {
      "latitude": "30.02242190518372",
      "longitude": "-90.01975246548467"
    }
  },
  {
    "service_request": "2025-1188667",
    "request_type": "Trash/Recycling",
    "request_reason": "Request a Large Item Pick Up",
    "date_created": "2025-05-01T15:10:38.000",
    "date_modified": "2025-05-01T15:12:20.000",
    "request_status": "Pending",
    "responsible_agency": "Department of Sanitation",
    "final_address": "819 Alvar St",
    "address_councildis": "C",
    "status": "Assigned to Contractor",
    "contractor": "IV Waste",
    "rowid": "1188667",
    "final_x": "3691278.48009",
    "final_y": "534398.097221",
    "longitude": "-90.03709070841572",
    "latitude": "29.963108925767504",
    "geocoded_column": {
      "latitude": "29.963108925767504",
      "longitude": "-90.03709070841572"
    }
  },
  {
    "service_request": "2025-1188666",
    "request_type": "Trash/Recycling",
    "request_reason": "Dead Animal Pick Up",
    "date_created": "2025-05-01T15:06:18.000",
    "date_modified": "2025-05-01T15:06:20.000",
    "request_status": "Pending",
    "responsible_agency": "Department of Sanitation",
    "final_address": "CHEF MENTEUR HWY & MARQUE DR",
    "address_councildis": "E",
    "status": "Assigned to Contractor",
    "contractor": "Waste Pro",
    "rowid": "1188666",
    "final_x": "3710258.5",
    "final_y": "554029.68",
    "longitude": "-89.97642051709883",
    "latitude": "30.016484328310142",
    "geocoded_column": {
      "latitude": "30.016484328310142",
      "longitude": "-89.97642051709883"
    }
  },
  {
    "service_request": "2025-1188665",
    "request_type": "Trash/Recycling",
    "request_reason": "Replace Trash Cart",
    "date_created": "2025-05-01T15:05:12.000",
    "date_modified": "2025-05-01T15:05:14.000",
    "request_status": "Pending",
    "responsible_agency": "Department of Sanitation",
    "final_address": "5802 Burgundy St",
    "address_councildis": "E",
    "status": "Assigned to Contractor",
    "contractor": "Waste Pro",
    "rowid": "1188665",
    "final_x": "3698452.44701",
    "final_y": "532780.777092",
    "longitude": "-90.01449509467274",
    "latitude": "29.958436768964518",
    "geocoded_column": {
      "latitude": "29.958436768964518",
      "longitude": "-90.01449509467274"
    }
  },
  {
    "service_request": "2025-1188664",
    "request_type": "Trash/Recycling",
    "request_reason": "Request a Large Item Pick Up",
    "date_created": "2025-05-01T15:05:02.000",
    "date_modified": "2025-05-01T15:05:04.000",
    "request_status": "Pending",
    "responsible_agency": "Department of Sanitation",
    "final_address": "1933 Pace Blvd",
    "address_councildis": "C",
    "status": "Assigned to Contractor",
    "contractor": "Richards Disposal",
    "rowid": "1188664",
    "final_x": "3694401.75414",
    "final_y": "523342.698171",
    "longitude": "-90.02762565132917",
    "latitude": "29.93261289504252",
    "geocoded_column": {
      "latitude": "29.93261289504252",
      "longitude": "-90.02762565132917"
    }
  },
  {
    "service_request": "2025-1188663",
    "request_type": "Healthy Homes",
    "request_reason": "Healthy Homes",
    "date_created": "2025-05-01T15:04:29.000",
    "date_modified": "2025-05-01T16:04:42.000",
    "case_close_date": "2025-05-01T11:04:41.000",
    "request_status": "Closed",
    "responsible_agency": "Department of Code Enforcement",
    "final_address": "939 Tricou St",
    "address_councildis": "E",
    "status": "Referred to Code Enforcement",
    "rowid": "1188663",
    "final_x": "3699980.91165",
    "final_y": "532574.158532",
    "longitude": "-90.0096761795655",
    "latitude": "29.957820180158002",
    "geocoded_column": {
      "latitude": "29.957820180158002",
      "longitude": "-90.0096761795655"
    }
  },
  {
    "service_request": "2025-1188662",
    "request_type": "Abandoned Vehicles",
    "request_reason": "Abandoned/Junk Vehicles",
    "date_created": "2025-05-01T14:50:46.000",
    "date_modified": "2025-05-01T14:52:09.000",
    "request_status": "Pending",
    "responsible_agency": "Department of Public Works",
    "final_address": "1548 N Roman St",
    "address_councildis": "D",
    "status": "Inspected",
    "rowid": "1188662",
    "final_x": "3681441.16879",
    "final_y": "537950.476681",
    "longitude": "-90.06803186858481",
    "latitude": "29.97317907758484",
    "geocoded_column": {
      "latitude": "29.97317907758484",
      "longitude": "-90.06803186858481"
    }
  },
  {
    "service_request": "2025-1188661",
    "request_type": "Trash/Recycling",
    "request_reason": "Request a Large Item Pick Up",
    "date_created": "2025-05-01T14:50:41.000",
    "date_modified": "2025-05-01T14:50:43.000",
    "request_status": "Pending",
    "responsible_agency": "Department of Sanitation",
    "final_address": "539 Fats Domino Ave",
    "address_councildis": "E",
    "status": "Assigned to Contractor",
    "contractor": "Waste Pro",
    "rowid": "1188661",
    "final_x": "3697557.11658",
    "final_y": "531877.498883",
    "longitude": "-90.01735505128123",
    "latitude": "29.95598137816933",
    "geocoded_column": {
      "latitude": "29.95598137816933",
      "longitude": "-90.01735505128123"
    }
  },
  {
    "service_request": "2025-1188660",
    "request_type": "Trash/Recycling",
    "request_reason": "Request a Large Item Pick Up",
    "date_created": "2025-05-01T14:47:19.000",
    "date_modified": "2025-05-01T14:47:21.000",
    "request_status": "Pending",
    "responsible_agency": "Department of Sanitation",
    "final_address": "225 Simmons Dr",
    "address_councildis": "D",
    "status": "Assigned to Contractor",
    "contractor": "IV Waste",
    "rowid": "1188660",
    "final_x": "3689661.54838",
    "final_y": "546003.835024",
    "longitude": "-90.04178366966934",
    "latitude": "29.995070777945216",
    "geocoded_column": {
      "latitude": "29.995070777945216",
      "longitude": "-90.04178366966934"
    }
  },
  {
    "service_request": "2025-1188659",
    "request_type": "General Services",
    "request_reason": "General Service Request",
    "date_created": "2025-05-01T14:44:54.000",
    "date_modified": "2025-05-01T15:00:43.000",
    "case_close_date": "2025-05-01T10:00:42.000",
    "request_status": "Closed",
    "responsible_agency": "Orleans Parish Communication District",
    "final_address": "1998 Hope St",
    "address_councildis": "D",
    "status": "Question Answered.",
    "rowid": "1188659",
    "final_x": "3682276.77231",
    "final_y": "541985.018764",
    "longitude": "-90.06525185624602",
    "latitude": "29.98424726275055",
    "geocoded_column": {
      "latitude": "29.98424726275055",
      "longitude": "-90.06525185624602"
    }
  },
  {
    "service_request": "2025-1188658",
    "request_type": "Safety & Permits",
    "request_reason": "Licenses & Permits",
    "date_created": "2025-05-01T14:43:45.000",
    "date_modified": "2025-05-01T14:43:48.000",
    "request_status": "Pending",
    "responsible_agency": "Safety and Permits",
    "final_address": "3215 State Street Dr",
    "address_councildis": "A",
    "status": "Pending",
    "rowid": "1188658",
    "final_x": "3667607.55073",
    "final_y": "528051.528575",
    "longitude": "-90.1120545594432",
    "latitude": "29.94637301321549",
    "geocoded_column": {
      "latitude": "29.94637301321549",
      "longitude": "-90.1120545594432"
    }
  },
  {
    "service_request": "2025-1188657",
    "request_type": "Trash/Recycling",
    "request_reason": "Order Recycling Cart",
    "date_created": "2025-05-01T14:34:57.000",
    "date_modified": "2025-05-01T14:34:59.000",
    "request_status": "Pending",
    "responsible_agency": "Department of Sanitation",
    "final_address": "4649 Franklin Ave",
    "address_councildis": "D",
    "status": "Pending",
    "rowid": "1188657",
    "final_x": "3686933.53206",
    "final_y": "550084.647572",
    "longitude": "-90.0502568121593",
    "latitude": "30.006375803014585",
    "geocoded_column": {
      "latitude": "30.006375803014585",
      "longitude": "-90.0502568121593"
    }
  },
  {
    "service_request": "2025-1188656",
    "request_type": "Trash/Recycling",
    "request_reason": "Request a Large Item Pick Up",
    "date_created": "2025-05-01T14:31:53.000",
    "date_modified": "2025-05-01T14:33:35.000",
    "request_status": "Pending",
    "responsible_agency": "Department of Sanitation",
    "final_address": "4300 Hollygrove St",
    "address_councildis": "A",
    "status": "Assigned to Contractor",
    "contractor": "IV Waste",
    "rowid": "1188656",
    "final_x": "3667019.66714",
    "final_y": "538699.573193",
    "longitude": "-90.11355283009351",
    "latitude": "29.97566884502796",
    "geocoded_column": {
      "latitude": "29.97566884502796",
      "longitude": "-90.11355283009351"
    }
  },
  {
    "service_request": "2025-1188655",
    "request_type": "Trash/Recycling",
    "request_reason": "Order Trash Cart",
    "date_created": "2025-05-01T14:30:48.000",
    "date_modified": "2025-05-01T14:30:51.000",
    "request_status": "Pending",
    "responsible_agency": "Department of Sanitation",
    "final_address": "1470 Constance St",
    "address_councildis": "B",
    "status": "Assigned to Contractor",
    "contractor": "IV Waste",
    "rowid": "1188655",
    "final_x": "3680620.27752",
    "final_y": "523870.087484",
    "longitude": "-90.07111425786616",
    "latitude": "29.934487662574707",
    "geocoded_column": {
      "latitude": "29.934487662574707",
      "longitude": "-90.07111425786616"
    }
  },
  {
    "service_request": "2025-1188654",
    "request_type": "Trash/Recycling",
    "request_reason": "Illegal Dumping",
    "date_created": "2025-05-01T14:30:28.000",
    "date_modified": "2025-05-01T14:30:42.000",
    "request_status": "Pending",
    "responsible_agency": "Department of Sanitation",
    "final_address": "3304 Lamarque St",
    "address_councildis": "C",
    "status": "Pending",
    "rowid": "1188654",
    "final_x": "3696432.87139",
    "final_y": "526671.164158",
    "longitude": "-90.02109328294362",
    "latitude": "29.941701231243528",
    "geocoded_column": {
      "latitude": "29.941701231243528",
      "longitude": "-90.02109328294362"
    }
  },
  {
    "service_request": "2025-1188653",
    "request_type": "Roads and Streets",
    "request_reason": "Debris in Driving Lanes",
    "date_created": "2025-05-01T14:29:45.000",
    "date_modified": "2025-05-01T14:29:47.000",
    "request_status": "Pending",
    "responsible_agency": "Department of Public Works",
    "final_address": "REYNES ST & WARFIELD ST",
    "address_councildis": "E",
    "status": "Pending",
    "rowid": "1188653",
    "final_x": "3699381.8",
    "final_y": "552512.88",
    "longitude": "-90.01084131920007",
    "latitude": "30.012663377604355",
    "geocoded_column": {
      "latitude": "30.012663377604355",
      "longitude": "-90.01084131920007"
    }
  },
  {
    "service_request": "2025-1188652",
    "request_type": "Trash/Recycling",
    "request_reason": "Request a Large Item Pick Up",
    "date_created": "2025-05-01T14:29:07.000",
    "date_modified": "2025-05-01T14:29:10.000",
    "request_status": "Pending",
    "responsible_agency": "Department of Sanitation",
    "final_address": "3600 Canal St",
    "address_councildis": "B",
    "status": "Assigned to Contractor",
    "contractor": "IV Waste",
    "rowid": "1188652",
    "final_x": "3672517.62926",
    "final_y": "537157.078472",
    "longitude": "-90.09624129638783",
    "latitude": "29.971265431109057",
    "geocoded_column": {
      "latitude": "29.971265431109057",
      "longitude": "-90.09624129638783"
    }
  },
  {
    "service_request": "2025-1188651",
    "request_type": "Trash/Recycling",
    "request_reason": "Request a Large Item Pick Up",
    "date_created": "2025-05-01T14:25:44.000",
    "date_modified": "2025-05-01T14:25:46.000",
    "request_status": "Pending",
    "responsible_agency": "Department of Sanitation",
    "final_address": "2322 Burgundy St",
    "address_councildis": "C",
    "status": "Assigned to Contractor",
    "contractor": "IV Waste",
    "rowid": "1188651",
    "final_x": "3685669.05775",
    "final_y": "535602.28807",
    "longitude": "-90.05476212883961",
    "latitude": "29.966593326740465",
    "geocoded_column": {
      "latitude": "29.966593326740465",
      "longitude": "-90.05476212883961"
    }
  },
  {
    "service_request": "2025-1188650",
    "request_type": "Property Maintenance",
    "request_reason": "Property Maintenance",
    "date_created": "2025-05-01T14:25:02.000",
    "date_modified": "2025-05-01T14:25:04.000",
    "request_status": "Pending",
    "responsible_agency": "Department of Code Enforcement",
    "final_address": "3663 Behrman Pl",
    "address_councildis": "C",
    "status": "Pending",
    "rowid": "1188650",
    "final_x": "3697538.6824",
    "final_y": "517730.586934",
    "longitude": "-90.01792607581157",
    "latitude": "29.917082843058076",
    "geocoded_column": {
      "latitude": "29.917082843058076",
      "longitude": "-90.01792607581157"
    }
  },
  {
    "service_request": "2025-1188649",
    "request_type": "Trash/Recycling",
    "request_reason": "Replace Trash Cart",
    "date_created": "2025-05-01T14:22:42.000",
    "date_modified": "2025-05-01T14:22:44.000",
    "request_status": "Pending",
    "responsible_agency": "Department of Sanitation",
    "final_address": "801 Carondelet St",
    "address_councildis": "B",
    "status": "Assigned to Contractor",
    "contractor": "IV Waste",
    "rowid": "1188649",
    "final_x": "3679948.12296",
    "final_y": "528079.049279",
    "longitude": "-90.07309009028124",
    "latitude": "29.946081251945472",
    "geocoded_column": {
      "latitude": "29.946081251945472",
      "longitude": "-90.07309009028124"
    }
  },
  {
    "service_request": "2025-1188648",
    "request_type": "Property Maintenance",
    "request_reason": "Property Maintenance",
    "date_created": "2025-05-01T14:19:06.000",
    "date_modified": "2025-05-01T14:32:44.000",
    "case_close_date": "2025-05-01T09:32:44.000",
    "request_status": "Closed",
    "responsible_agency": "Department of Code Enforcement",
    "final_address": "2111 Westbend Prkwy",
    "address_councildis": "C",
    "status": "Referred to Code Enforcement",
    "rowid": "1188648",
    "final_x": "3696802.77898",
    "final_y": "522878.775035",
    "longitude": "-90.02006264439083",
    "latitude": "29.93126181603711",
    "geocoded_column": {
      "latitude": "29.93126181603711",
      "longitude": "-90.02006264439083"
    }
  },
  {
    "service_request": "2025-1188647",
    "request_type": "Roads and Streets",
    "request_reason": "Pothole",
    "date_created": "2025-05-01T14:18:40.000",
    "date_modified": "2025-05-01T14:18:42.000",
    "request_status": "Pending",
    "responsible_agency": "Department of Public Works",
    "final_address": "QUEISSER ST & READ BLVD",
    "address_councildis": "E",
    "status": "Pending",
    "rowid": "1188647",
    "final_x": "3708679.4",
    "final_y": "564156.88",
    "longitude": "-89.98103211993126",
    "latitude": "30.04438146374777",
    "geocoded_column": {
      "latitude": "30.04438146374777",
      "longitude": "-89.98103211993126"
    }
  },
  {
    "service_request": "2025-1188646",
    "request_type": "Trash/Recycling",
    "request_reason": "Replace Trash Cart",
    "date_created": "2025-05-01T14:17:39.000",
    "date_modified": "2025-05-01T14:17:42.000",
    "request_status": "Pending",
    "responsible_agency": "Department of Sanitation",
    "final_address": "1401 Lawrence St",
    "address_councildis": "C",
    "status": "Assigned to Contractor",
    "contractor": "Richards Disposal",
    "rowid": "1188646",
    "final_x": "3689693.23305",
    "final_y": "525598.207805",
    "longitude": "-90.04240978901801",
    "latitude": "29.938961475062985",
    "geocoded_column": {
      "latitude": "29.938961475062985",
      "longitude": "-90.04240978901801"
    }
  },
  {
    "service_request": "2025-1188645",
    "request_type": "Trash/Recycling",
    "request_reason": "Request a Large Item Pick Up",
    "date_created": "2025-05-01T14:11:44.000",
    "date_modified": "2025-05-01T14:11:47.000",
    "request_status": "Pending",
    "responsible_agency": "Department of Sanitation",
    "final_address": "4810 Toulon St",
    "address_councildis": "E",
    "status": "Assigned to Contractor",
    "contractor": "Waste Pro",
    "rowid": "1188645",
    "final_x": "3723732.09292",
    "final_y": "560138.962205",
    "longitude": "-89.93361455814353",
    "latitude": "30.032836782081432",
    "geocoded_column": {
      "latitude": "30.032836782081432",
      "longitude": "-89.93361455814353"
    }
  },
  {
    "service_request": "2025-1188644",
    "request_type": "Trash/Recycling",
    "request_reason": "Request a Large Item Pick Up",
    "date_created": "2025-05-01T14:08:21.000",
    "date_modified": "2025-05-01T18:57:31.000",
    "case_close_date": "2025-05-01T13:57:30.000",
    "request_status": "Closed",
    "responsible_agency": "Department of Sanitation",
    "final_address": "507 Andry St",
    "address_councildis": "E",
    "status": "Assigned to Contractor",
    "contractor": "Waste Pro",
    "contractor_action": "Completed",
    "rowid": "1188644",
    "final_x": "3696725.26711",
    "final_y": "531867.780803",
    "longitude": "-90.01998208263608",
    "latitude": "29.95598089992081",
    "geocoded_column": {
      "latitude": "29.95598089992081",
      "longitude": "-90.01998208263608"
    }
  },
  {
    "service_request": "2025-1188643",
    "request_type": "Trash/Recycling",
    "request_reason": "Illegal Dumping",
    "date_created": "2025-05-01T14:08:20.000",
    "date_modified": "2025-05-01T14:08:21.000",
    "request_status": "Pending",
    "responsible_agency": "Department of Sanitation",
    "final_address": "9 Assumption Pl",
    "address_councildis": "E",
    "status": "Pending",
    "rowid": "1188643",
    "final_x": "3726261.87424",
    "final_y": "564380.382113",
    "longitude": "-89.92545566180577",
    "latitude": "30.044413719349905",
    "geocoded_column": {
      "latitude": "30.044413719349905",
      "longitude": "-89.92545566180577"
    }
  },
  {
    "service_request": "2025-1188642",
    "request_type": "Parks & Parkways",
    "request_reason": "Request Tree Service (Right of Way/Public Property)",
    "date_created": "2025-05-01T14:08:10.000",
    "date_modified": "2025-05-01T14:21:59.000",
    "case_close_date": "2025-05-01T09:21:58.000",
    "request_status": "Closed",
    "responsible_agency": "Department of Parks & Parkway",
    "final_address": "7350 Crestmont Rd",
    "address_councildis": "E",
    "status": "Duplicate Request",
    "rowid": "1188642",
    "final_x": "3699853.97348",
    "final_y": "559562.498013",
    "longitude": "-90.00909211416426",
    "latitude": "30.032032138847264",
    "geocoded_column": {
      "latitude": "30.032032138847264",
      "longitude": "-90.00909211416426"
    }
  },
  {
    "service_request": "2025-1188641",
    "request_type": "Trash/Recycling",
    "request_reason": "Repair Trash Cart",
    "date_created": "2025-05-01T14:04:01.000",
    "date_modified": "2025-05-01T14:04:03.000",
    "request_status": "Pending",
    "responsible_agency": "Department of Sanitation",
    "final_address": "1215 Terry St",
    "address_councildis": "C",
    "status": "Assigned to Contractor",
    "contractor": "Richards Disposal",
    "rowid": "1188641",
    "final_x": "3696923.76938",
    "final_y": "526828.085566",
    "longitude": "-90.01953774607497",
    "latitude": "29.942117243285825",
    "geocoded_column": {
      "latitude": "29.942117243285825",
      "longitude": "-90.01953774607497"
    }
  },
  {
    "service_request": "2025-1188640",
    "request_type": "Roads and Streets",
    "request_reason": "Road Shoulder Damage",
    "date_created": "2025-05-01T14:03:07.000",
    "date_modified": "2025-05-01T14:03:09.000",
    "request_status": "Pending",
    "responsible_agency": "Department of Public Works",
    "final_address": "3720 Rue Renee",
    "address_councildis": "C",
    "status": "Pending",
    "rowid": "1188640",
    "final_x": "3705305.69118",
    "final_y": "516753.896821",
    "longitude": "-89.99344634420667",
    "latitude": "29.91414982563013",
    "geocoded_column": {
      "latitude": "29.91414982563013",
      "longitude": "-89.99344634420667"
    }
  },
  {
    "service_request": "2025-1188639",
    "request_type": "Roads and Streets",
    "request_reason": "Street Subsidence (Sinking)",
    "date_created": "2025-05-01T14:01:05.000",
    "date_modified": "2025-05-01T14:01:07.000",
    "request_status": "Pending",
    "responsible_agency": "Department of Public Works",
    "final_address": "3720 Rue Renee",
    "address_councildis": "C",
    "status": "Pending",
    "rowid": "1188639",
    "final_x": "3705305.69118",
    "final_y": "516753.896821",
    "longitude": "-89.99344634420667",
    "latitude": "29.91414982563013",
    "geocoded_column": {
      "latitude": "29.91414982563013",
      "longitude": "-89.99344634420667"
    }
  },
  {
    "service_request": "2025-1188638",
    "request_type": "Roads and Streets",
    "request_reason": "Street Subsidence (Sinking)",
    "date_created": "2025-05-01T14:00:59.000",
    "date_modified": "2025-05-01T14:01:02.000",
    "request_status": "Pending",
    "responsible_agency": "Department of Public Works",
    "final_address": "2235 Fats Domino Ave",
    "address_councildis": "E",
    "status": "Pending",
    "rowid": "1188638",
    "final_x": "3699258.489",
    "final_y": "538146.189193",
    "longitude": "-90.01175443531298",
    "latitude": "29.9731641957724",
    "geocoded_column": {
      "latitude": "29.9731641957724",
      "longitude": "-90.01175443531298"
    }
  },
  {
    "service_request": "2025-1188637",
    "request_type": "Streetlights",
    "request_reason": "Streetlight Outage/Malfunction",
    "date_created": "2025-05-01T13:56:28.000",
    "date_modified": "2025-05-01T13:58:04.000",
    "request_status": "Pending",
    "responsible_agency": "Department of Public Works",
    "final_address": "837 OKeefe Ave",
    "address_councildis": "B",
    "status": "Pending",
    "contractor": "Legacy Professional Services",
    "rowid": "1188637",
    "final_x": "3679132.77231",
    "final_y": "528071.313087",
    "longitude": "-90.07566469932411",
    "latitude": "29.94608461263046",
    "geocoded_column": {
      "latitude": "29.94608461263046",
      "longitude": "-90.07566469932411"
    }
  },
  {
    "service_request": "2025-1188636",
    "request_type": "Trash/Recycling",
    "request_reason": "Replace Trash Cart",
    "date_created": "2025-05-01T13:54:56.000",
    "date_modified": "2025-05-01T13:54:58.000",
    "request_status": "Pending",
    "responsible_agency": "Department of Sanitation",
    "final_address": "7440 Weaver Ave",
    "address_councildis": "E",
    "status": "Assigned to Contractor",
    "contractor": "Waste Pro",
    "rowid": "1188636",
    "final_x": "3707618.22174",
    "final_y": "563911.963745",
    "longitude": "-89.98439500844526",
    "latitude": "30.043742434828403",
    "geocoded_column": {
      "latitude": "30.043742434828403",
      "longitude": "-89.98439500844526"
    }
  },
  {
    "service_request": "2025-1188635",
    "request_type": "Trash/Recycling",
    "request_reason": "Request a Large Item Pick Up",
    "date_created": "2025-05-01T13:51:32.000",
    "date_modified": "2025-05-01T13:51:34.000",
    "request_status": "Pending",
    "responsible_agency": "Department of Sanitation",
    "final_address": "7901 Berg Rd",
    "address_councildis": "E",
    "status": "Assigned to Contractor",
    "contractor": "Waste Pro",
    "rowid": "1188635",
    "final_x": "3711422.64075",
    "final_y": "567571.92298",
    "longitude": "-89.97223411306068",
    "latitude": "30.053682145261206",
    "geocoded_column": {
      "latitude": "30.053682145261206",
      "longitude": "-89.97223411306068"
    }
  },
  {
    "service_request": "2025-1188634",
    "request_type": "General Services",
    "request_reason": "General Service Request",
    "date_created": "2025-05-01T13:42:41.000",
    "date_modified": "2025-05-01T13:49:35.000",
    "case_close_date": "2025-05-01T08:49:33.000",
    "request_status": "Closed",
    "responsible_agency": "Orleans Parish Communication District",
    "final_address": "2347 Odin St",
    "address_councildis": "D",
    "status": "Question Answered.",
    "rowid": "1188634",
    "final_x": "3684883.49199",
    "final_y": "553171.066903",
    "longitude": "-90.05662474709942",
    "latitude": "30.014925292249593",
    "geocoded_column": {
      "latitude": "30.014925292249593",
      "longitude": "-90.05662474709942"
    }
  },
  {
    "service_request": "2025-1188633",
    "request_type": "Trash/Recycling",
    "request_reason": "Repair Trash Cart",
    "date_created": "2025-05-01T13:41:59.000",
    "date_modified": "2025-05-01T13:42:01.000",
    "request_status": "Pending",
    "responsible_agency": "Department of Sanitation",
    "final_address": "2502 Soniat St",
    "address_councildis": "B",
    "status": "Assigned to Contractor",
    "contractor": "IV Waste",
    "rowid": "1188633",
    "final_x": "3668507.63982",
    "final_y": "524674.033148",
    "longitude": "-90.10932656708343",
    "latitude": "29.937059582762597",
    "geocoded_column": {
      "latitude": "29.937059582762597",
      "longitude": "-90.10932656708343"
    }
  },
  {
    "service_request": "2025-1188632",
    "request_type": "Abandoned Vehicles",
    "request_reason": "Abandoned/Junk Vehicles",
    "date_created": "2025-05-01T13:39:39.000",
    "date_modified": "2025-05-01T13:39:40.000",
    "request_status": "Pending",
    "responsible_agency": "Department of Public Works",
    "final_address": "939 Tricou St",
    "address_councildis": "E",
    "status": "Pending",
    "rowid": "1188632",
    "final_x": "3699980.91165",
    "final_y": "532574.158532",
    "longitude": "-90.0096761795655",
    "latitude": "29.957820180158002",
    "geocoded_column": {
      "latitude": "29.957820180158002",
      "longitude": "-90.0096761795655"
    }
  },
  {
    "service_request": "2025-1188630",
    "request_type": "Trash/Recycling",
    "request_reason": "Request a Large Item Pick Up",
    "date_created": "2025-05-01T13:34:29.000",
    "date_modified": "2025-05-01T13:34:31.000",
    "request_status": "Pending",
    "responsible_agency": "Department of Sanitation",
    "final_address": "4858 Lurline St",
    "address_councildis": "E",
    "status": "Assigned to Contractor",
    "contractor": "Waste Pro",
    "rowid": "1188630",
    "final_x": "3711830.14827",
    "final_y": "556797.055706",
    "longitude": "-89.9713509039169",
    "latitude": "30.024042258033674",
    "geocoded_column": {
      "latitude": "30.024042258033674",
      "longitude": "-89.9713509039169"
    }
  },
  {
    "service_request": "2025-1188627",
    "request_type": "Street and Traffic Signs",
    "request_reason": "Stop Sign Missing or Damaged",
    "date_created": "2025-05-01T13:29:11.000",
    "date_modified": "2025-05-01T13:29:12.000",
    "request_status": "Pending",
    "responsible_agency": "Department of Public Works",
    "final_address": "300 Decatur St",
    "address_councildis": "C",
    "status": "Pending",
    "rowid": "1188627",
    "final_x": "3682315.10498",
    "final_y": "530842.22701",
    "longitude": "-90.06552019574902",
    "latitude": "29.9536072634024",
    "geocoded_column": {
      "latitude": "29.9536072634024",
      "longitude": "-90.06552019574902"
    }
  },
  {
    "service_request": "2025-1188626",
    "request_type": "Trash/Recycling",
    "request_reason": "Request a Large Item Pick Up",
    "date_created": "2025-05-01T13:27:49.000",
    "date_modified": "2025-05-01T13:27:51.000",
    "request_status": "Pending",
    "responsible_agency": "Department of Sanitation",
    "final_address": "7320 Arbor Dr",
    "address_councildis": "E",
    "status": "Assigned to Contractor",
    "contractor": "Waste Pro",
    "rowid": "1188626",
    "final_x": "3701025.72061",
    "final_y": "557985.298907",
    "longitude": "-90.00544710278237",
    "latitude": "30.027658164168976",
    "geocoded_column": {
      "latitude": "30.027658164168976",
      "longitude": "-90.00544710278237"
    }
  },
  {
    "service_request": "2025-1188625",
    "request_type": "Abandoned Vehicles",
    "request_reason": "Abandoned/Junk Vehicles",
    "date_created": "2025-05-01T13:26:55.000",
    "date_modified": "2025-05-01T13:27:01.000",
    "request_status": "Pending",
    "responsible_agency": "Department of Public Works",
    "final_address": "5820 Brunswick Ct",
    "address_councildis": "C",
    "status": "Pending",
    "rowid": "1188625",
    "final_x": "3705177.59703",
    "final_y": "517217.467445",
    "longitude": "-89.99383354390228",
    "latitude": "29.915428603137638",
    "geocoded_column": {
      "latitude": "29.915428603137638",
      "longitude": "-89.99383354390228"
    }
  },
  {
    "service_request": "2025-1188624",
    "request_type": "Trash/Recycling",
    "request_reason": "Replace Recycling Cart",
    "date_created": "2025-05-01T13:23:09.000",
    "date_modified": "2025-05-01T13:23:12.000",
    "request_status": "Pending",
    "responsible_agency": "Department of Sanitation",
    "final_address": "2637 Gallinghouse St",
    "address_councildis": "C",
    "status": "Pending",
    "rowid": "1188624",
    "final_x": "3700040.4954",
    "final_y": "521333.247481",
    "longitude": "-90.00989800216607",
    "latitude": "29.926909716626067",
    "geocoded_column": {
      "latitude": "29.926909716626067",
      "longitude": "-90.00989800216607"
    }
  },
  {
    "service_request": "2025-1188623",
    "request_type": "Trash/Recycling",
    "request_reason": "Replace Trash Cart",
    "date_created": "2025-05-01T13:20:12.000",
    "date_modified": "2025-05-01T13:20:15.000",
    "request_status": "Pending",
    "responsible_agency": "Department of Sanitation",
    "final_address": "16 Carriage Ln",
    "address_councildis": "C",
    "status": "Assigned to Contractor",
    "contractor": "Richards Disposal",
    "rowid": "1188623",
    "final_x": "3695886.09629",
    "final_y": "519915.56492",
    "longitude": "-90.02306344901545",
    "latitude": "29.92314285512325",
    "geocoded_column": {
      "latitude": "29.92314285512325",
      "longitude": "-90.02306344901545"
    }
  },
  {
    "service_request": "2025-1188622",
    "request_type": "Trash/Recycling",
    "request_reason": "Request a Large Item Pick Up",
    "date_created": "2025-05-01T13:15:46.000",
    "date_modified": "2025-05-01T13:15:49.000",
    "request_status": "Pending",
    "responsible_agency": "Department of Sanitation",
    "final_address": "153 Mary Jane Ln",
    "address_councildis": "E",
    "status": "Assigned to Contractor",
    "contractor": "Waste Pro",
    "rowid": "1188622",
    "final_x": "3718417.44069",
    "final_y": "571354.624232",
    "longitude": "-89.9499812330452",
    "latitude": "30.063852685544212",
    "geocoded_column": {
      "latitude": "30.063852685544212",
      "longitude": "-89.9499812330452"
    }
  },
  {
    "service_request": "2025-1188621",
    "request_type": "Trash/Recycling",
    "request_reason": "Request a Large Item Pick Up",
    "date_created": "2025-05-01T13:15:41.000",
    "date_modified": "2025-05-01T13:15:43.000",
    "request_status": "Pending",
    "responsible_agency": "Department of Sanitation",
    "final_address": "4749 Camelot Dr",
    "address_councildis": "E",
    "status": "Assigned to Contractor",
    "contractor": "Waste Pro",
    "rowid": "1188621",
    "final_x": "3708436.32139",
    "final_y": "555699.201561",
    "longitude": "-89.98211556236512",
    "latitude": "30.021134070866633",
    "geocoded_column": {
      "latitude": "30.021134070866633",
      "longitude": "-89.98211556236512"
    }
  },
  {
    "service_request": "2025-1188620",
    "request_type": "Trash/Recycling",
    "request_reason": "Request a Large Item Pick Up",
    "date_created": "2025-05-01T13:15:02.000",
    "date_modified": "2025-05-01T13:21:02.000",
    "request_status": "Pending",
    "responsible_agency": "Department of Sanitation",
    "final_address": "14575 Beekman Rd",
    "address_councildis": "E",
    "status": "Pending",
    "rowid": "1188620",
    "final_x": "3721127.23679",
    "final_y": "573100.187113",
    "longitude": "-89.94134845520738",
    "latitude": "30.068562016212294",
    "geocoded_column": {
      "latitude": "30.068562016212294",
      "longitude": "-89.94134845520738"
    }
  },
  {
    "service_request": "2025-1188619",
    "request_type": "Trash/Recycling",
    "request_reason": "Order Recycling Cart",
    "date_created": "2025-05-01T13:11:40.000",
    "date_modified": "2025-05-01T13:11:41.000",
    "request_status": "Pending",
    "responsible_agency": "Department of Sanitation",
    "final_address": "97 English Turn Dr",
    "address_councildis": "C",
    "status": "Pending",
    "rowid": "1188619",
    "final_x": "3721901.41663",
    "final_y": "511903.430384",
    "longitude": "-89.94125142734333",
    "latitude": "29.900268738239376",
    "geocoded_column": {
      "latitude": "29.900268738239376",
      "longitude": "-89.94125142734333"
    }
  },
  {
    "service_request": "2025-1188618",
    "request_type": "Trash/Recycling",
    "request_reason": "Request a Large Item Pick Up",
    "date_created": "2025-05-01T13:09:16.000",
    "date_modified": "2025-05-01T13:09:22.000",
    "request_status": "Pending",
    "responsible_agency": "Department of Sanitation",
    "final_address": "4726 Arthur Dr",
    "address_councildis": "E",
    "status": "Assigned to Contractor",
    "contractor": "Waste Pro",
    "rowid": "1188618",
    "final_x": "3707627.04644",
    "final_y": "555390.749465",
    "longitude": "-89.98468409153244",
    "latitude": "30.020312163045695",
    "geocoded_column": {
      "latitude": "30.020312163045695",
      "longitude": "-89.98468409153244"
    }
  },
  {
    "service_request": "2025-1188617",
    "request_type": "Trash/Recycling",
    "request_reason": "Repair Trash Cart",
    "date_created": "2025-05-01T13:05:10.000",
    "date_modified": "2025-05-01T13:05:12.000",
    "request_status": "Pending",
    "responsible_agency": "Department of Sanitation",
    "final_address": "7701 Duke Ct",
    "address_councildis": "E",
    "status": "Assigned to Contractor",
    "contractor": "Waste Pro",
    "rowid": "1188617",
    "final_x": "3700275.43178",
    "final_y": "560836.67363",
    "longitude": "-90.00771370583345",
    "latitude": "30.035522228191482",
    "geocoded_column": {
      "latitude": "30.035522228191482",
      "longitude": "-90.00771370583345"
    }
  },
  {
    "service_request": "2025-1188616",
    "request_type": "Trash/Recycling",
    "request_reason": "Order Recycling Cart",
    "date_created": "2025-05-01T13:00:27.000",
    "date_modified": "2025-05-01T13:00:29.000",
    "request_status": "Pending",
    "responsible_agency": "Department of Sanitation",
    "final_address": "600 Third St",
    "address_councildis": "B",
    "status": "Pending",
    "rowid": "1188616",
    "final_x": "3678531.61493",
    "final_y": "519644.089912",
    "longitude": "-90.07785429482416",
    "latitude": "29.9229306488898",
    "geocoded_column": {
      "latitude": "29.9229306488898",
      "longitude": "-90.07785429482416"
    }
  },
  {
    "service_request": "2025-1188615",
    "request_type": "Trash/Recycling",
    "request_reason": "Order Trash Cart",
    "date_created": "2025-05-01T12:59:31.000",
    "date_modified": "2025-05-01T12:59:33.000",
    "request_status": "Pending",
    "responsible_agency": "Department of Sanitation",
    "final_address": "600 Third St",
    "address_councildis": "B",
    "status": "Assigned to Contractor",
    "contractor": "IV Waste",
    "rowid": "1188615",
    "final_x": "3678531.61493",
    "final_y": "519644.089912",
    "longitude": "-90.07785429482416",
    "latitude": "29.9229306488898",
    "geocoded_column": {
      "latitude": "29.9229306488898",
      "longitude": "-90.07785429482416"
    }
  },
  {
    "service_request": "2025-1188614",
    "request_type": "Abandoned Vehicles",
    "request_reason": "Abandoned/Junk Vehicles",
    "date_created": "2025-05-01T12:58:20.000",
    "date_modified": "2025-05-01T12:58:21.000",
    "request_status": "Pending",
    "responsible_agency": "Department of Public Works",
    "final_address": "2017 Piety St",
    "address_councildis": "D",
    "status": "Pending",
    "rowid": "1188614",
    "final_x": "3690760.65577",
    "final_y": "539289.255178",
    "longitude": "-90.03855139633458",
    "latitude": "29.97657398308778",
    "geocoded_column": {
      "latitude": "29.97657398308778",
      "longitude": "-90.03855139633458"
    }
  },
  {
    "service_request": "2025-1188613",
    "request_type": "Abandoned Vehicles",
    "request_reason": "Abandoned/Junk Vehicles",
    "date_created": "2025-05-01T12:56:12.000",
    "date_modified": "2025-05-01T12:56:13.000",
    "request_status": "Pending",
    "responsible_agency": "Department of Public Works",
    "final_address": "823 Valence St",
    "address_councildis": "B",
    "status": "Pending",
    "rowid": "1188613",
    "final_x": "3670023.51342",
    "final_y": "518509.158711",
    "longitude": "-90.10474953825944",
    "latitude": "29.920063536378578",
    "geocoded_column": {
      "latitude": "29.920063536378578",
      "longitude": "-90.10474953825944"
    }
  },
  {
    "service_request": "2025-1188612",
    "request_type": "Street and Traffic Signs",
    "request_reason": "Traffic or Parking Sign Damaged or Missing",
    "date_created": "2025-05-01T12:55:41.000",
    "date_modified": "2025-05-01T12:55:43.000",
    "request_status": "Pending",
    "responsible_agency": "Department of Public Works",
    "final_address": "303 Morgan St",
    "address_councildis": "C",
    "status": "Pending",
    "rowid": "1188612",
    "final_x": "3686112.61724",
    "final_y": "531088.49453",
    "longitude": "-90.05352058640548",
    "latitude": "29.954168334472755",
    "geocoded_column": {
      "latitude": "29.954168334472755",
      "longitude": "-90.05352058640548"
    }
  },
  {
    "service_request": "2025-1188611",
    "request_type": "Healthy Homes",
    "request_reason": "Healthy Homes",
    "date_created": "2025-05-01T12:53:31.000",
    "date_modified": "2025-05-01T14:09:32.000",
    "case_close_date": "2025-05-01T09:09:31.000",
    "request_status": "Closed",
    "responsible_agency": "Department of Code Enforcement",
    "final_address": "6853 Cindy Pl Apt C",
    "address_councildis": "E",
    "status": "Referred to Code Enforcement",
    "rowid": "1188611",
    "final_x": "3706884.82225",
    "final_y": "559567.609629",
    "longitude": "-89.9868741886703",
    "latitude": "30.031820898497955",
    "geocoded_column": {
      "latitude": "30.031820898497955",
      "longitude": "-89.9868741886703"
    }
  },
  {
    "service_request": "2025-1188610",
    "request_type": "Abandoned Vehicles",
    "request_reason": "Abandoned/Junk Vehicles",
    "date_created": "2025-05-01T12:47:23.000",
    "date_modified": "2025-05-01T12:47:25.000",
    "request_status": "Pending",
    "responsible_agency": "Department of Public Works",
    "final_address": "3706 Burgundy St",
    "address_councildis": "C",
    "status": "Pending",
    "rowid": "1188610",
    "final_x": "3690834.30505",
    "final_y": "534648.92967",
    "longitude": "-90.03848440419394",
    "latitude": "29.963812436114164",
    "geocoded_column": {
      "latitude": "29.963812436114164",
      "longitude": "-90.03848440419394"
    }
  },
  {
    "service_request": "2025-1188609",
    "request_type": "Trash/Recycling",
    "request_reason": "Request a Large Item Pick Up",
    "date_created": "2025-05-01T12:45:15.000",
    "date_modified": "2025-05-01T12:45:17.000",
    "request_status": "Pending",
    "responsible_agency": "Department of Sanitation",
    "final_address": "4819 Camelot Dr",
    "address_councildis": "E",
    "status": "Assigned to Contractor",
    "contractor": "Waste Pro",
    "rowid": "1188609",
    "final_x": "3708385.6538",
    "final_y": "556170.02985",
    "longitude": "-89.9822581147727",
    "latitude": "30.022430307999134",
    "geocoded_column": {
      "latitude": "30.022430307999134",
      "longitude": "-89.9822581147727"
    }
  },
  {
    "service_request": "2025-1188608",
    "request_type": "Trash/Recycling",
    "request_reason": "Order Trash Cart",
    "date_created": "2025-05-01T12:42:45.000",
    "date_modified": "2025-05-01T12:42:48.000",
    "request_status": "Pending",
    "responsible_agency": "Department of Sanitation",
    "final_address": "1428 N Dorgenois St",
    "address_councildis": "D",
    "status": "Assigned to Contractor",
    "contractor": "IV Waste",
    "rowid": "1188608",
    "final_x": "3678846.90267",
    "final_y": "538729.890313",
    "longitude": "-90.07619807316053",
    "latitude": "29.97540071207553",
    "geocoded_column": {
      "latitude": "29.97540071207553",
      "longitude": "-90.07619807316053"
    }
  },
  {
    "service_request": "2025-1188607",
    "request_type": "Abandoned Vehicles",
    "request_reason": "Abandoned/Junk Vehicles",
    "date_created": "2025-05-01T12:41:43.000",
    "date_modified": "2025-05-01T12:44:00.000",
    "request_status": "Pending",
    "responsible_agency": "Department of Public Works",
    "final_address": "2115 Andry St",
    "address_councildis": "E",
    "status": "Pending",
    "rowid": "1188607",
    "final_x": "3698280.54711",
    "final_y": "537843.326601",
    "longitude": "-90.01485395830777",
    "latitude": "29.972362410607314",
    "geocoded_column": {
      "latitude": "29.972362410607314",
      "longitude": "-90.01485395830777"
    }
  },
  {
    "service_request": "2025-1188606",
    "request_type": "Trash/Recycling",
    "request_reason": "Request a Large Item Pick Up",
    "date_created": "2025-05-01T12:38:35.000",
    "date_modified": "2025-05-01T12:38:38.000",
    "request_status": "Pending",
    "responsible_agency": "Department of Sanitation",
    "final_address": "2343 N Villere St",
    "address_councildis": "C",
    "status": "Assigned to Contractor",
    "contractor": "IV Waste",
    "rowid": "1188606",
    "final_x": "3686087.10626",
    "final_y": "537538.182664",
    "longitude": "-90.05337364700308",
    "latitude": "29.97190352956304",
    "geocoded_column": {
      "latitude": "29.97190352956304",
      "longitude": "-90.05337364700308"
    }
  },
  {
    "service_request": "2025-1188605",
    "request_type": "Trash/Recycling",
    "request_reason": "Request a Large Item Pick Up",
    "date_created": "2025-05-01T12:37:58.000",
    "date_modified": "2025-05-01T12:38:00.000",
    "request_status": "Pending",
    "responsible_agency": "Department of Sanitation",
    "final_address": "2 Petit Bayou Ln",
    "address_councildis": "E",
    "status": "Assigned to Contractor",
    "contractor": "Waste Pro",
    "rowid": "1188605",
    "final_x": "3724828.66963",
    "final_y": "563674.093345",
    "longitude": "-89.9300125132992",
    "latitude": "30.04252005950625",
    "geocoded_column": {
      "latitude": "30.04252005950625",
      "longitude": "-89.9300125132992"
    }
  },
  {
    "service_request": "2025-1188604",
    "request_type": "Trash/Recycling",
    "request_reason": "Order Trash Cart",
    "date_created": "2025-05-01T12:37:28.000",
    "date_modified": "2025-05-01T12:37:30.000",
    "request_status": "Pending",
    "responsible_agency": "Department of Sanitation",
    "final_address": "5710 Royal St",
    "address_councildis": "E",
    "status": "Assigned to Contractor",
    "contractor": "Waste Pro",
    "rowid": "1188604",
    "final_x": "3698053.02602",
    "final_y": "532115.197315",
    "longitude": "-90.01578051890543",
    "latitude": "29.956619295011468",
    "geocoded_column": {
      "latitude": "29.956619295011468",
      "longitude": "-90.01578051890543"
    }
  },
  {
    "service_request": "2025-1188603",
    "request_type": "Parks & Parkways",
    "request_reason": "Park Maintenance/Clean Up",
    "date_created": "2025-05-01T12:33:36.000",
    "date_modified": "2025-05-01T12:37:24.000",
    "case_close_date": "2025-05-01T07:37:22.000",
    "request_status": "Closed",
    "responsible_agency": "Department of Parks & Parkway",
    "final_address": "2431 Columbus St",
    "address_councildis": "D",
    "status": "Referred to external agency",
    "rowid": "1188603",
    "final_x": "3679309.54133",
    "final_y": "539113.586442",
    "longitude": "-90.0747236246973",
    "latitude": "29.976441779299755",
    "geocoded_column": {
      "latitude": "29.976441779299755",
      "longitude": "-90.0747236246973"
    }
  },
  {
    "service_request": "2025-1188602",
    "request_type": "Trash/Recycling",
    "request_reason": "Request a Large Item Pick Up",
    "date_created": "2025-05-01T12:29:22.000",
    "date_modified": "2025-05-01T12:29:25.000",
    "request_status": "Pending",
    "responsible_agency": "Department of Sanitation",
    "final_address": "6120 Urquhart St",
    "address_councildis": "E",
    "status": "Assigned to Contractor",
    "contractor": "Waste Pro",
    "rowid": "1188602",
    "final_x": "3699938.44733",
    "final_y": "533854.867333",
    "longitude": "-90.00976355509205",
    "latitude": "29.961343021616116",
    "geocoded_column": {
      "latitude": "29.961343021616116",
      "longitude": "-90.00976355509205"
    }
  },
  {
    "service_request": "2025-1188601",
    "request_type": "Mosquito, Termite & Rodent Control",
    "request_reason": "Rodent Complaint (Rats)",
    "date_created": "2025-05-01T12:26:42.000",
    "date_modified": "2025-05-01T12:26:45.000",
    "request_status": "Pending",
    "responsible_agency": "Mosquito, Termite & Rodent Control Board",
    "final_address": "1800 Mirabeau Ave",
    "address_councildis": "D",
    "status": "Pending",
    "rowid": "1188601",
    "final_x": "3681195.93992",
    "final_y": "550371.379988",
    "longitude": "-90.06837329254212",
    "latitude": "30.007339624482423",
    "geocoded_column": {
      "latitude": "30.007339624482423",
      "longitude": "-90.06837329254212"
    }
  },