[
  {
    "service_request": "2023-979776",
    "request_type": "Health Related Request",
    "request_reason": "Noise Ordinance Complaint",
    "date_created": "2023-03-03T00:39:08.000",
    "date_modified": "2023-03-03T00:39:08.000",
    "request_status": "Pending",
    "responsible_agency": "Health Department",
    "final_address": "1009 N Claiborne Ave, New Orleans, Louisiana, 70116",
    "address_councildis": "D",
    "status": "Pending",
    "rowid": "979776",
    "final_x": "3680417.66101",
    "final_y": "535635.218886",
    "longitude": "-90.07134484150656",
    "latitude": "29.966843952035386",
    "geocoded_column": {
      "latitude": "29.966843952035386",
      "longitude": "-90.07134484150656"
    }
  },
  {
    "service_request": "2023-979775",
    "request_type": "Trash/Recycling",
    "request_reason": "Request a Large Item Pick Up",
    "date_created": "2023-03-02T23:58:40.000",
    "date_modified": "2023-03-02T23:58:40.000",
    "request_status": "Pending",
    "responsible_agency": "Department of Sanitation",
    "final_address": "7131 Cove Dr",
    "address_councildis": "E",
    "status": "Assigned to Contractor",
    "contractor": "Waste Pro",
    "rowid": "979775",
    "final_x": "3700319.29898",
    "final_y": "558756.521948",
    "longitude": "-90.00765113245635",
    "latitude": "30.029801221213713",
    "geocoded_column": {
      "latitude": "30.029801221213713",
      "longitude": "-90.00765113245635"
    }
  },
  {
    "service_request": "2023-979774",
    "request_type": "Trash/Recycling",
    "request_reason": "Request a Large Item Pick Up",
    "date_created": "2023-03-02T23:02:47.000",
    "date_modified": "2023-03-02T23:02:47.000",
    "request_status": "Pending",
    "responsible_agency": "Department of Sanitation",
    "final_address": "9028 Olive St",
    "address_councildis": "A",
    "status": "Assigned to Contractor",
    "contractor": "Richards Disposal",
    "rowid": "979774",
    "final_x": "3664681.50938",
    "final_y": "536463.266823",
    "longitude": "-90.12101214172584",
    "latitude": "29.969587977820368",
    "geocoded_column": {
      "latitude": "29.969587977820368",
      "longitude": "-90.12101214172584"
    }
  },
  {
    "service_request": "2023-979773",
    "request_type": "Trash/Recycling",
    "request_reason": "Request a Large Item Pick Up",
    "date_created": "2023-03-02T22:52:21.000",
    "date_modified": "2023-03-02T22:52:22.000",
    "request_status": "Pending",
    "responsible_agency": "Department of Sanitation",
    "final_address": "17 Rosedown Ct",
    "address_councildis": "C",
    "status": "Assigned to Contractor",
    "contractor": "Richards Disposal",
    "rowid": "979773",
    "final_x": "3720593.19628",
    "final_y": "511059.746864",
    "longitude": "-89.94541222784713",
    "latitude": "29.897992543739495",
    "geocoded_column": {
      "latitude": "29.897992543739495",
      "longitude": "-89.94541222784713"
    }
  },
  {
    "service_request": "2023-979772",
    "request_type": "Roads/Drainage",
    "request_reason": "Street Flooding / Drainage",
    "date_created": "2023-03-02T22:28:31.000",
    "date_modified": "2023-03-02T22:28:31.000",
    "request_status": "Pending",
    "responsible_agency": "Department of Public Works",
    "final_address": "831 Calhoun St",
    "address_councildis": "A",
    "status": "Pending",
    "rowid": "979772",
    "final_x": "3663607.45293",
    "final_y": "519973.042168",
    "longitude": "-90.12495332013025",
    "latitude": "29.924276360562533",
    "geocoded_column": {
      "latitude": "29.924276360562533",
      "longitude": "-90.12495332013025"
    }
  },
  {
    "service_request": "2023-979771",
    "request_type": "Roads/Drainage",
    "request_reason": "Street Subsidence (Sinking)",
    "date_created": "2023-03-02T22:12:48.000",
    "date_modified": "2023-03-02T22:12:48.000",
    "request_status": "Pending",
    "responsible_agency": "Department of Public Works",
    "final_address": "4500 Shalimar Dr",
    "address_councildis": "D",
    "status": "Pending",
    "rowid": "979771",
    "final_x": "3697204.51069",
    "final_y": "552944.045463",
    "longitude": "-90.01770467612812",
    "latitude": "30.01391783789882",
    "geocoded_column": {
      "latitude": "30.01391783789882",
      "longitude": "-90.01770467612812"
    }
  },
  {
    "service_request": "2023-979770",
    "request_type": "Health Related Request",
    "request_reason": "Noise Ordinance Complaint",
    "date_created": "2023-03-02T22:10:54.000",
    "date_modified": "2023-03-02T22:10:54.000",
    "request_status": "Pending",
    "responsible_agency": "Health Department",
    "final_address": "1009 N Claiborne Ave, New Orleans, Louisiana, 70116",
    "address_councildis": "D",
    "status": "Pending",
    "rowid": "979770",
    "final_x": "3680417.66101",
    "final_y": "535635.218886",
    "longitude": "-90.07134484150656",
    "latitude": "29.966843952035386",
    "geocoded_column": {
      "latitude": "29.966843952035386",
      "longitude": "-90.07134484150656"
    }
  },
  {
    "service_request": "2023-979769",
    "request_type": "Traffic Signals/Signs/Striping/Streetlights",
    "request_reason": "Street Light Outage/Malfunction",
    "date_created": "2023-03-02T22:02:19.000",
    "date_modified": "2023-03-02T22:02:20.000",
    "request_status": "Pending",
    "responsible_agency": "Department of Public Works",
    "final_address": "523 Diana St",
    "address_councildis": "C",
    "status": "Assigned to Contractor",
    "contractor": "Legacy Professional Services",
    "rowid": "979769",
    "final_x": "3687182.19599",
    "final_y": "527518.415167",
    "longitude": "-90.05026952377469",
    "latitude": "29.944318943616384",
    "geocoded_column": {
      "latitude": "29.944318943616384",
      "longitude": "-90.05026952377469"
    }
  },
  {
    "service_request": "2023-979768",
    "request_type": "Traffic Signals/Signs/Striping/Streetlights",
    "request_reason": "Street Light Outage/Malfunction",
    "date_created": "2023-03-02T22:02:01.000",
    "date_modified": "2023-03-02T22:02:02.000",
    "request_status": "Pending",
    "responsible_agency": "Department of Public Works",
    "final_address": "6700 Foch Rd",
    "address_councildis": "D",
    "status": "Assigned to Contractor",
    "contractor": "Legacy Professional Services",
    "rowid": "979768",
    "final_x": "3696707.32131",
    "final_y": "555893.339545",
    "longitude": "-90.01916866124411",
    "latitude": "30.02204297003574",
    "geocoded_column": {
      "latitude": "30.02204297003574",
      "longitude": "-90.01916866124411"
    }
  },
  {
    "service_request": "2023-979767",
    "request_type": "Trash/Recycling",
    "request_reason": "Missed Trash Pick-Up",
    "date_created": "2023-03-02T21:04:31.000",
    "date_modified": "2023-03-02T21:04:32.000",
    "request_status": "Pending",
    "responsible_agency": "Department of Sanitation",
    "final_address": "6825 Marshal Foch St",
    "address_councildis": "A",
    "status": "Assigned to Contractor",
    "contractor": "IV Waste",
    "rowid": "979767",
    "final_x": "3670396.56897",
    "final_y": "552741.683478",
    "longitude": "-90.10241118697913",
    "latitude": "30.014180516725286",
    "geocoded_column": {
      "latitude": "30.014180516725286",
      "longitude": "-90.10241118697913"
    }
  },
  {
    "service_request": "2023-979766",
    "request_type": "Traffic Signals/Signs/Striping/Streetlights",
    "request_reason": "Street Light Outage/Malfunction",
    "date_created": "2023-03-02T20:58:46.000",
    "date_modified": "2023-03-02T20:58:46.000",
    "request_status": "Pending",
    "responsible_agency": "Department of Public Works",
    "final_address": "521 S Murat St",
    "address_councildis": "A",
    "status": "Assigned to Contractor",
    "contractor": "Legacy Professional Services",
    "rowid": "979766",
    "final_x": "3668582.17569",
    "final_y": "537979.211465",
    "longitude": "-90.10864229418348",
    "latitude": "29.973642263703177",
    "geocoded_column": {
      "latitude": "29.973642263703177",
      "longitude": "-90.10864229418348"
    }
  },
  {
    "service_request": "2023-979765",
    "request_type": "Trash/Recycling",
    "request_reason": "Order Trash Cart",
    "date_created": "2023-03-02T20:45:58.000",
    "date_modified": "2023-03-02T20:45:59.000",
    "request_status": "Pending",
    "responsible_agency": "Department of Sanitation",
    "final_address": "2657 Touro St",
    "address_councildis": "D",
    "status": "Assigned to Contractor",
    "contractor": "IV Waste",
    "rowid": "979765",
    "final_x": "3683777.04559",
    "final_y": "542306.123533",
    "longitude": "-90.06050190853864",
    "latitude": "29.98508444920614",
    "geocoded_column": {
      "latitude": "29.98508444920614",
      "longitude": "-90.06050190853864"
    }
  },
  {
    "service_request": "2023-979764",
    "request_type": "Trash/Recycling",
    "request_reason": "Order Trash Cart",
    "date_created": "2023-03-02T20:44:22.000",
    "date_modified": "2023-03-02T20:44:22.000",
    "request_status": "Pending",
    "responsible_agency": "Department of Sanitation",
    "final_address": "3322 Hollygrove St",
    "address_councildis": "A",
    "status": "Assigned to Contractor",
    "contractor": "Richards Disposal",
    "rowid": "979764",
    "final_x": "3664760.00532",
    "final_y": "536222.302343",
    "longitude": "-90.12077229673105",
    "latitude": "29.968923121357978",
    "geocoded_column": {
      "latitude": "29.968923121357978",
      "longitude": "-90.12077229673105"
    }
  },
  {
    "service_request": "2023-979763",
    "request_type": "Trash/Recycling",
    "request_reason": "Order Trash Cart",
    "date_created": "2023-03-02T20:42:33.000",
    "date_modified": "2023-03-02T20:42:34.000",
    "request_status": "Pending",
    "responsible_agency": "Department of Sanitation",
    "final_address": "3320 Hollygrove St",
    "address_councildis": "A",
    "status": "Assigned to Contractor",
    "contractor": "Richards Disposal",
    "rowid": "979763",
    "final_x": "3664741.69133",
    "final_y": "536200.622215",
    "longitude": "-90.12083085825313",
    "latitude": "29.96886404105486",
    "geocoded_column": {
      "latitude": "29.96886404105486",
      "longitude": "-90.12083085825313"
    }
  },
  {
    "service_request": "2023-979762",
    "request_type": "Trash/Recycling",
    "request_reason": "Order Trash Cart",
    "date_created": "2023-03-02T20:41:00.000",
    "date_modified": "2023-03-02T20:41:00.000",
    "request_status": "Pending",
    "responsible_agency": "Department of Sanitation",
    "final_address": "9002 Forshey St",
    "address_councildis": "A",
    "status": "Assigned to Contractor",
    "contractor": "Richards Disposal",
    "rowid": "979762",
    "final_x": "3664601.54554",
    "final_y": "536060.062023",
    "longitude": "-90.12127814490202",
    "latitude": "29.968481623941642",
    "geocoded_column": {
      "latitude": "29.968481623941642",
      "longitude": "-90.12127814490202"
    }
  },
  {
    "service_request": "2023-979761",
    "request_type": "Trash/Recycling",
    "request_reason": "Illegal Dumping",
    "date_created": "2023-03-02T20:39:49.000",
    "date_modified": "2023-03-02T20:39:49.000",
    "request_status": "Pending",
    "responsible_agency": "Department of Sanitation",
    "final_address": "8933 Forshey St",
    "address_councildis": "A",
    "status": "Pending",
    "rowid": "979761",
    "final_x": "3664714.61421",
    "final_y": "536056.254471",
    "longitude": "-90.1209211939863",
    "latitude": "29.968467865280882",
    "geocoded_column": {
      "latitude": "29.968467865280882",
      "longitude": "-90.1209211939863"
    }
  },
  {
    "service_request": "2023-979760",
    "request_type": "Traffic Signals/Signs/Striping/Streetlights",
    "request_reason": "Request for Stop Sign",
    "date_created": "2023-03-02T20:37:10.000",
    "date_modified": "2023-03-02T20:37:10.000",
    "request_status": "Pending",
    "responsible_agency": "Department of Public Works",
    "final_address": "440 S St Patrick St",
    "address_councildis": "A",
    "status": "Pending",
    "rowid": "979760",
    "final_x": "3668201.25869",
    "final_y": "538572.466633",
    "longitude": "-90.10982530932937",
    "latitude": "29.975284705522252",
    "geocoded_column": {
      "latitude": "29.975284705522252",
      "longitude": "-90.10982530932937"
    }
  },
  {
    "service_request": "2023-979759",
    "request_type": "Abandoned Vehicles",
    "request_reason": "Abandoned/Junk Vehicles",
    "date_created": "2023-03-02T20:17:34.000",
    "date_modified": "2023-03-02T20:17:34.000",
    "request_status": "Pending",
    "responsible_agency": "Department of Public Works",
    "final_address": "1938 Stephen Girard St",
    "address_councildis": "D",
    "status": "Pending",
    "rowid": "979759",
    "final_x": "3682089.08796",
    "final_y": "548624.135315",
    "longitude": "-90.06561266110566",
    "latitude": "30.002508188187832",
    "geocoded_column": {
      "latitude": "30.002508188187832",
      "longitude": "-90.06561266110566"
    }
  },
  {
    "service_request": "2023-979758",
    "request_type": "Abandoned Vehicles",
    "request_reason": "Abandoned/Junk Vehicles",
    "date_created": "2023-03-02T19:55:33.000",
    "date_modified": "2023-03-02T19:55:33.000",
    "request_status": "Pending",
    "responsible_agency": "Department of Public Works",
    "final_address": "7600 BLK Gannon Rd",
    "address_councildis": "E",
    "status": "Pending",
    "rowid": "979758",
    "final_x": "3716373.68893",
    "final_y": "569891.598849",
    "longitude": "-89.9564971740266",
    "latitude": "30.05989765801519",
    "geocoded_column": {
      "latitude": "30.05989765801519",
      "longitude": "-89.9564971740266"
    }
  },
  {
    "service_request": "2023-979757",
    "request_type": "Trash/Recycling",
    "request_reason": "Order Recycling Cart",
    "date_created": "2023-03-02T19:50:41.000",
    "date_modified": "2023-03-02T19:50:41.000",
    "request_status": "Pending",
    "responsible_agency": "Department of Sanitation",
    "final_address": "4206 Prytania St",
    "address_councildis": "B",
    "status": "Pending",
    "rowid": "979757",
    "final_x": "3671578.61415",
    "final_y": "520330.665016",
    "longitude": "-90.09977892421216",
    "latitude": "29.925026158531082",
    "geocoded_column": {
      "latitude": "29.925026158531082",
      "longitude": "-90.09977892421216"
    }
  },
  {
    "service_request": "2023-979756",
    "request_type": "Traffic Signals/Signs/Striping/Streetlights",
    "request_reason": "Street Light Outage/Malfunction",
    "date_created": "2023-03-02T19:43:09.000",
    "date_modified": "2023-03-02T19:43:10.000",
    "request_status": "Pending",
    "responsible_agency": "Department of Public Works",
    "final_address": "2019 Royal St",
    "address_councildis": "C",
    "status": "Assigned to Contractor",
    "contractor": "Legacy Professional Services",
    "rowid": "979756",
    "final_x": "3684507.12425",
    "final_y": "534846.442118",
    "longitude": "-90.05845805607306",
    "latitude": "29.964550610458296",
    "geocoded_column": {
      "latitude": "29.964550610458296",
      "longitude": "-90.05845805607306"
    }
  },
  {
    "service_request": "2023-979755",
    "request_type": "Traffic Signals/Signs/Striping/Streetlights",
    "request_reason": "Street Light Outage/Malfunction",
    "date_created": "2023-03-02T19:24:31.000",
    "date_modified": "2023-03-02T19:24:32.000",
    "request_status": "Pending",
    "responsible_agency": "Department of Public Works",
    "final_address": "4920 Tynecastle Dr",
    "address_councildis": "E",
    "status": "Assigned to Contractor",
    "contractor": "Legacy Professional Services",
    "rowid": "979755",
    "final_x": "3718349.73945",
    "final_y": "557963.992347",
    "longitude": "-89.95070599634936",
    "latitude": "30.02703617608389",
    "geocoded_column": {
      "latitude": "30.02703617608389",
      "longitude": "-89.95070599634936"
    }
  },
  {
    "service_request": "2023-979753",
    "request_type": "Trash/Recycling",
    "request_reason": "Order Recycling Cart",
    "date_created": "2023-03-02T19:12:07.000",
    "date_modified": "2023-03-02T19:12:07.000",
    "request_status": "Pending",
    "responsible_agency": "Department of Sanitation",
    "final_address": "4225 Jumonville St",
    "address_councildis": "D",
    "status": "Pending",
    "rowid": "979753",
    "final_x": "3678055.77602",
    "final_y": "547808.811346",
    "longitude": "-90.07838262462423",
    "latitude": "30.00038841793061",
    "geocoded_column": {
      "latitude": "30.00038841793061",
      "longitude": "-90.07838262462423"
    }
  },
  {
    "service_request": "2023-979752",
    "request_type": "Abandoned Vehicles",
    "request_reason": "Abandoned/Junk Vehicles",
    "date_created": "2023-03-02T19:10:26.000",
    "date_modified": "2023-03-02T19:14:16.000",
    "request_status": "Pending",
    "responsible_agency": "Department of Public Works",
    "final_address": "ROSEDALE DR & CONTI ST",
    "address_councildis": "A",
    "status": "Pending",
    "rowid": "979752",
    "final_x": "3668291.9",
    "final_y": "541970.58",
    "longitude": "-90.10942440539442",
    "latitude": "29.984625707710006",
    "geocoded_column": {
      "latitude": "29.984625707710006",
      "longitude": "-90.10942440539442"
    }
  },
  {
    "service_request": "2023-979751",
    "request_type": "Abandoned Vehicles",
    "request_reason": "Abandoned/Junk Vehicles",
    "date_created": "2023-03-02T19:05:56.000",
    "date_modified": "2023-03-02T19:05:56.000",
    "request_status": "Pending",
    "responsible_agency": "Department of Public Works",
    "final_address": "3503 S Miro St",
    "address_councildis": "B",
    "status": "Pending",
    "rowid": "979751",
    "final_x": "3671249.69422",
    "final_y": "528026.407039",
    "longitude": "-90.10055585898027",
    "latitude": "29.94619669445038",
    "geocoded_column": {
      "latitude": "29.94619669445038",
      "longitude": "-90.10055585898027"
    }
  },
  {
    "service_request": "2023-979750",
    "request_type": "Trash/Recycling",
    "request_reason": "Replace Trash Cart",
    "date_created": "2023-03-02T18:46:52.000",
    "date_modified": "2023-03-02T18:46:53.000",
    "request_status": "Pending",
    "responsible_agency": "Department of Sanitation",
    "final_address": "2216 Valence St",
    "address_councildis": "B",
    "status": "Assigned to Contractor",
    "contractor": "Richards Disposal",
    "rowid": "979750",
    "final_x": "3669401.92398",
    "final_y": "523036.346491",
    "longitude": "-90.1065586076973",
    "latitude": "29.932530173099984",
    "geocoded_column": {
      "latitude": "29.932530173099984",
      "longitude": "-90.1065586076973"
    }
  },
  {
    "service_request": "2023-979749",
    "request_type": "Traffic Signals/Signs/Striping/Streetlights",
    "request_reason": "Street Light Outage/Malfunction",
    "date_created": "2023-03-02T18:39:52.000",
    "date_modified": "2023-03-02T18:39:53.000",
    "request_status": "Pending",
    "responsible_agency": "Department of Public Works",
    "final_address": "7706 Burthe St",
    "address_councildis": "A",
    "status": "Assigned to Contractor",
    "contractor": "Legacy Professional Services",
    "rowid": "979749",
    "final_x": "3662251.59872",
    "final_y": "526633.522686",
    "longitude": "-90.12901232289202",
    "latitude": "29.9426298297996",
    "geocoded_column": {
      "latitude": "29.9426298297996",
      "longitude": "-90.12901232289202"
    }
  },
  {
    "service_request": "2023-979748",
    "request_type": "Abandoned Vehicles",
    "request_reason": "Abandoned/Junk Vehicles",
    "date_created": "2023-03-02T18:20:30.000",
    "date_modified": "2023-03-02T18:20:30.000",
    "request_status": "Pending",
    "responsible_agency": "Department of Public Works",
    "final_address": "3017 N Derbigny St",
    "address_councildis": "D",
    "status": "Pending",
    "rowid": "979748",
    "final_x": "3689150.93756",
    "final_y": "538412.250825",
    "longitude": "-90.04366654030301",
    "latitude": "29.97421244778239",
    "geocoded_column": {
      "latitude": "29.97421244778239",
      "longitude": "-90.04366654030301"
    }
  },
  {
    "service_request": "2023-979747",
    "request_type": "Abandoned Vehicles",
    "request_reason": "Abandoned/Junk Vehicles",
    "date_created": "2023-03-02T18:18:44.000",
    "date_modified": "2023-03-02T18:18:44.000",
    "request_status": "Pending",
    "responsible_agency": "Department of Public Works",
    "final_address": "3017 N Derbigny St",
    "address_councildis": "D",
    "status": "Pending",
    "rowid": "979747",
    "final_x": "3689150.93756",
    "final_y": "538412.250825",
    "longitude": "-90.04366654030301",
    "latitude": "29.97421244778239",
    "geocoded_column": {
      "latitude": "29.97421244778239",
      "longitude": "-90.04366654030301"
    }
  },
  {
    "service_request": "2023-979746",
    "request_type": "Trash/Recycling",
    "request_reason": "Request a Large Item Pick Up",
    "date_created": "2023-03-02T18:17:28.000",
    "date_modified": "2023-03-02T18:17:28.000",
    "request_status": "Pending",
    "responsible_agency": "Department of Sanitation",
    "final_address": "7210 Cove Dr",
    "address_councildis": "E",
    "status": "Assigned to Contractor",
    "contractor": "Waste Pro",
    "rowid": "979746",
    "final_x": "3700053.53424",
    "final_y": "558896.431836",
    "longitude": "-90.0084858298527",
    "latitude": "30.030194371207465",
    "geocoded_column": {
      "latitude": "30.030194371207465",
      "longitude": "-90.0084858298527"
    }
  },
  {
    "service_request": "2023-979745",
    "request_type": "Trash/Recycling",
    "request_reason": "MIssed Recycling Pick-Up",
    "date_created": "2023-03-02T18:16:49.000",
    "date_modified": "2023-03-02T18:16:50.000",
    "request_status": "Pending",
    "responsible_agency": "Department of Sanitation",
    "final_address": "5800 BLK Kensington Blvd",
    "address_councildis": "E",
    "status": "Assigned to Contractor",
    "contractor": "Waste Pro",
    "rowid": "979745",
    "final_x": "3713264.48026",
    "final_y": "560958.071441",
    "longitude": "-89.9666619167365",
    "latitude": "30.035436441053836",
    "geocoded_column": {
      "latitude": "30.035436441053836",
      "longitude": "-89.9666619167365"
    }
  },
  {
    "service_request": "2023-979744",
    "request_type": "Trash/Recycling",
    "request_reason": "Missed Trash Pick-Up",
    "date_created": "2023-03-02T18:16:30.000",
    "date_modified": "2023-03-02T18:16:31.000",
    "request_status": "Pending",
    "responsible_agency": "Department of Sanitation",
    "final_address": "5800 BLK Kensington Blvd",
    "address_councildis": "E",
    "status": "Assigned to Contractor",
    "contractor": "Waste Pro",
    "rowid": "979744",
    "final_x": "3713264.48026",
    "final_y": "560958.071441",
    "longitude": "-89.9666619167365",
    "latitude": "30.035436441053836",
    "geocoded_column": {
      "latitude": "30.035436441053836",
      "longitude": "-89.9666619167365"
    }
  },
  {
    "service_request": "2023-979743",
    "request_type": "Trash/Recycling",
    "request_reason": "Repair Trash Cart",
    "date_created": "2023-03-02T18:14:58.000",
    "date_modified": "2023-03-02T18:20:09.000",
    "request_status": "Pending",
    "responsible_agency": "Department of Sanitation",
    "final_address": "11284 Fernley Dr",
    "address_councildis": "E",
    "contractor": "Waste Pro",
    "rowid": "979743",
    "final_x": "3717935.65644",
    "final_y": "560093.896669",
    "longitude": "-89.95193330464164",
    "latitude": "30.03290628905945",
    "geocoded_column": {
      "latitude": "30.03290628905945",
      "longitude": "-89.95193330464164"
    }
  },
  {
    "service_request": "2023-979742",
    "request_type": "Trash/Recycling",
    "request_reason": "Request a Large Item Pick Up",
    "date_created": "2023-03-02T18:13:32.000",
    "date_modified": "2023-03-02T18:13:32.000",
    "request_status": "Pending",
    "responsible_agency": "Department of Sanitation",
    "final_address": "4601 Chantilly Dr",
    "address_councildis": "E",
    "status": "Assigned to Contractor",
    "contractor": "Waste Pro",
    "rowid": "979742",
    "final_x": "3701041.21354",
    "final_y": "553359.680727",
    "longitude": "-90.00556751912305",
    "latitude": "30.014938991635464",
    "geocoded_column": {
      "latitude": "30.014938991635464",
      "longitude": "-90.00556751912305"
    }
  },
  {
    "service_request": "2023-979741",
    "request_type": "Property Maintenance",
    "request_reason": "Property Maintenance",
    "date_created": "2023-03-02T17:48:16.000",
    "date_modified": "2023-03-02T17:48:16.000",
    "request_status": "Pending",
    "responsible_agency": "Department of Code Enforcement",
    "final_address": "812 Audubon St",
    "address_councildis": "A",
    "status": "Pending",
    "rowid": "979741",
    "final_x": "3663685.2848",
    "final_y": "525303.965757",
    "longitude": "-90.12453010510716",
    "latitude": "29.93893246080904",
    "geocoded_column": {
      "latitude": "29.93893246080904",
      "longitude": "-90.12453010510716"
    }
  },
  {
    "service_request": "2023-979740",
    "request_type": "Traffic Signals/Signs/Striping/Streetlights",
    "request_reason": "Traffic Sign Missing/Damaged",
    "date_created": "2023-03-02T17:41:54.000",
    "date_modified": "2023-03-02T17:41:55.000",
    "request_status": "Pending",
    "responsible_agency": "Department of Public Works",
    "final_address": "AMELIA ST & DRYADES ST",
    "address_councildis": "B",
    "status": "Pending",
    "rowid": "979740",
    "final_x": "3672881.2",
    "final_y": "522221.88",
    "longitude": "-90.09560258765065",
    "latitude": "29.93018776861975",
    "geocoded_column": {
      "latitude": "29.93018776861975",
      "longitude": "-90.09560258765065"
    }
  },
  {
    "service_request": "2023-979739",
    "request_type": "Trash/Recycling",
    "request_reason": "MIssed Recycling Pick-Up",
    "date_created": "2023-03-02T17:31:08.000",
    "date_modified": "2023-03-02T17:31:08.000",
    "request_status": "Pending",
    "responsible_agency": "Department of Sanitation",
    "final_address": "2823 Second St",
    "address_councildis": "B",
    "status": "Assigned to Contractor",
    "contractor": "Richards Disposal",
    "rowid": "979739",
    "final_x": "3674291.72552",
    "final_y": "526780.611518",
    "longitude": "-90.09099374698583",
    "latitude": "29.942680823820208",
    "geocoded_column": {
      "latitude": "29.942680823820208",
      "longitude": "-90.09099374698583"
    }
  },
  {
    "service_request": "2023-979738",
    "request_type": "Roads/Drainage",
    "request_reason": "Damaged Sidewalk",
    "date_created": "2023-03-02T17:28:22.000",
    "date_modified": "2023-03-02T17:28:22.000",
    "request_status": "Pending",
    "responsible_agency": "Department of Public Works",
    "final_address": "7211 Chadbourne Dr",
    "address_councildis": "E",
    "status": "Pending",
    "rowid": "979738",
    "final_x": "3700835.32605",
    "final_y": "557510.949467",
    "longitude": "-90.00606609358422",
    "latitude": "30.02635995144541",
    "geocoded_column": {
      "latitude": "30.02635995144541",
      "longitude": "-90.00606609358422"
    }
  },
  {
    "service_request": "2023-979737",
    "request_type": "Trash/Recycling",
    "request_reason": "Replace Trash Cart",
    "date_created": "2023-03-02T17:27:29.000",
    "date_modified": "2023-03-02T17:27:30.000",
    "request_status": "Pending",
    "responsible_agency": "Department of Sanitation",
    "final_address": "915 Wagner St",
    "address_councildis": "C",
    "status": "Assigned to Contractor",
    "contractor": "Richards Disposal",
    "rowid": "979737",
    "final_x": "3690471.82147",
    "final_y": "528078.623039",
    "longitude": "-90.03986330405466",
    "latitude": "29.945757627145372",
    "geocoded_column": {
      "latitude": "29.945757627145372",
      "longitude": "-90.03986330405466"
    }
  },
  {
    "service_request": "2023-979736",
    "request_type": "Trash/Recycling",
    "request_reason": "Order Recycling Cart",
    "date_created": "2023-03-02T17:26:41.000",
    "date_modified": "2023-03-02T17:26:41.000",
    "request_status": "Pending",
    "responsible_agency": "Department of Sanitation",
    "final_address": "2301 Delachaise St",
    "address_councildis": "B",
    "status": "Pending",
    "rowid": "979736",
    "final_x": "3672877.89102",
    "final_y": "523729.840059",
    "longitude": "-90.09556161040238",
    "latitude": "29.934334269584994",
    "geocoded_column": {
      "latitude": "29.934334269584994",
      "longitude": "-90.09556161040238"
    }
  },
  {
    "service_request": "2023-979734",
    "request_type": "Roads/Drainage",
    "request_reason": "Damaged Sidewalk",
    "date_created": "2023-03-02T17:26:18.000",
    "date_modified": "2023-03-02T17:26:18.000",
    "request_status": "Pending",
    "responsible_agency": "Department of Public Works",
    "final_address": "7220 Chadbourne Dr",
    "address_councildis": "E",
    "status": "Pending",
    "rowid": "979734",
    "final_x": "3700951.81495",
    "final_y": "557373.310747",
    "longitude": "-90.00570304392102",
    "latitude": "30.02597778727682",
    "geocoded_column": {
      "latitude": "30.02597778727682",
      "longitude": "-90.00570304392102"
    }
  },
  {
    "service_request": "2023-979733",
    "request_type": "Roads/Drainage",
    "request_reason": "Damaged Sidewalk",
    "date_created": "2023-03-02T17:24:48.000",
    "date_modified": "2023-03-02T17:24:48.000",
    "request_status": "Pending",
    "responsible_agency": "Department of Public Works",
    "final_address": "7210 Chadbourne Dr",
    "address_councildis": "E",
    "status": "Pending",
    "rowid": "979733",
    "final_x": "3700882.43556",
    "final_y": "557373.398107",
    "longitude": "-90.00592226920955",
    "latitude": "30.025980237631984",
    "geocoded_column": {
      "latitude": "30.025980237631984",
      "longitude": "-90.00592226920955"
    }
  },
  {
    "service_request": "2023-979731",
    "request_type": "Roads/Drainage",
    "request_reason": "Damaged Sidewalk",
    "date_created": "2023-03-02T17:22:55.000",
    "date_modified": "2023-03-02T17:22:55.000",
    "request_status": "Pending",
    "responsible_agency": "Department of Public Works",
    "final_address": "6876 Farwood Rd",
    "address_councildis": "E",
    "status": "Pending",
    "rowid": "979731",
    "final_x": "3700657.08292",
    "final_y": "557353.733147",
    "longitude": "-90.00663506935066",
    "latitude": "30.02593334286755",
    "geocoded_column": {
      "latitude": "30.02593334286755",
      "longitude": "-90.00663506935066"
    }
  },
  {
    "service_request": "2023-979730",
    "request_type": "Roads/Drainage",
    "request_reason": "Damaged Sidewalk",
    "date_created": "2023-03-02T17:21:27.000",
    "date_modified": "2023-03-02T17:21:27.000",
    "request_status": "Pending",
    "responsible_agency": "Department of Public Works",
    "final_address": "6870 Farwood Rd",
    "address_councildis": "E",
    "status": "Pending",
    "rowid": "979730",
    "final_x": "3700684.21949",
    "final_y": "557289.131099",
    "longitude": "-90.0065516855711",
    "latitude": "30.025754848125956",
    "geocoded_column": {
      "latitude": "30.025754848125956",
      "longitude": "-90.0065516855711"
    }
  },
  {
    "service_request": "2023-979729",
    "request_type": "Roads/Drainage",
    "request_reason": "Damaged Sidewalk",
    "date_created": "2023-03-02T17:20:05.000",
    "date_modified": "2023-03-02T17:20:05.000",
    "request_status": "Pending",
    "responsible_agency": "Department of Public Works",
    "final_address": "6862 Farwood Rd",
    "address_councildis": "E",
    "status": "Pending",
    "rowid": "979729",
    "final_x": "3700710.34071",
    "final_y": "557221.217051",
    "longitude": "-90.00647163161902",
    "latitude": "30.025567278928836",
    "geocoded_column": {
      "latitude": "30.025567278928836",
      "longitude": "-90.00647163161902"
    }
  },
  {
    "service_request": "2023-979728",
    "request_type": "Roads/Drainage",
    "request_reason": "Damaged Sidewalk",
    "date_created": "2023-03-02T17:16:56.000",
    "date_modified": "2023-03-02T17:16:56.000",
    "request_status": "Pending",
    "responsible_agency": "Department of Public Works",
    "final_address": "6856 Farwood Rd",
    "address_councildis": "E",
    "status": "Pending",
    "rowid": "979728",
    "final_x": "3700732.25661",
    "final_y": "557157.037787",
    "longitude": "-90.00640472940655",
    "latitude": "30.02539011280326",
    "geocoded_column": {
      "latitude": "30.02539011280326",
      "longitude": "-90.00640472940655"
    }
  },
  {
    "service_request": "2023-979727",
    "request_type": "Trash/Recycling",
    "request_reason": "MIssed Recycling Pick-Up",
    "date_created": "2023-03-02T17:14:36.000",
    "date_modified": "2023-03-02T17:14:37.000",
    "request_status": "Pending",
    "responsible_agency": "Department of Sanitation",
    "final_address": "8 Rosa Park",
    "address_councildis": "A",
    "status": "Assigned to Contractor",
    "contractor": "Richards Disposal",
    "rowid": "979727",
    "final_x": "3666047.54458",
    "final_y": "522668.591738",
    "longitude": "-90.11716045682009",
    "latitude": "29.93161728747805",
    "geocoded_column": {
      "latitude": "29.93161728747805",
      "longitude": "-90.11716045682009"
    }
  },
  {
    "service_request": "2023-979726",
    "request_type": "Trash/Recycling",
    "request_reason": "Request a Large Item Pick Up",
    "date_created": "2023-03-02T17:14:05.000",
    "date_modified": "2023-03-02T17:14:06.000",
    "request_status": "Pending",
    "responsible_agency": "Department of Sanitation",
    "final_address": "7241 Chadbourne Dr",
    "address_councildis": "E",
    "status": "Assigned to Contractor",
    "contractor": "Waste Pro",
    "rowid": "979726",
    "final_x": "3701043.99447",
    "final_y": "557554.303259",
    "longitude": "-90.00540514249765",
    "latitude": "30.026472509956278",
    "geocoded_column": {
      "latitude": "30.026472509956278",
      "longitude": "-90.00540514249765"
    }
  },
  {
    "service_request": "2023-979725",
    "request_type": "Trash/Recycling",
    "request_reason": "Illegal Dumping",
    "date_created": "2023-03-02T17:11:56.000",
    "date_modified": "2023-03-02T17:11:56.000",
    "request_status": "Pending",
    "responsible_agency": "Department of Sanitation",
    "final_address": "201 Fairfax Pl",
    "address_councildis": "C",
    "status": "Pending",
    "rowid": "979725",
    "final_x": "3706050.75531",
    "final_y": "517360.152181",
    "longitude": "-89.99107227844776",
    "latitude": "29.915792841230783",
    "geocoded_column": {
      "latitude": "29.915792841230783",
      "longitude": "-89.99107227844776"
    }
  },
  {
    "service_request": "2023-979724",
    "request_type": "Trash/Recycling",
    "request_reason": "Request a Large Item Pick Up",
    "date_created": "2023-03-02T16:59:38.000",
    "date_modified": "2023-03-02T16:59:38.000",
    "request_status": "Pending",
    "responsible_agency": "Department of Sanitation",
    "final_address": "2504 Palmyra St",
    "address_councildis": "B",
    "status": "Assigned to Contractor",
    "contractor": "Richards Disposal",
    "rowid": "979724",
    "final_x": "3675574.85717",
    "final_y": "533880.547205",
    "longitude": "-90.08669871503025",
    "latitude": "29.962164967162433",
    "geocoded_column": {
      "latitude": "29.962164967162433",
      "longitude": "-90.08669871503025"
    }
  },
  {
    "service_request": "2023-979723",
    "request_type": "Trash/Recycling",
    "request_reason": "Repair Trash Cart",
    "date_created": "2023-03-02T16:57:47.000",
    "date_modified": "2023-03-02T16:57:48.000",
    "request_status": "Pending",
    "responsible_agency": "Department of Sanitation",
    "final_address": "2620 Touro St",
    "address_councildis": "D",
    "status": "Assigned to Contractor",
    "contractor": "IV Waste",
    "rowid": "979723",
    "final_x": "3683738.29986",
    "final_y": "541967.534604",
    "longitude": "-90.06063616830774",
    "latitude": "29.984154632384794",
    "geocoded_column": {
      "latitude": "29.984154632384794",
      "longitude": "-90.06063616830774"
    }
  },
  {
    "service_request": "2023-979721",
    "request_type": "Abandoned Vehicles",
    "request_reason": "Abandoned/Junk Vehicles",
    "date_created": "2023-03-02T16:52:22.000",
    "date_modified": "2023-03-02T16:56:46.000",
    "request_status": "Pending",
    "responsible_agency": "Department of Public Works",
    "final_address": "2242 St Claude Ave",
    "address_councildis": "C",
    "status": "Inspected",
    "rowid": "979721",
    "final_x": "3685492.26748",
    "final_y": "536310.755783",
    "longitude": "-90.05529547528458",
    "latitude": "29.968546790060884",
    "geocoded_column": {
      "latitude": "29.968546790060884",
      "longitude": "-90.05529547528458"
    }
  },
  {
    "service_request": "2023-979720",
    "request_type": "Parks & Parkways",
    "request_reason": "Request Tree Service (Right of Way/Public Property)",
    "date_created": "2023-03-02T16:51:01.000",
    "date_modified": "2023-03-02T16:51:02.000",
    "request_status": "Pending",
    "responsible_agency": "Department of Parks & Parkway",
    "final_address": "2028 Bienville Ave",
    "address_councildis": "B",
    "status": "Pending",
    "rowid": "979720",
    "final_x": "3677781.86184",
    "final_y": "534161.742149",
    "longitude": "-90.07971960535554",
    "latitude": "29.962871950137785",
    "geocoded_column": {
      "latitude": "29.962871950137785",
      "longitude": "-90.07971960535554"
    }
  },
  {
    "service_request": "2023-979719",
    "request_type": "Abandoned Vehicles",
    "request_reason": "Abandoned/Junk Vehicles",
    "date_created": "2023-03-02T16:49:06.000",
    "date_modified": "2023-03-02T16:49:06.000",
    "request_status": "Pending",
    "responsible_agency": "Department of Public Works",
    "final_address": "PRENTISS AVE & CORONADO DR",
    "address_councildis": "E",
    "status": "Pending",
    "rowid": "979719",
    "final_x": "3714151.0",
    "final_y": "556157.18",
    "longitude": "-89.96404169542764",
    "latitude": "30.022206796425355",
    "geocoded_column": {
      "latitude": "30.022206796425355",
      "longitude": "-89.96404169542764"
    }
  },
  {
    "service_request": "2023-979718",
    "request_type": "Trash/Recycling",
    "request_reason": "Repair Trash Cart",
    "date_created": "2023-03-02T16:48:32.000",
    "date_modified": "2023-03-02T16:48:33.000",
    "request_status": "Pending",
    "responsible_agency": "Department of Sanitation",
    "final_address": "7901 Downman Rd",
    "address_councildis": "D",
    "status": "Assigned to Contractor",
    "contractor": "Waste Pro",
    "rowid": "979718",
    "final_x": "3694442.33315",
    "final_y": "559254.207068",
    "longitude": "-90.02620427418516",
    "latitude": "30.031355313226946",
    "geocoded_column": {
      "latitude": "30.031355313226946",
      "longitude": "-90.02620427418516"
    }
  },
  {
    "service_request": "2023-979717",
    "request_type": "Trash/Recycling",
    "request_reason": "Order Recycling Cart",
    "date_created": "2023-03-02T16:47:46.000",
    "date_modified": "2023-03-02T16:47:46.000",
    "request_status": "Pending",
    "responsible_agency": "Department of Sanitation",
    "final_address": "1435 General Collins Ave",
    "address_councildis": "C",
    "status": "Pending",
    "rowid": "979717",
    "final_x": "3698440.79882",
    "final_y": "525787.571709",
    "longitude": "-90.01478598670313",
    "latitude": "29.939208277616363",
    "geocoded_column": {
      "latitude": "29.939208277616363",
      "longitude": "-90.01478598670313"
    }
  },
  {
    "service_request": "2023-979716",
    "request_type": "Trash/Recycling",
    "request_reason": "Missed Trash Pick-Up",
    "date_created": "2023-03-02T16:45:58.000",
    "date_modified": "2023-03-02T16:45:58.000",
    "request_status": "Pending",
    "responsible_agency": "Department of Sanitation",
    "final_address": "723 Jackson Ave",
    "address_councildis": "B",
    "status": "Assigned to Contractor",
    "contractor": "Richards Disposal",
    "rowid": "979716",
    "final_x": "3679659.74875",
    "final_y": "521108.552633",
    "longitude": "-90.07424242070145",
    "latitude": "29.926923407305818",
    "geocoded_column": {
      "latitude": "29.926923407305818",
      "longitude": "-90.07424242070145"
    }
  },
  {
    "service_request": "2023-979715",
    "request_type": "Trash/Recycling",
    "request_reason": "Dead Animal Pick Up",
    "date_created": "2023-03-02T16:45:13.000",
    "date_modified": "2023-03-02T16:45:13.000",
    "request_status": "Pending",
    "responsible_agency": "Department of Sanitation",
    "final_address": "2702 Clover St",
    "address_councildis": "D",
    "status": "Assigned to Contractor",
    "contractor": "IV Waste",
    "rowid": "979715",
    "final_x": "3687882.80809",
    "final_y": "546620.527505",
    "longitude": "-90.04738064156695",
    "latitude": "29.996821468408573",
    "geocoded_column": {
      "latitude": "29.996821468408573",
      "longitude": "-90.04738064156695"
    }
  },
  {
    "service_request": "2023-979714",
    "request_type": "Abandoned Vehicles",
    "request_reason": "Abandoned/Junk Vehicles",
    "date_created": "2023-03-02T16:43:32.000",
    "date_modified": "2023-03-02T16:43:32.000",
    "request_status": "Pending",
    "responsible_agency": "Department of Public Works",
    "final_address": "211 Pine St",
    "address_councildis": "A",
    "status": "Pending",
    "rowid": "979714",
    "final_x": "3661320.08813",
    "final_y": "522706.016954",
    "longitude": "-90.13208333136527",
    "latitude": "29.93185731712776",
    "geocoded_column": {
      "latitude": "29.93185731712776",
      "longitude": "-90.13208333136527"
    }
  },
  {
    "service_request": "2023-979713",
    "request_type": "Abandoned Vehicles",
    "request_reason": "Abandoned/Junk Vehicles",
    "date_created": "2023-03-02T16:42:34.000",
    "date_modified": "2023-03-02T16:42:34.000",
    "request_status": "Pending",
    "responsible_agency": "Department of Public Works",
    "final_address": "2033 Almonaster Ave",
    "address_councildis": "D",
    "status": "Pending",
    "rowid": "979713",
    "final_x": "3688091.36803",
    "final_y": "540099.553675",
    "longitude": "-90.04695307293262",
    "latitude": "29.978884684072373",
    "geocoded_column": {
      "latitude": "29.978884684072373",
      "longitude": "-90.04695307293262"
    }
  },
  {
    "service_request": "2023-979712",
    "request_type": "Trash/Recycling",
    "request_reason": "Replace Trash Cart",
    "date_created": "2023-03-02T16:41:56.000",
    "date_modified": "2023-03-02T16:41:57.000",
    "request_status": "Pending",
    "responsible_agency": "Department of Sanitation",
    "final_address": "1414 Audubon St",
    "address_councildis": "A",
    "status": "Assigned to Contractor",
    "contractor": "Richards Disposal",
    "rowid": "979712",
    "final_x": "3664845.59975",
    "final_y": "527032.599294",
    "longitude": "-90.12080908960104",
    "latitude": "29.943651940735702",
    "geocoded_column": {
      "latitude": "29.943651940735702",
      "longitude": "-90.12080908960104"
    }
  },
  {
    "service_request": "2023-979711",
    "request_type": "Abandoned Vehicles",
    "request_reason": "Abandoned/Junk Vehicles",
    "date_created": "2023-03-02T16:41:45.000",
    "date_modified": "2023-03-02T16:41:46.000",
    "request_status": "Pending",
    "responsible_agency": "Department of Public Works",
    "final_address": "2010 Almonaster Ave",
    "address_councildis": "D",
    "status": "Pending",
    "rowid": "979711",
    "final_x": "3687903.26364",
    "final_y": "539994.779467",
    "longitude": "-90.04755088983379",
    "latitude": "29.978602397307945",
    "geocoded_column": {
      "latitude": "29.978602397307945",
      "longitude": "-90.04755088983379"
    }
  },
  {
    "service_request": "2023-979710",
    "request_type": "Roads/Drainage",
    "request_reason": "Street Flooding / Drainage",
    "date_created": "2023-03-02T16:36:33.000",
    "date_modified": "2023-03-02T16:36:34.000",
    "request_status": "Pending",
    "responsible_agency": "Department of Public Works",
    "final_address": "9300 Old Gentilly Rd",
    "address_councildis": "E",
    "status": "Pending",
    "rowid": "979710",
    "final_x": "3710091.88523",
    "final_y": "552534.677014",
    "longitude": "-89.97700285581125",
    "latitude": "30.012379074212465",
    "geocoded_column": {
      "latitude": "30.012379074212465",
      "longitude": "-89.97700285581125"
    }
  },
  {
    "service_request": "2023-979709",
    "request_type": "Roads/Drainage",
    "request_reason": "WaterMain Break",
    "date_created": "2023-03-02T16:36:23.000",
    "date_modified": "2023-03-02T16:36:23.000",
    "request_status": "Closed",
    "responsible_agency": "Department of Public Works",
    "final_address": "247 Opal St",
    "address_councildis": "D",
    "status": "Invalid Case",
    "rowid": "979709",
    "final_x": "3667431.63661",
    "final_y": "555563.716121",
    "longitude": "-90.11168385610124",
    "latitude": "30.022027355063972",
    "geocoded_column": {
      "latitude": "30.022027355063972",
      "longitude": "-90.11168385610124"
    }
  },
  {
    "service_request": "2023-979708",
    "request_type": "Traffic Signals/Signs/Striping/Streetlights",
    "request_reason": "Traffic Sign Missing/Damaged",
    "date_created": "2023-03-02T16:35:13.000",
    "date_modified": "2023-03-02T16:35:13.000",
    "request_status": "Pending",
    "responsible_agency": "Department of Public Works",
    "final_address": "4600 Galahad Dr",
    "address_councildis": "E",
    "status": "Pending",
    "rowid": "979708",
    "final_x": "3707241.5452",
    "final_y": "554440.940888",
    "longitude": "-89.98593743597193",
    "latitude": "30.01771302774457",
    "geocoded_column": {
      "latitude": "30.01771302774457",
      "longitude": "-89.98593743597193"
    }
  },
  {
    "service_request": "2023-979707",
    "request_type": "Roads/Drainage",
    "request_reason": "Accessibility Ramps, Curbs and Sidewalk Repair",
    "date_created": "2023-03-02T16:32:47.000",
    "date_modified": "2023-03-02T16:32:47.000",
    "request_status": "Pending",
    "responsible_agency": "Department of Public Works",
    "final_address": "3118 Hamilton St",
    "address_councildis": "A",
    "status": "Pending",
    "rowid": "979707",
    "final_x": "3664010.80244",
    "final_y": "535913.144903",
    "longitude": "-90.1231486503308",
    "latitude": "29.968094819180052",
    "geocoded_column": {
      "latitude": "29.968094819180052",
      "longitude": "-90.1231486503308"
    }
  },
  {
    "service_request": "2023-979706",
    "request_type": "Trash/Recycling",
    "request_reason": "Missed Trash Pick-Up",
    "date_created": "2023-03-02T16:31:54.000",
    "date_modified": "2023-03-02T16:31:55.000",
    "request_status": "Pending",
    "responsible_agency": "Department of Sanitation",
    "final_address": "3216 Hyman Pl",
    "address_councildis": "C",
    "status": "Assigned to Contractor",
    "contractor": "Richards Disposal",
    "rowid": "979706",
    "final_x": "3701026.61956",
    "final_y": "519401.865975",
    "longitude": "-90.00685566984349",
    "latitude": "29.921567727770626",
    "geocoded_column": {
      "latitude": "29.921567727770626",
      "longitude": "-90.00685566984349"
    }
  },
  {
    "service_request": "2023-979705",
    "request_type": "Trash/Recycling",
    "request_reason": "Replace Trash Cart",
    "date_created": "2023-03-02T16:30:49.000",
    "date_modified": "2023-03-02T16:30:50.000",
    "request_status": "Pending",
    "responsible_agency": "Department of Sanitation",
    "final_address": "3216 Hyman Pl",
    "address_councildis": "C",
    "status": "Assigned to Contractor",
    "contractor": "Richards Disposal",
    "rowid": "979705",
    "final_x": "3701026.61956",
    "final_y": "519401.865975",
    "longitude": "-90.00685566984349",
    "latitude": "29.921567727770626",
    "geocoded_column": {
      "latitude": "29.921567727770626",
      "longitude": "-90.00685566984349"
    }
  },
  {
    "service_request": "2023-979704",
    "request_type": "Trash/Recycling",
    "request_reason": "Order Trash Cart",
    "date_created": "2023-03-02T16:30:20.000",
    "date_modified": "2023-03-02T16:30:21.000",
    "request_status": "Pending",
    "responsible_agency": "Department of Sanitation",
    "final_address": "1810 Laurel St",
    "address_councildis": "B",
    "status": "Assigned to Contractor",
    "contractor": "Richards Disposal",
    "rowid": "979704",
    "final_x": "3680474.65442",
    "final_y": "522423.767354",
    "longitude": "-90.0716242633718",
    "latitude": "29.930515169015244",
    "geocoded_column": {
      "latitude": "29.930515169015244",
      "longitude": "-90.0716242633718"
    }
  },
  {
    "service_request": "2023-979703",
    "request_type": "Trash/Recycling",
    "request_reason": "Order Trash Cart",
    "date_created": "2023-03-02T16:25:40.000",
    "date_modified": "2023-03-02T16:25:41.000",
    "request_status": "Pending",
    "responsible_agency": "Department of Sanitation",
    "final_address": "1402 Numa St",
    "address_councildis": "C",
    "status": "Assigned to Contractor",
    "contractor": "Richards Disposal",
    "rowid": "979703",
    "final_x": "3691811.84432",
    "final_y": "526195.01843",
    "longitude": "-90.03569977360381",
    "latitude": "29.940536699441967",
    "geocoded_column": {
      "latitude": "29.940536699441967",
      "longitude": "-90.03569977360381"
    }
  },
  {
    "service_request": "2023-979702",
    "request_type": "Abandoned Vehicles",
    "request_reason": "Abandoned/Junk Vehicles",
    "date_created": "2023-03-02T16:22:45.000",
    "date_modified": "2023-03-02T16:26:50.000",
    "request_status": "Pending",
    "responsible_agency": "Department of Public Works",
    "final_address": "ROYAL ST & FRENCHMEN ST",
    "address_councildis": "C",
    "status": "Pending",
    "rowid": "979702",
    "final_x": "3684706.3",
    "final_y": "534833.58",
    "longitude": "-90.05782952690005",
    "latitude": "29.964509149186004",
    "geocoded_column": {
      "latitude": "29.964509149186004",
      "longitude": "-90.05782952690005"
    }
  },
  {
    "service_request": "2023-979700",
    "request_type": "Parks & Parkways",
    "request_reason": "Request Tree Service (Right of Way/Public Property)",
    "date_created": "2023-03-02T16:22:00.000",
    "date_modified": "2023-03-02T16:22:00.000",
    "request_status": "Pending",
    "responsible_agency": "Department of Parks & Parkway",
    "final_address": "901 Poland Ave",
    "address_councildis": "C",
    "status": "Pending",
    "rowid": "979700",
    "final_x": "3692912.7023",
    "final_y": "534227.378245",
    "longitude": "-90.0319361742049",
    "latitude": "29.96258857372489",
    "geocoded_column": {
      "latitude": "29.96258857372489",
      "longitude": "-90.0319361742049"
    }
  },
  {
    "service_request": "2023-979699",
    "request_type": "Trash/Recycling",
    "request_reason": "Missed Trash Pick-Up",
    "date_created": "2023-03-02T16:17:14.000",
    "date_modified": "2023-03-02T16:17:15.000",
    "request_status": "Pending",
    "responsible_agency": "Department of Sanitation",
    "final_address": "2546 Dumaine St",
    "address_councildis": "D",
    "status": "Assigned to Contractor",
    "contractor": "Richards Disposal",
    "rowid": "979699",
    "final_x": "3677631.4349",
    "final_y": "537108.97012",
    "longitude": "-90.08009284159667",
    "latitude": "29.97098034853283",
    "geocoded_column": {
      "latitude": "29.97098034853283",
      "longitude": "-90.08009284159667"
    }
  },
  {
    "service_request": "2023-979698",
    "request_type": "Trash/Recycling",
    "request_reason": "Repair Trash Cart",
    "date_created": "2023-03-02T16:16:22.000",
    "date_modified": "2023-03-02T16:16:23.000",
    "request_status": "Pending",
    "responsible_agency": "Department of Sanitation",
    "final_address": "4217 Walmsley Ave",
    "address_councildis": "B",
    "status": "Assigned to Contractor",
    "contractor": "Richards Disposal",
    "rowid": "979698",
    "final_x": "3670006.05281",
    "final_y": "529862.890049",
    "longitude": "-90.10442028763687",
    "latitude": "29.951283154063706",
    "geocoded_column": {
      "latitude": "29.951283154063706",
      "longitude": "-90.10442028763687"
    }
  },
  {
    "service_request": "2023-979697",
    "request_type": "Trash/Recycling",
    "request_reason": "Request a Large Item Pick Up",
    "date_created": "2023-03-02T16:15:15.000",
    "date_modified": "2023-03-02T16:15:16.000",
    "request_status": "Pending",
    "responsible_agency": "Department of Sanitation",
    "final_address": "1410 St Bernard Ave",
    "address_councildis": "C",
    "status": "Assigned to Contractor",
    "contractor": "IV Waste",
    "rowid": "979697",
    "final_x": "3682478.02888",
    "final_y": "537199.038024",
    "longitude": "-90.06478353419372",
    "latitude": "29.971081358397527",
    "geocoded_column": {
      "latitude": "29.971081358397527",
      "longitude": "-90.06478353419372"
    }
  },
  {
    "service_request": "2023-979696",
    "request_type": "Roads/Drainage",
    "request_reason": "Catch Basin - Clogged",
    "date_created": "2023-03-02T16:14:37.000",
    "date_modified": "2023-03-02T16:14:38.000",
    "request_status": "Pending",
    "responsible_agency": "Department of Public Works",
    "final_address": "5760 Brunswick Ct",
    "address_councildis": "C",
    "status": "Pending",
    "rowid": "979696",
    "final_x": "3704933.63588",
    "final_y": "517226.822709",
    "longitude": "-89.9946032250253",
    "latitude": "29.915462166507982",
    "geocoded_column": {
      "latitude": "29.915462166507982",
      "longitude": "-89.9946032250253"
    }
  },
  {
    "service_request": "2023-979695",
    "request_type": "Trash/Recycling",
    "request_reason": "Request a Large Item Pick Up",
    "date_created": "2023-03-02T16:10:44.000",
    "date_modified": "2023-03-02T16:10:45.000",
    "request_status": "Pending",
    "responsible_agency": "Department of Sanitation",
    "final_address": "3027 Chestnut St",
    "address_councildis": "B",
    "status": "Assigned to Contractor",
    "contractor": "Richards Disposal",
    "rowid": "979695",
    "final_x": "3675752.55265",
    "final_y": "520882.480633",
    "longitude": "-90.08658418552147",
    "latitude": "29.926419257867053",
    "geocoded_column": {
      "latitude": "29.926419257867053",
      "longitude": "-90.08658418552147"
    }
  },
  {
    "service_request": "2023-979694",
    "request_type": "Trash/Recycling",
    "request_reason": "Order Recycling Cart",
    "date_created": "2023-03-02T16:04:08.000",
    "date_modified": "2023-03-02T16:04:08.000",
    "request_status": "Pending",
    "responsible_agency": "Department of Sanitation",
    "final_address": "2508 N Roman St",
    "address_councildis": "D",
    "status": "Pending",
    "rowid": "979694",
    "final_x": "3687098.71286",
    "final_y": "539025.036874",
    "longitude": "-90.05012625354199",
    "latitude": "29.975960746494525",
    "geocoded_column": {
      "latitude": "29.975960746494525",
      "longitude": "-90.05012625354199"
    }
  },
  {
    "service_request": "2023-979693",
    "request_type": "Trash/Recycling",
    "request_reason": "Replace Trash Cart",
    "date_created": "2023-03-02T16:01:34.000",
    "date_modified": "2023-03-02T16:01:34.000",
    "request_status": "Pending",
    "responsible_agency": "Department of Sanitation",
    "final_address": "3032 Orleans Ave",
    "address_councildis": "A",
    "status": "Assigned to Contractor",
    "contractor": "Richards Disposal",
    "rowid": "979693",
    "final_x": "3675511.17934",
    "final_y": "537892.435337",
    "longitude": "-90.08676197357316",
    "latitude": "29.97319820491467",
    "geocoded_column": {
      "latitude": "29.97319820491467",
      "longitude": "-90.08676197357316"
    }
  },
  {
    "service_request": "2023-979692",
    "request_type": "Abandoned Vehicles",
    "request_reason": "Vehicle Blocking Your Driveway",
    "date_created": "2023-03-02T16:00:21.000",
    "date_modified": "2023-03-02T16:00:21.000",
    "request_status": "Pending",
    "responsible_agency": "Department of Public Works",
    "final_address": "3150 Annunciation St",
    "address_councildis": "B",
    "status": "Pending",
    "rowid": "979692",
    "final_x": "3676355.18395",
    "final_y": "519011.767159",
    "longitude": "-90.08474619396426",
    "latitude": "29.921257356799437",
    "geocoded_column": {
      "latitude": "29.921257356799437",
      "longitude": "-90.08474619396426"
    }
  },
  {
    "service_request": "2023-979691",
    "request_type": "Trash/Recycling",
    "request_reason": "Illegal Dumping",
    "date_created": "2023-03-02T15:59:43.000",
    "date_modified": "2023-03-02T15:59:44.000",
    "request_status": "Pending",
    "responsible_agency": "Department of Code Enforcement",
    "final_address": "6327 Pandora St",
    "address_councildis": "D",
    "status": "Pending",
    "rowid": "979691",
    "final_x": "3696895.12029",
    "final_y": "557458.501275",
    "longitude": "-90.01851851916332",
    "latitude": "30.02634064550857",
    "geocoded_column": {
      "latitude": "30.02634064550857",
      "longitude": "-90.01851851916332"
    }
  },
  {
    "service_request": "2023-979690",
    "request_type": "Trash/Recycling",
    "request_reason": "Request a Large Item Pick Up",
    "date_created": "2023-03-02T15:57:25.000",
    "date_modified": "2023-03-02T15:57:25.000",
    "request_status": "Pending",
    "responsible_agency": "Department of Sanitation",
    "final_address": "303 Neil Ave",
    "address_councildis": "C",
    "status": "Assigned to Contractor",
    "contractor": "Richards Disposal",
    "rowid": "979690",
    "final_x": "3707212.5644",
    "final_y": "518677.056119",
    "longitude": "-89.98735636823662",
    "latitude": "29.91937639643333",
    "geocoded_column": {
      "latitude": "29.91937639643333",
      "longitude": "-89.98735636823662"
    }
  },
  {
    "service_request": "2023-979689",
    "request_type": "Trash/Recycling",
    "request_reason": "Request a Large Item Pick Up",
    "date_created": "2023-03-02T15:55:21.000",
    "date_modified": "2023-03-02T15:55:21.000",
    "request_status": "Pending",
    "responsible_agency": "Department of Sanitation",
    "final_address": "521 S Murat St",
    "address_councildis": "A",
    "status": "Assigned to Contractor",
    "contractor": "Richards Disposal",
    "rowid": "979689",
    "final_x": "3668582.17569",
    "final_y": "537979.211465",
    "longitude": "-90.10864229418348",
    "latitude": "29.973642263703177",
    "geocoded_column": {
      "latitude": "29.973642263703177",
      "longitude": "-90.10864229418348"
    }
  },
  {
    "service_request": "2023-979688",
    "request_type": "Trash/Recycling",
    "request_reason": "Missed Trash Pick-Up",
    "date_created": "2023-03-02T15:53:37.000",
    "date_modified": "2023-03-02T15:53:37.000",
    "request_status": "Pending",
    "responsible_agency": "Department of Sanitation",
    "final_address": "1131 Orange St",
    "address_councildis": "B",
    "status": "Assigned to Contractor",
    "contractor": "Richards Disposal",
    "rowid": "979688",
    "final_x": "3679856.47944",
    "final_y": "523577.759035",
    "longitude": "-90.07353569564594",
    "latitude": "29.933706968638734",
    "geocoded_column": {
      "latitude": "29.933706968638734",
      "longitude": "-90.07353569564594"
    }
  },
  {
    "service_request": "2023-979687",
    "request_type": "Property Maintenance",
    "request_reason": "Property Maintenance",
    "date_created": "2023-03-02T15:52:34.000",
    "date_modified": "2023-03-02T15:52:34.000",
    "request_status": "Pending",
    "responsible_agency": "Department of Code Enforcement",
    "final_address": "2800 BLK General Meyer Ave",
    "address_councildis": "C",
    "status": "Pending",
    "rowid": "979687",
    "final_x": "3694573.13706",
    "final_y": "526868.450316",
    "longitude": "-90.02695771346312",
    "latitude": "29.94230213157003",
    "geocoded_column": {
      "latitude": "29.94230213157003",
      "longitude": "-90.02695771346312"
    }
  },
  {
    "service_request": "2023-979686",
    "request_type": "Traffic Signals/Signs/Striping/Streetlights",
    "request_reason": "Request for Traffic Calming due to Speeding",
    "date_created": "2023-03-02T15:51:17.000",
    "date_modified": "2023-03-02T15:51:17.000",
    "request_status": "Pending",
    "responsible_agency": "Department of Public Works",
    "final_address": "N GALVEZ ST & PORT ST & N GALVEZ  ST",
    "address_councildis": "D",
    "status": "Pending",
    "rowid": "979686",
    "final_x": "3688379.2",
    "final_y": "540147.78",
    "longitude": "-90.04604228151166",
    "latitude": "29.979008401159152",
    "geocoded_column": {
      "latitude": "29.979008401159152",
      "longitude": "-90.04604228151166"
    }
  },
  {
    "service_request": "2023-979685",
    "request_type": "Parks & Parkways",
    "request_reason": "Tree Stump (removal, grind)",
    "date_created": "2023-03-02T15:50:44.000",
    "date_modified": "2023-03-02T15:50:45.000",
    "request_status": "Pending",
    "responsible_agency": "Department of Parks & Parkway",
    "final_address": "20213 Old Spanish Trl",
    "address_councildis": "E",
    "status": "Pending",
    "rowid": "979685",
    "final_x": "3759725.16112",
    "final_y": "572725.757865",
    "longitude": "-89.81935076203963",
    "latitude": "30.06618673437259",
    "geocoded_column": {
      "latitude": "30.06618673437259",
      "longitude": "-89.81935076203963"
    }
  },
  {
    "service_request": "2023-979683",
    "request_type": "Trash/Recycling",
    "request_reason": "Order Recycling Cart",
    "date_created": "2023-03-02T15:47:38.000",
    "date_modified": "2023-03-02T15:47:39.000",
    "request_status": "Pending",
    "responsible_agency": "Department of Sanitation",
    "final_address": "57 Curtis Dr",
    "address_councildis": "E",
    "status": "Pending",
    "rowid": "979683",
    "final_x": "3698066.988",
    "final_y": "560728.579998",
    "longitude": "-90.01469666286056",
    "latitude": "30.035295078872196",
    "geocoded_column": {
      "latitude": "30.035295078872196",
      "longitude": "-90.01469666286056"
    }
  },
  {
    "service_request": "2023-979682",
    "request_type": "Trash/Recycling",
    "request_reason": "Repair Trash Cart",
    "date_created": "2023-03-02T15:42:54.000",
    "date_modified": "2023-03-02T15:42:55.000",
    "request_status": "Pending",
    "responsible_agency": "Department of Sanitation",
    "final_address": "1401 France St",
    "address_councildis": "D",
    "status": "Assigned to Contractor",
    "contractor": "IV Waste",
    "rowid": "979682",
    "final_x": "3692700.89769",
    "final_y": "536289.740935",
    "longitude": "-90.03253108750658",
    "latitude": "29.968265957107683",
    "geocoded_column": {
      "latitude": "29.968265957107683",
      "longitude": "-90.03253108750658"
    }
  },
  {
    "service_request": "2023-979681",
    "request_type": "Trash/Recycling",
    "request_reason": "Replace Trash Cart",
    "date_created": "2023-03-02T15:39:26.000",
    "date_modified": "2023-03-02T15:39:26.000",
    "request_status": "Pending",
    "responsible_agency": "Department of Sanitation",
    "final_address": "611 Sixth St",
    "address_councildis": "B",
    "status": "Assigned to Contractor",
    "contractor": "Richards Disposal",
    "rowid": "979681",
    "final_x": "3677571.02466",
    "final_y": "519168.635255",
    "longitude": "-90.08090290939714",
    "latitude": "29.921652207893917",
    "geocoded_column": {
      "latitude": "29.921652207893917",
      "longitude": "-90.08090290939714"
    }
  },
  {
    "service_request": "2023-979680",
    "request_type": "Trash/Recycling",
    "request_reason": "Replace Trash Cart",
    "date_created": "2023-03-02T15:34:37.000",
    "date_modified": "2023-03-02T15:34:38.000",
    "request_status": "Pending",
    "responsible_agency": "Department of Sanitation",
    "final_address": "1636 Amelia St",
    "address_councildis": "B",
    "status": "Assigned to Contractor",
    "contractor": "Richards Disposal",
    "rowid": "979680",
    "final_x": "3672994.69972",
    "final_y": "521404.061369",
    "longitude": "-90.09527218168577",
    "latitude": "29.927935659253567",
    "geocoded_column": {
      "latitude": "29.927935659253567",
      "longitude": "-90.09527218168577"
    }
  },
  {
    "service_request": "2023-979679",
    "request_type": "Trash/Recycling",
    "request_reason": "Replace Trash Cart",
    "date_created": "2023-03-02T15:34:20.000",
    "date_modified": "2023-03-02T15:34:21.000",
    "request_status": "Pending",
    "responsible_agency": "Department of Sanitation",
    "final_address": "1855 Law St",
    "address_councildis": "D",
    "status": "Assigned to Contractor",
    "contractor": "IV Waste",
    "rowid": "979679",
    "final_x": "3680899.40507",
    "final_y": "541563.252108",
    "longitude": "-90.06961702932134",
    "latitude": "29.983129393202713",
    "geocoded_column": {
      "latitude": "29.983129393202713",
      "longitude": "-90.06961702932134"
    }
  },
  {
    "service_request": "2023-979678",
    "request_type": "Trash/Recycling",
    "request_reason": "Order Trash Cart",
    "date_created": "2023-03-02T15:34:07.000",
    "date_modified": "2023-03-02T15:34:08.000",
    "request_status": "Pending",
    "responsible_agency": "Department of Sanitation",
    "final_address": "1479 N Villere St",
    "address_councildis": "C",
    "status": "Assigned to Contractor",
    "contractor": "IV Waste",
    "rowid": "979678",
    "final_x": "3682213.37685",
    "final_y": "536724.563847",
    "longitude": "-90.06563591785826",
    "latitude": "29.96978477201154",
    "geocoded_column": {
      "latitude": "29.96978477201154",
      "longitude": "-90.06563591785826"
    }
  },
  {
    "service_request": "2023-979677",
    "request_type": "Traffic Signals/Signs/Striping/Streetlights",
    "request_reason": "Traffic Sign Missing/Damaged",
    "date_created": "2023-03-02T15:33:43.000",
    "date_modified": "2023-03-02T15:33:44.000",
    "request_status": "Pending",
    "responsible_agency": "Department of Public Works",
    "final_address": "DRYADES ST & PENISTON ST",
    "address_councildis": "B",
    "status": "Pending",
    "rowid": "979677",
    "final_x": "3672635.2",
    "final_y": "522161.18",
    "longitude": "-90.09638124022726",
    "latitude": "29.930028167541156",
    "geocoded_column": {
      "latitude": "29.930028167541156",
      "longitude": "-90.09638124022726"
    }
  },
  {
    "service_request": "2023-979676",
    "request_type": "Trash/Recycling",
    "request_reason": "Illegal Dumping",
    "date_created": "2023-03-02T15:31:41.000",
    "date_modified": "2023-03-02T15:31:41.000",
    "request_status": "Pending",
    "responsible_agency": "Department of Sanitation",
    "final_address": "2600 Franklin Ave",
    "address_councildis": "D",
    "status": "Pending",
    "rowid": "979676",
    "final_x": "3687386.07222",
    "final_y": "542093.315596",
    "longitude": "-90.04911008415716",
    "latitude": "29.984388575791325",
    "geocoded_column": {
      "latitude": "29.984388575791325",
      "longitude": "-90.04911008415716"
    }
  },
  {
    "service_request": "2023-979675",
    "request_type": "Trash/Recycling",
    "request_reason": "Request a Large Item Pick Up",
    "date_created": "2023-03-02T15:31:31.000",
    "date_modified": "2023-03-02T15:31:32.000",
    "request_status": "Pending",
    "responsible_agency": "Department of Sanitation",
    "final_address": "3433 St Charles Ave",
    "address_councildis": "B",
    "status": "Assigned to Contractor",
    "contractor": "Richards Disposal",
    "rowid": "979675",
    "final_x": "3673901.88628",
    "final_y": "521482.018937",
    "longitude": "-90.09240573435686",
    "latitude": "29.928123033945557",
    "geocoded_column": {
      "latitude": "29.928123033945557",
      "longitude": "-90.09240573435686"
    }
  },
  {
    "service_request": "2023-979674",
    "request_type": "Traffic Signals/Signs/Striping/Streetlights",
    "request_reason": "Street Light Outage/Malfunction",
    "date_created": "2023-03-02T15:29:24.000",
    "date_modified": "2023-03-02T15:29:25.000",
    "request_status": "Pending",
    "responsible_agency": "Department of Public Works",
    "final_address": "6224 Bertha Dr",
    "address_councildis": "D",
    "status": "Assigned to Contractor",
    "contractor": "Legacy Professional Services",
    "rowid": "979674",
    "final_x": "3678488.42229",
    "final_y": "556080.880154",
    "longitude": "-90.07672928800284",
    "latitude": "30.023120597416547",
    "geocoded_column": {
      "latitude": "30.023120597416547",
      "longitude": "-90.07672928800284"
    }
  },
  {
    "service_request": "2023-979673",
    "request_type": "Trash/Recycling",
    "request_reason": "MIssed Recycling Pick-Up",
    "date_created": "2023-03-02T15:23:01.000",
    "date_modified": "2023-03-02T15:23:01.000",
    "request_status": "Pending",
    "responsible_agency": "Department of Sanitation",
    "final_address": "1528 St Philip St",
    "address_councildis": "C",
    "status": "Assigned to Contractor",
    "contractor": "Richards Disposal",
    "rowid": "979673",
    "final_x": "3680772.24552",
    "final_y": "535182.214022",
    "longitude": "-90.07024083428946",
    "latitude": "29.96558760095176",
    "geocoded_column": {
      "latitude": "29.96558760095176",
      "longitude": "-90.07024083428946"
    }
  },
  {
    "service_request": "2023-979672",
    "request_type": "Trash/Recycling",
    "request_reason": "MIssed Recycling Pick-Up",
    "date_created": "2023-03-02T15:22:54.000",
    "date_modified": "2023-03-02T15:22:54.000",
    "request_status": "Pending",
    "responsible_agency": "Department of Sanitation",
    "final_address": "5830 Kensington Blvd",
    "address_councildis": "E",
    "status": "Assigned to Contractor",
    "contractor": "Waste Pro",
    "rowid": "979672",
    "final_x": "3713134.69573",
    "final_y": "560849.772766",
    "longitude": "-89.96707613444951",
    "latitude": "30.035142918700195",
    "geocoded_column": {
      "latitude": "30.035142918700195",
      "longitude": "-89.96707613444951"
    }
  },
  {
    "service_request": "2023-979671",
    "request_type": "Roads/Drainage",
    "request_reason": "Catch Basin - Broken/Damage",
    "date_created": "2023-03-02T15:21:49.000",
    "date_modified": "2023-03-02T15:21:49.000",
    "request_status": "Pending",
    "responsible_agency": "Department of Public Works",
    "final_address": "9901 Chef Menteur Hwy",
    "address_councildis": "E",
    "status": "Pending",
    "rowid": "979671",
    "final_x": "3712157.88626",
    "final_y": "554756.899864",
    "longitude": "-89.97039200370233",
    "latitude": "30.0184219152567",
    "geocoded_column": {
      "latitude": "30.0184219152567",
      "longitude": "-89.97039200370233"
    }
  },
  {
    "service_request": "2023-979670",
    "request_type": "Trash/Recycling",
    "request_reason": "Replace Recycling Cart",
    "date_created": "2023-03-02T15:21:41.000",
    "date_modified": "2023-03-02T15:21:41.000",
    "request_status": "Pending",
    "responsible_agency": "Department of Sanitation",
    "final_address": "2118 Elysian Fields Ave, New Orleans, Louisiana, 70117",
    "address_councildis": "D",
    "status": "Pending",
    "rowid": "979670",
    "final_x": "3684484.62287",
    "final_y": "540227.920203",
    "longitude": "-90.05834001558696",
    "latitude": "29.97934849071494",
    "geocoded_column": {
      "latitude": "29.97934849071494",
      "longitude": "-90.05834001558696"
    }
  },
  {
    "service_request": "2023-979669",
    "request_type": "Traffic Signals/Signs/Striping/Streetlights",
    "request_reason": "Traffic Sign Missing/Damaged",
    "date_created": "2023-03-02T15:13:05.000",
    "date_modified": "2023-03-02T15:13:06.000",
    "request_status": "Pending",
    "responsible_agency": "Department of Public Works",
    "final_address": "2025 Harmony St",
    "address_councildis": "B",
    "status": "Pending",
    "rowid": "979669",
    "final_x": "3674159.69211",
    "final_y": "523270.069819",
    "longitude": "-90.09153072647374",
    "latitude": "29.93303191546082",
    "geocoded_column": {
      "latitude": "29.93303191546082",
      "longitude": "-90.09153072647374"
    }
  },
  {
    "service_request": "2023-979668",
    "request_type": "Trash/Recycling",
    "request_reason": "Repair Trash Cart",
    "date_created": "2023-03-02T15:12:01.000",
    "date_modified": "2023-03-02T15:12:03.000",
    "request_status": "Pending",
    "responsible_agency": "Department of Sanitation",
    "final_address": "422 S Bernadotte St",
    "address_councildis": "A",
    "status": "Assigned to Contractor",
    "contractor": "Richards Disposal",
    "rowid": "979668",
    "final_x": "3667989.4418",
    "final_y": "538917.511562",
    "longitude": "-90.11048265583567",
    "latitude": "29.97623968049519",
    "geocoded_column": {
      "latitude": "29.97623968049519",
      "longitude": "-90.11048265583567"
    }
  },
  {
    "service_request": "2023-979667",
    "request_type": "Trash/Recycling",
    "request_reason": "Request a Large Item Pick Up",
    "date_created": "2023-03-02T15:10:45.000",
    "date_modified": "2023-03-02T15:10:46.000",
    "request_status": "Pending",
    "responsible_agency": "Department of Sanitation",
    "final_address": "1214 Adams St",
    "address_councildis": "A",
    "status": "Assigned to Contractor",
    "contractor": "Richards Disposal",
    "rowid": "979667",
    "final_x": "3663093.52083",
    "final_y": "527475.590399",
    "longitude": "-90.12632616076475",
    "latitude": "29.94492088841977",
    "geocoded_column": {
      "latitude": "29.94492088841977",
      "longitude": "-90.12632616076475"
    }
  },
  {
    "service_request": "2023-979666",
    "request_type": "Trash/Recycling",
    "request_reason": "Order Recycling Cart",
    "date_created": "2023-03-02T15:09:23.000",
    "date_modified": "2023-03-02T15:09:23.000",
    "request_status": "Pending",
    "responsible_agency": "Department of Sanitation",
    "final_address": "7417 Pitt St",
    "address_councildis": "A",
    "status": "Pending",
    "rowid": "979666",
    "final_x": "3661252.71002",
    "final_y": "523508.208571",
    "longitude": "-90.13226949305196",
    "latitude": "29.93406503416239",
    "geocoded_column": {
      "latitude": "29.93406503416239",
      "longitude": "-90.13226949305196"
    }
  },
  {
    "service_request": "2023-979665",
    "request_type": "Trash/Recycling",
    "request_reason": "Request a Large Item Pick Up",
    "date_created": "2023-03-02T15:07:11.000",
    "date_modified": "2023-03-02T15:07:12.000",
    "request_status": "Pending",
    "responsible_agency": "Department of Sanitation",
    "final_address": "831 Cadiz St",
    "address_councildis": "B",
    "status": "Assigned to Contractor",
    "contractor": "Richards Disposal",
    "rowid": "979665",
    "final_x": "3670362.06887",
    "final_y": "518601.207351",
    "longitude": "-90.10367776059206",
    "latitude": "29.920306655208726",
    "geocoded_column": {
      "latitude": "29.920306655208726",
      "longitude": "-90.10367776059206"
    }
  },
  {
    "service_request": "2023-979664",
    "request_type": "Trash/Recycling",
    "request_reason": "Repair Trash Cart",
    "date_created": "2023-03-02T15:04:25.000",
    "date_modified": "2023-03-02T15:04:26.000",
    "request_status": "Pending",
    "responsible_agency": "Department of Sanitation",
    "final_address": "1710 S Gayoso St",
    "address_councildis": "B",
    "status": "Assigned to Contractor",
    "contractor": "Richards Disposal",
    "rowid": "979664",
    "final_x": "3670449.62023",
    "final_y": "530190.347457",
    "longitude": "-90.1030086150624",
    "latitude": "29.952170466031944",
    "geocoded_column": {
      "latitude": "29.952170466031944",
      "longitude": "-90.1030086150624"
    }
  },
  {
    "service_request": "2023-979663",
    "request_type": "Trash/Recycling",
    "request_reason": "Request a Large Item Pick Up",
    "date_created": "2023-03-02T15:00:47.000",
    "date_modified": "2023-03-02T15:00:48.000",
    "request_status": "Pending",
    "responsible_agency": "Department of Sanitation",
    "final_address": "41 Snipe St",
    "address_councildis": "D",
    "status": "Assigned to Contractor",
    "contractor": "IV Waste",
    "rowid": "979663",
    "final_x": "3672428.7794",
    "final_y": "556658.86537",
    "longitude": "-90.09585674841749",
    "latitude": "30.024891181076157",
    "geocoded_column": {
      "latitude": "30.024891181076157",
      "longitude": "-90.09585674841749"
    }
  },
  {
    "service_request": "2023-979662",
    "request_type": "Abandoned Vehicles",
    "request_reason": "Abandoned/Junk Vehicles",
    "date_created": "2023-03-02T15:00:38.000",
    "date_modified": "2023-03-02T15:00:39.000",
    "request_status": "Pending",
    "responsible_agency": "Department of Public Works",
    "final_address": "327 Eliza St",
    "address_councildis": "C",
    "status": "Pending",
    "rowid": "979662",
    "final_x": "3686579.29942",
    "final_y": "529509.419585",
    "longitude": "-90.05210274729058",
    "latitude": "29.949812077669783",
    "geocoded_column": {
      "latitude": "29.949812077669783",
      "longitude": "-90.05210274729058"
    }
  },
  {
    "service_request": "2023-979661",
    "request_type": "Roads/Drainage",
    "request_reason": "Man hole cover issue",
    "date_created": "2023-03-02T15:00:24.000",
    "date_modified": "2023-03-02T15:00:24.000",
    "request_status": "Pending",
    "responsible_agency": "Department of Public Works",
    "final_address": "601 Poydras St",
    "address_councildis": "B",
    "status": "Pending",
    "rowid": "979661",
    "final_x": "3680938.01679",
    "final_y": "529396.806657",
    "longitude": "-90.06991878324561",
    "latitude": "29.94967466888167",
    "geocoded_column": {
      "latitude": "29.94967466888167",
      "longitude": "-90.06991878324561"
    }
  },
  {
    "service_request": "2023-979660",
    "request_type": "Property Maintenance",
    "request_reason": "Property Maintenance",
    "date_created": "2023-03-02T14:59:17.000",
    "date_modified": "2023-03-02T14:59:18.000",
    "request_status": "Pending",
    "responsible_agency": "Department of Code Enforcement",
    "final_address": "541 Seguin St",
    "address_councildis": "C",
    "status": "Pending",
    "rowid": "979660",
    "final_x": "3686598.23593",
    "final_y": "529668.633537",
    "longitude": "-90.05203733475794",
    "latitude": "29.95024927947189",
    "geocoded_column": {
      "latitude": "29.95024927947189",
      "longitude": "-90.05203733475794"
    }
  },
  {
    "service_request": "2023-979659",
    "request_type": "Abandoned Vehicles",
    "request_reason": "Abandoned/Junk Vehicles",
    "date_created": "2023-03-02T14:53:12.000",
    "date_modified": "2023-03-02T14:53:12.000",
    "request_status": "Pending",
    "responsible_agency": "Department of Public Works",
    "final_address": "5225 Marigny St",
    "address_councildis": "D",
    "status": "Pending",
    "rowid": "979659",
    "final_x": "3684311.36284",
    "final_y": "552176.18799",
    "longitude": "-90.05846737151674",
    "latitude": "30.01220725427399",
    "geocoded_column": {
      "latitude": "30.01220725427399",
      "longitude": "-90.05846737151674"
    }
  },
  {
    "service_request": "2023-979658",
    "request_type": "Abandoned Vehicles",
    "request_reason": "Abandoned/Junk Vehicles",
    "date_created": "2023-03-02T14:52:40.000",
    "date_modified": "2023-03-02T14:52:40.000",
    "request_status": "Pending",
    "responsible_agency": "Department of Public Works",
    "final_address": "6701 Fleur-De-Lis Dr",
    "address_councildis": "A",
    "status": "Pending",
    "rowid": "979658",
    "final_x": "3665511.41952",
    "final_y": "552721.306838",
    "longitude": "-90.11784655209321",
    "latitude": "30.01426788145598",
    "geocoded_column": {
      "latitude": "30.01426788145598",
      "longitude": "-90.11784655209321"
    }
  },
  {
    "service_request": "2023-979657",
    "request_type": "Trash/Recycling",
    "request_reason": "Missed Trash Pick-Up",
    "date_created": "2023-03-02T14:52:40.000",
    "date_modified": "2023-03-02T14:53:44.000",
    "request_status": "Pending",
    "responsible_agency": "Department of Sanitation",
    "final_address": "2514 Dumaine St",
    "address_councildis": "D",
    "status": "Assigned to Contractor",
    "contractor": "Richards Disposal",
    "rowid": "979657",
    "final_x": "3677809.90216",
    "final_y": "536971.860808",
    "longitude": "-90.07953395662726",
    "latitude": "29.97059797640951",
    "geocoded_column": {
      "latitude": "29.97059797640951",
      "longitude": "-90.07953395662726"
    }
  },
  {
    "service_request": "2023-979656",
    "request_type": "Trash/Recycling",
    "request_reason": "Missed Trash Pick-Up",
    "date_created": "2023-03-02T14:50:22.000",
    "date_modified": "2023-03-02T14:50:22.000",
    "request_status": "Pending",
    "responsible_agency": "Department of Sanitation",
    "final_address": "2018 Rev. John Raphael, Jr. Way",
    "address_councildis": "B",
    "status": "Assigned to Contractor",
    "contractor": "Richards Disposal",
    "rowid": "979656",
    "final_x": "3676240.28507",
    "final_y": "526339.10195",
    "longitude": "-90.0848568701784",
    "latitude": "29.9414085830213",
    "geocoded_column": {
      "latitude": "29.9414085830213",
      "longitude": "-90.0848568701784"
    }
  },
  {
    "service_request": "2023-979655",
    "request_type": "Trash/Recycling",
    "request_reason": "Request a Large Item Pick Up",
    "date_created": "2023-03-02T14:49:39.000",
    "date_modified": "2023-03-02T14:49:40.000",
    "request_status": "Pending",
    "responsible_agency": "Department of Sanitation",
    "final_address": "729 First St",
    "address_councildis": "B",
    "status": "Assigned to Contractor",
    "contractor": "Richards Disposal",
    "rowid": "979655",
    "final_x": "3678782.40469",
    "final_y": "520496.447992",
    "longitude": "-90.07703314996219",
    "latitude": "29.925266798312425",
    "geocoded_column": {
      "latitude": "29.925266798312425",
      "longitude": "-90.07703314996219"
    }
  },
  {
    "service_request": "2023-979654",
    "request_type": "Trash/Recycling",
    "request_reason": "Request a Large Item Pick Up",
    "date_created": "2023-03-02T14:48:20.000",
    "date_modified": "2023-03-02T14:48:20.000",
    "request_status": "Pending",
    "responsible_agency": "Department of Sanitation",
    "final_address": "2422 Dumaine St",
    "address_councildis": "D",
    "status": "Assigned to Contractor",
    "contractor": "Richards Disposal",
    "rowid": "979654",
    "final_x": "3678054.24635",
    "final_y": "536786.178312",
    "longitude": "-90.07876870910667",
    "latitude": "29.97008005914032",
    "geocoded_column": {
      "latitude": "29.97008005914032",
      "longitude": "-90.07876870910667"
    }
  },
  {
    "service_request": "2023-979653",
    "request_type": "Trash/Recycling",
    "request_reason": "Request a Large Item Pick Up",
    "date_created": "2023-03-02T14:47:57.000",
    "date_modified": "2023-03-02T14:47:58.000",
    "request_status": "Pending",
    "responsible_agency": "Department of Sanitation",
    "final_address": "1801 Flanders St",
    "address_councildis": "C",
    "status": "Assigned to Contractor",
    "contractor": "Richards Disposal",
    "rowid": "979653",
    "final_x": "3696604.29328",
    "final_y": "524642.419836",
    "longitude": "-90.02062545127312",
    "latitude": "29.936117486584152",
    "geocoded_column": {
      "latitude": "29.936117486584152",
      "longitude": "-90.02062545127312"
    }
  },
  {
    "service_request": "2023-979652",
    "request_type": "Trash/Recycling",
    "request_reason": "Request a Large Item Pick Up",
    "date_created": "2023-03-02T14:47:52.000",
    "date_modified": "2023-03-02T14:47:52.000",
    "request_status": "Pending",
    "responsible_agency": "Department of Sanitation",
    "final_address": "5323 Memphis St",
    "address_councildis": "A",
    "status": "Assigned to Contractor",
    "contractor": "IV Waste",
    "rowid": "979652",
    "final_x": "3668726.18593",
    "final_y": "542385.661069",
    "longitude": "-90.10803866240413",
    "latitude": "29.98575427729658",
    "geocoded_column": {
      "latitude": "29.98575427729658",
      "longitude": "-90.10803866240413"
    }
  },
  {
    "service_request": "2023-979651",
    "request_type": "Abandoned Vehicles",
    "request_reason": "Abandoned/Junk Vehicles",
    "date_created": "2023-03-02T14:46:51.000",
    "date_modified": "2023-03-02T14:46:51.000",
    "request_status": "Pending",
    "responsible_agency": "Department of Public Works",
    "final_address": "6000 Cameron Blvd",
    "address_councildis": "D",
    "status": "Pending",
    "rowid": "979651",
    "final_x": "3682335.17973",
    "final_y": "554725.952984",
    "longitude": "-90.0646217917031",
    "latitude": "30.019278487322882",
    "geocoded_column": {
      "latitude": "30.019278487322882",
      "longitude": "-90.0646217917031"
    }
  },
  {
    "service_request": "2023-979650",
    "request_type": "Abandoned Vehicles",
    "request_reason": "Abandoned/Junk Vehicles",
    "date_created": "2023-03-02T14:46:43.000",
    "date_modified": "2023-03-02T14:46:43.000",
    "request_status": "Pending",
    "responsible_agency": "Department of Public Works",
    "final_address": "5225 Marigny St",
    "address_councildis": "D",
    "status": "Pending",
    "rowid": "979650",
    "final_x": "3684311.36284",
    "final_y": "552176.18799",
    "longitude": "-90.05846737151674",
    "latitude": "30.01220725427399",
    "geocoded_column": {
      "latitude": "30.01220725427399",
      "longitude": "-90.05846737151674"
    }
  },
  {
    "service_request": "2023-979649",
    "request_type": "Trash/Recycling",
    "request_reason": "Repair Trash Cart",
    "date_created": "2023-03-02T14:45:27.000",
    "date_modified": "2023-03-02T14:45:28.000",
    "request_status": "Pending",
    "responsible_agency": "Department of Sanitation",
    "final_address": "2258 Brainard St",
    "address_councildis": "B",
    "status": "Assigned to Contractor",
    "contractor": "Richards Disposal",
    "rowid": "979649",
    "final_x": "3676839.56904",
    "final_y": "523914.0151",
    "longitude": "-90.08304835658981",
    "latitude": "29.934722423255664",
    "geocoded_column": {
      "latitude": "29.934722423255664",
      "longitude": "-90.08304835658981"
    }
  },
  {
    "service_request": "2023-979648",
    "request_type": "Trash/Recycling",
    "request_reason": "Missed Trash Pick-Up",
    "date_created": "2023-03-02T14:44:59.000",
    "date_modified": "2023-03-02T14:44:59.000",
    "request_status": "Pending",
    "responsible_agency": "Department of Sanitation",
    "final_address": "711 N Dorgenois St",
    "address_councildis": "D",
    "status": "Assigned to Contractor",
    "contractor": "Richards Disposal",
    "rowid": "979648",
    "final_x": "3677245.28386",
    "final_y": "536850.256328",
    "longitude": "-90.08132128506176",
    "latitude": "29.970280581332467",
    "geocoded_column": {
      "latitude": "29.970280581332467",
      "longitude": "-90.08132128506176"
    }
  },
  {
    "service_request": "2023-979647",
    "request_type": "Traffic Signals/Signs/Striping/Streetlights",
    "request_reason": "Traffic Sign Missing/Damaged",
    "date_created": "2023-03-02T14:44:26.000",
    "date_modified": "2023-03-02T14:44:26.000",
    "request_status": "Pending",
    "responsible_agency": "Department of Public Works",
    "final_address": "1610 S Gayoso St",
    "address_councildis": "B",
    "status": "Pending",
    "rowid": "979647",
    "final_x": "3670644.55559",
    "final_y": "530472.602178",
    "longitude": "-90.10238352404896",
    "latitude": "29.952940816937037",
    "geocoded_column": {
      "latitude": "29.952940816937037",
      "longitude": "-90.10238352404896"
    }
  },
  {
    "service_request": "2023-979646",
    "request_type": "Trash/Recycling",
    "request_reason": "Damaged Caused By Contractor",
    "date_created": "2023-03-02T14:42:38.000",
    "date_modified": "2023-03-02T14:42:39.000",
    "request_status": "Pending",
    "responsible_agency": "Department of Sanitation",
    "final_address": "711 N Dorgenois St",
    "address_councildis": "D",
    "status": "Assigned to Contractor",
    "contractor": "Richards Disposal",
    "rowid": "979646",
    "final_x": "3677245.28386",
    "final_y": "536850.256328",
    "longitude": "-90.08132128506176",
    "latitude": "29.970280581332467",
    "geocoded_column": {
      "latitude": "29.970280581332467",
      "longitude": "-90.08132128506176"
    }
  },
  {
    "service_request": "2023-979645",
    "request_type": "Trash/Recycling",
    "request_reason": "Request a Large Item Pick Up",
    "date_created": "2023-03-02T14:42:23.000",
    "date_modified": "2023-03-02T14:42:23.000",
    "request_status": "Pending",
    "responsible_agency": "Department of Sanitation",
    "final_address": "5442 Dauphine St",
    "address_councildis": "E",
    "status": "Assigned to Contractor",
    "contractor": "Waste Pro",
    "rowid": "979645",
    "final_x": "3697153.84925",
    "final_y": "532736.69786",
    "longitude": "-90.01859729392058",
    "latitude": "29.958356600746978",
    "geocoded_column": {
      "latitude": "29.958356600746978",
      "longitude": "-90.01859729392058"
    }
  },
  {
    "service_request": "2023-979644",
    "request_type": "Parks & Parkways",
    "request_reason": "Request Tree Service (Right of Way/Public Property)",
    "date_created": "2023-03-02T14:41:46.000",
    "date_modified": "2023-03-02T14:41:47.000",
    "request_status": "Pending",
    "responsible_agency": "Department of Parks & Parkway",
    "final_address": "11511 Curran Rd",
    "address_councildis": "E",
    "status": "Pending",
    "rowid": "979644",
    "final_x": "3711862.33381",
    "final_y": "567076.805732",
    "longitude": "-89.97086297566489",
    "latitude": "30.052306405878277",
    "geocoded_column": {
      "latitude": "30.052306405878277",
      "longitude": "-89.97086297566489"
    }
  },
  {
    "service_request": "2023-979643",
    "request_type": "Roads/Drainage",
    "request_reason": "Pothole",
    "date_created": "2023-03-02T14:41:42.000",
    "date_modified": "2023-03-02T14:41:42.000",
    "request_status": "Pending",
    "responsible_agency": "Department of Public Works",
    "final_address": "2100 N Broad St",
    "address_councildis": "D",
    "status": "Pending",
    "rowid": "979643",
    "final_x": "3680833.6109",
    "final_y": "542300.569485",
    "longitude": "-90.0697991607571",
    "latitude": "29.98515875309434",
    "geocoded_column": {
      "latitude": "29.98515875309434",
      "longitude": "-90.0697991607571"
    }
  },
  {
    "service_request": "2023-979642",
    "request_type": "Trash/Recycling",
    "request_reason": "Illegal Dumping",
    "date_created": "2023-03-02T14:40:43.000",
    "date_modified": "2023-03-02T14:40:43.000",
    "request_status": "Pending",
    "responsible_agency": "Department of Sanitation",
    "final_address": "711 N Dorgenois St",
    "address_councildis": "D",
    "status": "Pending",
    "rowid": "979642",
    "final_x": "3677245.28386",
    "final_y": "536850.256328",
    "longitude": "-90.08132128506176",
    "latitude": "29.970280581332467",
    "geocoded_column": {
      "latitude": "29.970280581332467",
      "longitude": "-90.08132128506176"
    }
  },
  {
    "service_request": "2023-979641",
    "request_type": "Abandoned Vehicles",
    "request_reason": "Abandoned/Junk Vehicles",
    "date_created": "2023-03-02T14:39:37.000",
    "date_modified": "2023-03-02T14:39:37.000",
    "request_status": "Pending",
    "responsible_agency": "Department of Public Works",
    "final_address": "5161 Marigny St",
    "address_councildis": "D",
    "status": "Pending",
    "rowid": "979641",
    "final_x": "3684384.02818",
    "final_y": "551792.27695",
    "longitude": "-90.0582512879509",
    "latitude": "30.011149415578263",
    "geocoded_column": {
      "latitude": "30.011149415578263",
      "longitude": "-90.0582512879509"
    }
  },
  {
    "service_request": "2023-979640",
    "request_type": "Trash/Recycling",
    "request_reason": "Order Recycling Cart",
    "date_created": "2023-03-02T14:38:59.000",
    "date_modified": "2023-03-02T14:38:59.000",
    "request_status": "Pending",
    "responsible_agency": "Department of Sanitation",
    "final_address": "8521 Belfast St",
    "address_councildis": "A",
    "status": "Pending",
    "rowid": "979640",
    "final_x": "3664426.51808",
    "final_y": "533483.329796",
    "longitude": "-90.12191692461873",
    "latitude": "29.96140154704749",
    "geocoded_column": {
      "latitude": "29.96140154704749",
      "longitude": "-90.12191692461873"
    }
  },
  {
    "service_request": "2023-979639",
    "request_type": "Trash/Recycling",
    "request_reason": "Request a Large Item Pick Up",
    "date_created": "2023-03-02T14:38:38.000",
    "date_modified": "2023-03-02T14:38:38.000",
    "request_status": "Pending",
    "responsible_agency": "Department of Sanitation",
    "final_address": "711 N Dorgenois St",
    "address_councildis": "D",
    "status": "Assigned to Contractor",
    "contractor": "Richards Disposal",
    "rowid": "979639",
    "final_x": "3677245.28386",
    "final_y": "536850.256328",
    "longitude": "-90.08132128506176",
    "latitude": "29.970280581332467",
    "geocoded_column": {
      "latitude": "29.970280581332467",
      "longitude": "-90.08132128506176"
    }
  },
  {
    "service_request": "2023-979638",
    "request_type": "Trash/Recycling",
    "request_reason": "Order Trash Cart",
    "date_created": "2023-03-02T14:38:13.000",
    "date_modified": "2023-03-02T14:38:13.000",
    "request_status": "Pending",
    "responsible_agency": "Department of Sanitation",
    "final_address": "8521 Belfast St",
    "address_councildis": "A",
    "status": "Assigned to Contractor",
    "contractor": "Richards Disposal",
    "rowid": "979638",
    "final_x": "3664426.51808",
    "final_y": "533483.329796",
    "longitude": "-90.12191692461873",
    "latitude": "29.96140154704749",
    "geocoded_column": {
      "latitude": "29.96140154704749",
      "longitude": "-90.12191692461873"
    }
  },
  {
    "service_request": "2023-979637",
    "request_type": "Abandoned Vehicles",
    "request_reason": "Abandoned/Junk Vehicles",
    "date_created": "2023-03-02T14:36:48.000",
    "date_modified": "2023-03-02T14:36:48.000",
    "request_status": "Pending",
    "responsible_agency": "Department of Public Works",
    "final_address": "5161 Marigny St",
    "address_councildis": "D",
    "status": "Pending",
    "rowid": "979637",
    "final_x": "3684384.02818",
    "final_y": "551792.27695",
    "longitude": "-90.0582512879509",
    "latitude": "30.011149415578263",
    "geocoded_column": {
      "latitude": "30.011149415578263",
      "longitude": "-90.0582512879509"
    }
  },
  {
    "service_request": "2023-979636",
    "request_type": "Trash/Recycling",
    "request_reason": "Order Trash Cart",
    "date_created": "2023-03-02T14:36:27.000",
    "date_modified": "2023-03-02T14:36:28.000",
    "request_status": "Pending",
    "responsible_agency": "Department of Sanitation",
    "final_address": "8002 Gus St",
    "address_councildis": "E",
    "status": "Assigned to Contractor",
    "contractor": "Waste Pro",
    "rowid": "979636",
    "final_x": "3703378.93662",
    "final_y": "563026.040672",
    "longitude": "-89.99782552433766",
    "latitude": "30.041443039344752",
    "geocoded_column": {
      "latitude": "30.041443039344752",
      "longitude": "-89.99782552433766"
    }
  },
  {
    "service_request": "2023-979635",
    "request_type": "Roads/Drainage",
    "request_reason": "Pothole",
    "date_created": "2023-03-02T14:35:08.000",
    "date_modified": "2023-03-02T14:35:08.000",
    "request_status": "Pending",
    "responsible_agency": "Department of Public Works",
    "final_address": "3900 Mcfarland St",
    "address_councildis": "D",
    "status": "Pending",
    "rowid": "979635",
    "final_x": "3689370.97807",
    "final_y": "547702.808018",
    "longitude": "-90.04264109398466",
    "latitude": "29.99975134016928",
    "geocoded_column": {
      "latitude": "29.99975134016928",
      "longitude": "-90.04264109398466"
    }
  },
  {
    "service_request": "2023-979634",
    "request_type": "Abandoned Vehicles",
    "request_reason": "Abandoned/Junk Vehicles",
    "date_created": "2023-03-02T14:33:23.000",
    "date_modified": "2023-03-02T14:33:23.000",
    "request_status": "Pending",
    "responsible_agency": "Department of Public Works",
    "final_address": "3900 Mcfarland St",
    "address_councildis": "D",
    "status": "Inspected",
    "rowid": "979634",
    "final_x": "3689370.97807",
    "final_y": "547702.808018",
    "longitude": "-90.04264109398466",
    "latitude": "29.99975134016928",
    "geocoded_column": {
      "latitude": "29.99975134016928",
      "longitude": "-90.04264109398466"
    }
  },
  {
    "service_request": "2023-979633",
    "request_type": "Abandoned Vehicles",
    "request_reason": "Abandoned/Junk Vehicles",
    "date_created": "2023-03-02T14:31:44.000",
    "date_modified": "2023-03-02T14:34:39.000",
    "request_status": "Pending",
    "responsible_agency": "Department of Public Works",
    "final_address": "1500 BLK Tricou St",
    "address_councildis": "E",
    "status": "Pending",
    "rowid": "979633",
    "final_x": "3700767.34285",
    "final_y": "534609.144152",
    "longitude": "-90.00711849755784",
    "latitude": "29.96339065966858",
    "geocoded_column": {
      "latitude": "29.96339065966858",
      "longitude": "-90.00711849755784"
    }
  },