[
  {
    "service_request": "2026-1258837",
    "request_type": "Trash/Recycling",
    "request_reason": "Request a Large Item Pick Up",
    "date_created": "2026-02-16T23:57:13.000",
    "date_modified": "2026-02-16T23:57:16.000",
    "request_status": "Pending",
    "responsible_agency": "Department of Sanitation",
    "final_address": "4810 Constance St",
    "address_councildis": "B",
    "status": "Assigned to Contractor",
    "contractor": "IV Waste",
    "rowid": "1258837",
    "final_x": "3669532.48212",
    "final_y": "518220.951542",
    "longitude": "-90.10630923433489",
    "latitude": "29.919285525387373",
    "geocoded_column": {
      "latitude": "29.919285525387373",
      "longitude": "-90.10630923433489"
    }
  },
  {
    "service_request": "2026-1258836",
    "request_type": "Roads and Streets",
    "request_reason": "Sidewalk Damaged or Missing",
    "date_created": "2026-02-16T22:04:43.000",
    "date_modified": "2026-02-16T22:04:45.000",
    "request_status": "Pending",
    "responsible_agency": "Department of Public Works",
    "final_address": "5371 Paris Ave",
    "address_councildis": "D",
    "status": "Pending",
    "rowid": "1258836",
    "final_x": "3679273.9437",
    "final_y": "552113.760086",
    "longitude": "-90.07438493838745",
    "latitude": "30.012188745729876",
    "geocoded_column": {
      "latitude": "30.012188745729876",
      "longitude": "-90.07438493838745"
    }
  },
  {
    "service_request": "2026-1258835",
    "request_type": "Abandoned Vehicles",
    "request_reason": "Abandoned/Junk Vehicles",
    "date_created": "2026-02-16T20:59:56.000",
    "date_modified": "2026-02-16T21:00:00.000",
    "request_status": "Pending",
    "responsible_agency": "Department of Public Works",
    "final_address": "2523 Gravier St",
    "address_councildis": "B",
    "status": "Pending",
    "rowid": "1258835",
    "final_x": "3674753.67995",
    "final_y": "533009.331396",
    "longitude": "-90.08932174257129",
    "latitude": "29.959793956332224",
    "geocoded_column": {
      "latitude": "29.959793956332224",
      "longitude": "-90.08932174257129"
    }
  },
  {
    "service_request": "2026-1258834",
    "request_type": "Trash/Recycling",
    "request_reason": "Repair Trash Cart",
    "date_created": "2026-02-16T19:44:33.000",
    "date_modified": "2026-02-16T19:44:34.000",
    "request_status": "Pending",
    "responsible_agency": "Department of Sanitation",
    "final_address": "2310 Prentiss Ave",
    "address_councildis": "D",
    "status": "Assigned to Contractor",
    "contractor": "IV Waste",
    "rowid": "1258834",
    "final_x": "3684477.65346",
    "final_y": "553804.777495",
    "longitude": "-90.05788471361342",
    "latitude": "30.016680191632204",
    "geocoded_column": {
      "latitude": "30.016680191632204",
      "longitude": "-90.05788471361342"
    }
  },
  {
    "service_request": "2026-1258833",
    "request_type": "Property Maintenance",
    "request_reason": "Property Maintenance",
    "date_created": "2026-02-16T19:07:14.000",
    "date_modified": "2026-02-16T19:07:16.000",
    "request_status": "Pending",
    "responsible_agency": "Department of Code Enforcement",
    "final_address": "3670 Gentilly Blvd",
    "address_councildis": "D",
    "status": "Pending",
    "rowid": "1258833",
    "final_x": "3686874.17289",
    "final_y": "548700.399955",
    "longitude": "-90.050493302721",
    "latitude": "30.002571452607057",
    "geocoded_column": {
      "latitude": "30.002571452607057",
      "longitude": "-90.050493302721"
    }
  },
  {
    "service_request": "2026-1258832",
    "request_type": "Streetlights",
    "request_reason": "New Streetlight Request",
    "date_created": "2026-02-16T19:00:05.000",
    "date_modified": "2026-02-16T19:00:07.000",
    "request_status": "Pending",
    "responsible_agency": "Department of Public Works",
    "final_address": "220 Liberty Terrace Dr",
    "address_councildis": "D",
    "status": "Pending",
    "rowid": "1258832",
    "final_x": "3689518.70953",
    "final_y": "545650.822672",
    "longitude": "-90.04224744562075",
    "latitude": "29.994104547816892",
    "geocoded_column": {
      "latitude": "29.994104547816892",
      "longitude": "-90.04224744562075"
    }
  },
  {
    "service_request": "2026-1258831",
    "request_type": "Property Maintenance",
    "request_reason": "Property Maintenance",
    "date_created": "2026-02-16T18:55:26.000",
    "date_modified": "2026-02-16T18:55:27.000",
    "request_status": "Pending",
    "responsible_agency": "Department of Code Enforcement",
    "final_address": "4300 Almonaster Ave",
    "address_councildis": "D",
    "status": "Pending",
    "rowid": "1258831",
    "final_x": "3691162.16124",
    "final_y": "548222.452434",
    "longitude": "-90.03696412173639",
    "latitude": "30.00112457364222",
    "geocoded_column": {
      "latitude": "30.00112457364222",
      "longitude": "-90.03696412173639"
    }
  },
  {
    "service_request": "2026-1258830",
    "request_type": "Trash/Recycling",
    "request_reason": "Replace Recycling Cart",
    "date_created": "2026-02-16T17:44:39.000",
    "date_modified": "2026-02-16T17:44:41.000",
    "request_status": "Pending",
    "responsible_agency": "Department of Sanitation",
    "final_address": "3719 Constance St",
    "address_councildis": "B",
    "status": "Pending",
    "rowid": "1258830",
    "final_x": "3673572.053",
    "final_y": "518752.420023",
    "longitude": "-90.09354017783082",
    "latitude": "29.920627330974394",
    "geocoded_column": {
      "latitude": "29.920627330974394",
      "longitude": "-90.09354017783082"
    }
  },
  {
    "service_request": "2026-1258829",
    "request_type": "Abandoned Vehicles",
    "request_reason": "Abandoned/Junk Vehicles",
    "date_created": "2026-02-16T17:38:28.000",
    "date_modified": "2026-02-16T17:38:30.000",
    "request_status": "Pending",
    "responsible_agency": "Department of Public Works",
    "final_address": "1816 Burgundy St",
    "address_councildis": "C",
    "status": "Pending",
    "rowid": "1258829",
    "final_x": "3683529.18178",
    "final_y": "535418.635078",
    "longitude": "-90.06152626651712",
    "latitude": "29.966153825883563",
    "geocoded_column": {
      "latitude": "29.966153825883563",
      "longitude": "-90.06152626651712"
    }
  },
  {
    "service_request": "2026-1258828",
    "request_type": "Trash/Recycling",
    "request_reason": "Repair Trash Cart",
    "date_created": "2026-02-16T17:38:22.000",
    "date_modified": "2026-02-16T17:38:25.000",
    "request_status": "Pending",
    "responsible_agency": "Department of Sanitation",
    "final_address": "3719 Constance St",
    "address_councildis": "B",
    "status": "Assigned to Contractor",
    "contractor": "IV Waste",
    "rowid": "1258828",
    "final_x": "3673572.053",
    "final_y": "518752.420023",
    "longitude": "-90.09354017783082",
    "latitude": "29.920627330974394",
    "geocoded_column": {
      "latitude": "29.920627330974394",
      "longitude": "-90.09354017783082"
    }
  },
  {
    "service_request": "2026-1258827",
    "request_type": "Trash/Recycling",
    "request_reason": "Request a Large Item Pick Up",
    "date_created": "2026-02-16T17:35:28.000",
    "date_modified": "2026-02-16T17:35:30.000",
    "request_status": "Pending",
    "responsible_agency": "Department of Sanitation",
    "final_address": "4780 Francisco Verrett Dr",
    "address_councildis": "E",
    "status": "Assigned to Contractor",
    "contractor": "Waste Pro",
    "rowid": "1258827",
    "final_x": "3704139.31268",
    "final_y": "555514.400409",
    "longitude": "-89.99569960959138",
    "latitude": "30.020764567902997",
    "geocoded_column": {
      "latitude": "30.020764567902997",
      "longitude": "-89.99569960959138"
    }
  },
  {
    "service_request": "2026-1258826",
    "request_type": "Trash/Recycling",
    "request_reason": "Missed Trash Pick-Up",
    "date_created": "2026-02-16T17:25:43.000",
    "date_modified": "2026-02-16T17:25:48.000",
    "request_status": "Pending",
    "responsible_agency": "Department of Sanitation",
    "final_address": "1512 Saint Ann St, New Orleans, Louisiana, 70116",
    "address_councildis": "C",
    "status": "Assigned to Contractor",
    "contractor": "IV Waste",
    "rowid": "1258826",
    "final_x": "3680413.62312",
    "final_y": "534521.685253",
    "longitude": "-90.07139632148734",
    "latitude": "29.963782237629072",
    "geocoded_column": {
      "latitude": "29.963782237629072",
      "longitude": "-90.07139632148734"
    }
  },
  {
    "service_request": "2026-1258825",
    "request_type": "General Services",
    "request_reason": "General Service Request",
    "date_created": "2026-02-16T17:21:59.000",
    "date_modified": "2026-02-16T17:22:00.000",
    "request_status": "Pending",
    "responsible_agency": "Orleans Parish Communication District",
    "final_address": "2234 Allen St.",
    "address_councildis": "D",
    "status": "Pending",
    "rowid": "1258825",
    "final_x": "3682395.56194",
    "final_y": "540443.614475",
    "longitude": "-90.06493054723563",
    "latitude": "29.980005325674206",
    "geocoded_column": {
      "latitude": "29.980005325674206",
      "longitude": "-90.06493054723563"
    }
  },
  {
    "service_request": "2026-1258824",
    "request_type": "Trash/Recycling",
    "request_reason": "Damaged Caused By Contractor",
    "date_created": "2026-02-16T17:00:47.000",
    "date_modified": "2026-02-16T17:00:49.000",
    "request_status": "Pending",
    "responsible_agency": "Department of Sanitation",
    "final_address": "1608 Mirabeau Ave",
    "address_councildis": "D",
    "status": "Assigned to Contractor",
    "contractor": "IV Waste",
    "rowid": "1258824",
    "final_x": "3679740.79887",
    "final_y": "550240.952916",
    "longitude": "-90.07297502387908",
    "latitude": "30.007025087189586",
    "geocoded_column": {
      "latitude": "30.007025087189586",
      "longitude": "-90.07297502387908"
    }
  },
  {
    "service_request": "2026-1258823",
    "request_type": "Trash/Recycling",
    "request_reason": "Repair Recycling Cart",
    "date_created": "2026-02-16T16:57:24.000",
    "date_modified": "2026-02-16T16:57:26.000",
    "request_status": "Pending",
    "responsible_agency": "Department of Sanitation",
    "final_address": "4321 Pitt St",
    "address_councildis": "B",
    "status": "Pending",
    "rowid": "1258823",
    "final_x": "3671080.14894",
    "final_y": "520640.804665",
    "longitude": "-90.10134189506657",
    "latitude": "29.925893689496792",
    "geocoded_column": {
      "latitude": "29.925893689496792",
      "longitude": "-90.10134189506657"
    }
  },
  {
    "service_request": "2026-1258822",
    "request_type": "Trash/Recycling",
    "request_reason": "Request a Large Item Pick Up",
    "date_created": "2026-02-16T16:51:25.000",
    "date_modified": "2026-02-16T16:51:27.000",
    "request_status": "Pending",
    "responsible_agency": "Department of Sanitation",
    "final_address": "6221 Eastover Dr",
    "address_councildis": "E",
    "status": "Assigned to Contractor",
    "contractor": "Waste Pro",
    "rowid": "1258822",
    "final_x": "3717518.17656",
    "final_y": "564556.787169",
    "longitude": "-89.95308268083468",
    "latitude": "30.045191260159086",
    "geocoded_column": {
      "latitude": "30.045191260159086",
      "longitude": "-89.95308268083468"
    }
  },
  {
    "service_request": "2026-1258821",
    "request_type": "General Services",
    "request_reason": "General Service Request",
    "date_created": "2026-02-16T16:47:36.000",
    "date_modified": "2026-02-16T16:49:28.000",
    "case_close_date": "2026-02-16T10:49:27.000",
    "request_status": "Closed",
    "responsible_agency": "Orleans Parish Communication District",
    "final_address": "437 Vallette St",
    "address_councildis": "C",
    "status": "Referred to External Agency",
    "rowid": "1258821",
    "final_x": "3687504.30658",
    "final_y": "530044.813889",
    "longitude": "-90.04916313587036",
    "latitude": "29.95125575647938",
    "geocoded_column": {
      "latitude": "29.95125575647938",
      "longitude": "-90.04916313587036"
    }
  },
  {
    "service_request": "2026-1258820",
    "request_type": "Trash/Recycling",
    "request_reason": "Request a Large Item Pick Up",
    "date_created": "2026-02-16T16:44:29.000",
    "date_modified": "2026-02-16T16:44:32.000",
    "request_status": "Pending",
    "responsible_agency": "Department of Sanitation",
    "final_address": "4409 Skyview Dr",
    "address_councildis": "D",
    "status": "Assigned to Contractor",
    "contractor": "Waste Pro",
    "rowid": "1258820",
    "final_x": "3696898.62589",
    "final_y": "552607.031318",
    "longitude": "-90.01868332725606",
    "latitude": "30.013000829117143",
    "geocoded_column": {
      "latitude": "30.013000829117143",
      "longitude": "-90.01868332725606"
    }
  },
  {
    "service_request": "2026-1258819",
    "request_type": "Trash/Recycling",
    "request_reason": "Order Recycling Cart",
    "date_created": "2026-02-16T16:40:58.000",
    "date_modified": "2026-02-16T16:41:00.000",
    "request_status": "Pending",
    "responsible_agency": "Department of Sanitation",
    "final_address": "2539 Amelia St",
    "address_councildis": "B",
    "status": "Pending",
    "rowid": "1258819",
    "final_x": "3672318.55438",
    "final_y": "524599.184572",
    "longitude": "-90.09729781799712",
    "latitude": "29.936741287330875",
    "geocoded_column": {
      "latitude": "29.936741287330875",
      "longitude": "-90.09729781799712"
    }
  },
  {
    "service_request": "2026-1258818",
    "request_type": "Trash/Recycling",
    "request_reason": "Order Recycling Cart",
    "date_created": "2026-02-16T16:38:20.000",
    "date_modified": "2026-02-16T16:38:21.000",
    "request_status": "Pending",
    "responsible_agency": "Department of Sanitation",
    "final_address": "2537 Amelia St",
    "address_councildis": "B",
    "status": "Pending",
    "rowid": "1258818",
    "final_x": "3672409.84039",
    "final_y": "524591.131452",
    "longitude": "-90.09700989753942",
    "latitude": "29.936716435902753",
    "geocoded_column": {
      "latitude": "29.936716435902753",
      "longitude": "-90.09700989753942"
    }
  },
  {
    "service_request": "2026-1258817",
    "request_type": "Trash/Recycling",
    "request_reason": "Order Trash Cart",
    "date_created": "2026-02-16T16:36:52.000",
    "date_modified": "2026-02-16T16:36:53.000",
    "request_status": "Pending",
    "responsible_agency": "Department of Sanitation",
    "final_address": "2539 Amelia St",
    "address_councildis": "B",
    "status": "Assigned to Contractor",
    "contractor": "IV Waste",
    "rowid": "1258817",
    "final_x": "3672318.55438",
    "final_y": "524599.184572",
    "longitude": "-90.09729781799712",
    "latitude": "29.936741287330875",
    "geocoded_column": {
      "latitude": "29.936741287330875",
      "longitude": "-90.09729781799712"
    }
  },
  {
    "service_request": "2026-1258816",
    "request_type": "Trash/Recycling",
    "request_reason": "Order Trash Cart",
    "date_created": "2026-02-16T16:36:23.000",
    "date_modified": "2026-02-16T16:36:26.000",
    "request_status": "Pending",
    "responsible_agency": "Department of Sanitation",
    "final_address": "2537 Amelia St",
    "address_councildis": "B",
    "status": "Assigned to Contractor",
    "contractor": "IV Waste",
    "rowid": "1258816",
    "final_x": "3672409.84039",
    "final_y": "524591.131452",
    "longitude": "-90.09700989753942",
    "latitude": "29.936716435902753",
    "geocoded_column": {
      "latitude": "29.936716435902753",
      "longitude": "-90.09700989753942"
    }
  },
  {
    "service_request": "2026-1258815",
    "request_type": "Safety & Permits",
    "request_reason": "Zoning Enforcement",
    "date_created": "2026-02-16T16:21:06.000",
    "date_modified": "2026-02-16T16:21:09.000",
    "request_status": "Pending",
    "responsible_agency": "Safety and Permits",
    "final_address": "LA SALLE ST & NAPOLEON AVE",
    "address_councildis": "B",
    "status": "Pending",
    "rowid": "1258815",
    "final_x": "3670531.4",
    "final_y": "523696.08",
    "longitude": "-90.10297057690987",
    "latitude": "29.934310929091513",
    "geocoded_column": {
      "latitude": "29.934310929091513",
      "longitude": "-90.10297057690987"
    }
  },
  {
    "service_request": "2026-1258814",
    "request_type": "Health Related Request",
    "request_reason": "Noise Ordinance Complaint",
    "date_created": "2026-02-16T16:14:16.000",
    "date_modified": "2026-02-16T16:14:17.000",
    "request_status": "Pending",
    "responsible_agency": "Health Department",
    "final_address": "2444 Dreux Ave, New Orleans, Louisiana, 70122",
    "address_councildis": "D",
    "status": "Pending",
    "rowid": "1258814",
    "final_x": "3685710.50889",
    "final_y": "552075.21519",
    "longitude": "-90.05405043050037",
    "latitude": "30.011886738314047",
    "geocoded_column": {
      "latitude": "30.011886738314047",
      "longitude": "-90.05405043050037"
    }
  },
  {
    "service_request": "2026-1258813",
    "request_type": "Trash/Recycling",
    "request_reason": "Order Recycling Cart",
    "date_created": "2026-02-16T16:12:28.000",
    "date_modified": "2026-02-16T16:12:29.000",
    "request_status": "Pending",
    "responsible_agency": "Department of Sanitation",
    "final_address": "8239 Green St",
    "address_councildis": "A",
    "status": "Pending",
    "rowid": "1258813",
    "final_x": "3662671.11475",
    "final_y": "530163.561153",
    "longitude": "-90.12757052648055",
    "latitude": "29.95232417295145",
    "geocoded_column": {
      "latitude": "29.95232417295145",
      "longitude": "-90.12757052648055"
    }
  },
  {
    "service_request": "2026-1258812",
    "request_type": "Street and Traffic Signs",
    "request_reason": "Stop Sign Missing or Damaged",
    "date_created": "2026-02-16T16:07:44.000",
    "date_modified": "2026-02-16T16:07:46.000",
    "request_status": "Pending",
    "responsible_agency": "Department of Public Works",
    "final_address": "MILAN ST & PITT ST",
    "address_councildis": "B",
    "status": "Pending",
    "rowid": "1258812",
    "final_x": "3671626.1",
    "final_y": "520646.18",
    "longitude": "-90.09961830281345",
    "latitude": "29.925892318093112",
    "geocoded_column": {
      "latitude": "29.925892318093112",
      "longitude": "-90.09961830281345"
    }
  },
  {
    "service_request": "2026-1258811",
    "request_type": "Trash/Recycling",
    "request_reason": "Return Trash Cart",
    "date_created": "2026-02-16T16:07:25.000",
    "date_modified": "2026-02-16T16:07:29.000",
    "request_status": "Pending",
    "responsible_agency": "Department of Sanitation",
    "final_address": "122 Harbour Town Ct",
    "address_councildis": "C",
    "status": "Assigned to Contractor",
    "contractor": "Richards Disposal",
    "rowid": "1258811",
    "final_x": "3717750.31231",
    "final_y": "513018.969457",
    "longitude": "-89.95430934069935",
    "latitude": "29.90347409694872",
    "geocoded_column": {
      "latitude": "29.90347409694872",
      "longitude": "-89.95430934069935"
    }
  },
  {
    "service_request": "2026-1258810",
    "request_type": "Trash/Recycling",
    "request_reason": "Order Second Trash Cart",
    "date_created": "2026-02-16T16:01:16.000",
    "date_modified": "2026-02-16T16:01:55.000",
    "request_status": "Pending",
    "responsible_agency": "Department of Sanitation",
    "final_address": "156 Middle Park Pl",
    "address_councildis": "A",
    "status": "Assigned to Contractor",
    "contractor": "IV Waste",
    "rowid": "1258810",
    "final_x": "3669962.70983",
    "final_y": "544586.880399",
    "longitude": "-90.10405837979879",
    "latitude": "29.991770460258177",
    "geocoded_column": {
      "latitude": "29.991770460258177",
      "longitude": "-90.10405837979879"
    }
  },
  {
    "service_request": "2026-1258809",
    "request_type": "Trash/Recycling",
    "request_reason": "Request a Large Item Pick Up",
    "date_created": "2026-02-16T15:55:22.000",
    "date_modified": "2026-02-16T15:55:24.000",
    "request_status": "Pending",
    "responsible_agency": "Department of Sanitation",
    "final_address": "11231 Whiteside Rd",
    "address_councildis": "E",
    "status": "Assigned to Contractor",
    "contractor": "Waste Pro",
    "rowid": "1258809",
    "final_x": "3712118.22066",
    "final_y": "565247.077538",
    "longitude": "-89.97012300402452",
    "latitude": "30.047267026927475",
    "geocoded_column": {
      "latitude": "30.047267026927475",
      "longitude": "-89.97012300402452"
    }
  },
  {
    "service_request": "2026-1258808",
    "request_type": "Trash/Recycling",
    "request_reason": "Request a Large Item Pick Up",
    "date_created": "2026-02-16T15:54:29.000",
    "date_modified": "2026-02-16T15:54:31.000",
    "request_status": "Pending",
    "responsible_agency": "Department of Sanitation",
    "final_address": "4733 Robin Hood Dr",
    "address_councildis": "E",
    "status": "Assigned to Contractor",
    "contractor": "Waste Pro",
    "rowid": "1258808",
    "final_x": "3717565.05477",
    "final_y": "557035.245082",
    "longitude": "-89.95322084293866",
    "latitude": "30.024508503458147",
    "geocoded_column": {
      "latitude": "30.024508503458147",
      "longitude": "-89.95322084293866"
    }
  },
  {
    "service_request": "2026-1258807",
    "request_type": "Trash/Recycling",
    "request_reason": "Request a Large Item Pick Up",
    "date_created": "2026-02-16T15:51:03.000",
    "date_modified": "2026-02-16T15:51:05.000",
    "request_status": "Pending",
    "responsible_agency": "Department of Sanitation",
    "final_address": "4635 Redwood St",
    "address_councildis": "E",
    "status": "Assigned to Contractor",
    "contractor": "Waste Pro",
    "rowid": "1258807",
    "final_x": "3712630.38738",
    "final_y": "555520.216089",
    "longitude": "-89.96887037017903",
    "latitude": "30.020505273276047",
    "geocoded_column": {
      "latitude": "30.020505273276047",
      "longitude": "-89.96887037017903"
    }
  },
  {
    "service_request": "2026-1258806",
    "request_type": "Roads and Streets",
    "request_reason": "Pothole",
    "date_created": "2026-02-16T15:48:02.000",
    "date_modified": "2026-02-16T15:48:05.000",
    "request_status": "Pending",
    "responsible_agency": "Department of Public Works",
    "final_address": "136 12Th St",
    "address_councildis": "A",
    "status": "Pending",
    "rowid": "1258806",
    "final_x": "3665792.57063",
    "final_y": "547748.99125",
    "longitude": "-90.11712499977526",
    "latitude": "30.000587536566936",
    "geocoded_column": {
      "latitude": "30.000587536566936",
      "longitude": "-90.11712499977526"
    }
  },
  {
    "service_request": "2026-1258805",
    "request_type": "Trash/Recycling",
    "request_reason": "Order Recycling Cart",
    "date_created": "2026-02-16T15:45:44.000",
    "date_modified": "2026-02-16T15:45:45.000",
    "request_status": "Pending",
    "responsible_agency": "Department of Sanitation",
    "final_address": "2132 Cadiz St",
    "address_councildis": "B",
    "status": "Pending",
    "rowid": "1258805",
    "final_x": "3669861.59258",
    "final_y": "522843.451003",
    "longitude": "-90.10511399702398",
    "latitude": "29.931986232239865",
    "geocoded_column": {
      "latitude": "29.931986232239865",
      "longitude": "-90.10511399702398"
    }
  },
  {
    "service_request": "2026-1258804",
    "request_type": "Abandoned Vehicles",
    "request_reason": "Abandoned/Junk Vehicles",
    "date_created": "2026-02-16T15:45:18.000",
    "date_modified": "2026-02-16T15:45:19.000",
    "request_status": "Pending",
    "responsible_agency": "Department of Public Works",
    "final_address": "1617 Marais St",
    "address_councildis": "C",
    "status": "Pending",
    "rowid": "1258804",
    "final_x": "3683044.8765",
    "final_y": "536555.536583",
    "longitude": "-90.06301588638146",
    "latitude": "29.96929468445308",
    "geocoded_column": {
      "latitude": "29.96929468445308",
      "longitude": "-90.06301588638146"
    }
  },
  {
    "service_request": "2026-1258803",
    "request_type": "Trash/Recycling",
    "request_reason": "Repair Trash Cart",
    "date_created": "2026-02-16T15:36:17.000",
    "date_modified": "2026-02-16T15:36:19.000",
    "request_status": "Pending",
    "responsible_agency": "Department of Sanitation",
    "final_address": "7000 BLK Oleander St",
    "address_councildis": "B",
    "status": "Assigned to Contractor",
    "contractor": "IV Waste",
    "rowid": "1258803",
    "final_x": "3668414.68183",
    "final_y": "532162.182511",
    "longitude": "-90.10936751777801",
    "latitude": "29.957652288173545",
    "geocoded_column": {
      "latitude": "29.957652288173545",
      "longitude": "-90.10936751777801"
    }
  },
  {
    "service_request": "2026-1258802",
    "request_type": "General Services",
    "request_reason": "General Service Request",
    "date_created": "2026-02-16T15:21:37.000",
    "date_modified": "2026-02-16T15:38:09.000",
    "case_close_date": "2026-02-16T09:38:07.000",
    "request_status": "Closed",
    "responsible_agency": "Orleans Parish Communication District",
    "final_address": "4603 S Carrollton Ave",
    "address_councildis": "A",
    "status": "Referred to Risk Management",
    "rowid": "1258802",
    "final_x": "3670551.63047",
    "final_y": "537824.822089",
    "longitude": "-90.10242755597388",
    "latitude": "29.973159718155777",
    "geocoded_column": {
      "latitude": "29.973159718155777",
      "longitude": "-90.10242755597388"
    }
  },
  {
    "service_request": "2026-1258801",
    "request_type": "Trash/Recycling",
    "request_reason": "Request a Large Item Pick Up",
    "date_created": "2026-02-16T15:16:44.000",
    "date_modified": "2026-02-16T15:16:47.000",
    "request_status": "Pending",
    "responsible_agency": "Department of Sanitation",
    "final_address": "7625 Lady Gray St",
    "address_councildis": "E",
    "status": "Assigned to Contractor",
    "contractor": "Waste Pro",
    "rowid": "1258801",
    "final_x": "3709993.01029",
    "final_y": "565324.215266",
    "longitude": "-89.97683687860402",
    "latitude": "30.04754847379839",
    "geocoded_column": {
      "latitude": "30.04754847379839",
      "longitude": "-89.97683687860402"
    }
  },
  {
    "service_request": "2026-1258800",
    "request_type": "Abandoned Vehicles",
    "request_reason": "Abandoned/Junk Vehicles",
    "date_created": "2026-02-16T15:11:02.000",
    "date_modified": "2026-02-16T15:11:04.000",
    "request_status": "Pending",
    "responsible_agency": "Department of Public Works",
    "final_address": "5701 Wingate Dr",
    "address_councildis": "D",
    "status": "Pending",
    "rowid": "1258800",
    "final_x": "3681364.0838",
    "final_y": "553719.503383",
    "longitude": "-90.06772524631661",
    "latitude": "30.01654064693117",
    "geocoded_column": {
      "latitude": "30.01654064693117",
      "longitude": "-90.06772524631661"
    }
  },
  {
    "service_request": "2026-1258799",
    "request_type": "Trash/Recycling",
    "request_reason": "Repair Trash Cart",
    "date_created": "2026-02-16T14:59:24.000",
    "date_modified": "2026-02-16T14:59:25.000",
    "request_status": "Pending",
    "responsible_agency": "Department of Sanitation",
    "final_address": "2111 Holiday Dr",
    "address_councildis": "C",
    "status": "Assigned to Contractor",
    "contractor": "Richards Disposal",
    "rowid": "1258799",
    "final_x": "3698821.01578",
    "final_y": "523486.116795",
    "longitude": "-90.01366928375452",
    "latitude": "29.932868038304896",
    "geocoded_column": {
      "latitude": "29.932868038304896",
      "longitude": "-90.01366928375452"
    }
  },
  {
    "service_request": "2026-1258798",
    "request_type": "Abandoned Vehicles",
    "request_reason": "Abandoned/Junk Vehicles",
    "date_created": "2026-02-16T14:52:58.000",
    "date_modified": "2026-02-16T14:55:04.000",
    "request_status": "Pending",
    "responsible_agency": "Department of Public Works",
    "final_address": "5701 Wingate Dr",
    "address_councildis": "D",
    "status": "Pending",
    "rowid": "1258798",
    "final_x": "3681364.0838",
    "final_y": "553719.503383",
    "longitude": "-90.06772524631661",
    "latitude": "30.01654064693117",
    "geocoded_column": {
      "latitude": "30.01654064693117",
      "longitude": "-90.06772524631661"
    }
  },
  {
    "service_request": "2026-1258797",
    "request_type": "Trash/Recycling",
    "request_reason": "Order Recycling Cart",
    "date_created": "2026-02-16T14:33:18.000",
    "date_modified": "2026-02-16T14:33:20.000",
    "request_status": "Pending",
    "responsible_agency": "Department of Sanitation",
    "final_address": "4737 Miles Dr",
    "address_councildis": "D",
    "status": "Pending",
    "rowid": "1258797",
    "final_x": "3679879.83119",
    "final_y": "549125.068563",
    "longitude": "-90.07257457264002",
    "latitude": "30.003952598943975",
    "geocoded_column": {
      "latitude": "30.003952598943975",
      "longitude": "-90.07257457264002"
    }
  },
  {
    "service_request": "2026-1258796",
    "request_type": "Trash/Recycling",
    "request_reason": "Request a Large Item Pick Up",
    "date_created": "2026-02-16T14:32:46.000",
    "date_modified": "2026-02-16T14:32:47.000",
    "request_status": "Pending",
    "responsible_agency": "Department of Sanitation",
    "final_address": "7810 Unity Dr",
    "address_councildis": "E",
    "status": "Assigned to Contractor",
    "contractor": "Waste Pro",
    "rowid": "1258796",
    "final_x": "3711722.87486",
    "final_y": "567451.185124",
    "longitude": "-89.9712896941914",
    "latitude": "30.053340355759737",
    "geocoded_column": {
      "latitude": "30.053340355759737",
      "longitude": "-89.9712896941914"
    }
  },
  {
    "service_request": "2026-1258795",
    "request_type": "General Services",
    "request_reason": "General Service Request",
    "date_created": "2026-02-16T14:32:44.000",
    "date_modified": "2026-02-16T15:16:47.000",
    "case_close_date": "2026-02-16T09:16:46.000",
    "request_status": "Closed",
    "responsible_agency": "Orleans Parish Communication District",
    "final_address": "1309 Magazine St",
    "address_councildis": "B",
    "status": "Question Answered.",
    "rowid": "1258795",
    "final_x": "3680474.73192",
    "final_y": "525133.916989",
    "longitude": "-90.07152980487972",
    "latitude": "29.93796718308046",
    "geocoded_column": {
      "latitude": "29.93796718308046",
      "longitude": "-90.07152980487972"
    }
  },
  {
    "service_request": "2026-1258794",
    "request_type": "Trash/Recycling",
    "request_reason": "Request a Large Item Pick Up",
    "date_created": "2026-02-16T14:31:16.000",
    "date_modified": "2026-02-16T14:31:18.000",
    "request_status": "Pending",
    "responsible_agency": "Department of Sanitation",
    "final_address": "5207 Wentworth Dr",
    "address_councildis": "E",
    "status": "Assigned to Contractor",
    "contractor": "Waste Pro",
    "rowid": "1258794",
    "final_x": "3704693.48721",
    "final_y": "557006.049306",
    "longitude": "-89.99389349983927",
    "latitude": "30.024848225521236",
    "geocoded_column": {
      "latitude": "30.024848225521236",
      "longitude": "-89.99389349983927"
    }
  },
  {
    "service_request": "2026-1258793",
    "request_type": "Trash/Recycling",
    "request_reason": "Illegal Dumping",
    "date_created": "2026-02-16T14:31:11.000",
    "date_modified": "2026-02-16T14:31:13.000",
    "request_status": "Pending",
    "responsible_agency": "Department of Sanitation",
    "final_address": "2634 Allen Toussaint Blvd",
    "address_councildis": "D",
    "status": "Pending",
    "rowid": "1258793",
    "final_x": "3686674.83343",
    "final_y": "555913.413913",
    "longitude": "-90.05086800223796",
    "latitude": "30.022410731150238",
    "geocoded_column": {
      "latitude": "30.022410731150238",
      "longitude": "-90.05086800223796"
    }
  },
  {
    "service_request": "2026-1258792",
    "request_type": "Trash/Recycling",
    "request_reason": "Request a Large Item Pick Up",
    "date_created": "2026-02-16T14:29:30.000",
    "date_modified": "2026-02-16T14:29:31.000",
    "request_status": "Pending",
    "responsible_agency": "Department of Sanitation",
    "final_address": "2449 Mercedes Blvd",
    "address_councildis": "C",
    "status": "Assigned to Contractor",
    "contractor": "Richards Disposal",
    "rowid": "1258792",
    "final_x": "3697977.6321",
    "final_y": "521975.238906",
    "longitude": "-90.01638658626985",
    "latitude": "29.92874032500909",
    "geocoded_column": {
      "latitude": "29.92874032500909",
      "longitude": "-90.01638658626985"
    }
  },
  {
    "service_request": "2026-1258791",
    "request_type": "Trash/Recycling",
    "request_reason": "Repair Recycling Cart",
    "date_created": "2026-02-16T14:26:55.000",
    "date_modified": "2026-02-16T14:26:57.000",
    "request_status": "Pending",
    "responsible_agency": "Department of Sanitation",
    "final_address": "3215 State Street Dr",
    "address_councildis": "A",
    "status": "Pending",
    "rowid": "1258791",
    "final_x": "3667607.55073",
    "final_y": "528051.528575",
    "longitude": "-90.1120545594432",
    "latitude": "29.94637301321549",
    "geocoded_column": {
      "latitude": "29.94637301321549",
      "longitude": "-90.1120545594432"
    }
  },
  {
    "service_request": "2026-1258790",
    "request_type": "Trash/Recycling",
    "request_reason": "Missed Trash Pick-Up",
    "date_created": "2026-02-16T14:26:31.000",
    "date_modified": "2026-02-16T15:37:42.000",
    "case_close_date": "2026-02-16T09:37:39.000",
    "request_status": "Closed",
    "responsible_agency": "Department of Sanitation",
    "final_address": "2833 Louisiana Ave",
    "address_councildis": "B",
    "status": "Invalid Request",
    "contractor": "IV Waste",
    "contractor_action": "Invalid Request",
    "rowid": "1258790",
    "final_x": "3672467.55739",
    "final_y": "525754.705917",
    "longitude": "-90.09678803944124",
    "latitude": "29.93991417486799",
    "geocoded_column": {
      "latitude": "29.93991417486799",
      "longitude": "-90.09678803944124"
    }
  },
  {
    "service_request": "2026-1258789",
    "request_type": "General Services",
    "request_reason": "General Service Request",
    "date_created": "2026-02-16T14:13:47.000",
    "date_modified": "2026-02-16T15:18:09.000",
    "case_close_date": "2026-02-16T09:18:08.000",
    "request_status": "Closed",
    "responsible_agency": "Orleans Parish Communication District",
    "final_address": "3312 Loyola Ave",
    "address_councildis": "B",
    "status": "Referred to External Agency",
    "rowid": "1258789",
    "final_x": "3673613.32833",
    "final_y": "523594.355131",
    "longitude": "-90.09324448166343",
    "latitude": "29.933939864972288",
    "geocoded_column": {
      "latitude": "29.933939864972288",
      "longitude": "-90.09324448166343"
    }
  },
  {
    "service_request": "2026-1258788",
    "request_type": "Trash/Recycling",
    "request_reason": "Request a Large Item Pick Up",
    "date_created": "2026-02-16T14:08:32.000",
    "date_modified": "2026-02-16T14:08:34.000",
    "request_status": "Pending",
    "responsible_agency": "Department of Sanitation",
    "final_address": "124 Alden Pl",
    "address_councildis": "D",
    "status": "Assigned to Contractor",
    "contractor": "IV Waste",
    "rowid": "1258788",
    "final_x": "3678446.84475",
    "final_y": "543966.382158",
    "longitude": "-90.07728027442616",
    "latitude": "29.98981130890348",
    "geocoded_column": {
      "latitude": "29.98981130890348",
      "longitude": "-90.07728027442616"
    }
  },
  {
    "service_request": "2026-1258787",
    "request_type": "Roads and Streets",
    "request_reason": "Debris in Driving Lanes",
    "date_created": "2026-02-16T14:06:53.000",
    "date_modified": "2026-02-16T14:06:54.000",
    "request_status": "Pending",
    "responsible_agency": "Department of Public Works",
    "final_address": "I 10 E & CROWDER EXIT",
    "address_councildis": "E",
    "status": "Pending",
    "rowid": "1258787",
    "final_x": "3703756.3",
    "final_y": "558341.98",
    "longitude": "-89.99680559675423",
    "latitude": "30.028551606788255",
    "geocoded_column": {
      "latitude": "30.028551606788255",
      "longitude": "-89.99680559675423"
    }
  },
  {
    "service_request": "2026-1258786",
    "request_type": "Trash/Recycling",
    "request_reason": "Request a Large Item Pick Up",
    "date_created": "2026-02-16T14:05:02.000",
    "date_modified": "2026-02-16T14:05:04.000",
    "request_status": "Pending",
    "responsible_agency": "Department of Sanitation",
    "final_address": "2257 Odin St",
    "address_councildis": "D",
    "status": "Assigned to Contractor",
    "contractor": "IV Waste",
    "rowid": "1258786",
    "final_x": "3684270.46735",
    "final_y": "553132.264023",
    "longitude": "-90.0585629725401",
    "latitude": "30.014837365368642",
    "geocoded_column": {
      "latitude": "30.014837365368642",
      "longitude": "-90.0585629725401"
    }
  },
  {
    "service_request": "2026-1258785",
    "request_type": "Street and Traffic Signs",
    "request_reason": "Stop Sign Missing or Damaged",
    "date_created": "2026-02-16T14:03:34.000",
    "date_modified": "2026-02-16T14:03:35.000",
    "request_status": "Pending",
    "responsible_agency": "Department of Public Works",
    "final_address": "MILAN ST & PITT ST",
    "address_councildis": "B",
    "status": "Pending",
    "rowid": "1258785",
    "final_x": "3671626.1",
    "final_y": "520646.18",
    "longitude": "-90.09961830281345",
    "latitude": "29.925892318093112",
    "geocoded_column": {
      "latitude": "29.925892318093112",
      "longitude": "-90.09961830281345"
    }
  },
  {
    "service_request": "2026-1258784",
    "request_type": "Streetlights",
    "request_reason": "Streetlight Outage/Malfunction",
    "date_created": "2026-02-16T14:02:08.000",
    "date_modified": "2026-02-16T14:02:10.000",
    "request_status": "Pending",
    "responsible_agency": "Department of Public Works",
    "final_address": "2726 Orchid St",
    "address_councildis": "A",
    "status": "Pending",
    "rowid": "1258784",
    "final_x": "3677654.34101",
    "final_y": "538634.466953",
    "longitude": "-90.07996780299054",
    "latitude": "29.9751742530708",
    "geocoded_column": {
      "latitude": "29.9751742530708",
      "longitude": "-90.07996780299054"
    }
  },
  {
    "service_request": "2026-1258783",
    "request_type": "Street and Traffic Signs",
    "request_reason": "Additional Signage Request",
    "date_created": "2026-02-16T13:51:56.000",
    "date_modified": "2026-02-16T13:51:59.000",
    "request_status": "Pending",
    "responsible_agency": "Department of Public Works",
    "final_address": "N MIRO ST & NEW ORLEANS ST",
    "address_councildis": "D",
    "status": "Pending",
    "rowid": "1258783",
    "final_x": "3682084.3",
    "final_y": "540151.88",
    "longitude": "-90.06592383271771",
    "latitude": "29.97921262810447",
    "geocoded_column": {
      "latitude": "29.97921262810447",
      "longitude": "-90.06592383271771"
    }
  },
  {
    "service_request": "2026-1258782",
    "request_type": "Trash/Recycling",
    "request_reason": "Repair Trash Cart",
    "date_created": "2026-02-16T13:49:01.000",
    "date_modified": "2026-02-16T13:49:03.000",
    "request_status": "Pending",
    "responsible_agency": "Department of Sanitation",
    "final_address": "4939 Gawain Dr",
    "address_councildis": "E",
    "status": "Assigned to Contractor",
    "contractor": "Waste Pro",
    "rowid": "1258782",
    "final_x": "3706914.09182",
    "final_y": "556772.088154",
    "longitude": "-89.98688550182806",
    "latitude": "30.02413336187034",
    "geocoded_column": {
      "latitude": "30.02413336187034",
      "longitude": "-89.98688550182806"
    }
  },
  {
    "service_request": "2026-1258781",
    "request_type": "Trash/Recycling",
    "request_reason": "Repair Recycling Cart",
    "date_created": "2026-02-16T13:41:13.000",
    "date_modified": "2026-02-16T13:41:19.000",
    "request_status": "Pending",
    "responsible_agency": "Department of Sanitation",
    "final_address": "311 S Pierce St",
    "address_councildis": "A",
    "status": "Pending",
    "rowid": "1258781",
    "final_x": "3670896.17735",
    "final_y": "537352.591112",
    "longitude": "-90.10135544083474",
    "latitude": "29.97185106040841",
    "geocoded_column": {
      "latitude": "29.97185106040841",
      "longitude": "-90.10135544083474"
    }
  },
  {
    "service_request": "2026-1258780",
    "request_type": "Trash/Recycling",
    "request_reason": "Missed Trash Pick-Up",
    "date_created": "2026-02-16T13:39:44.000",
    "date_modified": "2026-02-16T14:51:12.000",
    "case_close_date": "2026-02-16T08:51:09.000",
    "request_status": "Closed",
    "responsible_agency": "Department of Sanitation",
    "final_address": "1628 Thalia St",
    "address_councildis": "B",
    "status": "Invalid Request",
    "contractor": "IV Waste",
    "contractor_action": "Invalid Request",
    "rowid": "1258780",
    "final_x": "3679100.66069",
    "final_y": "525902.863485",
    "longitude": "-90.07584122339557",
    "latitude": "29.94012306610723",
    "geocoded_column": {
      "latitude": "29.94012306610723",
      "longitude": "-90.07584122339557"
    }
  },
  {
    "service_request": "2026-1258779",
    "request_type": "Trash/Recycling",
    "request_reason": "Request a Large Item Pick Up",
    "date_created": "2026-02-16T13:38:55.000",
    "date_modified": "2026-02-16T13:38:57.000",
    "request_status": "Pending",
    "responsible_agency": "Department of Sanitation",
    "final_address": "4912 Corinne St",
    "address_councildis": "E",
    "status": "Assigned to Contractor",
    "contractor": "Waste Pro",
    "rowid": "1258779",
    "final_x": "3714891.58034",
    "final_y": "557475.921243",
    "longitude": "-89.9616517899902",
    "latitude": "30.02580845700715",
    "geocoded_column": {
      "latitude": "30.02580845700715",
      "longitude": "-89.9616517899902"
    }
  },
  {
    "service_request": "2026-1258778",
    "request_type": "Trash/Recycling",
    "request_reason": "Replace Trash Cart",
    "date_created": "2026-02-16T13:33:39.000",
    "date_modified": "2026-02-16T13:33:41.000",
    "request_status": "Pending",
    "responsible_agency": "Department of Sanitation",
    "final_address": "916 Cadiz St",
    "address_councildis": "B",
    "status": "Assigned to Contractor",
    "contractor": "IV Waste",
    "rowid": "1258778",
    "final_x": "3670235.75687",
    "final_y": "518862.953015",
    "longitude": "-90.10406760526669",
    "latitude": "29.921030099444632",
    "geocoded_column": {
      "latitude": "29.921030099444632",
      "longitude": "-90.10406760526669"
    }
  },
  {
    "service_request": "2026-1258777",
    "request_type": "Trash/Recycling",
    "request_reason": "Repair Trash Cart",
    "date_created": "2026-02-16T13:33:08.000",
    "date_modified": "2026-02-16T13:33:10.000",
    "request_status": "Pending",
    "responsible_agency": "Department of Sanitation",
    "final_address": "5519 Marshal Foch St",
    "address_councildis": "A",
    "status": "Assigned to Contractor",
    "contractor": "IV Waste",
    "rowid": "1258777",
    "final_x": "3669606.91738",
    "final_y": "543912.928334",
    "longitude": "-90.10520507355945",
    "latitude": "29.98992781408594",
    "geocoded_column": {
      "latitude": "29.98992781408594",
      "longitude": "-90.10520507355945"
    }
  },
  {
    "service_request": "2026-1258775",
    "request_type": "Abandoned Vehicles",
    "request_reason": "Abandoned/Junk Vehicles",
    "date_created": "2026-02-16T13:21:15.000",
    "date_modified": "2026-02-16T13:21:16.000",
    "request_status": "Pending",
    "responsible_agency": "Department of Public Works",
    "final_address": "1115 Congress St",
    "address_councildis": "C",
    "status": "Pending",
    "rowid": "1258775",
    "final_x": "3690799.05219",
    "final_y": "535769.676103",
    "longitude": "-90.03855573658589",
    "latitude": "29.9668951910166",
    "geocoded_column": {
      "latitude": "29.9668951910166",
      "longitude": "-90.03855573658589"
    }
  },
  {
    "service_request": "2026-1258774",
    "request_type": "Trash/Recycling",
    "request_reason": "Replace Trash Cart",
    "date_created": "2026-02-16T13:20:59.000",
    "date_modified": "2026-02-16T13:21:01.000",
    "request_status": "Pending",
    "responsible_agency": "Department of Sanitation",
    "final_address": "3730 Mansfield Ave",
    "address_councildis": "C",
    "status": "Assigned to Contractor",
    "contractor": "Richards Disposal",
    "rowid": "1258774",
    "final_x": "3708994.93246",
    "final_y": "517194.472949",
    "longitude": "-89.981785579407",
    "latitude": "29.915242120250753",
    "geocoded_column": {
      "latitude": "29.915242120250753",
      "longitude": "-89.981785579407"
    }
  },
  {
    "service_request": "2026-1258773",
    "request_type": "Trash/Recycling",
    "request_reason": "Request a Large Item Pick Up",
    "date_created": "2026-02-16T13:17:53.000",
    "date_modified": "2026-02-16T13:17:55.000",
    "request_status": "Pending",
    "responsible_agency": "Department of Sanitation",
    "final_address": "7717 Pyramid St",
    "address_councildis": "E",
    "status": "Assigned to Contractor",
    "contractor": "Waste Pro",
    "rowid": "1258773",
    "final_x": "3715000.33509",
    "final_y": "569586.65943",
    "longitude": "-89.96084976868379",
    "latitude": "30.059104503395098",
    "geocoded_column": {
      "latitude": "30.059104503395098",
      "longitude": "-89.96084976868379"
    }
  },
  {
    "service_request": "2026-1258772",
    "request_type": "General Services",
    "request_reason": "General Service Request",
    "date_created": "2026-02-16T13:15:01.000",
    "date_modified": "2026-02-16T13:18:08.000",
    "case_close_date": "2026-02-16T07:18:07.000",
    "request_status": "Closed",
    "responsible_agency": "Orleans Parish Communication District",
    "final_address": "3029 St Claude Ave",
    "address_councildis": "C",
    "status": "Referred to External Agency",
    "rowid": "1258772",
    "final_x": "3688718.58972",
    "final_y": "536180.432711",
    "longitude": "-90.045111235701",
    "latitude": "29.968089105148152",
    "geocoded_column": {
      "latitude": "29.968089105148152",
      "longitude": "-90.045111235701"
    }
  },
  {
    "service_request": "2026-1258771",
    "request_type": "Trash/Recycling",
    "request_reason": "Request a Large Item Pick Up",
    "date_created": "2026-02-16T13:12:21.000",
    "date_modified": "2026-02-16T13:12:24.000",
    "request_status": "Pending",
    "responsible_agency": "Department of Sanitation",
    "final_address": "5158 Van Chu Dr",
    "address_councildis": "E",
    "status": "Assigned to Contractor",
    "contractor": "Waste Pro",
    "rowid": "1258771",
    "final_x": "3727427.59942",
    "final_y": "563679.936097",
    "longitude": "-89.9217987661668",
    "latitude": "30.042448350220937",
    "geocoded_column": {
      "latitude": "30.042448350220937",
      "longitude": "-89.9217987661668"
    }
  },
  {
    "service_request": "2026-1258770",
    "request_type": "Trash/Recycling",
    "request_reason": "Missed Trash Pick-Up",
    "date_created": "2026-02-16T13:08:37.000",
    "date_modified": "2026-02-16T13:08:45.000",
    "request_status": "Pending",
    "responsible_agency": "Department of Sanitation",
    "final_address": "4502 Rhodes Dr",
    "address_councildis": "E",
    "status": "Assigned to Contractor",
    "contractor": "Waste Pro",
    "rowid": "1258770",
    "final_x": "3702588.1457",
    "final_y": "553204.174935",
    "longitude": "-90.00068570297974",
    "latitude": "30.014462031068575",
    "geocoded_column": {
      "latitude": "30.014462031068575",
      "longitude": "-90.00068570297974"
    }
  },
  {
    "service_request": "2026-1258769",
    "request_type": "Trash/Recycling",
    "request_reason": "Request a Large Item Pick Up",
    "date_created": "2026-02-16T13:07:51.000",
    "date_modified": "2026-02-16T13:07:53.000",
    "request_status": "Pending",
    "responsible_agency": "Department of Sanitation",
    "final_address": "6961 Bunker Hill Rd",
    "address_councildis": "E",
    "status": "Assigned to Contractor",
    "contractor": "Waste Pro",
    "rowid": "1258769",
    "final_x": "3706046.50993",
    "final_y": "560257.253597",
    "longitude": "-89.98949772210892",
    "latitude": "30.033744208333605",
    "geocoded_column": {
      "latitude": "30.033744208333605",
      "longitude": "-89.98949772210892"
    }
  },
  {
    "service_request": "2026-1258768",
    "request_type": "Trash/Recycling",
    "request_reason": "Request a Large Item Pick Up",
    "date_created": "2026-02-16T13:01:32.000",
    "date_modified": "2026-02-16T13:01:43.000",
    "request_status": "Pending",
    "responsible_agency": "Department of Sanitation",
    "final_address": "7939 Vanderkloot Ave",
    "address_councildis": "E",
    "status": "Assigned to Contractor",
    "contractor": "Waste Pro",
    "rowid": "1258768",
    "final_x": "3705453.20401",
    "final_y": "564203.769889",
    "longitude": "-89.99122654721684",
    "latitude": "30.04461468935444",
    "geocoded_column": {
      "latitude": "30.04461468935444",
      "longitude": "-89.99122654721684"
    }
  },
  {
    "service_request": "2026-1258767",
    "request_type": "Trash/Recycling",
    "request_reason": "Change Size of Trash Cart",
    "date_created": "2026-02-16T13:00:23.000",
    "date_modified": "2026-02-16T14:05:42.000",
    "request_status": "Pending",
    "responsible_agency": "Department of Sanitation",
    "final_address": "9412 Palm St",
    "address_councildis": "A",
    "status": "Assigned to Contractor",
    "contractor": "IV Waste",
    "rowid": "1258767",
    "final_x": "3664141.7881",
    "final_y": "537883.779977",
    "longitude": "-90.12266923646682",
    "latitude": "29.973509609122008",
    "geocoded_column": {
      "latitude": "29.973509609122008",
      "longitude": "-90.12266923646682"
    }
  },
  {
    "service_request": "2026-1258766",
    "request_type": "Trash/Recycling",
    "request_reason": "Request a Large Item Pick Up",
    "date_created": "2026-02-16T12:59:55.000",
    "date_modified": "2026-02-16T12:59:57.000",
    "request_status": "Pending",
    "responsible_agency": "Department of Sanitation",
    "final_address": "7400 Dartmoor Dr",
    "address_councildis": "E",
    "status": "Assigned to Contractor",
    "contractor": "Waste Pro",
    "rowid": "1258766",
    "final_x": "3704943.01841",
    "final_y": "561888.866847",
    "longitude": "-89.99292454113606",
    "latitude": "30.038266042314778",
    "geocoded_column": {
      "latitude": "30.038266042314778",
      "longitude": "-89.99292454113606"
    }
  },
  {
    "service_request": "2026-1258765",
    "request_type": "Trash/Recycling",
    "request_reason": "Request a Large Item Pick Up",
    "date_created": "2026-02-16T12:57:50.000",
    "date_modified": "2026-02-16T12:57:52.000",
    "request_status": "Pending",
    "responsible_agency": "Department of Sanitation",
    "final_address": "4944 Nottingham Dr",
    "address_councildis": "E",
    "status": "Assigned to Contractor",
    "contractor": "Waste Pro",
    "rowid": "1258765",
    "final_x": "3716220.01317",
    "final_y": "557858.229403",
    "longitude": "-89.95743966340213",
    "latitude": "30.02681585890228",
    "geocoded_column": {
      "latitude": "30.02681585890228",
      "longitude": "-89.95743966340213"
    }
  },
  {
    "service_request": "2026-1258764",
    "request_type": "Mosquito, Termite & Rodent Control",
    "request_reason": "Mosquito Complaint",
    "date_created": "2026-02-16T12:57:34.000",
    "date_modified": "2026-02-16T12:57:35.000",
    "request_status": "Pending",
    "responsible_agency": "Mosquito, Termite & Rodent Control Board",
    "final_address": "1826 Hollygrove St",
    "address_councildis": "A",
    "status": "Pending",
    "rowid": "1258764",
    "final_x": "3661148.85056",
    "final_y": "532261.155587",
    "longitude": "-90.13230773917518",
    "latitude": "29.958135839772",
    "geocoded_column": {
      "latitude": "29.958135839772",
      "longitude": "-90.13230773917518"
    }
  },
  {
    "service_request": "2026-1258763",
    "request_type": "Utility Poles",
    "request_reason": "Utility Pole Down",
    "date_created": "2026-02-16T12:57:11.000",
    "date_modified": "2026-02-16T12:57:14.000",
    "request_status": "Pending",
    "responsible_agency": "Utility Company Collective",
    "final_address": "6 Snipe St",
    "address_councildis": "D",
    "status": "Pending",
    "rowid": "1258763",
    "final_x": "3672167.10094",
    "final_y": "556691.193882",
    "longitude": "-90.09668250900766",
    "latitude": "30.024987840876765",
    "geocoded_column": {
      "latitude": "30.024987840876765",
      "longitude": "-90.09668250900766"
    }
  },
  {
    "service_request": "2026-1258762",
    "request_type": "Trash/Recycling",
    "request_reason": "Request a Large Item Pick Up",
    "date_created": "2026-02-16T12:56:39.000",
    "date_modified": "2026-02-16T12:56:41.000",
    "request_status": "Pending",
    "responsible_agency": "Department of Sanitation",
    "final_address": "10941 Harrow Rd",
    "address_councildis": "E",
    "status": "Assigned to Contractor",
    "contractor": "Waste Pro",
    "rowid": "1258762",
    "final_x": "3711686.98744",
    "final_y": "563934.942561",
    "longitude": "-89.97153520911975",
    "latitude": "30.04367328439858",
    "geocoded_column": {
      "latitude": "30.04367328439858",
      "longitude": "-89.97153520911975"
    }
  },
  {
    "service_request": "2026-1258761",
    "request_type": "Safety & Permits",
    "request_reason": "Zoning Enforcement",
    "date_created": "2026-02-16T12:53:59.000",
    "date_modified": "2026-02-16T14:29:22.000",
    "case_close_date": "2026-02-16T08:29:21.000",
    "request_status": "Closed",
    "responsible_agency": "Safety and Permits",
    "final_address": "1709 Audubon St",
    "address_councildis": "A",
    "status": "Resolved",
    "rowid": "1258761",
    "final_x": "3665496.65786",
    "final_y": "527860.019839",
    "longitude": "-90.11872582640824",
    "latitude": "29.94590812104547",
    "geocoded_column": {
      "latitude": "29.94590812104547",
      "longitude": "-90.11872582640824"
    }
  },
  {
    "service_request": "2026-1258760",
    "request_type": "Traffic Signals",
    "request_reason": "Traffic Signal Malfunctioning or Damaged",
    "date_created": "2026-02-16T12:51:41.000",
    "date_modified": "2026-02-16T12:53:31.000",
    "request_status": "Pending",
    "responsible_agency": "Department of Public Works",
    "final_address": "ORLEANS AVE & N MIRO ST",
    "address_councildis": "D",
    "status": "Pending",
    "rowid": "1258760",
    "final_x": "3678157.7",
    "final_y": "536006.38",
    "longitude": "-90.07846896188819",
    "latitude": "29.967932765181075",
    "geocoded_column": {
      "latitude": "29.967932765181075",
      "longitude": "-90.07846896188819"
    }
  },
  {
    "service_request": "2026-1258759",
    "request_type": "Trash/Recycling",
    "request_reason": "Repair Trash Cart",
    "date_created": "2026-02-16T12:50:14.000",
    "date_modified": "2026-02-16T13:38:20.000",
    "request_status": "Pending",
    "responsible_agency": "Department of Sanitation",
    "final_address": "819 First St",
    "address_councildis": "B",
    "status": "Assigned to Contractor",
    "contractor": "IV Waste",
    "rowid": "1258759",
    "final_x": "3678638.44315",
    "final_y": "520736.905913",
    "longitude": "-90.07747927181947",
    "latitude": "29.92593231858558",
    "geocoded_column": {
      "latitude": "29.92593231858558",
      "longitude": "-90.07747927181947"
    }
  },
  {
    "service_request": "2026-1258758",
    "request_type": "Traffic Signals",
    "request_reason": "Traffic Signal Malfunctioning or Damaged",
    "date_created": "2026-02-16T12:49:46.000",
    "date_modified": "2026-02-16T12:49:48.000",
    "request_status": "Pending",
    "responsible_agency": "Department of Public Works",
    "final_address": "N MIRO ST & NEW ORLEANS ST",
    "address_councildis": "D",
    "status": "Pending",
    "rowid": "1258758",
    "final_x": "3682084.3",
    "final_y": "540151.88",
    "longitude": "-90.06592383271771",
    "latitude": "29.97921262810447",
    "geocoded_column": {
      "latitude": "29.97921262810447",
      "longitude": "-90.06592383271771"
    }
  },
  {
    "service_request": "2026-1258757",
    "request_type": "Trash/Recycling",
    "request_reason": "Replace Trash Cart",
    "date_created": "2026-02-16T12:43:35.000",
    "date_modified": "2026-02-16T12:43:37.000",
    "request_status": "Pending",
    "responsible_agency": "Department of Sanitation",
    "final_address": "636 Magellan St",
    "address_councildis": "C",
    "status": "Assigned to Contractor",
    "contractor": "Richards Disposal",
    "rowid": "1258757",
    "final_x": "3687981.38403",
    "final_y": "525023.256893",
    "longitude": "-90.04783464612736",
    "latitude": "29.93743347343593",
    "geocoded_column": {
      "latitude": "29.93743347343593",
      "longitude": "-90.04783464612736"
    }
  },
  {
    "service_request": "2026-1258756",
    "request_type": "Trash/Recycling",
    "request_reason": "Change Size of Trash Cart",
    "date_created": "2026-02-16T12:40:55.000",
    "date_modified": "2026-02-16T14:05:53.000",
    "request_status": "Pending",
    "responsible_agency": "Department of Sanitation",
    "final_address": "1716 Third St",
    "address_councildis": "B",
    "status": "Assigned to Contractor",
    "contractor": "IV Waste",
    "rowid": "1258756",
    "final_x": "3676115.66056",
    "final_y": "523308.064315",
    "longitude": "-90.08535456026839",
    "latitude": "29.933077956082954",
    "geocoded_column": {
      "latitude": "29.933077956082954",
      "longitude": "-90.08535456026839"
    }
  },
  {
    "service_request": "2026-1258755",
    "request_type": "Trash/Recycling",
    "request_reason": "Request a Large Item Pick Up",
    "date_created": "2026-02-16T12:39:49.000",
    "date_modified": "2026-02-16T12:39:51.000",
    "request_status": "Pending",
    "responsible_agency": "Department of Sanitation",
    "final_address": "8803 Bunker Hill Rd",
    "address_councildis": "E",
    "status": "Assigned to Contractor",
    "contractor": "Waste Pro",
    "rowid": "1258755",
    "final_x": "3705458.14871",
    "final_y": "561428.208734",
    "longitude": "-89.99131365872319",
    "latitude": "30.036982834717865",
    "geocoded_column": {
      "latitude": "30.036982834717865",
      "longitude": "-89.99131365872319"
    }
  },
  {
    "service_request": "2026-1258754",
    "request_type": "Parks & Parkways",
    "request_reason": "Tree Stump (removal, grind)",
    "date_created": "2026-02-16T12:32:15.000",
    "date_modified": "2026-02-16T12:33:58.000",
    "request_status": "Pending",
    "responsible_agency": "Department of Parks & Parkway",
    "final_address": "1212 Lauradale Dr",
    "address_councildis": "C",
    "status": "Pending",
    "rowid": "1258754",
    "final_x": "3692880.18576",
    "final_y": "526829.790782",
    "longitude": "-90.03230410078322",
    "latitude": "29.942248794874114",
    "geocoded_column": {
      "latitude": "29.942248794874114",
      "longitude": "-90.03230410078322"
    }
  },
  {
    "service_request": "2026-1258753",
    "request_type": "Trash/Recycling",
    "request_reason": "Order Second Trash Cart",
    "date_created": "2026-02-16T12:30:11.000",
    "date_modified": "2026-02-16T12:30:13.000",
    "request_status": "Pending",
    "responsible_agency": "Department of Sanitation",
    "final_address": "7920 Sandpiper Dr",
    "address_councildis": "E",
    "status": "Assigned to Contractor",
    "contractor": "Waste Pro",
    "rowid": "1258753",
    "final_x": "3715250.84267",
    "final_y": "570468.884519",
    "longitude": "-89.96002452066276",
    "latitude": "30.061522004932417",
    "geocoded_column": {
      "latitude": "30.061522004932417",
      "longitude": "-89.96002452066276"
    }
  },
  {
    "service_request": "2026-1258751",
    "request_type": "Safety & Permits",
    "request_reason": "Zoning Enforcement",
    "date_created": "2026-02-16T12:24:30.000",
    "date_modified": "2026-02-16T14:53:40.000",
    "case_close_date": "2026-02-16T08:53:39.000",
    "request_status": "Closed",
    "responsible_agency": "Safety and Permits",
    "final_address": "6116 Shirley Taylor St",
    "address_councildis": "E",
    "status": "Resolved",
    "rowid": "1258751",
    "final_x": "3701489.00426",
    "final_y": "537852.333641",
    "longitude": "-90.00472083381283",
    "latitude": "29.972285273332503",
    "geocoded_column": {
      "latitude": "29.972285273332503",
      "longitude": "-90.00472083381283"
    }
  },
  {
    "service_request": "2026-1258750",
    "request_type": "Trash/Recycling",
    "request_reason": "Request a Large Item Pick Up",
    "date_created": "2026-02-16T12:23:59.000",
    "date_modified": "2026-02-16T12:24:01.000",
    "request_status": "Pending",
    "responsible_agency": "Department of Sanitation",
    "final_address": "3335 Nashville Ave",
    "address_councildis": "A",
    "status": "Assigned to Contractor",
    "contractor": "IV Waste",
    "rowid": "1258750",
    "final_x": "3668088.09415",
    "final_y": "527973.877247",
    "longitude": "-90.11053992641298",
    "latitude": "29.946145405238067",
    "geocoded_column": {
      "latitude": "29.946145405238067",
      "longitude": "-90.11053992641298"
    }
  },
  {
    "service_request": "2026-1258749",
    "request_type": "Safety & Permits",
    "request_reason": "Zoning Enforcement",
    "date_created": "2026-02-16T12:23:23.000",
    "date_modified": "2026-02-16T14:58:24.000",
    "case_close_date": "2026-02-16T08:58:23.000",
    "request_status": "Closed",
    "responsible_agency": "Safety and Permits",
    "final_address": "2341 Tupelo St",
    "address_councildis": "E",
    "status": "Resolved",
    "rowid": "1258749",
    "final_x": "3701426.09098",
    "final_y": "537878.453065",
    "longitude": "-90.00491856702017",
    "latitude": "29.97235909795291",
    "geocoded_column": {
      "latitude": "29.97235909795291",
      "longitude": "-90.00491856702017"
    }
  },
  {
    "service_request": "2026-1258748",
    "request_type": "General Services",
    "request_reason": "General Service Request",
    "date_created": "2026-02-16T12:22:43.000",
    "date_modified": "2026-02-16T12:24:30.000",
    "case_close_date": "2026-02-16T06:24:28.000",
    "request_status": "Closed",
    "responsible_agency": "Orleans Parish Communication District",
    "final_address": "1441 Jackson Ave",
    "address_councildis": "B",
    "status": "Additional information requested from citizen",
    "rowid": "1258748",
    "final_x": "3678037.95112",
    "final_y": "523243.762555",
    "longitude": "-90.0792882416217",
    "latitude": "29.93284343911363",
    "geocoded_column": {
      "latitude": "29.93284343911363",
      "longitude": "-90.0792882416217"
    }
  },
  {
    "service_request": "2026-1258747",
    "request_type": "Trash/Recycling",
    "request_reason": "Request a Large Item Pick Up",
    "date_created": "2026-02-16T12:19:30.000",
    "date_modified": "2026-02-16T12:19:31.000",
    "request_status": "Pending",
    "responsible_agency": "Department of Sanitation",
    "final_address": "7151 Pinebrook Dr",
    "address_councildis": "E",
    "status": "Assigned to Contractor",
    "contractor": "Waste Pro",
    "rowid": "1258747",
    "final_x": "3719315.187",
    "final_y": "570282.714855",
    "longitude": "-89.94718441824739",
    "latitude": "30.06087555118117",
    "geocoded_column": {
      "latitude": "30.06087555118117",
      "longitude": "-89.94718441824739"
    }
  },
  {
    "service_request": "2026-1258746",
    "request_type": "Trash/Recycling",
    "request_reason": "Return Trash Cart",
    "date_created": "2026-02-16T12:17:52.000",
    "date_modified": "2026-02-16T14:10:00.000",
    "request_status": "Pending",
    "responsible_agency": "Department of Sanitation",
    "final_address": "4819 Iberville St",
    "address_councildis": "A",
    "status": "Assigned to Contractor",
    "contractor": "IV Waste",
    "rowid": "1258746",
    "final_x": "3668965.5145",
    "final_y": "540596.435659",
    "longitude": "-90.10734318502419",
    "latitude": "29.980827476075543",
    "geocoded_column": {
      "latitude": "29.980827476075543",
      "longitude": "-90.10734318502419"
    }
  },
  {
    "service_request": "2026-1258745",
    "request_type": "Trash/Recycling",
    "request_reason": "Replace Trash Cart",
    "date_created": "2026-02-16T12:17:19.000",
    "date_modified": "2026-02-16T13:28:11.000",
    "request_status": "Pending",
    "responsible_agency": "Department of Sanitation",
    "final_address": "3021 Toledano St",
    "address_councildis": "B",
    "status": "Assigned to Contractor",
    "contractor": "IV Waste",
    "rowid": "1258745",
    "final_x": "3672495.98439",
    "final_y": "526987.020606",
    "longitude": "-90.09665630075693",
    "latitude": "29.94330179448931",
    "geocoded_column": {
      "latitude": "29.94330179448931",
      "longitude": "-90.09665630075693"
    }
  },
  {
    "service_request": "2026-1258744",
    "request_type": "Property Maintenance",
    "request_reason": "Property Maintenance",
    "date_created": "2026-02-16T12:15:11.000",
    "date_modified": "2026-02-16T12:15:12.000",
    "request_status": "Pending",
    "responsible_agency": "Department of Code Enforcement",
    "final_address": "6116 Shirley Taylor St",
    "address_councildis": "E",
    "status": "Pending",
    "rowid": "1258744",
    "final_x": "3701489.00426",
    "final_y": "537852.333641",
    "longitude": "-90.00472083381283",
    "latitude": "29.972285273332503",
    "geocoded_column": {
      "latitude": "29.972285273332503",
      "longitude": "-90.00472083381283"
    }
  },
  {
    "service_request": "2026-1258743",
    "request_type": "Trash/Recycling",
    "request_reason": "Request a Large Item Pick Up",
    "date_created": "2026-02-16T12:13:06.000",
    "date_modified": "2026-02-16T12:13:07.000",
    "request_status": "Pending",
    "responsible_agency": "Department of Sanitation",
    "final_address": "11304 Waverly Dr",
    "address_councildis": "E",
    "status": "Assigned to Contractor",
    "contractor": "Waste Pro",
    "rowid": "1258743",
    "final_x": "3718007.6654",
    "final_y": "560495.13891",
    "longitude": "-89.95169046367252",
    "latitude": "30.034007156110395",
    "geocoded_column": {
      "latitude": "30.034007156110395",
      "longitude": "-89.95169046367252"
    }
  },
  {
    "service_request": "2026-1258742",
    "request_type": "Property Maintenance",
    "request_reason": "Property Maintenance",
    "date_created": "2026-02-16T12:08:33.000",
    "date_modified": "2026-02-16T12:08:35.000",
    "request_status": "Pending",
    "responsible_agency": "Department of Code Enforcement",
    "final_address": "6128 Shirley Taylor St",
    "address_councildis": "E",
    "status": "Pending",
    "rowid": "1258742",
    "final_x": "3701549.90039",
    "final_y": "537830.808073",
    "longitude": "-90.00452930310676",
    "latitude": "29.972224144172642",
    "geocoded_column": {
      "latitude": "29.972224144172642",
      "longitude": "-90.00452930310676"
    }
  },
  {
    "service_request": "2026-1258741",
    "request_type": "Abandoned Vehicles",
    "request_reason": "Abandoned/Junk Vehicles",
    "date_created": "2026-02-16T12:01:15.000",
    "date_modified": "2026-02-16T12:01:18.000",
    "request_status": "Pending",
    "responsible_agency": "Department of Public Works",
    "final_address": "2417 Tupelo St",
    "address_councildis": "E",
    "status": "Pending",
    "rowid": "1258741",
    "final_x": "3701500.62001",
    "final_y": "538068.757001",
    "longitude": "-90.00467622402347",
    "latitude": "29.97287998868624",
    "geocoded_column": {
      "latitude": "29.97287998868624",
      "longitude": "-90.00467622402347"
    }
  },
  {
    "service_request": "2026-1258740",
    "request_type": "Abandoned Vehicles",
    "request_reason": "Abandoned/Junk Vehicles",
    "date_created": "2026-02-16T11:59:31.000",
    "date_modified": "2026-02-16T11:59:32.000",
    "request_status": "Pending",
    "responsible_agency": "Department of Public Works",
    "final_address": "2423 Tupelo St",
    "address_councildis": "E",
    "status": "Pending",
    "rowid": "1258740",
    "final_x": "3701511.90487",
    "final_y": "538096.619849",
    "longitude": "-90.0046395641545",
    "latitude": "29.972956241596705",
    "geocoded_column": {
      "latitude": "29.972956241596705",
      "longitude": "-90.0046395641545"
    }
  },
  {
    "service_request": "2026-1258739",
    "request_type": "General Services",
    "request_reason": "General Service Request",
    "date_created": "2026-02-16T11:59:08.000",
    "date_modified": "2026-02-16T11:59:10.000",
    "request_status": "Pending",
    "responsible_agency": "Orleans Parish Communication District",
    "final_address": "225 Decatur St",
    "address_councildis": "C",
    "status": "Pending",
    "rowid": "1258739",
    "final_x": "3682148.53",
    "final_y": "530725.890818",
    "longitude": "-90.06605023186536",
    "latitude": "29.95329244505242",
    "geocoded_column": {
      "latitude": "29.95329244505242",
      "longitude": "-90.06605023186536"
    }
  },
  {
    "service_request": "2026-1258738",
    "request_type": "Property Maintenance",
    "request_reason": "Property Maintenance",
    "date_created": "2026-02-16T11:56:26.000",
    "date_modified": "2026-02-16T11:56:27.000",
    "request_status": "Pending",
    "responsible_agency": "Department of Code Enforcement",
    "final_address": "225 Decatur St",
    "address_councildis": "C",
    "status": "Pending",
    "rowid": "1258738",
    "final_x": "3682148.53",
    "final_y": "530725.890818",
    "longitude": "-90.06605023186536",
    "latitude": "29.95329244505242",
    "geocoded_column": {
      "latitude": "29.95329244505242",
      "longitude": "-90.06605023186536"
    }
  },
  {
    "service_request": "2026-1258737",
    "request_type": "Abandoned Vehicles",
    "request_reason": "Abandoned/Junk Vehicles",
    "date_created": "2026-02-16T11:56:23.000",
    "date_modified": "2026-02-16T11:56:25.000",
    "request_status": "Pending",
    "responsible_agency": "Department of Public Works",
    "final_address": "2405 Tupelo St",
    "address_councildis": "E",
    "status": "Pending",
    "rowid": "1258737",
    "final_x": "3701466.75076",
    "final_y": "537985.444745",
    "longitude": "-90.00478623950735",
    "latitude": "29.972651990048004",
    "geocoded_column": {
      "latitude": "29.972651990048004",
      "longitude": "-90.00478623950735"
    }
  },
  {
    "service_request": "2026-1258736",
    "request_type": "Trash/Recycling",
    "request_reason": "Request a Large Item Pick Up",
    "date_created": "2026-02-16T11:54:01.000",
    "date_modified": "2026-02-16T11:54:03.000",
    "request_status": "Pending",
    "responsible_agency": "Department of Sanitation",
    "final_address": "4566 Cerise Ave",
    "address_councildis": "E",
    "status": "Assigned to Contractor",
    "contractor": "Waste Pro",
    "rowid": "1258736",
    "final_x": "3708644.65675",
    "final_y": "554591.824728",
    "longitude": "-89.98149856764431",
    "latitude": "30.01808245838527",
    "geocoded_column": {
      "latitude": "30.01808245838527",
      "longitude": "-89.98149856764431"
    }
  },
  {
    "service_request": "2026-1258735",
    "request_type": "Abandoned Vehicles",
    "request_reason": "Abandoned/Junk Vehicles",
    "date_created": "2026-02-16T11:51:09.000",
    "date_modified": "2026-02-16T11:51:10.000",
    "request_status": "Pending",
    "responsible_agency": "Department of Public Works",
    "final_address": "4229 Burgundy St",
    "address_councildis": "C",
    "status": "Pending",
    "rowid": "1258735",
    "final_x": "3692453.70198",
    "final_y": "534391.297157",
    "longitude": "-90.03337975650551",
    "latitude": "29.963053619501004",
    "geocoded_column": {
      "latitude": "29.963053619501004",
      "longitude": "-90.03337975650551"
    }
  },
  {
    "service_request": "2026-1258734",
    "request_type": "Trash/Recycling",
    "request_reason": "Repair Trash Cart",
    "date_created": "2026-02-16T11:50:12.000",
    "date_modified": "2026-02-16T11:50:14.000",
    "request_status": "Pending",
    "responsible_agency": "Department of Sanitation",
    "final_address": "3644 River Oaks Dr",
    "address_councildis": "C",
    "status": "Assigned to Contractor",
    "contractor": "Richards Disposal",
    "rowid": "1258734",
    "final_x": "3701419.0618",
    "final_y": "517422.488374",
    "longitude": "-90.00568930184998",
    "latitude": "29.916112619803588",
    "geocoded_column": {
      "latitude": "29.916112619803588",
      "longitude": "-90.00568930184998"
    }
  },
  {
    "service_request": "2026-1258733",
    "request_type": "Trash/Recycling",
    "request_reason": "Repair Trash Cart",
    "date_created": "2026-02-16T11:46:25.000",
    "date_modified": "2026-02-16T11:46:27.000",
    "request_status": "Pending",
    "responsible_agency": "Department of Sanitation",
    "final_address": "4342 Genoa St",
    "address_councildis": "E",
    "status": "Assigned to Contractor",
    "contractor": "Waste Pro",
    "rowid": "1258733",
    "final_x": "3761023.01449",
    "final_y": "573632.229994",
    "longitude": "-89.81521020552164",
    "latitude": "30.06863190042958",
    "geocoded_column": {
      "latitude": "30.06863190042958",
      "longitude": "-89.81521020552164"
    }
  },
  {
    "service_request": "2026-1258732",
    "request_type": "Abandoned Vehicles",
    "request_reason": "Abandoned/Junk Vehicles",
    "date_created": "2026-02-16T11:44:54.000",
    "date_modified": "2026-02-16T11:44:56.000",
    "request_status": "Pending",
    "responsible_agency": "Department of Public Works",
    "final_address": "3815 Gentilly Blvd",
    "address_councildis": "D",
    "status": "Pending",
    "rowid": "1258732",
    "final_x": "3688016.84694",
    "final_y": "548929.429139",
    "longitude": "-90.04687533319013",
    "latitude": "30.003165974049846",
    "geocoded_column": {
      "latitude": "30.003165974049846",
      "longitude": "-90.04687533319013"
    }
  },
  {
    "service_request": "2026-1258731",
    "request_type": "Safety & Permits",
    "request_reason": "Zoning Enforcement",
    "date_created": "2026-02-16T11:38:31.000",
    "date_modified": "2026-02-16T15:05:25.000",
    "case_close_date": "2026-02-16T09:05:23.000",
    "request_status": "Closed",
    "responsible_agency": "Safety and Permits",
    "final_address": "411 S St Patrick St",
    "address_councildis": "A",
    "status": "Resolved",
    "rowid": "1258731",
    "final_x": "3668263.48135",
    "final_y": "538813.642313",
    "longitude": "-90.10962065833124",
    "latitude": "29.975946030565265",
    "geocoded_column": {
      "latitude": "29.975946030565265",
      "longitude": "-90.10962065833124"
    }
  },
  {
    "service_request": "2026-1258730",
    "request_type": "Roads and Streets",
    "request_reason": "Pothole",
    "date_created": "2026-02-16T11:28:31.000",
    "date_modified": "2026-02-16T11:28:34.000",
    "request_status": "Pending",
    "responsible_agency": "Department of Public Works",
    "final_address": "8431 Palm St",
    "address_councildis": "A",
    "status": "Pending",
    "rowid": "1258730",
    "final_x": "3666759.79629",
    "final_y": "535616.170438",
    "longitude": "-90.11447716563322",
    "latitude": "29.967198118905593",
    "geocoded_column": {
      "latitude": "29.967198118905593",
      "longitude": "-90.11447716563322"
    }
  },
  {
    "service_request": "2026-1258729",
    "request_type": "General Services",
    "request_reason": "General Service Request",
    "date_created": "2026-02-16T11:25:21.000",
    "date_modified": "2026-02-16T11:51:36.000",
    "case_close_date": "2026-02-16T05:51:35.000",
    "request_status": "Closed",
    "responsible_agency": "Orleans Parish Communication District",
    "final_address": "5801 Laurel St",
    "address_councildis": "A",
    "status": "Referred to External Agency",
    "rowid": "1258729",
    "final_x": "3665239.30221",
    "final_y": "518044.040886",
    "longitude": "-90.11986660350654",
    "latitude": "29.918924790802063",
    "geocoded_column": {
      "latitude": "29.918924790802063",
      "longitude": "-90.11986660350654"
    }
  },
  {
    "service_request": "2026-1258728",
    "request_type": "Mosquito, Termite & Rodent Control",
    "request_reason": "Non-Rodent Complaint (Possums & Snakes)",
    "date_created": "2026-02-16T11:23:25.000",
    "date_modified": "2026-02-16T11:23:26.000",
    "request_status": "Pending",
    "responsible_agency": "Mosquito, Termite & Rodent Control Board",
    "final_address": "7138 Crowder Blvd Apt 106",
    "address_councildis": "E",
    "status": "Pending",
    "rowid": "1258728",
    "final_x": "3704000.12042",
    "final_y": "559904.060445",
    "longitude": "-89.99597753057127",
    "latitude": "30.032838897237124",
    "geocoded_column": {
      "latitude": "30.032838897237124",
      "longitude": "-89.99597753057127"
    }
  },
  {
    "service_request": "2026-1258727",
    "request_type": "Trash/Recycling",
    "request_reason": "Missed Trash Pick-Up",
    "date_created": "2026-02-16T11:21:58.000",
    "date_modified": "2026-02-16T11:24:10.000",
    "case_close_date": "2026-02-16T05:24:09.000",
    "request_status": "Closed",
    "responsible_agency": "Department of Sanitation",
    "final_address": "5645 Woodlawn Pl",
    "address_councildis": "A",
    "status": "Invalid Request",
    "contractor": "IV Waste",
    "contractor_action": "Invalid Request",
    "rowid": "1258727",
    "final_x": "3667599.47585",
    "final_y": "545017.757775",
    "longitude": "-90.11150884793611",
    "latitude": "29.99302472612093",
    "geocoded_column": {
      "latitude": "29.99302472612093",
      "longitude": "-90.11150884793611"
    }
  },
  {
    "service_request": "2026-1258726",
    "request_type": "Trash/Recycling",
    "request_reason": "Request a Large Item Pick Up",
    "date_created": "2026-02-16T11:19:12.000",
    "date_modified": "2026-02-16T11:19:13.000",
    "request_status": "Pending",
    "responsible_agency": "Department of Sanitation",
    "final_address": "6119 N Tonti St",
    "address_councildis": "E",
    "status": "Assigned to Contractor",
    "contractor": "Waste Pro",
    "rowid": "1258726",
    "final_x": "3701394.1098",
    "final_y": "537562.302152",
    "longitude": "-90.00503114293868",
    "latitude": "29.971490817012626",
    "geocoded_column": {
      "latitude": "29.971490817012626",
      "longitude": "-90.00503114293868"
    }
  },
  {
    "service_request": "2026-1258725",
    "request_type": "Trash/Recycling",
    "request_reason": "Order Trash Cart",
    "date_created": "2026-02-16T11:19:04.000",
    "date_modified": "2026-02-16T13:44:33.000",
    "request_status": "Pending",
    "responsible_agency": "Department of Sanitation",
    "final_address": "3201 Lafitte Ave",
    "address_councildis": "A",
    "status": "Assigned to Contractor",
    "contractor": "IV Waste",
    "rowid": "1258725",
    "final_x": "3674780.96385",
    "final_y": "537476.89428",
    "longitude": "-90.08908239404842",
    "latitude": "29.972077431687246",
    "geocoded_column": {
      "latitude": "29.972077431687246",
      "longitude": "-90.08908239404842"
    }
  },
  {
    "service_request": "2026-1258724",
    "request_type": "Traffic Signals",
    "request_reason": "Traffic Signal Malfunctioning or Damaged",
    "date_created": "2026-02-16T11:10:53.000",
    "date_modified": "2026-02-16T11:10:54.000",
    "request_status": "Pending",
    "responsible_agency": "Department of Public Works",
    "final_address": "DAUPHINE ST & ELYSIAN FIELDS AVE",
    "address_councildis": "C",
    "status": "Pending",
    "rowid": "1258724",
    "final_x": "3685137.2",
    "final_y": "535233.78",
    "longitude": "-90.05645469613737",
    "latitude": "29.965596364720028",
    "geocoded_column": {
      "latitude": "29.965596364720028",
      "longitude": "-90.05645469613737"
    }
  },
  {
    "service_request": "2026-1258723",
    "request_type": "Safety & Permits",
    "request_reason": "Zoning Enforcement",
    "date_created": "2026-02-16T11:10:26.000",
    "date_modified": "2026-02-16T11:12:38.000",
    "request_status": "Pending",
    "responsible_agency": "Safety and Permits",
    "final_address": "2123 N Roman St",
    "address_councildis": "D",
    "status": "Pending",
    "rowid": "1258723",
    "final_x": "3684577.20489",
    "final_y": "538905.13985",
    "longitude": "-90.05809410211795",
    "latitude": "29.975708475190764",
    "geocoded_column": {
      "latitude": "29.975708475190764",
      "longitude": "-90.05809410211795"
    }
  },
  {
    "service_request": "2026-1258722",
    "request_type": "Streetlights",
    "request_reason": "Streetlight Outage/Malfunction",
    "date_created": "2026-02-16T11:08:07.000",
    "date_modified": "2026-02-16T11:08:09.000",
    "request_status": "Pending",
    "responsible_agency": "Department of Public Works",
    "final_address": "8525 Cohn St",
    "address_councildis": "A",
    "status": "Pending",
    "rowid": "1258722",
    "final_x": "3662424.14963",
    "final_y": "531328.247554",
    "longitude": "-90.12831165758641",
    "latitude": "29.955533828010672",
    "geocoded_column": {
      "latitude": "29.955533828010672",
      "longitude": "-90.12831165758641"
    }
  },
  {
    "service_request": "2026-1258721",
    "request_type": "General Services",
    "request_reason": "General Service Request",
    "date_created": "2026-02-16T11:05:21.000",
    "date_modified": "2026-02-16T11:06:58.000",
    "case_close_date": "2026-02-16T05:06:57.000",
    "request_status": "Closed",
    "responsible_agency": "Orleans Parish Communication District",
    "final_address": "4319 Carondelet St",
    "address_councildis": "B",
    "status": "Referred to External Agency",
    "rowid": "1258721",
    "final_x": "3671043.55009",
    "final_y": "521306.140921",
    "longitude": "-90.10143484695578",
    "latitude": "29.927724233386332",
    "geocoded_column": {
      "latitude": "29.927724233386332",
      "longitude": "-90.10143484695578"
    }
  },
  {
    "service_request": "2026-1258720",
    "request_type": "Trash/Recycling",
    "request_reason": "Repair Trash Cart",
    "date_created": "2026-02-16T11:04:05.000",
    "date_modified": "2026-02-16T13:37:33.000",
    "request_status": "Pending",
    "responsible_agency": "Department of Sanitation",
    "final_address": "140 22Nd St",
    "address_councildis": "A",
    "status": "Assigned to Contractor",
    "contractor": "IV Waste",
    "rowid": "1258720",
    "final_x": "3665826.41696",
    "final_y": "549246.813459",
    "longitude": "-90.11696784692118",
    "latitude": "30.004705042717223",
    "geocoded_column": {
      "latitude": "30.004705042717223",
      "longitude": "-90.11696784692118"
    }
  },
  {
    "service_request": "2026-1258719",
    "request_type": "Trash/Recycling",
    "request_reason": "Return Trash Cart",
    "date_created": "2026-02-16T11:00:46.000",
    "date_modified": "2026-02-16T11:00:52.000",
    "request_status": "Pending",
    "responsible_agency": "Department of Sanitation",
    "final_address": "3027 Hyman Pl",
    "address_councildis": "C",
    "status": "Assigned to Contractor",
    "contractor": "Richards Disposal",
    "rowid": "1258719",
    "final_x": "3700939.96253",
    "final_y": "519918.915064",
    "longitude": "-90.00711031642565",
    "latitude": "29.922992193309263",
    "geocoded_column": {
      "latitude": "29.922992193309263",
      "longitude": "-90.00711031642565"
    }
  },
  {
    "service_request": "2026-1258718",
    "request_type": "Trash/Recycling",
    "request_reason": "Replace Trash Cart",
    "date_created": "2026-02-16T10:54:08.000",
    "date_modified": "2026-02-16T13:27:53.000",
    "request_status": "Pending",
    "responsible_agency": "Department of Sanitation",
    "final_address": "1200 BLK Saint Andrew St",
    "address_councildis": "B",
    "status": "Assigned to Contractor",
    "contractor": "IV Waste",
    "rowid": "1258718",
    "final_x": "3679153.74205",
    "final_y": "523012.049892",
    "longitude": "-90.07577380335337",
    "latitude": "29.93217268042737",
    "geocoded_column": {
      "latitude": "29.93217268042737",
      "longitude": "-90.07577380335337"
    }
  },
  {
    "service_request": "2026-1258717",
    "request_type": "Trash/Recycling",
    "request_reason": "Request a Large Item Pick Up",
    "date_created": "2026-02-16T10:49:31.000",
    "date_modified": "2026-02-16T10:49:32.000",
    "request_status": "Pending",
    "responsible_agency": "Department of Sanitation",
    "final_address": "3613 Calhoun St",
    "address_councildis": "A",
    "status": "Assigned to Contractor",
    "contractor": "IV Waste",
    "rowid": "1258717",
    "final_x": "3667918.00967",
    "final_y": "529813.577409",
    "longitude": "-90.11101498084517",
    "latitude": "29.951208971944077",
    "geocoded_column": {
      "latitude": "29.951208971944077",
      "longitude": "-90.11101498084517"
    }
  },
  {
    "service_request": "2026-1258716",
    "request_type": "Trash/Recycling",
    "request_reason": "Order Trash Cart",
    "date_created": "2026-02-16T10:48:58.000",
    "date_modified": "2026-02-16T10:49:08.000",
    "request_status": "Pending",
    "responsible_agency": "Department of Sanitation",
    "final_address": "13950 Wales St",
    "address_councildis": "E",
    "status": "Assigned to Contractor",
    "contractor": "Waste Pro",
    "rowid": "1258716",
    "final_x": "3718096.05433",
    "final_y": "572460.301609",
    "longitude": "-89.95095497981988",
    "latitude": "30.066903500405807",
    "geocoded_column": {
      "latitude": "30.066903500405807",
      "longitude": "-89.95095497981988"
    }
  },
  {
    "service_request": "2026-1258715",
    "request_type": "Trash/Recycling",
    "request_reason": "Repair Recycling Cart",
    "date_created": "2026-02-16T10:47:07.000",
    "date_modified": "2026-02-16T10:47:09.000",
    "request_status": "Pending",
    "responsible_agency": "Department of Sanitation",
    "final_address": "4300 BLK Annette St",
    "address_councildis": "D",
    "status": "Pending",
    "rowid": "1258715",
    "final_x": "3682153.86958",
    "final_y": "548492.929377",
    "longitude": "-90.0654125944263",
    "latitude": "30.002145448004587",
    "geocoded_column": {
      "latitude": "30.002145448004587",
      "longitude": "-90.0654125944263"
    }
  },
  {
    "service_request": "2026-1258714",
    "request_type": "Trash/Recycling",
    "request_reason": "Request a Large Item Pick Up",
    "date_created": "2026-02-16T10:40:00.000",
    "date_modified": "2026-02-16T10:40:02.000",
    "request_status": "Pending",
    "responsible_agency": "Department of Sanitation",
    "final_address": "2603 St Anthony St",
    "address_councildis": "D",
    "status": "Assigned to Contractor",
    "contractor": "IV Waste",
    "rowid": "1258714",
    "final_x": "3683102.38895",
    "final_y": "541760.154188",
    "longitude": "-90.0626519842616",
    "latitude": "29.983603814978235",
    "geocoded_column": {
      "latitude": "29.983603814978235",
      "longitude": "-90.0626519842616"
    }
  },
  {
    "service_request": "2026-1258713",
    "request_type": "Trash/Recycling",
    "request_reason": "Damaged Caused By Contractor",
    "date_created": "2026-02-16T10:38:17.000",
    "date_modified": "2026-02-16T13:58:35.000",
    "case_close_date": "2026-02-16T07:58:34.000",
    "request_status": "Closed",
    "responsible_agency": "Department of Sanitation",
    "final_address": "2437 Fern St",
    "address_councildis": "A",
    "status": "Invalid Request",
    "contractor": "IV Waste",
    "contractor_action": "Invalid Request",
    "rowid": "1258713",
    "final_x": "3665632.70823",
    "final_y": "531160.016706",
    "longitude": "-90.1181857735772",
    "latitude": "29.954978076605183",
    "geocoded_column": {
      "latitude": "29.954978076605183",
      "longitude": "-90.1181857735772"
    }
  },
  {
    "service_request": "2026-1258712",
    "request_type": "Trash/Recycling",
    "request_reason": "Request a Large Item Pick Up",
    "date_created": "2026-02-16T10:38:02.000",
    "date_modified": "2026-02-16T10:38:05.000",
    "request_status": "Pending",
    "responsible_agency": "Department of Sanitation",
    "final_address": "6028 Warrington Dr",
    "address_councildis": "D",
    "status": "Assigned to Contractor",
    "contractor": "IV Waste",
    "rowid": "1258712",
    "final_x": "3680625.55515",
    "final_y": "554863.369048",
    "longitude": "-90.07001883366271",
    "latitude": "30.01970826986885",
    "geocoded_column": {
      "latitude": "30.01970826986885",
      "longitude": "-90.07001883366271"
    }
  },
  {
    "service_request": "2026-1258711",
    "request_type": "Streetlights",
    "request_reason": "Streetlight Outage/Malfunction",
    "date_created": "2026-02-16T10:30:58.000",
    "date_modified": "2026-02-16T10:30:59.000",
    "request_status": "Pending",
    "responsible_agency": "Department of Public Works",
    "final_address": "3604 Vespasian St",
    "address_councildis": "C",
    "status": "Pending",
    "rowid": "1258711",
    "final_x": "3696940.88138",
    "final_y": "522611.51961",
    "longitude": "-90.01963634783968",
    "latitude": "29.93052260235754",
    "geocoded_column": {
      "latitude": "29.93052260235754",
      "longitude": "-90.01963634783968"
    }
  },
  {
    "service_request": "2026-1258710",
    "request_type": "Streetlights",
    "request_reason": "Streetlight Outage/Malfunction",
    "date_created": "2026-02-16T10:30:06.000",
    "date_modified": "2026-02-16T10:30:08.000",
    "request_status": "Pending",
    "responsible_agency": "Department of Public Works",
    "final_address": "1621 Bordeaux St",
    "address_councildis": "B",
    "status": "Pending",
    "rowid": "1258710",
    "final_x": "3669403.42964",
    "final_y": "520900.215225",
    "longitude": "-90.10662604955981",
    "latitude": "29.92665645023131",
    "geocoded_column": {
      "latitude": "29.92665645023131",
      "longitude": "-90.10662604955981"
    }
  },
  {
    "service_request": "2026-1258709",
    "request_type": "Trash/Recycling",
    "request_reason": "Replace Trash Cart",
    "date_created": "2026-02-16T10:26:20.000",
    "date_modified": "2026-02-16T10:26:22.000",
    "request_status": "Pending",
    "responsible_agency": "Department of Sanitation",
    "final_address": "7801 Shubert St",
    "address_councildis": "E",
    "status": "Assigned to Contractor",
    "contractor": "Waste Pro",
    "rowid": "1258709",
    "final_x": "3695638.45155",
    "final_y": "559314.124957",
    "longitude": "-90.02242234279099",
    "latitude": "30.031482492025",
    "geocoded_column": {
      "latitude": "30.031482492025",
      "longitude": "-90.02242234279099"
    }
  },
  {
    "service_request": "2026-1258708",
    "request_type": "Trash/Recycling",
    "request_reason": "Request a Large Item Pick Up",
    "date_created": "2026-02-16T10:25:58.000",
    "date_modified": "2026-02-16T10:26:00.000",
    "request_status": "Pending",
    "responsible_agency": "Department of Sanitation",
    "final_address": "11404 Melvin Pl",
    "address_councildis": "E",
    "status": "Assigned to Contractor",
    "contractor": "Waste Pro",
    "rowid": "1258708",
    "final_x": "3717708.48869",
    "final_y": "561486.956959",
    "longitude": "-89.95259812048937",
    "latitude": "30.036744170650017",
    "geocoded_column": {
      "latitude": "30.036744170650017",
      "longitude": "-89.95259812048937"
    }
  },
  {
    "service_request": "2026-1258707",
    "request_type": "Trash/Recycling",
    "request_reason": "Replace Trash Cart",
    "date_created": "2026-02-16T10:24:16.000",
    "date_modified": "2026-02-16T10:24:17.000",
    "request_status": "Pending",
    "responsible_agency": "Department of Sanitation",
    "final_address": "4715 Eastview Dr",
    "address_councildis": "E",
    "status": "Assigned to Contractor",
    "contractor": "Waste Pro",
    "rowid": "1258707",
    "final_x": "3705169.58622",
    "final_y": "555156.066457",
    "longitude": "-89.99245752353974",
    "latitude": "30.01974617722018",
    "geocoded_column": {
      "latitude": "30.01974617722018",
      "longitude": "-89.99245752353974"
    }
  },
  {
    "service_request": "2026-1258706",
    "request_type": "Health Related Request",
    "request_reason": "Homeless Encampment Complaint",
    "date_created": "2026-02-16T10:24:16.000",
    "date_modified": "2026-02-16T10:24:17.000",
    "request_status": "Pending",
    "responsible_agency": "Office Of Homeless Services And Strategy",
    "final_address": "4762 Pecan St",
    "address_councildis": "E",
    "status": "Pending",
    "rowid": "1258706",
    "final_x": "3701714.57585",
    "final_y": "554429.676184",
    "longitude": "-90.0034007930137",
    "latitude": "30.01785959930319",
    "geocoded_column": {
      "latitude": "30.01785959930319",
      "longitude": "-90.0034007930137"
    }
  },
  {
    "service_request": "2026-1258705",
    "request_type": "Trash/Recycling",
    "request_reason": "MIssed Recycling Pick-Up",
    "date_created": "2026-02-16T10:21:10.000",
    "date_modified": "2026-02-16T10:21:11.000",
    "request_status": "Pending",
    "responsible_agency": "Department of Sanitation",
    "final_address": "4543 Viola St",
    "address_councildis": "E",
    "status": "Assigned to Contractor",
    "contractor": "Waste Pro",
    "rowid": "1258705",
    "final_x": "3704135.2817",
    "final_y": "553878.439959",
    "longitude": "-89.99577268654635",
    "latitude": "30.01626643492609",
    "geocoded_column": {
      "latitude": "30.01626643492609",
      "longitude": "-89.99577268654635"
    }
  },
  {
    "service_request": "2026-1258704",
    "request_type": "Roads and Streets",
    "request_reason": "Sidewalk Damaged or Missing",
    "date_created": "2026-02-16T10:20:08.000",
    "date_modified": "2026-02-16T10:20:09.000",
    "request_status": "Pending",
    "responsible_agency": "Department of Public Works",
    "final_address": "2325 Felicity St",
    "address_councildis": "B",
    "status": "Pending",
    "rowid": "1258704",
    "final_x": "3676221.70977",
    "final_y": "526895.370558",
    "longitude": "-90.08489638106242",
    "latitude": "29.94293869480775",
    "geocoded_column": {
      "latitude": "29.94293869480775",
      "longitude": "-90.08489638106242"
    }
  },
  {
    "service_request": "2026-1258703",
    "request_type": "Trash/Recycling",
    "request_reason": "Request a Large Item Pick Up",
    "date_created": "2026-02-16T10:20:08.000",
    "date_modified": "2026-02-16T10:20:10.000",
    "request_status": "Pending",
    "responsible_agency": "Department of Sanitation",
    "final_address": "3440 Caesar Dr",
    "address_councildis": "C",
    "status": "Assigned to Contractor",
    "contractor": "Richards Disposal",
    "rowid": "1258703",
    "final_x": "3696843.87363",
    "final_y": "524172.087804",
    "longitude": "-90.01988611422229",
    "latitude": "29.934816686413196",
    "geocoded_column": {
      "latitude": "29.934816686413196",
      "longitude": "-90.01988611422229"
    }
  },
  {
    "service_request": "2026-1258702",
    "request_type": "Trash/Recycling",
    "request_reason": "MIssed Recycling Pick-Up",
    "date_created": "2026-02-16T10:19:18.000",
    "date_modified": "2026-02-16T10:24:37.000",
    "case_close_date": "2026-02-16T04:24:36.000",
    "request_status": "Closed",
    "responsible_agency": "Department of Sanitation",
    "final_address": "4854 Tchoupitoulas St",
    "address_councildis": "B",
    "status": "Invalid Request",
    "contractor": "IV Waste",
    "contractor_action": "Invalid Request",
    "rowid": "1258702",
    "final_x": "3669239.38919",
    "final_y": "517213.015605",
    "longitude": "-90.1072684263289",
    "latitude": "29.916522646092645",
    "geocoded_column": {
      "latitude": "29.916522646092645",
      "longitude": "-90.1072684263289"
    }
  },
  {
    "service_request": "2026-1258701",
    "request_type": "Street and Traffic Signs",
    "request_reason": "Street Name Sign Damaged or Missing",
    "date_created": "2026-02-16T10:18:37.000",
    "date_modified": "2026-02-16T10:18:40.000",
    "request_status": "Pending",
    "responsible_agency": "Department of Public Works",
    "final_address": "MORRISON RD & MACKENZIE ST",
    "address_councildis": "E",
    "status": "Pending",
    "rowid": "1258701",
    "final_x": "3711538.9",
    "final_y": "565309.38",
    "longitude": "-89.97195161564936",
    "latitude": "30.047457271692405",
    "geocoded_column": {
      "latitude": "30.047457271692405",
      "longitude": "-89.97195161564936"
    }
  },
  {
    "service_request": "2026-1258700",
    "request_type": "Trash/Recycling",
    "request_reason": "Replace Trash Cart",
    "date_created": "2026-02-16T10:15:50.000",
    "date_modified": "2026-02-16T10:16:11.000",
    "request_status": "Pending",
    "responsible_agency": "Department of Sanitation",
    "final_address": "213 Delaronde St",
    "address_councildis": "C",
    "status": "Assigned to Contractor",
    "contractor": "Richards Disposal",
    "rowid": "1258700",
    "final_x": "3686097.59676",
    "final_y": "530610.577602",
    "longitude": "-90.05358486919046",
    "latitude": "29.952854687753433",
    "geocoded_column": {
      "latitude": "29.952854687753433",
      "longitude": "-90.05358486919046"
    }
  },
  {
    "service_request": "2026-1258699",
    "request_type": "Trash/Recycling",
    "request_reason": "Replace Trash Cart",
    "date_created": "2026-02-16T10:09:47.000",
    "date_modified": "2026-02-16T13:27:15.000",
    "request_status": "Pending",
    "responsible_agency": "Department of Sanitation",
    "final_address": "616 Cadiz St",
    "address_councildis": "B",
    "status": "Assigned to Contractor",
    "contractor": "IV Waste",
    "rowid": "1258699",
    "final_x": "3670364.30049",
    "final_y": "517820.77407",
    "longitude": "-90.10369715254956",
    "latitude": "29.918160644885486",
    "geocoded_column": {
      "latitude": "29.918160644885486",
      "longitude": "-90.10369715254956"
    }
  },