[
  {
    "service_request": "2023-1030572",
    "request_type": "Trash/Recycling",
    "request_reason": "Order Recycling Cart",
    "date_created": "2023-08-30T00:57:06.000",
    "date_modified": "2023-08-30T00:57:06.000",
    "request_status": "Pending",
    "responsible_agency": "Department of Sanitation",
    "final_address": "4607 S Derbigny St",
    "address_councildis": "B",
    "status": "Pending",
    "rowid": "1030572",
    "final_x": "3669467.82695",
    "final_y": "526201.233022",
    "longitude": "-90.10624355967944",
    "latitude": "29.941230651114285",
    "geocoded_column": {
      "latitude": "29.941230651114285",
      "longitude": "-90.10624355967944"
    }
  },
  {
    "service_request": "2023-1030571",
    "request_type": "Trash/Recycling",
    "request_reason": "Repair Recycling Cart",
    "date_created": "2023-08-29T23:01:13.000",
    "date_modified": "2023-08-29T23:01:13.000",
    "request_status": "Pending",
    "responsible_agency": "Department of Sanitation",
    "final_address": "2013 Napoleon Ave",
    "address_councildis": "B",
    "status": "Pending",
    "rowid": "1030571",
    "final_x": "3670829.40225",
    "final_y": "522433.27929",
    "longitude": "-90.10207262868725",
    "latitude": "29.930829831510085",
    "geocoded_column": {
      "latitude": "29.930829831510085",
      "longitude": "-90.10207262868725"
    }
  },
  {
    "service_request": "2023-1030569",
    "request_type": "Abandoned Vehicles",
    "request_reason": "Abandoned/Junk Vehicles",
    "date_created": "2023-08-29T22:25:05.000",
    "date_modified": "2023-08-29T22:25:05.000",
    "request_status": "Pending",
    "responsible_agency": "Department of Public Works",
    "final_address": "5601 Providence Pl",
    "address_councildis": "D",
    "status": "Pending",
    "rowid": "1030569",
    "final_x": "3688381.19951",
    "final_y": "553985.536984",
    "longitude": "-90.04554477504317",
    "latitude": "30.017057161721237",
    "geocoded_column": {
      "latitude": "30.017057161721237",
      "longitude": "-90.04554477504317"
    }
  },
  {
    "service_request": "2023-1030568",
    "request_type": "Abandoned Vehicles",
    "request_reason": "Abandoned/Junk Vehicles",
    "date_created": "2023-08-29T22:20:18.000",
    "date_modified": "2023-08-29T22:20:18.000",
    "request_status": "Pending",
    "responsible_agency": "Department of Public Works",
    "final_address": "4000 Mithra St",
    "address_councildis": "D",
    "status": "Pending",
    "rowid": "1030568",
    "final_x": "3688776.69532",
    "final_y": "552956.800535",
    "longitude": "-90.04433173933487",
    "latitude": "30.01421628912314",
    "geocoded_column": {
      "latitude": "30.01421628912314",
      "longitude": "-90.04433173933487"
    }
  },
  {
    "service_request": "2023-1030567",
    "request_type": "Property Maintenance",
    "request_reason": "Property Maintenance",
    "date_created": "2023-08-29T22:11:09.000",
    "date_modified": "2023-08-29T22:11:09.000",
    "request_status": "Pending",
    "responsible_agency": "Department of Code Enforcement",
    "final_address": "5729 Pauline Dr",
    "address_councildis": "D",
    "status": "Pending",
    "rowid": "1030567",
    "final_x": "3691865.51459",
    "final_y": "555249.699929",
    "longitude": "-90.03449053868029",
    "latitude": "30.0204250025732",
    "geocoded_column": {
      "latitude": "30.0204250025732",
      "longitude": "-90.03449053868029"
    }
  },
  {
    "service_request": "2023-1030566",
    "request_type": "Traffic Signals/Signs/Striping/Streetlights",
    "request_reason": "Street Light Outage/Malfunction",
    "date_created": "2023-08-29T22:11:05.000",
    "date_modified": "2023-08-29T22:11:05.000",
    "request_status": "Pending",
    "responsible_agency": "Department of Public Works",
    "final_address": "100 BLK S Gayoso St",
    "address_councildis": "B",
    "status": "Assigned to Contractor",
    "contractor": "Legacy Professional Services",
    "rowid": "1030566",
    "final_x": "3674208.53311",
    "final_y": "535688.719421",
    "longitude": "-90.09095145895088",
    "latitude": "29.967177635478823",
    "geocoded_column": {
      "latitude": "29.967177635478823",
      "longitude": "-90.09095145895088"
    }
  },
  {
    "service_request": "2023-1030565",
    "request_type": "Property Maintenance",
    "request_reason": "Property Maintenance",
    "date_created": "2023-08-29T22:04:09.000",
    "date_modified": "2023-08-29T22:04:09.000",
    "request_status": "Pending",
    "responsible_agency": "Department of Code Enforcement",
    "final_address": "5416 Providence Pl",
    "address_councildis": "D",
    "status": "Pending",
    "rowid": "1030565",
    "final_x": "3688297.39631",
    "final_y": "553050.573719",
    "longitude": "-90.0458427508331",
    "latitude": "30.01448894764263",
    "geocoded_column": {
      "latitude": "30.01448894764263",
      "longitude": "-90.0458427508331"
    }
  },
  {
    "service_request": "2023-1030564",
    "request_type": "Abandoned Vehicles",
    "request_reason": "Abandoned/Junk Vehicles",
    "date_created": "2023-08-29T21:58:42.000",
    "date_modified": "2023-08-29T21:58:42.000",
    "request_status": "Pending",
    "responsible_agency": "Department of Public Works",
    "final_address": "5436 Providence Pl",
    "address_councildis": "D",
    "status": "Pending",
    "rowid": "1030564",
    "final_x": "3688285.16214",
    "final_y": "553202.845399",
    "longitude": "-90.04587599904227",
    "latitude": "30.01490801655281",
    "geocoded_column": {
      "latitude": "30.01490801655281",
      "longitude": "-90.04587599904227"
    }
  },
  {
    "service_request": "2023-1030563",
    "request_type": "Roads/Drainage",
    "request_reason": "Pothole",
    "date_created": "2023-08-29T21:50:18.000",
    "date_modified": "2023-08-29T21:50:18.000",
    "request_status": "Pending",
    "responsible_agency": "Department of Public Works",
    "final_address": "1221 Constantinople St",
    "address_councildis": "B",
    "status": "Pending",
    "rowid": "1030563",
    "final_x": "3672464.70081",
    "final_y": "520181.419896",
    "longitude": "-90.09698691327688",
    "latitude": "29.92458952289487",
    "geocoded_column": {
      "latitude": "29.92458952289487",
      "longitude": "-90.09698691327688"
    }
  },
  {
    "service_request": "2023-1030562",
    "request_type": "Property Maintenance",
    "request_reason": "Property Maintenance",
    "date_created": "2023-08-29T21:49:24.000",
    "date_modified": "2023-08-29T21:49:24.000",
    "request_status": "Pending",
    "responsible_agency": "Department of Code Enforcement",
    "final_address": "5016 Madrid St",
    "address_councildis": "D",
    "status": "Pending",
    "rowid": "1030562",
    "final_x": "3691304.13616",
    "final_y": "556165.939482",
    "longitude": "-90.03623154502134",
    "latitude": "30.022961803130304",
    "geocoded_column": {
      "latitude": "30.022961803130304",
      "longitude": "-90.03623154502134"
    }
  },
  {
    "service_request": "2023-1030561",
    "request_type": "Roads/Drainage",
    "request_reason": "Pothole",
    "date_created": "2023-08-29T21:33:14.000",
    "date_modified": "2023-08-29T21:33:14.000",
    "request_status": "Pending",
    "responsible_agency": "Department of Public Works",
    "final_address": "4200 Perrier St",
    "address_councildis": "B",
    "status": "Pending",
    "rowid": "1030561",
    "final_x": "3671579.76411",
    "final_y": "520095.16844",
    "longitude": "-90.09978329705561",
    "latitude": "29.924378584144126",
    "geocoded_column": {
      "latitude": "29.924378584144126",
      "longitude": "-90.09978329705561"
    }
  },
  {
    "service_request": "2023-1030560",
    "request_type": "Abandoned Vehicles",
    "request_reason": "Abandoned/Junk Vehicles",
    "date_created": "2023-08-29T21:17:37.000",
    "date_modified": "2023-08-29T21:17:37.000",
    "request_status": "Pending",
    "responsible_agency": "Department of Public Works",
    "final_address": "4034 Hollygrove St",
    "address_councildis": "A",
    "status": "Pending",
    "rowid": "1030560",
    "final_x": "3666460.58145",
    "final_y": "538127.919433",
    "longitude": "-90.1153377763723",
    "latitude": "29.974113341408575",
    "geocoded_column": {
      "latitude": "29.974113341408575",
      "longitude": "-90.1153377763723"
    }
  },
  {
    "service_request": "2023-1030559",
    "request_type": "Roads/Drainage",
    "request_reason": "Pothole",
    "date_created": "2023-08-29T20:58:53.000",
    "date_modified": "2023-08-29T20:58:53.000",
    "request_status": "Pending",
    "responsible_agency": "Department of Public Works",
    "final_address": "1334 State St",
    "address_councildis": "A",
    "status": "Pending",
    "rowid": "1030559",
    "final_x": "3665225.53511",
    "final_y": "521135.199161",
    "longitude": "-90.1198067235895",
    "latitude": "29.927424906926657",
    "geocoded_column": {
      "latitude": "29.927424906926657",
      "longitude": "-90.1198067235895"
    }
  },
  {
    "service_request": "2023-1030558",
    "request_type": "Trash/Recycling",
    "request_reason": "Missed Trash Pick-Up",
    "date_created": "2023-08-29T20:52:45.000",
    "date_modified": "2023-08-29T20:52:45.000",
    "request_status": "Pending",
    "responsible_agency": "Department of Sanitation",
    "final_address": "9930 Morrison Rd",
    "address_councildis": "E",
    "status": "Assigned to Contractor",
    "contractor": "Waste Pro",
    "rowid": "1030558",
    "final_x": "3708367.40171",
    "final_y": "563189.10416",
    "longitude": "-89.98205423723536",
    "latitude": "30.041730587281684",
    "geocoded_column": {
      "latitude": "30.041730587281684",
      "longitude": "-89.98205423723536"
    }
  },
  {
    "service_request": "2023-1030557",
    "request_type": "Roads/Drainage",
    "request_reason": "Pothole",
    "date_created": "2023-08-29T20:49:58.000",
    "date_modified": "2023-08-29T20:49:58.000",
    "request_status": "Pending",
    "responsible_agency": "Department of Public Works",
    "final_address": "1333 State St",
    "address_councildis": "A",
    "status": "Pending",
    "rowid": "1030557",
    "final_x": "3665394.8786",
    "final_y": "521033.107001",
    "longitude": "-90.1192755606703",
    "latitude": "29.92713925314291",
    "geocoded_column": {
      "latitude": "29.92713925314291",
      "longitude": "-90.1192755606703"
    }
  },
  {
    "service_request": "2023-1030556",
    "request_type": "Trash/Recycling",
    "request_reason": "Request a Large Item Pick Up",
    "date_created": "2023-08-29T20:30:45.000",
    "date_modified": "2023-08-29T20:30:46.000",
    "request_status": "Pending",
    "responsible_agency": "Department of Sanitation",
    "final_address": "4735 Sherwood Dr",
    "address_councildis": "E",
    "status": "Assigned to Contractor",
    "contractor": "Waste Pro",
    "rowid": "1030556",
    "final_x": "3718084.70431",
    "final_y": "556817.537562",
    "longitude": "-89.95158715701086",
    "latitude": "30.023892674773005",
    "geocoded_column": {
      "latitude": "30.023892674773005",
      "longitude": "-89.95158715701086"
    }
  },
  {
    "service_request": "2023-1030555",
    "request_type": "Trash/Recycling",
    "request_reason": "Request a Large Item Pick Up",
    "date_created": "2023-08-29T20:23:13.000",
    "date_modified": "2023-08-29T20:23:14.000",
    "request_status": "Pending",
    "responsible_agency": "Department of Sanitation",
    "final_address": "5931 Winchester Park Dr",
    "address_councildis": "E",
    "status": "Assigned to Contractor",
    "contractor": "Waste Pro",
    "rowid": "1030555",
    "final_x": "3714838.08927",
    "final_y": "562808.441376",
    "longitude": "-89.96161909729491",
    "latitude": "30.040472512360946",
    "geocoded_column": {
      "latitude": "30.040472512360946",
      "longitude": "-89.96161909729491"
    }
  },
  {
    "service_request": "2023-1030554",
    "request_type": "Abandoned Vehicles",
    "request_reason": "Abandoned/Junk Vehicles",
    "date_created": "2023-08-29T20:15:27.000",
    "date_modified": "2023-08-29T20:15:57.000",
    "request_status": "Pending",
    "responsible_agency": "Department of Public Works",
    "final_address": "1824 N Prieur St",
    "address_councildis": "D",
    "status": "Pending",
    "rowid": "1030554",
    "final_x": "3682768.57455",
    "final_y": "539052.535178",
    "longitude": "-90.06380109853967",
    "latitude": "29.97616898422436",
    "geocoded_column": {
      "latitude": "29.97616898422436",
      "longitude": "-90.06380109853967"
    }
  },
  {
    "service_request": "2023-1030553",
    "request_type": "Trash/Recycling",
    "request_reason": "Request a Large Item Pick Up",
    "date_created": "2023-08-29T20:02:16.000",
    "date_modified": "2023-08-29T20:02:17.000",
    "request_status": "Pending",
    "responsible_agency": "Department of Sanitation",
    "final_address": "5748 W Louis Prima Dr",
    "address_councildis": "E",
    "status": "Assigned to Contractor",
    "contractor": "Waste Pro",
    "rowid": "1030553",
    "final_x": "3715737.43295",
    "final_y": "562031.215199",
    "longitude": "-89.9588063715821",
    "latitude": "30.038305820679227",
    "geocoded_column": {
      "latitude": "30.038305820679227",
      "longitude": "-89.9588063715821"
    }
  },
  {
    "service_request": "2023-1030552",
    "request_type": "Abandoned Vehicles",
    "request_reason": "Abandoned/Junk Vehicles",
    "date_created": "2023-08-29T19:47:35.000",
    "date_modified": "2023-08-29T19:47:35.000",
    "request_status": "Pending",
    "responsible_agency": "Department of Public Works",
    "final_address": "7816 Breakwater Dr",
    "address_councildis": "A",
    "status": "Pending",
    "rowid": "1030552",
    "final_x": "3664821.87412",
    "final_y": "557487.897883",
    "longitude": "-90.11986569139917",
    "latitude": "30.02739442226211",
    "geocoded_column": {
      "latitude": "30.02739442226211",
      "longitude": "-90.11986569139917"
    }
  },
  {
    "service_request": "2023-1030551",
    "request_type": "Trash/Recycling",
    "request_reason": "Order Trash Cart",
    "date_created": "2023-08-29T19:41:47.000",
    "date_modified": "2023-08-29T19:41:48.000",
    "request_status": "Pending",
    "responsible_agency": "Department of Sanitation",
    "final_address": "734 Navarre St",
    "address_councildis": "A",
    "status": "Assigned to Contractor",
    "contractor": "IV Waste",
    "rowid": "1030551",
    "final_x": "3668613.30554",
    "final_y": "543768.98683",
    "longitude": "-90.10834849554807",
    "latitude": "29.989561269671583",
    "geocoded_column": {
      "latitude": "29.989561269671583",
      "longitude": "-90.10834849554807"
    }
  },
  {
    "service_request": "2023-1030550",
    "request_type": "Trash/Recycling",
    "request_reason": "Replace Trash Cart",
    "date_created": "2023-08-29T19:41:29.000",
    "date_modified": "2023-08-29T19:41:30.000",
    "request_status": "Pending",
    "responsible_agency": "Department of Sanitation",
    "final_address": "1828 Alvar St",
    "address_councildis": "D",
    "status": "Assigned to Contractor",
    "contractor": "IV Waste",
    "rowid": "1030550",
    "final_x": "3692154.71184",
    "final_y": "538254.639561",
    "longitude": "-90.03418560504014",
    "latitude": "29.97368577040872",
    "geocoded_column": {
      "latitude": "29.97368577040872",
      "longitude": "-90.03418560504014"
    }
  },
  {
    "service_request": "2023-1030549",
    "request_type": "Trash/Recycling",
    "request_reason": "Request a Large Item Pick Up",
    "date_created": "2023-08-29T19:32:27.000",
    "date_modified": "2023-08-29T19:32:28.000",
    "request_status": "Pending",
    "responsible_agency": "Department of Sanitation",
    "final_address": "4308 Dreux Ave",
    "address_councildis": "D",
    "status": "Assigned to Contractor",
    "contractor": "IV Waste",
    "rowid": "1030549",
    "final_x": "3689777.84572",
    "final_y": "552663.512918",
    "longitude": "-90.04117906556934",
    "latitude": "30.0133788513177",
    "geocoded_column": {
      "latitude": "30.0133788513177",
      "longitude": "-90.04117906556934"
    }
  },
  {
    "service_request": "2023-1030548",
    "request_type": "Traffic Signals/Signs/Striping/Streetlights",
    "request_reason": "Street Light Knocked Down/Leaning",
    "date_created": "2023-08-29T19:28:39.000",
    "date_modified": "2023-08-29T19:30:10.000",
    "request_status": "Pending",
    "responsible_agency": "Department of Public Works",
    "final_address": "7361 Read Blvd",
    "address_councildis": "E",
    "status": "Pending",
    "contractor": "Legacy Professional Services",
    "rowid": "1030548",
    "final_x": "3709217.32785",
    "final_y": "563557.295264",
    "longitude": "-89.97935443095575",
    "latitude": "30.0427153786273",
    "geocoded_column": {
      "latitude": "30.0427153786273",
      "longitude": "-89.97935443095575"
    }
  },
  {
    "service_request": "2023-1030547",
    "request_type": "Property Maintenance",
    "request_reason": "Property Maintenance",
    "date_created": "2023-08-29T19:27:26.000",
    "date_modified": "2023-08-29T19:27:26.000",
    "request_status": "Pending",
    "responsible_agency": "Department of Code Enforcement",
    "final_address": "1613 S Liberty St",
    "address_councildis": "B",
    "status": "Pending",
    "rowid": "1030547",
    "final_x": "3676694.19822",
    "final_y": "526587.614398",
    "longitude": "-90.08341521843158",
    "latitude": "29.942078303391234",
    "geocoded_column": {
      "latitude": "29.942078303391234",
      "longitude": "-90.08341521843158"
    }
  },
  {
    "service_request": "2023-1030546",
    "request_type": "Abandoned Vehicles",
    "request_reason": "Abandoned/Junk Vehicles",
    "date_created": "2023-08-29T19:22:59.000",
    "date_modified": "2023-08-29T19:22:59.000",
    "request_status": "Pending",
    "responsible_agency": "Department of Public Works",
    "final_address": "3219 Jefferson Ave",
    "address_councildis": "B",
    "status": "Pending",
    "rowid": "1030546",
    "final_x": "3668653.2329",
    "final_y": "527043.453822",
    "longitude": "-90.10878697783913",
    "latitude": "29.94357044756528",
    "geocoded_column": {
      "latitude": "29.94357044756528",
      "longitude": "-90.10878697783913"
    }
  },
  {
    "service_request": "2023-1030545",
    "request_type": "Trash/Recycling",
    "request_reason": "MIssed Recycling Pick-Up",
    "date_created": "2023-08-29T19:22:52.000",
    "date_modified": "2023-08-29T19:22:52.000",
    "request_status": "Pending",
    "responsible_agency": "Department of Sanitation",
    "final_address": "3026 Baudin St",
    "address_councildis": "B",
    "status": "Assigned to Contractor",
    "contractor": "Richards Disposal",
    "rowid": "1030545",
    "final_x": "3673179.7524",
    "final_y": "534691.69031",
    "longitude": "-90.09423441309634",
    "latitude": "29.964466771858454",
    "geocoded_column": {
      "latitude": "29.964466771858454",
      "longitude": "-90.09423441309634"
    }
  },
  {
    "service_request": "2023-1030544",
    "request_type": "Abandoned Vehicles",
    "request_reason": "Abandoned/Junk Vehicles",
    "date_created": "2023-08-29T19:22:03.000",
    "date_modified": "2023-08-29T19:22:03.000",
    "request_status": "Pending",
    "responsible_agency": "Department of Public Works",
    "final_address": "8439 Sycamore St",
    "address_councildis": "A",
    "status": "Pending",
    "rowid": "1030544",
    "final_x": "3663326.15034",
    "final_y": "531942.587331",
    "longitude": "-90.12544300049993",
    "latitude": "29.957196949179068",
    "geocoded_column": {
      "latitude": "29.957196949179068",
      "longitude": "-90.12544300049993"
    }
  },
  {
    "service_request": "2023-1030543",
    "request_type": "Abandoned Vehicles",
    "request_reason": "Abandoned/Junk Vehicles",
    "date_created": "2023-08-29T19:15:09.000",
    "date_modified": "2023-08-29T19:15:09.000",
    "request_status": "Pending",
    "responsible_agency": "Department of Public Works",
    "final_address": "3RD ST & S ROBERTSON ST",
    "address_councildis": "B",
    "status": "Pending",
    "rowid": "1030543",
    "final_x": "3674442.8",
    "final_y": "525895.48",
    "longitude": "-90.0905470788278",
    "latitude": "29.94024249765626",
    "geocoded_column": {
      "latitude": "29.94024249765626",
      "longitude": "-90.0905470788278"
    }
  },
  {
    "service_request": "2023-1030542",
    "request_type": "Trash/Recycling",
    "request_reason": "Replace Recycling Cart",
    "date_created": "2023-08-29T19:06:59.000",
    "date_modified": "2023-08-29T19:06:59.000",
    "request_status": "Pending",
    "responsible_agency": "Department of Sanitation",
    "final_address": "2110 Barracks St",
    "address_councildis": "D",
    "status": "Pending",
    "rowid": "1030542",
    "final_x": "3679860.79848",
    "final_y": "537261.372552",
    "longitude": "-90.07304692935355",
    "latitude": "29.971332168988525",
    "geocoded_column": {
      "latitude": "29.971332168988525",
      "longitude": "-90.07304692935355"
    }
  },
  {
    "service_request": "2023-1030541",
    "request_type": "Property Maintenance",
    "request_reason": "Property Maintenance",
    "date_created": "2023-08-29T19:05:39.000",
    "date_modified": "2023-08-29T19:05:39.000",
    "request_status": "Pending",
    "responsible_agency": "Department of Code Enforcement",
    "final_address": "1609 S Liberty St",
    "address_councildis": "B",
    "status": "Pending",
    "rowid": "1030541",
    "final_x": "3676718.2331",
    "final_y": "526627.403966",
    "longitude": "-90.08333796464805",
    "latitude": "29.94218699064069",
    "geocoded_column": {
      "latitude": "29.94218699064069",
      "longitude": "-90.08333796464805"
    }
  },
  {
    "service_request": "2023-1030540",
    "request_type": "Trash/Recycling",
    "request_reason": "Replace Trash Cart",
    "date_created": "2023-08-29T18:54:56.000",
    "date_modified": "2023-08-29T18:54:57.000",
    "request_status": "Pending",
    "responsible_agency": "Department of Sanitation",
    "final_address": "3623 Third St",
    "address_councildis": "B",
    "status": "Assigned to Contractor",
    "contractor": "Richards Disposal",
    "rowid": "1030540",
    "final_x": "3672474.44039",
    "final_y": "528919.832128",
    "longitude": "-90.09665845941402",
    "latitude": "29.948617031545247",
    "geocoded_column": {
      "latitude": "29.948617031545247",
      "longitude": "-90.09665845941402"
    }
  },
  {
    "service_request": "2023-1030539",
    "request_type": "Trash/Recycling",
    "request_reason": "Order Recycling Cart",
    "date_created": "2023-08-29T18:54:42.000",
    "date_modified": "2023-08-29T18:54:42.000",
    "request_status": "Pending",
    "responsible_agency": "Department of Sanitation",
    "final_address": "2420 Octavia St",
    "address_councildis": "A",
    "status": "Pending",
    "rowid": "1030539",
    "final_x": "3667652.25511",
    "final_y": "524595.193148",
    "longitude": "-90.11202972733831",
    "latitude": "29.936867895107397",
    "geocoded_column": {
      "latitude": "29.936867895107397",
      "longitude": "-90.11202972733831"
    }
  },
  {
    "service_request": "2023-1030538",
    "request_type": "Trash/Recycling",
    "request_reason": "Request a Large Item Pick Up",
    "date_created": "2023-08-29T18:49:38.000",
    "date_modified": "2023-08-29T18:49:39.000",
    "request_status": "Pending",
    "responsible_agency": "Department of Sanitation",
    "final_address": "4226 Mendez St",
    "address_councildis": "D",
    "status": "Assigned to Contractor",
    "contractor": "IV Waste",
    "rowid": "1030538",
    "final_x": "3689625.48259",
    "final_y": "553783.952343",
    "longitude": "-90.04162054457912",
    "latitude": "30.016464368433702",
    "geocoded_column": {
      "latitude": "30.016464368433702",
      "longitude": "-90.04162054457912"
    }
  },
  {
    "service_request": "2023-1030537",
    "request_type": "Trash/Recycling",
    "request_reason": "MIssed Recycling Pick-Up",
    "date_created": "2023-08-29T18:46:53.000",
    "date_modified": "2023-08-29T18:46:53.000",
    "request_status": "Pending",
    "responsible_agency": "Department of Sanitation",
    "final_address": "1438 Mithra St",
    "address_councildis": "D",
    "status": "Assigned to Contractor",
    "contractor": "IV Waste",
    "rowid": "1030537",
    "final_x": "3677698.35054",
    "final_y": "552015.170582",
    "longitude": "-90.0793663332603",
    "latitude": "30.011965165520632",
    "geocoded_column": {
      "latitude": "30.011965165520632",
      "longitude": "-90.0793663332603"
    }
  },
  {
    "service_request": "2023-1030536",
    "request_type": "Trash/Recycling",
    "request_reason": "Repair Trash Cart",
    "date_created": "2023-08-29T18:44:02.000",
    "date_modified": "2023-08-29T18:44:02.000",
    "request_status": "Pending",
    "responsible_agency": "Department of Sanitation",
    "final_address": "526 S Hennessey St",
    "address_councildis": "A",
    "status": "Assigned to Contractor",
    "contractor": "Richards Disposal",
    "rowid": "1030536",
    "final_x": "3669218.21742",
    "final_y": "537479.91508",
    "longitude": "-90.10665041357578",
    "latitude": "29.97225065849027",
    "geocoded_column": {
      "latitude": "29.97225065849027",
      "longitude": "-90.10665041357578"
    }
  },
  {
    "service_request": "2023-1030535",
    "request_type": "Trash/Recycling",
    "request_reason": "Request a Large Item Pick Up",
    "date_created": "2023-08-29T18:43:06.000",
    "date_modified": "2023-08-29T18:43:06.000",
    "request_status": "Pending",
    "responsible_agency": "Department of Sanitation",
    "final_address": "7322 Strathmore Dr",
    "address_councildis": "E",
    "status": "Assigned to Contractor",
    "contractor": "Waste Pro",
    "rowid": "1030535",
    "final_x": "3714469.26085",
    "final_y": "566419.882211",
    "longitude": "-89.96264817510715",
    "latitude": "30.05041464468296",
    "geocoded_column": {
      "latitude": "30.05041464468296",
      "longitude": "-89.96264817510715"
    }
  },
  {
    "service_request": "2023-1030534",
    "request_type": "Trash/Recycling",
    "request_reason": "Request a Large Item Pick Up",
    "date_created": "2023-08-29T18:37:07.000",
    "date_modified": "2023-08-29T18:37:08.000",
    "request_status": "Pending",
    "responsible_agency": "Department of Sanitation",
    "final_address": "2123 Congress St",
    "address_councildis": "D",
    "status": "Assigned to Contractor",
    "contractor": "IV Waste",
    "rowid": "1030534",
    "final_x": "3691737.59824",
    "final_y": "539525.820554",
    "longitude": "-90.03545746120187",
    "latitude": "29.977194063233377",
    "geocoded_column": {
      "latitude": "29.977194063233377",
      "longitude": "-90.03545746120187"
    }
  },
  {
    "service_request": "2023-1030533",
    "request_type": "Trash/Recycling",
    "request_reason": "Request a Large Item Pick Up",
    "date_created": "2023-08-29T18:30:14.000",
    "date_modified": "2023-08-29T18:30:15.000",
    "request_status": "Pending",
    "responsible_agency": "Department of Sanitation",
    "final_address": "4447 Arthur Dr",
    "address_councildis": "E",
    "status": "Assigned to Contractor",
    "contractor": "Waste Pro",
    "rowid": "1030533",
    "final_x": "3707920.37713",
    "final_y": "553917.889495",
    "longitude": "-89.98381207530458",
    "latitude": "30.016252872783113",
    "geocoded_column": {
      "latitude": "30.016252872783113",
      "longitude": "-89.98381207530458"
    }
  },
  {
    "service_request": "2023-1030532",
    "request_type": "Roads/Drainage",
    "request_reason": "Pothole",
    "date_created": "2023-08-29T18:28:54.000",
    "date_modified": "2023-08-29T18:28:54.000",
    "request_status": "Pending",
    "responsible_agency": "Department of Public Works",
    "final_address": "6124 Camp St",
    "address_councildis": "A",
    "status": "Pending",
    "rowid": "1030532",
    "final_x": "3664037.35424",
    "final_y": "519727.234424",
    "longitude": "-90.12360445696403",
    "latitude": "29.92358799314879",
    "geocoded_column": {
      "latitude": "29.92358799314879",
      "longitude": "-90.12360445696403"
    }
  },
  {
    "service_request": "2023-1030531",
    "request_type": "Trash/Recycling",
    "request_reason": "Order Recycling Cart",
    "date_created": "2023-08-29T18:26:58.000",
    "date_modified": "2023-08-29T18:26:59.000",
    "request_status": "Pending",
    "responsible_agency": "Department of Sanitation",
    "final_address": "1928 Piety St",
    "address_councildis": "D",
    "status": "Pending",
    "rowid": "1030531",
    "final_x": "3690606.9576",
    "final_y": "539037.13985",
    "longitude": "-90.03904581478054",
    "latitude": "29.975885530020793",
    "geocoded_column": {
      "latitude": "29.975885530020793",
      "longitude": "-90.03904581478054"
    }
  },
  {
    "service_request": "2023-1030529",
    "request_type": "Trash/Recycling",
    "request_reason": "Missed Trash Pick-Up",
    "date_created": "2023-08-29T18:03:32.000",
    "date_modified": "2023-08-29T18:03:33.000",
    "request_status": "Pending",
    "responsible_agency": "Department of Sanitation",
    "final_address": "7002 Yorktown Dr",
    "address_councildis": "E",
    "status": "Assigned to Contractor",
    "contractor": "Waste Pro",
    "rowid": "1030529",
    "final_x": "3706202.81342",
    "final_y": "560354.916445",
    "longitude": "-89.98900016797683",
    "latitude": "30.03400770146764",
    "geocoded_column": {
      "latitude": "30.03400770146764",
      "longitude": "-89.98900016797683"
    }
  },
  {
    "service_request": "2023-1030528",
    "request_type": "Parks & Parkways",
    "request_reason": "Request Tree Service (Right of Way/Public Property)",
    "date_created": "2023-08-29T17:57:06.000",
    "date_modified": "2023-08-29T17:59:05.000",
    "request_status": "Pending",
    "responsible_agency": "Department of Parks & Parkway",
    "final_address": "1834 Nie Prkwy",
    "address_councildis": "C",
    "status": "Pending",
    "rowid": "1030528",
    "final_x": "3701206.48426",
    "final_y": "524003.0711",
    "longitude": "-90.00611968926626",
    "latitude": "29.93421372458962",
    "geocoded_column": {
      "latitude": "29.93421372458962",
      "longitude": "-90.00611968926626"
    }
  },
  {
    "service_request": "2023-1030527",
    "request_type": "Trash/Recycling",
    "request_reason": "Repair Trash Cart",
    "date_created": "2023-08-29T17:54:06.000",
    "date_modified": "2023-08-29T17:54:07.000",
    "request_status": "Pending",
    "responsible_agency": "Department of Sanitation",
    "final_address": "435 Newton St",
    "address_councildis": "C",
    "status": "Assigned to Contractor",
    "contractor": "Richards Disposal",
    "rowid": "1030527",
    "final_x": "3686866.52201",
    "final_y": "527887.316543",
    "longitude": "-90.051253162457",
    "latitude": "29.94534301283134",
    "geocoded_column": {
      "latitude": "29.94534301283134",
      "longitude": "-90.051253162457"
    }
  },
  {
    "service_request": "2023-1030526",
    "request_type": "Traffic Signals/Signs/Striping/Streetlights",
    "request_reason": "Street Light Outage/Malfunction",
    "date_created": "2023-08-29T17:53:38.000",
    "date_modified": "2023-08-29T17:53:39.000",
    "request_status": "Pending",
    "responsible_agency": "Department of Public Works",
    "status": "Assigned to Contractor",
    "contractor": "Legacy Professional Services",
    "rowid": "1030526",
    "longitude": "0.0",
    "latitude": "0.0",
    "geocoded_column": {
      "latitude": "0.0",
      "longitude": "0.0"
    }
  },
  {
    "service_request": "2023-1030525",
    "request_type": "Trash/Recycling",
    "request_reason": "Missed Trash Pick-Up",
    "date_created": "2023-08-29T17:43:29.000",
    "date_modified": "2023-08-29T17:43:29.000",
    "request_status": "Pending",
    "responsible_agency": "Department of Sanitation",
    "final_address": "315 N Gayoso St, New Orleans, Louisiana, 70119",
    "address_councildis": "B",
    "status": "Assigned to Contractor",
    "contractor": "Richards Disposal",
    "rowid": "1030525",
    "final_x": "3674888.76616",
    "final_y": "536657.762567",
    "longitude": "-90.08877003455646",
    "latitude": "29.969821878452027",
    "geocoded_column": {
      "latitude": "29.969821878452027",
      "longitude": "-90.08877003455646"
    }
  },
  {
    "service_request": "2023-1030524",
    "request_type": "Trash/Recycling",
    "request_reason": "Request a Large Item Pick Up",
    "date_created": "2023-08-29T17:37:58.000",
    "date_modified": "2023-08-29T17:37:59.000",
    "request_status": "Pending",
    "responsible_agency": "Department of Sanitation",
    "final_address": "4618 Press Dr",
    "address_councildis": "D",
    "status": "Assigned to Contractor",
    "contractor": "IV Waste",
    "rowid": "1030524",
    "final_x": "3689608.73519",
    "final_y": "550195.742676",
    "longitude": "-90.04180124592374",
    "latitude": "30.00659863408192",
    "geocoded_column": {
      "latitude": "30.00659863408192",
      "longitude": "-90.04180124592374"
    }
  },
  {
    "service_request": "2023-1030522",
    "request_type": "Traffic Signals/Signs/Striping/Streetlights",
    "request_reason": "Street Light Outage/Malfunction",
    "date_created": "2023-08-29T17:28:43.000",
    "date_modified": "2023-08-29T17:28:43.000",
    "request_status": "Pending",
    "responsible_agency": "Department of Public Works",
    "final_address": "2320 Toledano St",
    "address_councildis": "B",
    "status": "Assigned to Contractor",
    "contractor": "Legacy Professional Services",
    "rowid": "1030522",
    "final_x": "3673448.60104",
    "final_y": "524136.40294",
    "longitude": "-90.09374600743013",
    "latitude": "29.9354352214788",
    "geocoded_column": {
      "latitude": "29.9354352214788",
      "longitude": "-90.09374600743013"
    }
  },
  {
    "service_request": "2023-1030521",
    "request_type": "Trash/Recycling",
    "request_reason": "MIssed Recycling Pick-Up",
    "date_created": "2023-08-29T17:28:18.000",
    "date_modified": "2023-08-29T17:28:19.000",
    "request_status": "Pending",
    "responsible_agency": "Department of Sanitation",
    "final_address": "747 S Genois St",
    "address_councildis": "B",
    "status": "Assigned to Contractor",
    "contractor": "Richards Disposal",
    "rowid": "1030521",
    "final_x": "3670901.85537",
    "final_y": "535018.57031",
    "longitude": "-90.10141675811427",
    "latitude": "29.965433118263814",
    "geocoded_column": {
      "latitude": "29.965433118263814",
      "longitude": "-90.10141675811427"
    }
  },
  {
    "service_request": "2023-1030520",
    "request_type": "Trash/Recycling",
    "request_reason": "Order Recycling Cart",
    "date_created": "2023-08-29T17:26:59.000",
    "date_modified": "2023-08-29T17:26:59.000",
    "request_status": "Pending",
    "responsible_agency": "Department of Sanitation",
    "final_address": "5944 Colbert St",
    "address_councildis": "A",
    "status": "Pending",
    "rowid": "1030520",
    "final_x": "3667332.71188",
    "final_y": "547085.357137",
    "longitude": "-90.11228191341654",
    "latitude": "29.99871773275374",
    "geocoded_column": {
      "latitude": "29.99871773275374",
      "longitude": "-90.11228191341654"
    }
  },
  {
    "service_request": "2023-1030519",
    "request_type": "Traffic Signals/Signs/Striping/Streetlights",
    "request_reason": "Street Light Outage/Malfunction",
    "date_created": "2023-08-29T17:23:32.000",
    "date_modified": "2023-08-29T17:23:33.000",
    "request_status": "Pending",
    "responsible_agency": "Department of Public Works",
    "final_address": "2808 Cherry St",
    "address_councildis": "A",
    "status": "Assigned to Contractor",
    "contractor": "Legacy Professional Services",
    "rowid": "1030519",
    "final_x": "3662760.08109",
    "final_y": "535594.665798",
    "longitude": "-90.12710908362612",
    "latitude": "29.967255368791644",
    "geocoded_column": {
      "latitude": "29.967255368791644",
      "longitude": "-90.12710908362612"
    }
  },
  {
    "service_request": "2023-1030518",
    "request_type": "Trash/Recycling",
    "request_reason": "Request a Large Item Pick Up",
    "date_created": "2023-08-29T17:21:59.000",
    "date_modified": "2023-08-29T17:22:00.000",
    "request_status": "Pending",
    "responsible_agency": "Department of Sanitation",
    "final_address": "726 S Gayoso St",
    "address_councildis": "B",
    "status": "Assigned to Contractor",
    "contractor": "Richards Disposal",
    "rowid": "1030518",
    "final_x": "3672748.20545",
    "final_y": "533709.854341",
    "longitude": "-90.09563069949724",
    "latitude": "29.961779876436708",
    "geocoded_column": {
      "latitude": "29.961779876436708",
      "longitude": "-90.09563069949724"
    }
  },
  {
    "service_request": "2023-1030517",
    "request_type": "Trash/Recycling",
    "request_reason": "Request a Large Item Pick Up",
    "date_created": "2023-08-29T17:15:17.000",
    "date_modified": "2023-08-29T17:15:18.000",
    "request_status": "Pending",
    "responsible_agency": "Department of Sanitation",
    "final_address": "7 Newcomb Blvd",
    "address_councildis": "A",
    "status": "Assigned to Contractor",
    "contractor": "Richards Disposal",
    "rowid": "1030517",
    "final_x": "3663589.04557",
    "final_y": "524699.840124",
    "longitude": "-90.12485406054272",
    "latitude": "29.937274098690658",
    "geocoded_column": {
      "latitude": "29.937274098690658",
      "longitude": "-90.12485406054272"
    }
  },
  {
    "service_request": "2023-1030516",
    "request_type": "Roads/Drainage",
    "request_reason": "Damaged Sidewalk",
    "date_created": "2023-08-29T17:09:11.000",
    "date_modified": "2023-08-29T17:09:11.000",
    "request_status": "Pending",
    "responsible_agency": "Department of Public Works",
    "final_address": "3200 BLK Vincennes Pl",
    "address_councildis": "A",
    "status": "Pending",
    "rowid": "1030516",
    "final_x": "3667799.69192",
    "final_y": "528028.731132",
    "longitude": "-90.11144866771414",
    "latitude": "29.9463046951639",
    "geocoded_column": {
      "latitude": "29.9463046951639",
      "longitude": "-90.11144866771414"
    }
  },
  {
    "service_request": "2023-1030515",
    "request_type": "Trash/Recycling",
    "request_reason": "Order Recycling Cart",
    "date_created": "2023-08-29T17:05:59.000",
    "date_modified": "2023-08-29T17:05:59.000",
    "request_status": "Pending",
    "responsible_agency": "Department of Sanitation",
    "final_address": "4710 Spain St",
    "address_councildis": "D",
    "status": "Pending",
    "rowid": "1030515",
    "final_x": "3684914.17845",
    "final_y": "550290.508308",
    "longitude": "-90.05662919879653",
    "latitude": "30.007003865931225",
    "geocoded_column": {
      "latitude": "30.007003865931225",
      "longitude": "-90.05662919879653"
    }
  },
  {
    "service_request": "2023-1030514",
    "request_type": "Trash/Recycling",
    "request_reason": "Missed Trash Pick-Up",
    "date_created": "2023-08-29T16:53:23.000",
    "date_modified": "2023-08-29T16:53:24.000",
    "request_status": "Pending",
    "responsible_agency": "Department of Sanitation",
    "final_address": "1028 Thayer St",
    "address_councildis": "C",
    "status": "Assigned to Contractor",
    "contractor": "Richards Disposal",
    "rowid": "1030514",
    "final_x": "3689484.57775",
    "final_y": "527635.549887",
    "longitude": "-90.04299610364058",
    "latitude": "29.944569933892414",
    "geocoded_column": {
      "latitude": "29.944569933892414",
      "longitude": "-90.04299610364058"
    }
  },
  {
    "service_request": "2023-1030513",
    "request_type": "Traffic Signals/Signs/Striping/Streetlights",
    "request_reason": "Street Light Outage/Malfunction",
    "date_created": "2023-08-29T16:53:18.000",
    "date_modified": "2023-08-29T16:53:19.000",
    "request_status": "Pending",
    "responsible_agency": "Department of Public Works",
    "final_address": "2525 Dryades St",
    "address_councildis": "B",
    "status": "Assigned to Contractor",
    "contractor": "Legacy Professional Services",
    "rowid": "1030513",
    "final_x": "3675901.39137",
    "final_y": "523864.28326",
    "longitude": "-90.0860118793333",
    "latitude": "29.934613791806562",
    "geocoded_column": {
      "latitude": "29.934613791806562",
      "longitude": "-90.0860118793333"
    }
  },
  {
    "service_request": "2023-1030512",
    "request_type": "Trash/Recycling",
    "request_reason": "Order Recycling Cart",
    "date_created": "2023-08-29T16:52:34.000",
    "date_modified": "2023-08-29T16:52:34.000",
    "request_status": "Pending",
    "responsible_agency": "Department of Sanitation",
    "final_address": "13541 St Marie Ct",
    "address_councildis": "E",
    "status": "Pending",
    "rowid": "1030512",
    "final_x": "3724018.27263",
    "final_y": "569361.36215",
    "longitude": "-89.93235389073793",
    "latitude": "30.058184943433286",
    "geocoded_column": {
      "latitude": "30.058184943433286",
      "longitude": "-89.93235389073793"
    }
  },
  {
    "service_request": "2023-1030511",
    "request_type": "Trash/Recycling",
    "request_reason": "Missed Trash Pick-Up",
    "date_created": "2023-08-29T16:49:41.000",
    "date_modified": "2023-08-29T16:52:07.000",
    "request_status": "Pending",
    "responsible_agency": "Department of Sanitation",
    "final_address": "14 Brownlee Ct",
    "address_councildis": "E",
    "status": "Assigned to Contractor",
    "contractor": "Waste Pro",
    "rowid": "1030511",
    "final_x": "3712704.76357",
    "final_y": "567096.590756",
    "longitude": "-89.968199585941",
    "latitude": "30.052333236922497",
    "geocoded_column": {
      "latitude": "30.052333236922497",
      "longitude": "-89.968199585941"
    }
  },
  {
    "service_request": "2023-1030510",
    "request_type": "Graffiti Removal",
    "request_reason": "Graffiti Abatement",
    "date_created": "2023-08-29T16:49:19.000",
    "date_modified": "2023-08-29T16:53:03.000",
    "case_close_date": "2023-08-29T11:53:03.000",
    "request_status": "Closed",
    "responsible_agency": "Department of Code Enforcement",
    "final_address": "118 City Park Ave",
    "address_councildis": "A",
    "status": "Closed",
    "rowid": "1030510",
    "final_x": "3667651.43245",
    "final_y": "540854.232907",
    "longitude": "-90.1114849682831",
    "latitude": "29.98157492613766",
    "geocoded_column": {
      "latitude": "29.98157492613766",
      "longitude": "-90.1114849682831"
    }
  },
  {
    "service_request": "2023-1030509",
    "request_type": "Property Maintenance",
    "request_reason": "Property Maintenance",
    "date_created": "2023-08-29T16:47:56.000",
    "date_modified": "2023-08-29T16:57:05.000",
    "request_status": "Pending",
    "responsible_agency": "Department of Code Enforcement",
    "final_address": "4200 Tulane Ave, New Orleans, Louisiana, 70119",
    "address_councildis": "A",
    "rowid": "1030509",
    "final_x": "3668698.63015",
    "final_y": "536453.475591",
    "longitude": "-90.10832602016325",
    "latitude": "29.96944357789375",
    "geocoded_column": {
      "latitude": "29.96944357789375",
      "longitude": "-90.10832602016325"
    }
  },
  {
    "service_request": "2023-1030508",
    "request_type": "Property Maintenance",
    "request_reason": "Property Maintenance",
    "date_created": "2023-08-29T16:46:46.000",
    "date_modified": "2023-08-29T16:46:46.000",
    "request_status": "Pending",
    "responsible_agency": "Department of Code Enforcement",
    "final_address": "1102 Valence St, New Orleans, Louisiana, 70115",
    "address_councildis": "B",
    "status": "Pending",
    "rowid": "1030508",
    "final_x": "3669814.65114",
    "final_y": "519454.991735",
    "longitude": "-90.10537682290095",
    "latitude": "29.922670433598512",
    "geocoded_column": {
      "latitude": "29.922670433598512",
      "longitude": "-90.10537682290095"
    }
  },
  {
    "service_request": "2023-1030506",
    "request_type": "Property Maintenance",
    "request_reason": "Property Maintenance",
    "date_created": "2023-08-29T16:45:54.000",
    "date_modified": "2023-08-29T16:45:54.000",
    "request_status": "Pending",
    "responsible_agency": "Department of Code Enforcement",
    "final_address": "11500 Chef Menteur Hwy",
    "address_councildis": "E",
    "status": "Pending",
    "rowid": "1030506",
    "final_x": "3718139.9806",
    "final_y": "556310.089818",
    "longitude": "-89.95143183445582",
    "latitude": "30.022495563058094",
    "geocoded_column": {
      "latitude": "30.022495563058094",
      "longitude": "-89.95143183445582"
    }
  },
  {
    "service_request": "2023-1030505",
    "request_type": "Property Maintenance",
    "request_reason": "Property Maintenance",
    "date_created": "2023-08-29T16:43:53.000",
    "date_modified": "2023-08-29T16:43:53.000",
    "request_status": "Pending",
    "responsible_agency": "Department of Code Enforcement",
    "final_address": "3010 General De Gaulle Dr",
    "address_councildis": "C",
    "status": "Pending",
    "rowid": "1030505",
    "final_x": "3694981.29277",
    "final_y": "521482.058489",
    "longitude": "-90.02586312972008",
    "latitude": "29.927478599109683",
    "geocoded_column": {
      "latitude": "29.927478599109683",
      "longitude": "-90.02586312972008"
    }
  },
  {
    "service_request": "2023-1030504",
    "request_type": "Abandoned Vehicles",
    "request_reason": "Abandoned/Junk Vehicles",
    "date_created": "2023-08-29T16:39:49.000",
    "date_modified": "2023-08-29T16:39:49.000",
    "request_status": "Pending",
    "responsible_agency": "Department of Public Works",
    "final_address": "2532 Tulane Ave",
    "address_councildis": "B",
    "status": "Pending",
    "rowid": "1030504",
    "final_x": "3674929.07323",
    "final_y": "533361.176196",
    "longitude": "-90.08875582132038",
    "latitude": "29.960756174419004",
    "geocoded_column": {
      "latitude": "29.960756174419004",
      "longitude": "-90.08875582132038"
    }
  },
  {
    "service_request": "2023-1030503",
    "request_type": "Trash/Recycling",
    "request_reason": "Order Trash Cart",
    "date_created": "2023-08-29T16:33:46.000",
    "date_modified": "2023-08-29T16:33:47.000",
    "request_status": "Pending",
    "responsible_agency": "Department of Sanitation",
    "final_address": "4316 Hamilton St",
    "address_councildis": "A",
    "status": "Assigned to Contractor",
    "contractor": "Richards Disposal",
    "rowid": "1030503",
    "final_x": "3666826.11668",
    "final_y": "539009.60321",
    "longitude": "-90.11415370023917",
    "latitude": "29.976526987663316",
    "geocoded_column": {
      "latitude": "29.976526987663316",
      "longitude": "-90.11415370023917"
    }
  },
  {
    "service_request": "2023-1030502",
    "request_type": "Property Maintenance",
    "request_reason": "Property Maintenance",
    "date_created": "2023-08-29T16:29:27.000",
    "date_modified": "2023-08-29T16:29:27.000",
    "request_status": "Pending",
    "responsible_agency": "Department of Code Enforcement",
    "final_address": "2427 Pauline St",
    "address_councildis": "D",
    "status": "Pending",
    "rowid": "1030502",
    "final_x": "3692522.79203",
    "final_y": "540549.767499",
    "longitude": "-90.03294087139993",
    "latitude": "29.979985073142196",
    "geocoded_column": {
      "latitude": "29.979985073142196",
      "longitude": "-90.03294087139993"
    }
  },
  {
    "service_request": "2023-1030501",
    "request_type": "Trash/Recycling",
    "request_reason": "MIssed Recycling Pick-Up",
    "date_created": "2023-08-29T16:28:00.000",
    "date_modified": "2023-08-29T16:28:01.000",
    "request_status": "Pending",
    "responsible_agency": "Department of Sanitation",
    "final_address": "425 16Th St",
    "address_councildis": "A",
    "status": "Assigned to Contractor",
    "contractor": "IV Waste",
    "rowid": "1030501",
    "final_x": "3664573.91309",
    "final_y": "548514.722578",
    "longitude": "-90.12094924288994",
    "latitude": "30.00272854479655",
    "geocoded_column": {
      "latitude": "30.00272854479655",
      "longitude": "-90.12094924288994"
    }
  },
  {
    "service_request": "2023-1030500",
    "request_type": "Property Maintenance",
    "request_reason": "Property Maintenance",
    "date_created": "2023-08-29T16:25:58.000",
    "date_modified": "2023-08-29T16:25:58.000",
    "request_status": "Pending",
    "responsible_agency": "Department of Code Enforcement",
    "final_address": "2420 Pauline St",
    "address_councildis": "D",
    "status": "Pending",
    "rowid": "1030500",
    "final_x": "3692425.3896",
    "final_y": "540529.111115",
    "longitude": "-90.03324924767679",
    "latitude": "29.979931314588143",
    "geocoded_column": {
      "latitude": "29.979931314588143",
      "longitude": "-90.03324924767679"
    }
  },
  {
    "service_request": "2023-1030499",
    "request_type": "Trash/Recycling",
    "request_reason": "Repair Trash Cart",
    "date_created": "2023-08-29T16:25:37.000",
    "date_modified": "2023-08-29T16:25:37.000",
    "request_status": "Pending",
    "responsible_agency": "Department of Sanitation",
    "final_address": "4823 Bonita Dr",
    "address_councildis": "E",
    "status": "Assigned to Contractor",
    "contractor": "Waste Pro",
    "rowid": "1030499",
    "final_x": "3704535.84234",
    "final_y": "555808.730585",
    "longitude": "-89.99443583534489",
    "latitude": "30.021561128261496",
    "geocoded_column": {
      "latitude": "30.021561128261496",
      "longitude": "-89.99443583534489"
    }
  },
  {
    "service_request": "2023-1030498",
    "request_type": "Trash/Recycling",
    "request_reason": "Replace Trash Cart",
    "date_created": "2023-08-29T16:24:56.000",
    "date_modified": "2023-08-29T16:24:56.000",
    "request_status": "Pending",
    "responsible_agency": "Department of Sanitation",
    "final_address": "2976 Toledano St",
    "address_councildis": "B",
    "status": "Assigned to Contractor",
    "contractor": "Richards Disposal",
    "rowid": "1030498",
    "final_x": "3672398.74209",
    "final_y": "526666.264638",
    "longitude": "-90.0969742471395",
    "latitude": "29.942422705846333",
    "geocoded_column": {
      "latitude": "29.942422705846333",
      "longitude": "-90.0969742471395"
    }
  },
  {
    "service_request": "2023-1030497",
    "request_type": "Trash/Recycling",
    "request_reason": "Repair Trash Cart",
    "date_created": "2023-08-29T16:24:38.000",
    "date_modified": "2023-08-29T16:24:39.000",
    "request_status": "Pending",
    "responsible_agency": "Department of Sanitation",
    "final_address": "4821 Bonita Dr",
    "address_councildis": "E",
    "status": "Assigned to Contractor",
    "contractor": "Waste Pro",
    "rowid": "1030497",
    "final_x": "3704487.1107",
    "final_y": "555801.834713",
    "longitude": "-89.99459006760722",
    "latitude": "30.021543732884435",
    "geocoded_column": {
      "latitude": "30.021543732884435",
      "longitude": "-89.99459006760722"
    }
  },
  {
    "service_request": "2023-1030496",
    "request_type": "Traffic Signals/Signs/Striping/Streetlights",
    "request_reason": "Street Light Outage/Malfunction",
    "date_created": "2023-08-29T16:21:43.000",
    "date_modified": "2023-08-29T16:21:44.000",
    "request_status": "Pending",
    "responsible_agency": "Department of Public Works",
    "final_address": "4791 Rosalia Dr",
    "address_councildis": "E",
    "status": "Assigned to Contractor",
    "contractor": "Legacy Professional Services",
    "rowid": "1030496",
    "final_x": "3711226.29035",
    "final_y": "556195.688794",
    "longitude": "-89.9732815154903",
    "latitude": "30.02240845726258",
    "geocoded_column": {
      "latitude": "30.02240845726258",
      "longitude": "-89.9732815154903"
    }
  },
  {
    "service_request": "2023-1030495",
    "request_type": "Property Maintenance",
    "request_reason": "Property Maintenance",
    "date_created": "2023-08-29T16:16:24.000",
    "date_modified": "2023-08-29T16:16:24.000",
    "request_status": "Pending",
    "responsible_agency": "Department of Code Enforcement",
    "final_address": "2553 Valence St",
    "address_councildis": "B",
    "status": "Pending",
    "rowid": "1030495",
    "final_x": "3669445.81703",
    "final_y": "524195.374716",
    "longitude": "-90.10638086107399",
    "latitude": "29.935715836257465",
    "geocoded_column": {
      "latitude": "29.935715836257465",
      "longitude": "-90.10638086107399"
    }
  },
  {
    "service_request": "2023-1030494",
    "request_type": "Trash/Recycling",
    "request_reason": "Missed Trash Pick-Up",
    "date_created": "2023-08-29T16:14:47.000",
    "date_modified": "2023-08-29T16:14:47.000",
    "request_status": "Pending",
    "responsible_agency": "Department of Sanitation",
    "final_address": "4400 Fort Macomb Rd",
    "address_councildis": "E",
    "status": "Assigned to Contractor",
    "contractor": "Waste Pro",
    "rowid": "1030494",
    "final_x": "3763391.5615",
    "final_y": "573194.008873",
    "longitude": "-89.80774135395338",
    "latitude": "30.067340498088733",
    "geocoded_column": {
      "latitude": "30.067340498088733",
      "longitude": "-89.80774135395338"
    }
  },
  {
    "service_request": "2023-1030493",
    "request_type": "Traffic Signals/Signs/Striping/Streetlights",
    "request_reason": "Street Light Outage/Malfunction",
    "date_created": "2023-08-29T16:13:30.000",
    "date_modified": "2023-08-29T16:13:30.000",
    "request_status": "Pending",
    "responsible_agency": "Department of Public Works",
    "final_address": "927 Forstall St",
    "address_councildis": "E",
    "status": "Assigned to Contractor",
    "contractor": "Legacy Professional Services",
    "rowid": "1030493",
    "final_x": "3696124.60054",
    "final_y": "533633.232453",
    "longitude": "-90.02181496341196",
    "latitude": "29.960854186460004",
    "geocoded_column": {
      "latitude": "29.960854186460004",
      "longitude": "-90.02181496341196"
    }
  },
  {
    "service_request": "2023-1030492",
    "request_type": "Trash/Recycling",
    "request_reason": "MIssed Recycling Pick-Up",
    "date_created": "2023-08-29T16:13:26.000",
    "date_modified": "2023-08-29T16:13:27.000",
    "request_status": "Pending",
    "responsible_agency": "Department of Sanitation",
    "final_address": "2023 Iberville St",
    "address_councildis": "B",
    "status": "Assigned to Contractor",
    "contractor": "Richards Disposal",
    "rowid": "1030492",
    "final_x": "3677701.58626",
    "final_y": "533971.628549",
    "longitude": "-90.07997967243762",
    "latitude": "29.962351616795075",
    "geocoded_column": {
      "latitude": "29.962351616795075",
      "longitude": "-90.07997967243762"
    }
  },
  {
    "service_request": "2023-1030491",
    "request_type": "Trash/Recycling",
    "request_reason": "Request a Large Item Pick Up",
    "date_created": "2023-08-29T16:13:01.000",
    "date_modified": "2023-08-29T16:13:01.000",
    "request_status": "Pending",
    "responsible_agency": "Department of Sanitation",
    "final_address": "2843 Carondelet St, New Orleans, Louisiana, 70115",
    "address_councildis": "B",
    "status": "Assigned to Contractor",
    "contractor": "Richards Disposal",
    "rowid": "1030491",
    "final_x": "3675393.82305",
    "final_y": "522686.062586",
    "longitude": "-90.08765470100083",
    "latitude": "29.931389251344253",
    "geocoded_column": {
      "latitude": "29.931389251344253",
      "longitude": "-90.08765470100083"
    }
  },
  {
    "service_request": "2023-1030490",
    "request_type": "Trash/Recycling",
    "request_reason": "Request a Large Item Pick Up",
    "date_created": "2023-08-29T16:12:04.000",
    "date_modified": "2023-08-29T16:12:05.000",
    "request_status": "Pending",
    "responsible_agency": "Department of Sanitation",
    "final_address": "1306 Independence St",
    "address_councildis": "D",
    "status": "Assigned to Contractor",
    "contractor": "IV Waste",
    "rowid": "1030490",
    "final_x": "3691124.91907",
    "final_y": "536329.371399",
    "longitude": "-90.03750666377019",
    "latitude": "29.968424027198573",
    "geocoded_column": {
      "latitude": "29.968424027198573",
      "longitude": "-90.03750666377019"
    }
  },
  {
    "service_request": "2023-1030489",
    "request_type": "Traffic Signals/Signs/Striping/Streetlights",
    "request_reason": "Street Light Outage/Malfunction",
    "date_created": "2023-08-29T16:10:37.000",
    "date_modified": "2023-08-29T16:10:37.000",
    "request_status": "Pending",
    "responsible_agency": "Department of Public Works",
    "final_address": "2024 Governor Nicholls St",
    "address_councildis": "D",
    "status": "Assigned to Contractor",
    "contractor": "Legacy Professional Services",
    "rowid": "1030489",
    "final_x": "3679831.04034",
    "final_y": "536820.29748",
    "longitude": "-90.07315622948158",
    "latitude": "29.970120264042727",
    "geocoded_column": {
      "latitude": "29.970120264042727",
      "longitude": "-90.07315622948158"
    }
  },
  {
    "service_request": "2023-1030488",
    "request_type": "Trash/Recycling",
    "request_reason": "Repair Trash Cart",
    "date_created": "2023-08-29T16:09:36.000",
    "date_modified": "2023-08-29T16:22:13.000",
    "request_status": "Pending",
    "responsible_agency": "Department of Sanitation",
    "final_address": "2918A New Orleans St, New Orleans, Louisiana, 70119",
    "address_councildis": "D",
    "status": "Assigned to Contractor",
    "contractor": "IV Waste",
    "rowid": "1030488",
    "final_x": "3681799.69295",
    "final_y": "543247.387022",
    "longitude": "-90.06671465869994",
    "latitude": "29.987732840698417",
    "geocoded_column": {
      "latitude": "29.987732840698417",
      "longitude": "-90.06671465869994"
    }
  },
  {
    "service_request": "2023-1030487",
    "request_type": "Trash/Recycling",
    "request_reason": "Repair Trash Cart",
    "date_created": "2023-08-29T16:09:24.000",
    "date_modified": "2023-08-29T16:09:25.000",
    "request_status": "Pending",
    "responsible_agency": "Department of Sanitation",
    "final_address": "6928 Pontchartrain Blvd",
    "address_councildis": "A",
    "status": "Assigned to Contractor",
    "contractor": "IV Waste",
    "rowid": "1030487",
    "final_x": "3666376.01005",
    "final_y": "553818.550231",
    "longitude": "-90.11507800896625",
    "latitude": "30.017259668894013",
    "geocoded_column": {
      "latitude": "30.017259668894013",
      "longitude": "-90.11507800896625"
    }
  },
  {
    "service_request": "2023-1030486",
    "request_type": "Roads/Drainage",
    "request_reason": "Catch Basin - Clogged",
    "date_created": "2023-08-29T15:57:22.000",
    "date_modified": "2023-08-29T15:57:22.000",
    "request_status": "Pending",
    "responsible_agency": "Department of Public Works",
    "final_address": "1701 Simon Bolivar Ave",
    "address_councildis": "B",
    "status": "Pending",
    "rowid": "1030486",
    "final_x": "3676910.22754",
    "final_y": "526217.346942",
    "longitude": "-90.08274592565637",
    "latitude": "29.94105370867618",
    "geocoded_column": {
      "latitude": "29.94105370867618",
      "longitude": "-90.08274592565637"
    }
  },
  {
    "service_request": "2023-1030485",
    "request_type": "Roads/Drainage",
    "request_reason": "Unpermitted work in ROW",
    "date_created": "2023-08-29T15:56:37.000",
    "date_modified": "2023-08-29T15:56:37.000",
    "request_status": "Pending",
    "responsible_agency": "Department of Public Works",
    "final_address": "6638 Bellaire Dr",
    "address_councildis": "A",
    "status": "Pending",
    "rowid": "1030485",
    "final_x": "3664505.09805",
    "final_y": "552349.118102",
    "longitude": "-90.121038480625",
    "latitude": "30.01327380599966",
    "geocoded_column": {
      "latitude": "30.01327380599966",
      "longitude": "-90.121038480625"
    }
  },
  {
    "service_request": "2023-1030484",
    "request_type": "Trash/Recycling",
    "request_reason": "Repair Trash Cart",
    "date_created": "2023-08-29T15:56:10.000",
    "date_modified": "2023-08-29T15:56:11.000",
    "request_status": "Pending",
    "responsible_agency": "Department of Sanitation",
    "final_address": "3623 Third St",
    "address_councildis": "B",
    "status": "Assigned to Contractor",
    "contractor": "Richards Disposal",
    "rowid": "1030484",
    "final_x": "3672474.44039",
    "final_y": "528919.832128",
    "longitude": "-90.09665845941402",
    "latitude": "29.948617031545247",
    "geocoded_column": {
      "latitude": "29.948617031545247",
      "longitude": "-90.09665845941402"
    }
  },
  {
    "service_request": "2023-1030483",
    "request_type": "Property Maintenance",
    "request_reason": "Property Maintenance",
    "date_created": "2023-08-29T15:55:51.000",
    "date_modified": "2023-08-29T15:55:51.000",
    "request_status": "Pending",
    "responsible_agency": "Department of Code Enforcement",
    "final_address": "1700 BLK Mandeville St",
    "address_councildis": "D",
    "status": "Pending",
    "rowid": "1030483",
    "final_x": "3685584.20032",
    "final_y": "538758.792677",
    "longitude": "-90.05491889201724",
    "latitude": "29.975275217545793",
    "geocoded_column": {
      "latitude": "29.975275217545793",
      "longitude": "-90.05491889201724"
    }
  },
  {
    "service_request": "2023-1030482",
    "request_type": "Traffic Signals/Signs/Striping/Streetlights",
    "request_reason": "Traffic Signal Malfunctioning/Damaged",
    "date_created": "2023-08-29T15:54:09.000",
    "date_modified": "2023-08-29T15:54:10.000",
    "request_status": "Pending",
    "responsible_agency": "Department of Public Works",
    "final_address": "CALLIOPE ST & ANNUNCIATION ST & TCHOUPITOULAS EXIT",
    "address_councildis": "B",
    "status": "Pending",
    "rowid": "1030482",
    "final_x": "3681443.2",
    "final_y": "525519.78",
    "longitude": "-90.06845882301015",
    "latitude": "29.938998817801245",
    "geocoded_column": {
      "latitude": "29.938998817801245",
      "longitude": "-90.06845882301015"
    }
  },
  {
    "service_request": "2023-1030481",
    "request_type": "Traffic Signals/Signs/Striping/Streetlights",
    "request_reason": "Additional signage",
    "date_created": "2023-08-29T15:53:30.000",
    "date_modified": "2023-08-29T15:53:30.000",
    "request_status": "Pending",
    "responsible_agency": "Department of Public Works",
    "final_address": "169 Pinewood Ct",
    "address_councildis": "C",
    "status": "Pending",
    "rowid": "1030481",
    "final_x": "3695825.86838",
    "final_y": "523599.978939",
    "longitude": "-90.02312057807488",
    "latitude": "29.933275630366595",
    "geocoded_column": {
      "latitude": "29.933275630366595",
      "longitude": "-90.02312057807488"
    }
  },
  {
    "service_request": "2023-1030480",
    "request_type": "Traffic Signals/Signs/Striping/Streetlights",
    "request_reason": "Street Light Outage/Malfunction",
    "date_created": "2023-08-29T15:51:08.000",
    "date_modified": "2023-08-29T15:51:09.000",
    "request_status": "Pending",
    "responsible_agency": "Department of Public Works",
    "final_address": "4818 Knight Dr",
    "address_councildis": "E",
    "status": "Assigned to Contractor",
    "contractor": "Legacy Professional Services",
    "rowid": "1030480",
    "final_x": "3708000.06897",
    "final_y": "556159.714906",
    "longitude": "-89.98347684293797",
    "latitude": "30.02241444141025",
    "geocoded_column": {
      "latitude": "30.02241444141025",
      "longitude": "-89.98347684293797"
    }
  },
  {
    "service_request": "2023-1030479",
    "request_type": "Traffic Signals/Signs/Striping/Streetlights",
    "request_reason": "Street Light Outage/Malfunction",
    "date_created": "2023-08-29T15:48:22.000",
    "date_modified": "2023-08-29T15:48:23.000",
    "request_status": "Pending",
    "responsible_agency": "Department of Public Works",
    "final_address": "7901 Gannon Rd",
    "address_councildis": "E",
    "status": "Assigned to Contractor",
    "contractor": "Legacy Professional Services",
    "rowid": "1030479",
    "final_x": "3715977.56408",
    "final_y": "570590.633767",
    "longitude": "-89.95772276213326",
    "latitude": "30.061832796110146",
    "geocoded_column": {
      "latitude": "30.061832796110146",
      "longitude": "-89.95772276213326"
    }
  },
  {
    "service_request": "2023-1030478",
    "request_type": "Trash/Recycling",
    "request_reason": "Replace Trash Cart",
    "date_created": "2023-08-29T15:45:54.000",
    "date_modified": "2023-08-29T15:45:55.000",
    "request_status": "Pending",
    "responsible_agency": "Department of Sanitation",
    "final_address": "7426 Dominican St",
    "address_councildis": "A",
    "status": "Assigned to Contractor",
    "contractor": "Richards Disposal",
    "rowid": "1030478",
    "final_x": "3661933.35239",
    "final_y": "524558.452092",
    "longitude": "-90.13008590304574",
    "latitude": "29.936933237381314",
    "geocoded_column": {
      "latitude": "29.936933237381314",
      "longitude": "-90.13008590304574"
    }
  },
  {
    "service_request": "2023-1030477",
    "request_type": "Abandoned Vehicles",
    "request_reason": "Abandoned/Junk Vehicles",
    "date_created": "2023-08-29T15:35:59.000",
    "date_modified": "2023-08-29T15:35:59.000",
    "request_status": "Pending",
    "responsible_agency": "Department of Public Works",
    "final_address": "3127 Martin Luther King, Jr. Blvd",
    "address_councildis": "B",
    "status": "Pending",
    "rowid": "1030477",
    "final_x": "3674610.52782",
    "final_y": "528548.446272",
    "longitude": "-90.08992664475367",
    "latitude": "29.947532278911957",
    "geocoded_column": {
      "latitude": "29.947532278911957",
      "longitude": "-90.08992664475367"
    }
  },
  {
    "service_request": "2023-1030476",
    "request_type": "Abandoned Vehicles",
    "request_reason": "Abandoned/Junk Vehicles",
    "date_created": "2023-08-29T15:31:11.000",
    "date_modified": "2023-08-29T15:32:37.000",
    "request_status": "Pending",
    "responsible_agency": "Department of Public Works",
    "final_address": "13257 St Helena Pl",
    "address_councildis": "E",
    "status": "Pending",
    "rowid": "1030476",
    "final_x": "3727182.32595",
    "final_y": "564188.714977",
    "longitude": "-89.92255411775581",
    "latitude": "30.04385558587562",
    "geocoded_column": {
      "latitude": "30.04385558587562",
      "longitude": "-89.92255411775581"
    }
  },
  {
    "service_request": "2023-1030475",
    "request_type": "Roads/Drainage",
    "request_reason": "Pothole",
    "date_created": "2023-08-29T15:29:55.000",
    "date_modified": "2023-08-29T15:29:55.000",
    "request_status": "Pending",
    "responsible_agency": "Department of Public Works",
    "final_address": "527 State St",
    "address_councildis": "A",
    "status": "Pending",
    "rowid": "1030475",
    "final_x": "3664499.3609",
    "final_y": "518437.101878",
    "longitude": "-90.12218911198222",
    "latitude": "29.920027112012026",
    "geocoded_column": {
      "latitude": "29.920027112012026",
      "longitude": "-90.12218911198222"
    }
  },
  {
    "service_request": "2023-1030474",
    "request_type": "Trash/Recycling",
    "request_reason": "Order Trash Cart",
    "date_created": "2023-08-29T15:28:21.000",
    "date_modified": "2023-08-29T15:28:21.000",
    "request_status": "Pending",
    "responsible_agency": "Department of Sanitation",
    "final_address": "7800 Sun St",
    "address_councildis": "E",
    "status": "Assigned to Contractor",
    "contractor": "Waste Pro",
    "rowid": "1030474",
    "final_x": "3720539.71455",
    "final_y": "574164.192938",
    "longitude": "-89.94316491113484",
    "latitude": "30.071507194000926",
    "geocoded_column": {
      "latitude": "30.071507194000926",
      "longitude": "-89.94316491113484"
    }
  },
  {
    "service_request": "2023-1030473",
    "request_type": "Abandoned Vehicles",
    "request_reason": "Abandoned/Junk Vehicles",
    "date_created": "2023-08-29T15:27:55.000",
    "date_modified": "2023-08-29T15:27:56.000",
    "request_status": "Pending",
    "responsible_agency": "Department of Public Works",
    "final_address": "5608 St Helena Pl",
    "address_councildis": "E",
    "status": "Pending",
    "rowid": "1030473",
    "final_x": "3726351.97491",
    "final_y": "564268.225569",
    "longitude": "-89.92517526303844",
    "latitude": "30.044102291247654",
    "geocoded_column": {
      "latitude": "30.044102291247654",
      "longitude": "-89.92517526303844"
    }
  },
  {
    "service_request": "2023-1030472",
    "request_type": "Roads/Drainage",
    "request_reason": "Pothole",
    "date_created": "2023-08-29T15:27:53.000",
    "date_modified": "2023-08-29T15:27:53.000",
    "request_status": "Pending",
    "responsible_agency": "Department of Public Works",
    "final_address": "1421 Constantinople St",
    "address_councildis": "B",
    "status": "Pending",
    "rowid": "1030472",
    "final_x": "3672433.24257",
    "final_y": "520667.657465",
    "longitude": "-90.09706965638372",
    "latitude": "29.925927453713577",
    "geocoded_column": {
      "latitude": "29.925927453713577",
      "longitude": "-90.09706965638372"
    }
  },
  {
    "service_request": "2023-1030471",
    "request_type": "Trash/Recycling",
    "request_reason": "Illegal Dumping",
    "date_created": "2023-08-29T15:27:30.000",
    "date_modified": "2023-08-29T15:27:30.000",
    "request_status": "Pending",
    "responsible_agency": "Department of Sanitation",
    "final_address": "4202 S Derbigny St",
    "address_councildis": "B",
    "status": "Pending",
    "rowid": "1030471",
    "final_x": "3671006.52052",
    "final_y": "526280.367678",
    "longitude": "-90.10138291576014",
    "latitude": "29.941402846952975",
    "geocoded_column": {
      "latitude": "29.941402846952975",
      "longitude": "-90.10138291576014"
    }
  },
  {
    "service_request": "2023-1030470",
    "request_type": "Trash/Recycling",
    "request_reason": "Repair Trash Cart",
    "date_created": "2023-08-29T15:25:41.000",
    "date_modified": "2023-08-29T15:26:04.000",
    "request_status": "Pending",
    "responsible_agency": "Department of Sanitation",
    "final_address": "2131 S Salcedo St",
    "address_councildis": "A",
    "status": "Assigned to Contractor",
    "contractor": "Richards Disposal",
    "rowid": "1030470",
    "final_x": "3669318.98529",
    "final_y": "529230.397824",
    "longitude": "-90.10661109499338",
    "latitude": "29.949564251188708",
    "geocoded_column": {
      "latitude": "29.949564251188708",
      "longitude": "-90.10661109499338"
    }
  },
  {
    "service_request": "2023-1030469",
    "request_type": "Roads/Drainage",
    "request_reason": "Pothole",
    "date_created": "2023-08-29T15:22:48.000",
    "date_modified": "2023-08-29T15:22:48.000",
    "request_status": "Pending",
    "responsible_agency": "Department of Public Works",
    "final_address": "1312 Milan St",
    "address_councildis": "B",
    "status": "Pending",
    "rowid": "1030469",
    "final_x": "3671625.82823",
    "final_y": "520286.919608",
    "longitude": "-90.09963137110304",
    "latitude": "29.92490447494246",
    "geocoded_column": {
      "latitude": "29.92490447494246",
      "longitude": "-90.09963137110304"
    }
  },
  {
    "service_request": "2023-1030468",
    "request_type": "Trash/Recycling",
    "request_reason": "Return Trash Cart",
    "date_created": "2023-08-29T15:22:11.000",
    "date_modified": "2023-08-29T15:22:12.000",
    "request_status": "Pending",
    "responsible_agency": "Department of Sanitation",
    "final_address": "11338 Will Stutley Dr",
    "address_councildis": "E",
    "status": "Assigned to Contractor",
    "contractor": "Waste Pro",
    "rowid": "1030468",
    "final_x": "3717173.80965",
    "final_y": "558160.592603",
    "longitude": "-89.95441430216992",
    "latitude": "30.02761571105904",
    "geocoded_column": {
      "latitude": "30.02761571105904",
      "longitude": "-89.95441430216992"
    }
  },
  {
    "service_request": "2023-1030467",
    "request_type": "Trash/Recycling",
    "request_reason": "Request a Large Item Pick Up",
    "date_created": "2023-08-29T15:20:38.000",
    "date_modified": "2023-08-29T15:20:39.000",
    "request_status": "Pending",
    "responsible_agency": "Department of Sanitation",
    "final_address": "5161 Mckendall Pl",
    "address_councildis": "E",
    "status": "Assigned to Contractor",
    "contractor": "Waste Pro",
    "rowid": "1030467",
    "final_x": "3718040.40812",
    "final_y": "558988.36982",
    "longitude": "-89.9516444101616",
    "latitude": "30.02986306250867",
    "geocoded_column": {
      "latitude": "30.02986306250867",
      "longitude": "-89.9516444101616"
    }
  },
  {
    "service_request": "2023-1030465",
    "request_type": "Parks & Parkways",
    "request_reason": "Request Tree Service (Right of Way/Public Property)",
    "date_created": "2023-08-29T15:13:51.000",
    "date_modified": "2023-08-29T15:13:51.000",
    "request_status": "Pending",
    "responsible_agency": "Department of Parks & Parkway",
    "final_address": "1240 Louisiana Ave",
    "address_councildis": "B",
    "status": "Pending",
    "rowid": "1030465",
    "final_x": "3674669.54382",
    "final_y": "520230.179256",
    "longitude": "-90.0900252888792",
    "latitude": "29.92465799663775",
    "geocoded_column": {
      "latitude": "29.92465799663775",
      "longitude": "-90.0900252888792"
    }
  },
  {
    "service_request": "2023-1030464",
    "request_type": "Trash/Recycling",
    "request_reason": "Request a Large Item Pick Up",
    "date_created": "2023-08-29T15:13:50.000",
    "date_modified": "2023-08-29T15:13:52.000",
    "request_status": "Pending",
    "responsible_agency": "Department of Sanitation",
    "final_address": "2424 Dauphine St, New Orleans, Louisiana, 70117",
    "address_councildis": "C",
    "status": "Assigned to Contractor",
    "contractor": "IV Waste",
    "rowid": "1030464",
    "final_x": "3686087.9599",
    "final_y": "535281.639238",
    "longitude": "-90.05345055298048",
    "latitude": "29.965698794466384",
    "geocoded_column": {
      "latitude": "29.965698794466384",
      "longitude": "-90.05345055298048"
    }
  },
  {
    "service_request": "2023-1030463",
    "request_type": "Trash/Recycling",
    "request_reason": "Request a Large Item Pick Up",
    "date_created": "2023-08-29T15:11:17.000",
    "date_modified": "2023-08-29T15:11:18.000",
    "request_status": "Pending",
    "responsible_agency": "Department of Sanitation",
    "final_address": "9730 W Rockton Cir",
    "address_councildis": "E",
    "status": "Assigned to Contractor",
    "contractor": "Waste Pro",
    "rowid": "1030463",
    "final_x": "3707941.23499",
    "final_y": "562389.991583",
    "longitude": "-89.98343082243048",
    "latitude": "30.039547157464636",
    "geocoded_column": {
      "latitude": "30.039547157464636",
      "longitude": "-89.98343082243048"
    }
  },
  {
    "service_request": "2023-1030462",
    "request_type": "Property Maintenance",
    "request_reason": "Property Maintenance",
    "date_created": "2023-08-29T15:10:05.000",
    "date_modified": "2023-08-29T15:10:05.000",
    "request_status": "Pending",
    "responsible_agency": "Department of Code Enforcement",
    "status": "Pending",
    "rowid": "1030462",
    "longitude": "0.0",
    "latitude": "0.0",
    "geocoded_column": {
      "latitude": "0.0",
      "longitude": "0.0"
    }
  },
  {
    "service_request": "2023-1030461",
    "request_type": "Abandoned Vehicles",
    "request_reason": "Abandoned/Junk Vehicles",
    "date_created": "2023-08-29T15:08:24.000",
    "date_modified": "2023-08-29T15:08:24.000",
    "request_status": "Pending",
    "responsible_agency": "Department of Public Works",
    "final_address": "1000 Teche St",
    "address_councildis": "C",
    "status": "Pending",
    "rowid": "1030461",
    "final_x": "3686620.82447",
    "final_y": "527863.638399",
    "longitude": "-90.05202974211198",
    "latitude": "29.945285462813366",
    "geocoded_column": {
      "latitude": "29.945285462813366",
      "longitude": "-90.05202974211198"
    }
  },
  {
    "service_request": "2023-1030460",
    "request_type": "Roads/Drainage",
    "request_reason": "Pothole",
    "date_created": "2023-08-29T15:06:43.000",
    "date_modified": "2023-08-29T15:06:43.000",
    "request_status": "Pending",
    "responsible_agency": "Department of Public Works",
    "final_address": "4216 Chestnut St",
    "address_councildis": "B",
    "status": "Pending",
    "rowid": "1030460",
    "final_x": "3671574.31393",
    "final_y": "519539.203703",
    "longitude": "-90.09981939416457",
    "latitude": "29.922850019854593",
    "geocoded_column": {
      "latitude": "29.922850019854593",
      "longitude": "-90.09981939416457"
    }
  },
  {
    "service_request": "2023-1030459",
    "request_type": "Trash/Recycling",
    "request_reason": "Request a Large Item Pick Up",
    "date_created": "2023-08-29T15:06:27.000",
    "date_modified": "2023-08-29T15:06:28.000",
    "request_status": "Pending",
    "responsible_agency": "Department of Sanitation",
    "final_address": "8007 Lehigh St",
    "address_councildis": "E",
    "status": "Assigned to Contractor",
    "contractor": "Waste Pro",
    "rowid": "1030459",
    "final_x": "3709829.96254",
    "final_y": "566919.916324",
    "longitude": "-89.9772925104744",
    "latitude": "30.051941314176112",
    "geocoded_column": {
      "latitude": "30.051941314176112",
      "longitude": "-89.9772925104744"
    }
  },
  {
    "service_request": "2023-1030458",
    "request_type": "Parks & Parkways",
    "request_reason": "Request Tree Service (Right of Way/Public Property)",
    "date_created": "2023-08-29T15:06:09.000",
    "date_modified": "2023-08-29T15:06:09.000",
    "request_status": "Pending",
    "responsible_agency": "Department of Parks & Parkway",
    "final_address": "1117 First St",
    "address_councildis": "B",
    "status": "Pending",
    "rowid": "1030458",
    "final_x": "3678032.2196",
    "final_y": "521633.192761",
    "longitude": "-90.0793619781552",
    "latitude": "29.928415071194085",
    "geocoded_column": {
      "latitude": "29.928415071194085",
      "longitude": "-90.0793619781552"
    }
  },
  {
    "service_request": "2023-1030457",
    "request_type": "Trash/Recycling",
    "request_reason": "Repair Trash Cart",
    "date_created": "2023-08-29T15:05:41.000",
    "date_modified": "2023-08-29T15:05:41.000",
    "request_status": "Pending",
    "responsible_agency": "Department of Sanitation",
    "final_address": "615 Cadiz St",
    "address_councildis": "B",
    "status": "Assigned to Contractor",
    "contractor": "Richards Disposal",
    "rowid": "1030457",
    "final_x": "3670439.95847",
    "final_y": "517820.551414",
    "longitude": "-90.10345834815342",
    "latitude": "29.918157799946776",
    "geocoded_column": {
      "latitude": "29.918157799946776",
      "longitude": "-90.10345834815342"
    }
  },
  {
    "service_request": "2023-1030456",
    "request_type": "Property Maintenance",
    "request_reason": "Property Maintenance",
    "date_created": "2023-08-29T15:03:16.000",
    "date_modified": "2023-08-29T15:03:16.000",
    "request_status": "Pending",
    "responsible_agency": "Department of Code Enforcement",
    "final_address": "622 Seguin St",
    "address_councildis": "C",
    "status": "Pending",
    "rowid": "1030456",
    "final_x": "3686828.55414",
    "final_y": "529548.859329",
    "longitude": "-90.05131434400475",
    "latitude": "29.949912857667282",
    "geocoded_column": {
      "latitude": "29.949912857667282",
      "longitude": "-90.05131434400475"
    }
  },
  {
    "service_request": "2023-1030455",
    "request_type": "Abandoned Vehicles",
    "request_reason": "Abandoned/Junk Vehicles",
    "date_created": "2023-08-29T14:59:48.000",
    "date_modified": "2023-08-29T14:59:48.000",
    "request_status": "Pending",
    "responsible_agency": "Department of Public Works",
    "final_address": "311 Belleville St",
    "address_councildis": "C",
    "status": "Pending",
    "rowid": "1030455",
    "final_x": "3687847.30659",
    "final_y": "530670.999938",
    "longitude": "-90.04805793639382",
    "latitude": "29.952966978862882",
    "geocoded_column": {
      "latitude": "29.952966978862882",
      "longitude": "-90.04805793639382"
    }
  },
  {
    "service_request": "2023-1030454",
    "request_type": "Trash/Recycling",
    "request_reason": "Request a Large Item Pick Up",
    "date_created": "2023-08-29T14:58:53.000",
    "date_modified": "2023-08-29T14:58:54.000",
    "request_status": "Pending",
    "responsible_agency": "Department of Sanitation",
    "final_address": "2839 St Thomas St",
    "address_councildis": "B",
    "status": "Assigned to Contractor",
    "contractor": "Richards Disposal",
    "rowid": "1030454",
    "final_x": "3677730.09218",
    "final_y": "519205.572087",
    "longitude": "-90.08039952659558",
    "latitude": "29.92174899056522",
    "geocoded_column": {
      "latitude": "29.92174899056522",
      "longitude": "-90.08039952659558"
    }
  },
  {
    "service_request": "2023-1030453",
    "request_type": "Trash/Recycling",
    "request_reason": "Start Trash Service",
    "date_created": "2023-08-29T14:58:44.000",
    "date_modified": "2023-08-29T15:00:20.000",
    "request_status": "Pending",
    "responsible_agency": "Department of Sanitation",
    "final_address": "900 Aline St",
    "address_councildis": "B",
    "status": "Assigned to Contractor",
    "contractor": "Richards Disposal",
    "rowid": "1030453",
    "final_x": "3674645.16289",
    "final_y": "518724.348087",
    "longitude": "-90.09015382347222",
    "latitude": "29.92051817205985",
    "geocoded_column": {
      "latitude": "29.92051817205985",
      "longitude": "-90.09015382347222"
    }
  },
  {
    "service_request": "2023-1030452",
    "request_type": "Trash/Recycling",
    "request_reason": "Order Recycling Cart",
    "date_created": "2023-08-29T14:53:52.000",
    "date_modified": "2023-08-29T14:53:53.000",
    "request_status": "Pending",
    "responsible_agency": "Department of Sanitation",
    "final_address": "4916 Howard Ave",
    "address_councildis": "B",
    "status": "Pending",
    "rowid": "1030452",
    "final_x": "3670007.04826",
    "final_y": "534542.340165",
    "longitude": "-90.10425865750497",
    "latitude": "29.964150066151724",
    "geocoded_column": {
      "latitude": "29.964150066151724",
      "longitude": "-90.10425865750497"
    }
  },
  {
    "service_request": "2023-1030451",
    "request_type": "Traffic Signals/Signs/Striping/Streetlights",
    "request_reason": "Street Light Outage/Malfunction",
    "date_created": "2023-08-29T14:50:56.000",
    "date_modified": "2023-08-29T14:50:57.000",
    "request_status": "Pending",
    "responsible_agency": "Department of Public Works",
    "final_address": "5957 Tullis Dr",
    "address_councildis": "C",
    "status": "Assigned to Contractor",
    "contractor": "Legacy Professional Services",
    "rowid": "1030451",
    "final_x": "3706351.09585",
    "final_y": "513516.771506",
    "longitude": "-89.99026648846223",
    "latitude": "29.90521518948906",
    "geocoded_column": {
      "latitude": "29.90521518948906",
      "longitude": "-89.99026648846223"
    }
  },
  {
    "service_request": "2023-1030450",
    "request_type": "Trash/Recycling",
    "request_reason": "Repair Recycling Cart",
    "date_created": "2023-08-29T14:50:03.000",
    "date_modified": "2023-08-29T14:50:03.000",
    "request_status": "Pending",
    "responsible_agency": "Department of Sanitation",
    "final_address": "3951 Constance St",
    "address_councildis": "B",
    "status": "Pending",
    "rowid": "1030450",
    "final_x": "3672734.24628",
    "final_y": "518620.868855",
    "longitude": "-90.09618923423132",
    "latitude": "29.920290506520978",
    "geocoded_column": {
      "latitude": "29.920290506520978",
      "longitude": "-90.09618923423132"
    }
  },
  {
    "service_request": "2023-1030449",
    "request_type": "Traffic Signals/Signs/Striping/Streetlights",
    "request_reason": "Street Light Outage/Malfunction",
    "date_created": "2023-08-29T14:49:22.000",
    "date_modified": "2023-08-29T14:49:22.000",
    "request_status": "Pending",
    "responsible_agency": "Department of Public Works",
    "final_address": "5973 Tullis Dr",
    "address_councildis": "C",
    "status": "Assigned to Contractor",
    "contractor": "Legacy Professional Services",
    "rowid": "1030449",
    "final_x": "3706437.79351",
    "final_y": "513598.435378",
    "longitude": "-89.98998984707157",
    "latitude": "29.905436942661552",
    "geocoded_column": {
      "latitude": "29.905436942661552",
      "longitude": "-89.98998984707157"
    }
  },
  {
    "service_request": "2023-1030448",
    "request_type": "Trash/Recycling",
    "request_reason": "Missed Trash Pick-Up",
    "date_created": "2023-08-29T14:48:12.000",
    "date_modified": "2023-08-29T14:48:12.000",
    "request_status": "Pending",
    "responsible_agency": "Department of Sanitation",
    "final_address": "7940 Wave Dr",
    "address_councildis": "E",
    "status": "Assigned to Contractor",
    "contractor": "Waste Pro",
    "rowid": "1030448",
    "final_x": "3714130.51026",
    "final_y": "569777.500966",
    "longitude": "-89.96359197534527",
    "latitude": "30.059657857744153",
    "geocoded_column": {
      "latitude": "30.059657857744153",
      "longitude": "-89.96359197534527"
    }
  },
  {
    "service_request": "2023-1030447",
    "request_type": "Traffic Signals/Signs/Striping/Streetlights",
    "request_reason": "Street Light Outage/Malfunction",
    "date_created": "2023-08-29T14:47:07.000",
    "date_modified": "2023-08-29T14:47:07.000",
    "request_status": "Pending",
    "responsible_agency": "Department of Public Works",
    "final_address": "5989 Tullis Dr",
    "address_councildis": "C",
    "status": "Assigned to Contractor",
    "contractor": "Legacy Professional Services",
    "rowid": "1030447",
    "final_x": "3706535.23383",
    "final_y": "513675.84869",
    "longitude": "-89.98967945753049",
    "latitude": "29.90564666128408",
    "geocoded_column": {
      "latitude": "29.90564666128408",
      "longitude": "-89.98967945753049"
    }
  },
  {
    "service_request": "2023-1030445",
    "request_type": "Traffic Signals/Signs/Striping/Streetlights",
    "request_reason": "Street Light Outage/Malfunction",
    "date_created": "2023-08-29T14:44:25.000",
    "date_modified": "2023-08-29T14:44:26.000",
    "request_status": "Pending",
    "responsible_agency": "Department of Public Works",
    "final_address": "6009 Tullis Dr",
    "address_councildis": "C",
    "status": "Assigned to Contractor",
    "contractor": "Legacy Professional Services",
    "rowid": "1030445",
    "final_x": "3706636.11204",
    "final_y": "513830.023346",
    "longitude": "-89.98935537500263",
    "latitude": "29.90606733567459",
    "geocoded_column": {
      "latitude": "29.90606733567459",
      "longitude": "-89.98935537500263"
    }
  },
  {
    "service_request": "2023-1030444",
    "request_type": "Traffic Signals/Signs/Striping/Streetlights",
    "request_reason": "Street Light Outage/Malfunction",
    "date_created": "2023-08-29T14:43:39.000",
    "date_modified": "2023-08-29T14:43:40.000",
    "request_status": "Pending",
    "responsible_agency": "Department of Public Works",
    "final_address": "1821 Erato St",
    "address_councildis": "B",
    "status": "Assigned to Contractor",
    "contractor": "Legacy Professional Services",
    "rowid": "1030444",
    "final_x": "3678617.20181",
    "final_y": "526659.547454",
    "longitude": "-90.0773413913633",
    "latitude": "29.94221827634417",
    "geocoded_column": {
      "latitude": "29.94221827634417",
      "longitude": "-90.0773413913633"
    }
  },
  {
    "service_request": "2023-1030443",
    "request_type": "Trash/Recycling",
    "request_reason": "Request a Large Item Pick Up",
    "date_created": "2023-08-29T14:43:25.000",
    "date_modified": "2023-08-29T14:43:25.000",
    "request_status": "Pending",
    "responsible_agency": "Department of Sanitation",
    "final_address": "3315 General Taylor St",
    "address_councildis": "B",
    "status": "Assigned to Contractor",
    "contractor": "Richards Disposal",
    "rowid": "1030443",
    "final_x": "3671249.70651",
    "final_y": "527154.478847",
    "longitude": "-90.10058543801142",
    "latitude": "29.94379917636457",
    "geocoded_column": {
      "latitude": "29.94379917636457",
      "longitude": "-90.10058543801142"
    }
  },
  {
    "service_request": "2023-1030442",
    "request_type": "Trash/Recycling",
    "request_reason": "Request a Large Item Pick Up",
    "date_created": "2023-08-29T14:43:13.000",
    "date_modified": "2023-08-29T14:43:14.000",
    "request_status": "Pending",
    "responsible_agency": "Department of Sanitation",
    "final_address": "6306 Ransom St",
    "address_councildis": "D",
    "status": "Assigned to Contractor",
    "contractor": "Waste Pro",
    "rowid": "1030442",
    "final_x": "3698104.47319",
    "final_y": "552855.419479",
    "longitude": "-90.01486449267257",
    "latitude": "30.01364570672022",
    "geocoded_column": {
      "latitude": "30.01364570672022",
      "longitude": "-90.01486449267257"
    }
  },
  {
    "service_request": "2023-1030440",
    "request_type": "Trash/Recycling",
    "request_reason": "Repair Trash Cart",
    "date_created": "2023-08-29T14:41:22.000",
    "date_modified": "2023-08-29T14:41:23.000",
    "request_status": "Pending",
    "responsible_agency": "Department of Sanitation",
    "final_address": "203 Westchester St",
    "address_councildis": "C",
    "status": "Assigned to Contractor",
    "contractor": "Richards Disposal",
    "rowid": "1030440",
    "final_x": "3705979.93969",
    "final_y": "521068.125817",
    "longitude": "-89.99115870650057",
    "latitude": "29.92599076128914",
    "geocoded_column": {
      "latitude": "29.92599076128914",
      "longitude": "-89.99115870650057"
    }
  },
  {
    "service_request": "2023-1030441",
    "request_type": "Traffic Signals/Signs/Striping/Streetlights",
    "request_reason": "Street Light Outage/Malfunction",
    "date_created": "2023-08-29T14:41:22.000",
    "date_modified": "2023-08-29T14:41:23.000",
    "request_status": "Pending",
    "responsible_agency": "Department of Public Works",
    "final_address": "6101 Tullis Dr",
    "address_councildis": "C",
    "status": "Assigned to Contractor",
    "contractor": "Legacy Professional Services",
    "rowid": "1030441",
    "final_x": "3706937.54097",
    "final_y": "513981.535602",
    "longitude": "-89.98839843773801",
    "latitude": "29.906474217428418",
    "geocoded_column": {
      "latitude": "29.906474217428418",
      "longitude": "-89.98839843773801"
    }
  },
  {
    "service_request": "2023-1030439",
    "request_type": "Trash/Recycling",
    "request_reason": "Request a Large Item Pick Up",
    "date_created": "2023-08-29T14:38:37.000",
    "date_modified": "2023-08-29T14:38:37.000",
    "request_status": "Pending",
    "responsible_agency": "Department of Sanitation",
    "final_address": "2739 Palmyra St Unit B",
    "address_councildis": "B",
    "status": "Assigned to Contractor",
    "contractor": "Richards Disposal",
    "rowid": "1030439",
    "final_x": "3674611.52468",
    "final_y": "534713.561862",
    "longitude": "-90.08971222948479",
    "latitude": "29.964484260522045",
    "geocoded_column": {
      "latitude": "29.964484260522045",
      "longitude": "-90.08971222948479"
    }
  },
  {
    "service_request": "2023-1030438",
    "request_type": "Roads/Drainage",
    "request_reason": "Catch Basin - Clogged",
    "date_created": "2023-08-29T14:37:33.000",
    "date_modified": "2023-08-29T14:37:34.000",
    "request_status": "Pending",
    "responsible_agency": "Department of Public Works",
    "final_address": "1325 Elysian Fields Ave",
    "address_councildis": "C",
    "status": "Pending",
    "rowid": "1030438",
    "final_x": "3685056.42601",
    "final_y": "537256.62516",
    "longitude": "-90.05663860095456",
    "latitude": "29.971160961575965",
    "geocoded_column": {
      "latitude": "29.971160961575965",
      "longitude": "-90.05663860095456"
    }
  },
  {
    "service_request": "2023-1030437",
    "request_type": "Trash/Recycling",
    "request_reason": "Order Trash Cart",
    "date_created": "2023-08-29T14:36:22.000",
    "date_modified": "2023-08-29T14:36:23.000",
    "request_status": "Pending",
    "responsible_agency": "Department of Sanitation",
    "final_address": "2739 Palmyra St Unit B",
    "address_councildis": "B",
    "status": "Assigned to Contractor",
    "contractor": "Richards Disposal",
    "rowid": "1030437",
    "final_x": "3674611.52468",
    "final_y": "534713.561862",
    "longitude": "-90.08971222948479",
    "latitude": "29.964484260522045",
    "geocoded_column": {
      "latitude": "29.964484260522045",
      "longitude": "-90.08971222948479"
    }
  },
  {
    "service_request": "2023-1030436",
    "request_type": "Property Maintenance",
    "request_reason": "Property Maintenance",
    "date_created": "2023-08-29T14:30:31.000",
    "date_modified": "2023-08-29T14:30:31.000",
    "request_status": "Pending",
    "responsible_agency": "Department of Code Enforcement",
    "final_address": "9901 Chef Menteur Hwy",
    "address_councildis": "E",
    "status": "Pending",
    "rowid": "1030436",
    "final_x": "3712157.88626",
    "final_y": "554756.899864",
    "longitude": "-89.97039200370233",
    "latitude": "30.0184219152567",
    "geocoded_column": {
      "latitude": "30.0184219152567",
      "longitude": "-89.97039200370233"
    }
  },
  {
    "service_request": "2023-1030435",
    "request_type": "Trash/Recycling",
    "request_reason": "Missed Trash Pick-Up",
    "date_created": "2023-08-29T14:27:10.000",
    "date_modified": "2023-08-29T14:27:10.000",
    "request_status": "Pending",
    "responsible_agency": "Department of Sanitation",
    "final_address": "4240 Mayne St",
    "address_councildis": "E",
    "status": "Assigned to Contractor",
    "contractor": "Waste Pro",
    "rowid": "1030435",
    "final_x": "3785105.25394",
    "final_y": "605576.9922",
    "longitude": "-89.73767737797709",
    "latitude": "30.155564485329833",
    "geocoded_column": {
      "latitude": "30.155564485329833",
      "longitude": "-89.73767737797709"
    }
  },
  {
    "service_request": "2023-1030434",
    "request_type": "Traffic Signals/Signs/Striping/Streetlights",
    "request_reason": "Request for Traffic Calming due to Speeding",
    "date_created": "2023-08-29T14:22:35.000",
    "date_modified": "2023-08-29T14:22:35.000",
    "request_status": "Pending",
    "responsible_agency": "Department of Public Works",
    "final_address": "3121 Desaix Blvd",
    "address_councildis": "D",
    "status": "Pending",
    "rowid": "1030434",
    "final_x": "3678883.83739",
    "final_y": "543625.81851",
    "longitude": "-90.07591173927776",
    "latitude": "29.988861699448112",
    "geocoded_column": {
      "latitude": "29.988861699448112",
      "longitude": "-90.07591173927776"
    }
  },
  {
    "service_request": "2023-1030433",
    "request_type": "Abandoned Vehicles",
    "request_reason": "Abandoned/Junk Vehicles",
    "date_created": "2023-08-29T14:22:04.000",
    "date_modified": "2023-08-29T14:22:04.000",
    "request_status": "Pending",
    "responsible_agency": "Department of Public Works",
    "final_address": "4000 BLK Jumonville St",
    "address_councildis": "D",
    "status": "Pending",
    "rowid": "1030433",
    "final_x": "3678035.89488",
    "final_y": "547047.037255",
    "longitude": "-90.07847178495044",
    "latitude": "29.99829440740061",
    "geocoded_column": {
      "latitude": "29.99829440740061",
      "longitude": "-90.07847178495044"
    }
  },
  {
    "service_request": "2023-1030432",
    "request_type": "Trash/Recycling",
    "request_reason": "Request a Large Item Pick Up",
    "date_created": "2023-08-29T14:17:13.000",
    "date_modified": "2023-08-29T14:17:14.000",
    "request_status": "Pending",
    "responsible_agency": "Department of Sanitation",
    "final_address": "8011 Michigan St",
    "address_councildis": "E",
    "status": "Assigned to Contractor",
    "contractor": "Waste Pro",
    "rowid": "1030432",
    "final_x": "3711026.76773",
    "final_y": "567704.877604",
    "longitude": "-89.97348036880456",
    "latitude": "30.05406064031886",
    "geocoded_column": {
      "latitude": "30.05406064031886",
      "longitude": "-89.97348036880456"
    }
  },
  {
    "service_request": "2023-1030431",
    "request_type": "Trash/Recycling",
    "request_reason": "Replace Trash Cart",
    "date_created": "2023-08-29T14:15:53.000",
    "date_modified": "2023-08-29T14:15:54.000",
    "request_status": "Pending",
    "responsible_agency": "Department of Sanitation",
    "final_address": "2748 St Ann St",
    "address_councildis": "A",
    "status": "Assigned to Contractor",
    "contractor": "Richards Disposal",
    "rowid": "1030431",
    "final_x": "3676556.32744",
    "final_y": "537456.426888",
    "longitude": "-90.08347620409906",
    "latitude": "29.97196802489895",
    "geocoded_column": {
      "latitude": "29.97196802489895",
      "longitude": "-90.08347620409906"
    }
  },
  {
    "service_request": "2023-1030430",
    "request_type": "Trash/Recycling",
    "request_reason": "Replace Trash Cart",
    "date_created": "2023-08-29T14:13:52.000",
    "date_modified": "2023-08-29T14:13:53.000",
    "request_status": "Pending",
    "responsible_agency": "Department of Sanitation",
    "final_address": "2011 Camp St",
    "address_councildis": "B",
    "status": "Assigned to Contractor",
    "contractor": "Richards Disposal",
    "rowid": "1030430",
    "final_x": "3679182.50933",
    "final_y": "522834.092603",
    "longitude": "-90.07568915396513",
    "latitude": "29.931682488155037",
    "geocoded_column": {
      "latitude": "29.931682488155037",
      "longitude": "-90.07568915396513"
    }
  },
  {
    "service_request": "2023-1030429",
    "request_type": "Trash/Recycling",
    "request_reason": "Request a Large Item Pick Up",
    "date_created": "2023-08-29T14:13:48.000",
    "date_modified": "2023-08-29T14:13:49.000",
    "request_status": "Pending",
    "responsible_agency": "Department of Sanitation",
    "final_address": "5330 Dauphine St",
    "address_councildis": "E",
    "status": "Assigned to Contractor",
    "contractor": "Waste Pro",
    "rowid": "1030429",
    "final_x": "3696715.69725",
    "final_y": "532813.030148",
    "longitude": "-90.01997808958626",
    "latitude": "29.958580303794193",
    "geocoded_column": {
      "latitude": "29.958580303794193",
      "longitude": "-90.01997808958626"
    }
  },