[
  {
    "service_request": "2024-1114147",
    "request_type": "Traffic Signals/Signs/Striping/Streetlights",
    "request_reason": "Street Light Outage/Malfunction",
    "date_created": "2024-07-19T23:59:42.000",
    "date_modified": "2024-07-19T23:59:43.000",
    "request_status": "Pending",
    "responsible_agency": "Department of Public Works",
    "final_address": "1028 Octavia St",
    "address_councildis": "A",
    "status": "Assigned to Contractor",
    "contractor": "Legacy Professional Services",
    "rowid": "1114147",
    "final_x": "3666617.20641",
    "final_y": "519855.030264",
    "longitude": "-90.1154564984088",
    "latitude": "29.923864246464614",
    "geocoded_column": {
      "latitude": "29.923864246464614",
      "longitude": "-90.1154564984088"
    }
  },
  {
    "service_request": "2024-1114146",
    "request_type": "Trash/Recycling",
    "request_reason": "Order Trash Cart",
    "date_created": "2024-07-19T23:55:33.000",
    "date_modified": "2024-07-19T23:55:34.000",
    "request_status": "Pending",
    "responsible_agency": "Department of Sanitation",
    "final_address": "4849 Dodt Ave",
    "address_councildis": "E",
    "status": "Assigned to Contractor",
    "contractor": "Waste Pro",
    "rowid": "1114146",
    "final_x": "3705434.91703",
    "final_y": "556118.380506",
    "longitude": "-89.9915835669793",
    "latitude": "30.022383628675534",
    "geocoded_column": {
      "latitude": "30.022383628675534",
      "longitude": "-89.9915835669793"
    }
  },
  {
    "service_request": "2024-1114145",
    "request_type": "Roads/Drainage",
    "request_reason": "Street Subsidence (Sinking)",
    "date_created": "2024-07-19T23:54:57.000",
    "date_modified": "2024-07-19T23:54:57.000",
    "request_status": "Pending",
    "responsible_agency": "Department of Public Works",
    "final_address": "2200 BLK Lafitte Ave",
    "address_councildis": "D",
    "status": "Pending",
    "rowid": "1114145",
    "final_x": "3677927.11196",
    "final_y": "535433.274394",
    "longitude": "-90.07921697603696",
    "latitude": "29.966363861621158",
    "geocoded_column": {
      "latitude": "29.966363861621158",
      "longitude": "-90.07921697603696"
    }
  },
  {
    "service_request": "2024-1114144",
    "request_type": "Roads/Drainage",
    "request_reason": "Street Subsidence (Sinking)",
    "date_created": "2024-07-19T23:54:16.000",
    "date_modified": "2024-07-19T23:54:16.000",
    "request_status": "Pending",
    "responsible_agency": "Department of Public Works",
    "final_address": "2200 BLK Lafitte Ave",
    "address_councildis": "D",
    "status": "Pending",
    "rowid": "1114144",
    "final_x": "3677927.11196",
    "final_y": "535433.274394",
    "longitude": "-90.07921697603696",
    "latitude": "29.966363861621158",
    "geocoded_column": {
      "latitude": "29.966363861621158",
      "longitude": "-90.07921697603696"
    }
  },
  {
    "service_request": "2024-1114143",
    "request_type": "Roads/Drainage",
    "request_reason": "Street Subsidence (Sinking)",
    "date_created": "2024-07-19T23:54:03.000",
    "date_modified": "2024-07-19T23:54:03.000",
    "request_status": "Pending",
    "responsible_agency": "Department of Public Works",
    "final_address": "2200 BLK Lafitte Ave",
    "address_councildis": "D",
    "status": "Pending",
    "rowid": "1114143",
    "final_x": "3677927.11196",
    "final_y": "535433.274394",
    "longitude": "-90.07921697603696",
    "latitude": "29.966363861621158",
    "geocoded_column": {
      "latitude": "29.966363861621158",
      "longitude": "-90.07921697603696"
    }
  },
  {
    "service_request": "2024-1114142",
    "request_type": "Roads/Drainage",
    "request_reason": "Pothole",
    "date_created": "2024-07-19T23:48:43.000",
    "date_modified": "2024-07-19T23:48:43.000",
    "request_status": "Pending",
    "responsible_agency": "Department of Public Works",
    "final_address": "4216 Chestnut St",
    "address_councildis": "B",
    "status": "Pending",
    "rowid": "1114142",
    "final_x": "3671574.31393",
    "final_y": "519539.203703",
    "longitude": "-90.09981939416457",
    "latitude": "29.922850019854593",
    "geocoded_column": {
      "latitude": "29.922850019854593",
      "longitude": "-90.09981939416457"
    }
  },
  {
    "service_request": "2024-1114141",
    "request_type": "Roads/Drainage",
    "request_reason": "Pothole",
    "date_created": "2024-07-19T23:48:06.000",
    "date_modified": "2024-07-19T23:48:06.000",
    "request_status": "Pending",
    "responsible_agency": "Department of Public Works",
    "final_address": "1312 Milan St",
    "address_councildis": "B",
    "status": "Pending",
    "rowid": "1114141",
    "final_x": "3671625.82823",
    "final_y": "520286.919608",
    "longitude": "-90.09963137110304",
    "latitude": "29.92490447494246",
    "geocoded_column": {
      "latitude": "29.92490447494246",
      "longitude": "-90.09963137110304"
    }
  },
  {
    "service_request": "2024-1114140",
    "request_type": "Trash/Recycling",
    "request_reason": "Order Trash Cart",
    "date_created": "2024-07-19T22:39:31.000",
    "date_modified": "2024-07-19T22:39:33.000",
    "request_status": "Pending",
    "responsible_agency": "Department of Sanitation",
    "final_address": "4849 Dodt Ave",
    "address_councildis": "E",
    "status": "Assigned to Contractor",
    "contractor": "Waste Pro",
    "rowid": "1114140",
    "final_x": "3705434.91703",
    "final_y": "556118.380506",
    "longitude": "-89.9915835669793",
    "latitude": "30.022383628675534",
    "geocoded_column": {
      "latitude": "30.022383628675534",
      "longitude": "-89.9915835669793"
    }
  },
  {
    "service_request": "2024-1114139",
    "request_type": "Property Maintenance",
    "request_reason": "Property Maintenance",
    "date_created": "2024-07-19T22:22:11.000",
    "date_modified": "2024-07-19T22:22:11.000",
    "request_status": "Pending",
    "responsible_agency": "Department of Code Enforcement",
    "final_address": "3519 S Miro St",
    "address_councildis": "B",
    "status": "Pending",
    "rowid": "1114139",
    "final_x": "3671131.99271",
    "final_y": "527999.026879",
    "longitude": "-90.10092841403116",
    "latitude": "29.946124889391342",
    "geocoded_column": {
      "latitude": "29.946124889391342",
      "longitude": "-90.10092841403116"
    }
  },
  {
    "service_request": "2024-1114138",
    "request_type": "Property Maintenance",
    "request_reason": "Property Maintenance",
    "date_created": "2024-07-19T22:22:10.000",
    "date_modified": "2024-07-19T22:22:10.000",
    "request_status": "Pending",
    "responsible_agency": "Department of Code Enforcement",
    "final_address": "3519 S Miro St",
    "address_councildis": "B",
    "status": "Pending",
    "rowid": "1114138",
    "final_x": "3671131.99271",
    "final_y": "527999.026879",
    "longitude": "-90.10092841403116",
    "latitude": "29.946124889391342",
    "geocoded_column": {
      "latitude": "29.946124889391342",
      "longitude": "-90.10092841403116"
    }
  },
  {
    "service_request": "2024-1114137",
    "request_type": "Roads/Drainage",
    "request_reason": "Pothole",
    "date_created": "2024-07-19T22:18:01.000",
    "date_modified": "2024-07-19T22:18:01.000",
    "request_status": "Pending",
    "responsible_agency": "Department of Public Works",
    "final_address": "829 Nashville Ave",
    "address_councildis": "A",
    "status": "Pending",
    "rowid": "1114137",
    "final_x": "3665630.14445",
    "final_y": "519222.413111",
    "longitude": "-90.11859347985998",
    "latitude": "29.922153558399792",
    "geocoded_column": {
      "latitude": "29.922153558399792",
      "longitude": "-90.11859347985998"
    }
  },
  {
    "service_request": "2024-1114136",
    "request_type": "Roads/Drainage",
    "request_reason": "Pothole",
    "date_created": "2024-07-19T22:16:49.000",
    "date_modified": "2024-07-19T22:16:49.000",
    "request_status": "Pending",
    "responsible_agency": "Department of Public Works",
    "final_address": "6024 Benjamin St",
    "address_councildis": "A",
    "status": "Pending",
    "rowid": "1114136",
    "final_x": "3665395.13933",
    "final_y": "522178.833594",
    "longitude": "-90.11923641544821",
    "latitude": "29.93028963171796",
    "geocoded_column": {
      "latitude": "29.93028963171796",
      "longitude": "-90.11923641544821"
    }
  },
  {
    "service_request": "2024-1114135",
    "request_type": "Roads/Drainage",
    "request_reason": "Pothole",
    "date_created": "2024-07-19T22:15:29.000",
    "date_modified": "2024-07-19T22:15:29.000",
    "request_status": "Pending",
    "responsible_agency": "Department of Public Works",
    "final_address": "6215 Hurst St",
    "address_councildis": "A",
    "status": "Pending",
    "rowid": "1114135",
    "final_x": "3664668.32039",
    "final_y": "522243.373626",
    "longitude": "-90.12152872358996",
    "latitude": "29.93048825206563",
    "geocoded_column": {
      "latitude": "29.93048825206563",
      "longitude": "-90.12152872358996"
    }
  },
  {
    "service_request": "2024-1114134",
    "request_type": "Roads/Drainage",
    "request_reason": "Street Flooding / Drainage",
    "date_created": "2024-07-19T21:53:06.000",
    "date_modified": "2024-07-19T21:53:06.000",
    "request_status": "Pending",
    "responsible_agency": "Department of Public Works",
    "final_address": "5900 BLK S Front St",
    "address_councildis": "A",
    "status": "Pending",
    "rowid": "1114134",
    "final_x": "3664624.72485",
    "final_y": "517015.609457",
    "longitude": "-90.1218408372806",
    "latitude": "29.916114806509967",
    "geocoded_column": {
      "latitude": "29.916114806509967",
      "longitude": "-90.1218408372806"
    }
  },
  {
    "service_request": "2024-1114133",
    "request_type": "Utility Poles",
    "request_reason": "Utility Pole Leaning",
    "date_created": "2024-07-19T21:40:49.000",
    "date_modified": "2024-07-19T21:40:52.000",
    "request_status": "Pending",
    "responsible_agency": "Utility Company Collective",
    "final_address": "200 Alonzo St",
    "address_councildis": "A",
    "status": "Pending",
    "rowid": "1114133",
    "final_x": "3664456.84813",
    "final_y": "517096.615925",
    "longitude": "-90.12236802251839",
    "latitude": "29.916342428615057",
    "geocoded_column": {
      "latitude": "29.916342428615057",
      "longitude": "-90.12236802251839"
    }
  },
  {
    "service_request": "2024-1114132",
    "request_type": "Trash/Recycling",
    "request_reason": "Request a Large Item Pick Up",
    "date_created": "2024-07-19T21:36:47.000",
    "date_modified": "2024-07-19T21:36:47.000",
    "request_status": "Pending",
    "responsible_agency": "Department of Sanitation",
    "final_address": "200 Alonzo St",
    "address_councildis": "A",
    "status": "Assigned to Contractor",
    "contractor": "IV Waste",
    "rowid": "1114132",
    "final_x": "3664456.84813",
    "final_y": "517096.615925",
    "longitude": "-90.12236802251839",
    "latitude": "29.916342428615057",
    "geocoded_column": {
      "latitude": "29.916342428615057",
      "longitude": "-90.12236802251839"
    }
  },
  {
    "service_request": "2024-1114131",
    "request_type": "Trash/Recycling",
    "request_reason": "Request a Large Item Pick Up",
    "date_created": "2024-07-19T21:06:35.000",
    "date_modified": "2024-07-19T21:06:35.000",
    "request_status": "Pending",
    "responsible_agency": "Department of Sanitation",
    "final_address": "5478 Hawthorne Pl",
    "address_councildis": "A",
    "status": "Assigned to Contractor",
    "contractor": "IV Waste",
    "rowid": "1114131",
    "final_x": "3667740.42586",
    "final_y": "543651.749454",
    "longitude": "-90.11110963592934",
    "latitude": "29.98926453695901",
    "geocoded_column": {
      "latitude": "29.98926453695901",
      "longitude": "-90.11110963592934"
    }
  },
  {
    "service_request": "2024-1114128",
    "request_type": "Trash/Recycling",
    "request_reason": "Order Trash Cart",
    "date_created": "2024-07-19T20:25:19.000",
    "date_modified": "2024-07-19T20:25:20.000",
    "request_status": "Pending",
    "responsible_agency": "Department of Sanitation",
    "final_address": "2648 Piety St",
    "address_councildis": "D",
    "status": "Assigned to Contractor",
    "contractor": "IV Waste",
    "rowid": "1114128",
    "final_x": "3691316.28713",
    "final_y": "541837.640076",
    "longitude": "-90.03670547120271",
    "latitude": "29.98356385608901",
    "geocoded_column": {
      "latitude": "29.98356385608901",
      "longitude": "-90.03670547120271"
    }
  },
  {
    "service_request": "2024-1114127",
    "request_type": "Trash/Recycling",
    "request_reason": "Replace Trash Cart",
    "date_created": "2024-07-19T20:23:52.000",
    "date_modified": "2024-07-19T20:23:52.000",
    "request_status": "Pending",
    "responsible_agency": "Department of Sanitation",
    "final_address": "4834 St Charles Ave",
    "address_councildis": "B",
    "status": "Assigned to Contractor",
    "contractor": "IV Waste",
    "rowid": "1114127",
    "final_x": "3669105.06145",
    "final_y": "520638.678904",
    "longitude": "-90.10757675132766",
    "latitude": "29.925946088319",
    "geocoded_column": {
      "latitude": "29.925946088319",
      "longitude": "-90.10757675132766"
    }
  },
  {
    "service_request": "2024-1114126",
    "request_type": "Trash/Recycling",
    "request_reason": "Illegal Dumping",
    "date_created": "2024-07-19T20:14:46.000",
    "date_modified": "2024-07-19T20:14:46.000",
    "request_status": "Pending",
    "responsible_agency": "Department of Sanitation",
    "final_address": "9224 Fig St",
    "address_councildis": "A",
    "status": "Pending",
    "rowid": "1114126",
    "final_x": "3663264.43008",
    "final_y": "535857.116487",
    "longitude": "-90.12550759931962",
    "latitude": "29.967962413526852",
    "geocoded_column": {
      "latitude": "29.967962413526852",
      "longitude": "-90.12550759931962"
    }
  },
  {
    "service_request": "2024-1114125",
    "request_type": "Trash/Recycling",
    "request_reason": "Replace Recycling Cart",
    "date_created": "2024-07-19T19:55:48.000",
    "date_modified": "2024-07-19T19:55:48.000",
    "request_status": "Pending",
    "responsible_agency": "Department of Sanitation",
    "final_address": "5610 Pembrook Dr",
    "address_councildis": "C",
    "status": "Pending",
    "rowid": "1114125",
    "final_x": "3704355.1665",
    "final_y": "521043.518329",
    "longitude": "-89.99628850493797",
    "latitude": "29.925975330096",
    "geocoded_column": {
      "latitude": "29.925975330096",
      "longitude": "-89.99628850493797"
    }
  },
  {
    "service_request": "2024-1114124",
    "request_type": "Utility Poles",
    "request_reason": "Utility Pole Leaning",
    "date_created": "2024-07-19T19:44:31.000",
    "date_modified": "2024-07-19T19:44:39.000",
    "request_status": "Pending",
    "responsible_agency": "Utility Company Collective",
    "final_address": "1152 Magazine St",
    "address_councildis": "B",
    "status": "Pending",
    "rowid": "1114124",
    "final_x": "3680728.56757",
    "final_y": "525824.644349",
    "longitude": "-90.07070439494576",
    "latitude": "29.939858765418847",
    "geocoded_column": {
      "latitude": "29.939858765418847",
      "longitude": "-90.07070439494576"
    }
  },
  {
    "service_request": "2024-1114123",
    "request_type": "Trash/Recycling",
    "request_reason": "Order Trash Cart",
    "date_created": "2024-07-19T19:41:50.000",
    "date_modified": "2024-07-19T19:41:51.000",
    "request_status": "Pending",
    "responsible_agency": "Department of Sanitation",
    "final_address": "6036 Kuebel Dr",
    "address_councildis": "E",
    "status": "Assigned to Contractor",
    "contractor": "Waste Pro",
    "rowid": "1114123",
    "final_x": "3695144.13194",
    "final_y": "559710.080477",
    "longitude": "-90.02397010983198",
    "latitude": "30.032586758991627",
    "geocoded_column": {
      "latitude": "30.032586758991627",
      "longitude": "-90.02397010983198"
    }
  },
  {
    "service_request": "2024-1114122",
    "request_type": "Trash/Recycling",
    "request_reason": "Order Recycling Cart",
    "date_created": "2024-07-19T19:34:24.000",
    "date_modified": "2024-07-19T19:34:24.000",
    "request_status": "Pending",
    "responsible_agency": "Department of Sanitation",
    "final_address": "4327 Banks St",
    "address_councildis": "A",
    "status": "Pending",
    "rowid": "1114122",
    "final_x": "3669412.31559",
    "final_y": "538190.155529",
    "longitude": "-90.10601339109711",
    "latitude": "29.97419786604557",
    "geocoded_column": {
      "latitude": "29.97419786604557",
      "longitude": "-90.10601339109711"
    }
  },
  {
    "service_request": "2024-1114119",
    "request_type": "Abandoned Vehicles",
    "request_reason": "Abandoned/Junk Vehicles",
    "date_created": "2024-07-19T19:15:48.000",
    "date_modified": "2024-07-19T19:15:48.000",
    "request_status": "Pending",
    "responsible_agency": "Department of Public Works",
    "final_address": "8616 Nelson St",
    "address_councildis": "A",
    "status": "Pending",
    "rowid": "1114119",
    "final_x": "3663680.15104",
    "final_y": "533103.19482",
    "longitude": "-90.12428649948909",
    "latitude": "29.960377975992373",
    "geocoded_column": {
      "latitude": "29.960377975992373",
      "longitude": "-90.12428649948909"
    }
  },
  {
    "service_request": "2024-1114118",
    "request_type": "Roads/Drainage",
    "request_reason": "Damaged Sidewalk",
    "date_created": "2024-07-19T19:12:21.000",
    "date_modified": "2024-07-19T19:12:21.000",
    "request_status": "Pending",
    "responsible_agency": "Department of Public Works",
    "final_address": "5200 BLK Danneel St",
    "address_councildis": "B",
    "status": "Pending",
    "rowid": "1114118",
    "final_x": "3668060.05328",
    "final_y": "522163.577836",
    "longitude": "-90.11082418753892",
    "latitude": "29.93016977275902",
    "geocoded_column": {
      "latitude": "29.93016977275902",
      "longitude": "-90.11082418753892"
    }
  },
  {
    "service_request": "2024-1114117",
    "request_type": "Property Maintenance",
    "request_reason": "Property Maintenance",
    "date_created": "2024-07-19T18:37:49.000",
    "date_modified": "2024-07-19T18:37:49.000",
    "request_status": "Pending",
    "responsible_agency": "Department of Code Enforcement",
    "final_address": "2017 Foucher St",
    "address_councildis": "B",
    "status": "Pending",
    "rowid": "1114117",
    "final_x": "3673003.03816",
    "final_y": "522791.074811",
    "longitude": "-90.09519854754342",
    "latitude": "29.93174925117674",
    "geocoded_column": {
      "latitude": "29.93174925117674",
      "longitude": "-90.09519854754342"
    }
  },
  {
    "service_request": "2024-1114116",
    "request_type": "Trash/Recycling",
    "request_reason": "Replace Recycling Cart",
    "date_created": "2024-07-19T18:32:24.000",
    "date_modified": "2024-07-19T18:32:24.000",
    "request_status": "Pending",
    "responsible_agency": "Department of Sanitation",
    "final_address": "5426 Constance St",
    "address_councildis": "A",
    "status": "Pending",
    "rowid": "1114116",
    "final_x": "3666446.32167",
    "final_y": "518419.67967",
    "longitude": "-90.11604405608793",
    "latitude": "29.919922476577995",
    "geocoded_column": {
      "latitude": "29.919922476577995",
      "longitude": "-90.11604405608793"
    }
  },
  {
    "service_request": "2024-1114115",
    "request_type": "Roads/Drainage",
    "request_reason": "Pothole",
    "date_created": "2024-07-19T18:18:30.000",
    "date_modified": "2024-07-19T18:18:30.000",
    "request_status": "Pending",
    "responsible_agency": "Department of Public Works",
    "final_address": "1400 BLK Valence St",
    "address_councildis": "B",
    "status": "Pending",
    "rowid": "1114115",
    "final_x": "3669784.65285",
    "final_y": "520336.257015",
    "longitude": "-90.1054417057675",
    "latitude": "29.925094517046503",
    "geocoded_column": {
      "latitude": "29.925094517046503",
      "longitude": "-90.1054417057675"
    }
  },
  {
    "service_request": "2024-1114113",
    "request_type": "Trash/Recycling",
    "request_reason": "Repair Trash Cart",
    "date_created": "2024-07-19T17:42:53.000",
    "date_modified": "2024-07-19T17:42:54.000",
    "request_status": "Pending",
    "responsible_agency": "Department of Sanitation",
    "final_address": "900 Solomon Pl",
    "address_councildis": "A",
    "status": "Assigned to Contractor",
    "contractor": "IV Waste",
    "rowid": "1114113",
    "final_x": "3672560.34983",
    "final_y": "541078.764492",
    "longitude": "-90.09597263394686",
    "latitude": "29.982047466070718",
    "geocoded_column": {
      "latitude": "29.982047466070718",
      "longitude": "-90.09597263394686"
    }
  },
  {
    "service_request": "2024-1114112",
    "request_type": "Roads/Drainage",
    "request_reason": "Catch Basin - Clogged",
    "date_created": "2024-07-19T17:38:39.000",
    "date_modified": "2024-07-19T17:38:39.000",
    "request_status": "Pending",
    "responsible_agency": "Department of Public Works",
    "final_address": "1519 Joliet St",
    "address_councildis": "A",
    "status": "Pending",
    "rowid": "1114112",
    "final_x": "3661755.71386",
    "final_y": "530212.988545",
    "longitude": "-90.1304593175496",
    "latitude": "29.952486537422743",
    "geocoded_column": {
      "latitude": "29.952486537422743",
      "longitude": "-90.1304593175496"
    }
  },
  {
    "service_request": "2024-1114111",
    "request_type": "Trash/Recycling",
    "request_reason": "Order Trash Cart",
    "date_created": "2024-07-19T17:37:09.000",
    "date_modified": "2024-07-19T17:37:10.000",
    "request_status": "Pending",
    "responsible_agency": "Department of Sanitation",
    "final_address": "4900 Marigny St",
    "address_councildis": "D",
    "status": "Assigned to Contractor",
    "contractor": "IV Waste",
    "rowid": "1114111",
    "final_x": "3684333.91189",
    "final_y": "550796.707797",
    "longitude": "-90.05844462167012",
    "latitude": "30.00841349565679",
    "geocoded_column": {
      "latitude": "30.00841349565679",
      "longitude": "-90.05844462167012"
    }
  },
  {
    "service_request": "2024-1114110",
    "request_type": "Trash/Recycling",
    "request_reason": "MIssed Recycling Pick-Up",
    "date_created": "2024-07-19T17:30:46.000",
    "date_modified": "2024-07-19T17:30:47.000",
    "request_status": "Pending",
    "responsible_agency": "Department of Sanitation",
    "final_address": "11200 Chef Menteur Hwy",
    "address_councildis": "E",
    "status": "Assigned to Contractor",
    "contractor": "Waste Pro",
    "rowid": "1114110",
    "final_x": "3716501.04197",
    "final_y": "555743.655193",
    "longitude": "-89.95663193198165",
    "latitude": "30.020992339521815",
    "geocoded_column": {
      "latitude": "30.020992339521815",
      "longitude": "-89.95663193198165"
    }
  },
  {
    "service_request": "2024-1114109",
    "request_type": "Abandoned Vehicles",
    "request_reason": "Abandoned/Junk Vehicles",
    "date_created": "2024-07-19T17:12:29.000",
    "date_modified": "2024-07-19T17:12:29.000",
    "request_status": "Pending",
    "responsible_agency": "Department of Public Works",
    "final_address": "QUINCE ST & HOLLYGROVE ST",
    "address_councildis": "A",
    "status": "Pending",
    "rowid": "1114109",
    "final_x": "3667256.4",
    "final_y": "538902.88",
    "longitude": "-90.1127983195959",
    "latitude": "29.976220939051526",
    "geocoded_column": {
      "latitude": "29.976220939051526",
      "longitude": "-90.1127983195959"
    }
  },
  {
    "service_request": "2024-1114108",
    "request_type": "Trash/Recycling",
    "request_reason": "Replace Trash Cart",
    "date_created": "2024-07-19T17:05:02.000",
    "date_modified": "2024-07-19T17:05:03.000",
    "request_status": "Pending",
    "responsible_agency": "Department of Sanitation",
    "final_address": "1520 Kerlerec St",
    "address_councildis": "C",
    "status": "Assigned to Contractor",
    "contractor": "IV Waste",
    "rowid": "1114108",
    "final_x": "3681611.86012",
    "final_y": "536722.080263",
    "longitude": "-90.06753564834202",
    "latitude": "29.96979622789079",
    "geocoded_column": {
      "latitude": "29.96979622789079",
      "longitude": "-90.06753564834202"
    }
  },
  {
    "service_request": "2024-1114107",
    "request_type": "Trash/Recycling",
    "request_reason": "Illegal Dumping",
    "date_created": "2024-07-19T16:59:36.000",
    "date_modified": "2024-07-19T16:59:37.000",
    "request_status": "Pending",
    "responsible_agency": "Department of Sanitation",
    "final_address": "ELYSIAN FIELDS AVE & N MIRO ST & ELYSIAN FIELDS EXIT",
    "address_councildis": "D",
    "status": "Pending",
    "rowid": "1114107",
    "final_x": "3684601.2",
    "final_y": "540350.58",
    "longitude": "-90.05796750758705",
    "latitude": "29.979682194803676",
    "geocoded_column": {
      "latitude": "29.979682194803676",
      "longitude": "-90.05796750758705"
    }
  },
  {
    "service_request": "2024-1114106",
    "request_type": "Abandoned Vehicles",
    "request_reason": "Abandoned/Junk Vehicles",
    "date_created": "2024-07-19T16:56:34.000",
    "date_modified": "2024-07-19T16:58:54.000",
    "request_status": "Pending",
    "responsible_agency": "Department of Public Works",
    "final_address": "SIMON BOLIVAR AVE & JOSEPHINE ST",
    "address_councildis": "B",
    "status": "Pending",
    "rowid": "1114106",
    "final_x": "3676517.6",
    "final_y": "525754.98",
    "longitude": "-90.0840014398942",
    "latitude": "29.939794128854697",
    "geocoded_column": {
      "latitude": "29.939794128854697",
      "longitude": "-90.0840014398942"
    }
  },
  {
    "service_request": "2024-1114105",
    "request_type": "Property Maintenance",
    "request_reason": "Property Maintenance",
    "date_created": "2024-07-19T16:54:42.000",
    "date_modified": "2024-07-19T16:54:42.000",
    "request_status": "Pending",
    "responsible_agency": "Department of Code Enforcement",
    "final_address": "2424 Tulane Ave",
    "address_councildis": "B",
    "status": "Pending",
    "rowid": "1114105",
    "final_x": "3675255.82997",
    "final_y": "533201.61498",
    "longitude": "-90.0877294629103",
    "latitude": "29.96030767169834",
    "geocoded_column": {
      "latitude": "29.96030767169834",
      "longitude": "-90.0877294629103"
    }
  },
  {
    "service_request": "2024-1114104",
    "request_type": "Abandoned Vehicles",
    "request_reason": "Abandoned/Junk Vehicles",
    "date_created": "2024-07-19T16:52:05.000",
    "date_modified": "2024-07-19T16:52:06.000",
    "request_status": "Pending",
    "responsible_agency": "Department of Public Works",
    "final_address": "3226 Nashville Ave",
    "address_councildis": "A",
    "status": "Pending",
    "rowid": "1114104",
    "final_x": "3667856.13882",
    "final_y": "527697.732031",
    "longitude": "-90.1112815904462",
    "latitude": "29.945392899717135",
    "geocoded_column": {
      "latitude": "29.945392899717135",
      "longitude": "-90.1112815904462"
    }
  },
  {
    "service_request": "2024-1114103",
    "request_type": "Trash/Recycling",
    "request_reason": "Repair Trash Cart",
    "date_created": "2024-07-19T16:50:42.000",
    "date_modified": "2024-07-19T16:50:42.000",
    "request_status": "Pending",
    "responsible_agency": "Department of Sanitation",
    "final_address": "931 Marengo St",
    "address_councildis": "B",
    "status": "Assigned to Contractor",
    "contractor": "IV Waste",
    "rowid": "1114103",
    "final_x": "3672189.68852",
    "final_y": "519167.429559",
    "longitude": "-90.09788954731309",
    "latitude": "29.921809529761305",
    "geocoded_column": {
      "latitude": "29.921809529761305",
      "longitude": "-90.09788954731309"
    }
  },
  {
    "service_request": "2024-1114102",
    "request_type": "Trash/Recycling",
    "request_reason": "Request a Large Item Pick Up",
    "date_created": "2024-07-19T16:50:28.000",
    "date_modified": "2024-07-19T16:50:28.000",
    "request_status": "Pending",
    "responsible_agency": "Department of Sanitation",
    "final_address": "520 N Salcedo St",
    "address_councildis": "A",
    "status": "Assigned to Contractor",
    "contractor": "IV Waste",
    "rowid": "1114102",
    "final_x": "3675129.11259",
    "final_y": "537389.872264",
    "longitude": "-90.08798586862079",
    "latitude": "29.971827751089823",
    "geocoded_column": {
      "latitude": "29.971827751089823",
      "longitude": "-90.08798586862079"
    }
  },
  {
    "service_request": "2024-1114101",
    "request_type": "Trash/Recycling",
    "request_reason": "Order Recycling Cart",
    "date_created": "2024-07-19T16:50:07.000",
    "date_modified": "2024-07-19T16:50:07.000",
    "request_status": "Pending",
    "responsible_agency": "Department of Sanitation",
    "final_address": "2823 Banks St",
    "address_councildis": "B",
    "status": "Pending",
    "rowid": "1114101",
    "final_x": "3674031.83713",
    "final_y": "534669.867718",
    "longitude": "-90.09154433712438",
    "latitude": "29.964381403227797",
    "geocoded_column": {
      "latitude": "29.964381403227797",
      "longitude": "-90.09154433712438"
    }
  },
  {
    "service_request": "2024-1114100",
    "request_type": "Trash/Recycling",
    "request_reason": "Repair Trash Cart",
    "date_created": "2024-07-19T16:50:04.000",
    "date_modified": "2024-07-19T16:50:05.000",
    "request_status": "Pending",
    "responsible_agency": "Department of Sanitation",
    "final_address": "933 Marengo St",
    "address_councildis": "B",
    "status": "Assigned to Contractor",
    "contractor": "IV Waste",
    "rowid": "1114100",
    "final_x": "3672187.60519",
    "final_y": "519180.450359",
    "longitude": "-90.09789568036314",
    "latitude": "29.921845394572504",
    "geocoded_column": {
      "latitude": "29.921845394572504",
      "longitude": "-90.09789568036314"
    }
  },
  {
    "service_request": "2024-1114098",
    "request_type": "Trash/Recycling",
    "request_reason": "Replace Trash Cart",
    "date_created": "2024-07-19T16:41:10.000",
    "date_modified": "2024-07-19T16:41:11.000",
    "request_status": "Pending",
    "responsible_agency": "Department of Sanitation",
    "final_address": "7719 Oak St",
    "address_councildis": "A",
    "status": "Assigned to Contractor",
    "contractor": "IV Waste",
    "rowid": "1114098",
    "final_x": "3662962.06234",
    "final_y": "527517.204095",
    "longitude": "-90.1267398338191",
    "latitude": "29.945039119748007",
    "geocoded_column": {
      "latitude": "29.945039119748007",
      "longitude": "-90.1267398338191"
    }
  },
  {
    "service_request": "2024-1114097",
    "request_type": "Abandoned Vehicles",
    "request_reason": "Abandoned/Junk Vehicles",
    "date_created": "2024-07-19T16:39:14.000",
    "date_modified": "2024-07-19T16:39:14.000",
    "request_status": "Pending",
    "responsible_agency": "Department of Public Works",
    "final_address": "5900 Providence Pl",
    "address_councildis": "D",
    "status": "Pending",
    "rowid": "1114097",
    "final_x": "3688140.41423",
    "final_y": "554993.352409",
    "longitude": "-90.04626978810329",
    "latitude": "30.01983571945994",
    "geocoded_column": {
      "latitude": "30.01983571945994",
      "longitude": "-90.04626978810329"
    }
  },
  {
    "service_request": "2024-1114096",
    "request_type": "Trash/Recycling",
    "request_reason": "Repair Trash Cart",
    "date_created": "2024-07-19T16:38:28.000",
    "date_modified": "2024-07-19T16:38:29.000",
    "request_status": "Pending",
    "responsible_agency": "Department of Sanitation",
    "final_address": "3808 N Prieur St",
    "address_councildis": "D",
    "status": "Assigned to Contractor",
    "contractor": "IV Waste",
    "rowid": "1114096",
    "final_x": "3692031.4015",
    "final_y": "538394.018569",
    "longitude": "-90.03457005478323",
    "latitude": "29.974072856846977",
    "geocoded_column": {
      "latitude": "29.974072856846977",
      "longitude": "-90.03457005478323"
    }
  },
  {
    "service_request": "2024-1114095",
    "request_type": "Trash/Recycling",
    "request_reason": "Order Trash Cart",
    "date_created": "2024-07-19T16:28:18.000",
    "date_modified": "2024-07-19T16:28:19.000",
    "request_status": "Pending",
    "responsible_agency": "Department of Sanitation",
    "final_address": "428 Thayer St",
    "address_councildis": "C",
    "status": "Assigned to Contractor",
    "contractor": "Richards Disposal",
    "rowid": "1114095",
    "final_x": "3689590.66556",
    "final_y": "530006.475265",
    "longitude": "-90.04257682999845",
    "latitude": "29.95108588009921",
    "geocoded_column": {
      "latitude": "29.95108588009921",
      "longitude": "-90.04257682999845"
    }
  },
  {
    "service_request": "2024-1114094",
    "request_type": "Trash/Recycling",
    "request_reason": "Order Trash Cart",
    "date_created": "2024-07-19T16:28:07.000",
    "date_modified": "2024-07-19T16:28:08.000",
    "request_status": "Pending",
    "responsible_agency": "Department of Sanitation",
    "final_address": "428 Thayer St",
    "address_councildis": "C",
    "status": "Assigned to Contractor",
    "contractor": "Richards Disposal",
    "rowid": "1114094",
    "final_x": "3689590.66556",
    "final_y": "530006.475265",
    "longitude": "-90.04257682999845",
    "latitude": "29.95108588009921",
    "geocoded_column": {
      "latitude": "29.95108588009921",
      "longitude": "-90.04257682999845"
    }
  },
  {
    "service_request": "2024-1114093",
    "request_type": "Property Maintenance",
    "request_reason": "Property Maintenance",
    "date_created": "2024-07-19T16:23:32.000",
    "date_modified": "2024-07-19T16:23:33.000",
    "request_status": "Pending",
    "responsible_agency": "Department of Code Enforcement",
    "final_address": "1115 S Gayoso St",
    "address_councildis": "B",
    "status": "Pending",
    "rowid": "1114093",
    "final_x": "3671372.19502",
    "final_y": "531802.577731",
    "longitude": "-90.10004075429245",
    "latitude": "29.956576296429073",
    "geocoded_column": {
      "latitude": "29.956576296429073",
      "longitude": "-90.10004075429245"
    }
  },
  {
    "service_request": "2024-1114092",
    "request_type": "Traffic Signals/Signs/Striping/Streetlights",
    "request_reason": "Traffic Signal Malfunctioning/Damaged",
    "date_created": "2024-07-19T16:21:16.000",
    "date_modified": "2024-07-19T16:21:17.000",
    "request_status": "Pending",
    "responsible_agency": "Department of Public Works",
    "final_address": "TULANE AVE & S BROAD ST",
    "address_councildis": "B",
    "status": "Pending",
    "rowid": "1114092",
    "final_x": "3674286.8",
    "final_y": "533735.08",
    "longitude": "-90.09077119498744",
    "latitude": "29.961803451002524",
    "geocoded_column": {
      "latitude": "29.961803451002524",
      "longitude": "-90.09077119498744"
    }
  },
  {
    "service_request": "2024-1114091",
    "request_type": "Traffic Signals/Signs/Striping/Streetlights",
    "request_reason": "Street Light Outage/Malfunction",
    "date_created": "2024-07-19T16:19:50.000",
    "date_modified": "2024-07-19T16:19:51.000",
    "request_status": "Pending",
    "responsible_agency": "Department of Public Works",
    "final_address": "816 Short St",
    "address_councildis": "A",
    "status": "Assigned to Contractor",
    "contractor": "Legacy Professional Services",
    "rowid": "1114091",
    "final_x": "3661432.23846",
    "final_y": "527186.373503",
    "longitude": "-90.13158094109043",
    "latitude": "29.94417364780513",
    "geocoded_column": {
      "latitude": "29.94417364780513",
      "longitude": "-90.13158094109043"
    }
  },
  {
    "service_request": "2024-1114090",
    "request_type": "Trash/Recycling",
    "request_reason": "Request a Large Item Pick Up",
    "date_created": "2024-07-19T16:19:08.000",
    "date_modified": "2024-07-19T16:19:09.000",
    "request_status": "Pending",
    "responsible_agency": "Department of Sanitation",
    "final_address": "6623 Foch Rd",
    "address_councildis": "D",
    "status": "Assigned to Contractor",
    "contractor": "Waste Pro",
    "rowid": "1114090",
    "final_x": "3696980.26282",
    "final_y": "555705.460121",
    "longitude": "-90.01831305289907",
    "latitude": "30.021517762753394",
    "geocoded_column": {
      "latitude": "30.021517762753394",
      "longitude": "-90.01831305289907"
    }
  },
  {
    "service_request": "2024-1114089",
    "request_type": "Trash/Recycling",
    "request_reason": "Request a Large Item Pick Up",
    "date_created": "2024-07-19T16:04:36.000",
    "date_modified": "2024-07-19T16:04:37.000",
    "request_status": "Pending",
    "responsible_agency": "Department of Sanitation",
    "final_address": "7040 Pinebrook Dr",
    "address_councildis": "E",
    "status": "Assigned to Contractor",
    "contractor": "Waste Pro",
    "rowid": "1114089",
    "final_x": "3719515.24729",
    "final_y": "569711.089126",
    "longitude": "-89.94657390819788",
    "latitude": "30.05929716283975",
    "geocoded_column": {
      "latitude": "30.05929716283975",
      "longitude": "-89.94657390819788"
    }
  },
  {
    "service_request": "2024-1114088",
    "request_type": "Traffic Signals/Signs/Striping/Streetlights",
    "request_reason": "Traffic Signal Malfunctioning/Damaged",
    "date_created": "2024-07-19T16:00:05.000",
    "date_modified": "2024-07-19T16:00:06.000",
    "request_status": "Pending",
    "responsible_agency": "Department of Public Works",
    "final_address": "FRANKLIN AVE & LEON C SIMON DR",
    "address_councildis": "D",
    "status": "Pending",
    "rowid": "1114088",
    "final_x": "3686215.6",
    "final_y": "557350.08",
    "longitude": "-90.05226831351399",
    "latitude": "30.026375154078544",
    "geocoded_column": {
      "latitude": "30.026375154078544",
      "longitude": "-90.05226831351399"
    }
  },
  {
    "service_request": "2024-1114087",
    "request_type": "Trash/Recycling",
    "request_reason": "Replace Trash Cart",
    "date_created": "2024-07-19T15:58:03.000",
    "date_modified": "2024-07-19T15:58:03.000",
    "request_status": "Pending",
    "responsible_agency": "Department of Sanitation",
    "final_address": "8322 Hammond St",
    "address_councildis": "E",
    "status": "Assigned to Contractor",
    "contractor": "Waste Pro",
    "rowid": "1114087",
    "final_x": "3705880.02276",
    "final_y": "555681.915033",
    "longitude": "-89.9901933183389",
    "latitude": "30.02116917892739",
    "geocoded_column": {
      "latitude": "30.02116917892739",
      "longitude": "-89.9901933183389"
    }
  },
  {
    "service_request": "2024-1114086",
    "request_type": "Traffic Signals/Signs/Striping/Streetlights",
    "request_reason": "Street Light Outage/Malfunction",
    "date_created": "2024-07-19T15:55:38.000",
    "date_modified": "2024-07-19T15:55:39.000",
    "request_status": "Pending",
    "responsible_agency": "Department of Public Works",
    "final_address": "13521 Wales St",
    "address_councildis": "E",
    "status": "Assigned to Contractor",
    "contractor": "Legacy Professional Services",
    "rowid": "1114086",
    "final_x": "3716645.87557",
    "final_y": "571341.961448",
    "longitude": "-89.95558169300948",
    "latitude": "30.06387655708388",
    "geocoded_column": {
      "latitude": "30.06387655708388",
      "longitude": "-89.95558169300948"
    }
  },
  {
    "service_request": "2024-1114085",
    "request_type": "Trash/Recycling",
    "request_reason": "Missed Trash Pick-Up",
    "date_created": "2024-07-19T15:52:43.000",
    "date_modified": "2024-07-19T15:52:44.000",
    "request_status": "Pending",
    "responsible_agency": "Department of Sanitation",
    "final_address": "2822 Jefferson Avenue, NOLA",
    "status": "Assigned to Contractor",
    "rowid": "1114085",
    "longitude": "0.0",
    "latitude": "0.0",
    "geocoded_column": {
      "latitude": "0.0",
      "longitude": "0.0"
    }
  },
  {
    "service_request": "2024-1114084",
    "request_type": "Trash/Recycling",
    "request_reason": "Order Trash Cart",
    "date_created": "2024-07-19T15:52:08.000",
    "date_modified": "2024-07-19T15:52:09.000",
    "request_status": "Pending",
    "responsible_agency": "Department of Sanitation",
    "final_address": "723 Hendee St",
    "address_councildis": "C",
    "status": "Assigned to Contractor",
    "contractor": "Richards Disposal",
    "rowid": "1114084",
    "final_x": "3690795.07632",
    "final_y": "528799.32384",
    "longitude": "-90.03881697747106",
    "latitude": "29.947729269139387",
    "geocoded_column": {
      "latitude": "29.947729269139387",
      "longitude": "-90.03881697747106"
    }
  },
  {
    "service_request": "2024-1114082",
    "request_type": "Trash/Recycling",
    "request_reason": "Order Trash Cart",
    "date_created": "2024-07-19T15:51:12.000",
    "date_modified": "2024-07-19T15:51:12.000",
    "request_status": "Pending",
    "responsible_agency": "Department of Sanitation",
    "final_address": "4856 Tchoupitoulas St",
    "address_councildis": "B",
    "status": "Assigned to Contractor",
    "contractor": "IV Waste",
    "rowid": "1114082",
    "final_x": "3669223.33018",
    "final_y": "517212.147509",
    "longitude": "-90.1073191445732",
    "latitude": "29.916520731579396",
    "geocoded_column": {
      "latitude": "29.916520731579396",
      "longitude": "-90.1073191445732"
    }
  },
  {
    "service_request": "2024-1114081",
    "request_type": "Trash/Recycling",
    "request_reason": "Request a Large Item Pick Up",
    "date_created": "2024-07-19T15:48:52.000",
    "date_modified": "2024-07-19T15:48:53.000",
    "request_status": "Pending",
    "responsible_agency": "Department of Sanitation",
    "final_address": "1920 S Lopez St",
    "address_councildis": "B",
    "status": "Assigned to Contractor",
    "contractor": "IV Waste",
    "rowid": "1114081",
    "final_x": "3669590.86881",
    "final_y": "529860.909633",
    "longitude": "-90.1057313046256",
    "latitude": "29.95128994587979",
    "geocoded_column": {
      "latitude": "29.95128994587979",
      "longitude": "-90.1057313046256"
    }
  },
  {
    "service_request": "2024-1114080",
    "request_type": "Trash/Recycling",
    "request_reason": "Repair Recycling Cart",
    "date_created": "2024-07-19T15:46:55.000",
    "date_modified": "2024-07-19T15:46:56.000",
    "request_status": "Pending",
    "responsible_agency": "Department of Sanitation",
    "final_address": "925 Poland Ave",
    "address_councildis": "C",
    "status": "Pending",
    "rowid": "1114080",
    "final_x": "3692955.21667",
    "final_y": "534392.511877",
    "longitude": "-90.03179599689916",
    "latitude": "29.963041305378372",
    "geocoded_column": {
      "latitude": "29.963041305378372",
      "longitude": "-90.03179599689916"
    }
  },
  {
    "service_request": "2024-1114079",
    "request_type": "Healthy Homes",
    "request_reason": "Healthy Homes",
    "date_created": "2024-07-19T15:46:02.000",
    "date_modified": "2024-07-19T16:04:23.000",
    "case_close_date": "2024-07-19T11:04:23.000",
    "request_status": "Closed",
    "responsible_agency": "Department of Code Enforcement",
    "final_address": "1819 Old Roman St",
    "address_councildis": "D",
    "status": "Referred to Code Enforcement",
    "rowid": "1114079",
    "final_x": "3682347.80642",
    "final_y": "539263.111754",
    "longitude": "-90.06512264591868",
    "latitude": "29.976760808410646",
    "geocoded_column": {
      "latitude": "29.976760808410646",
      "longitude": "-90.06512264591868"
    }
  },
  {
    "service_request": "2024-1114078",
    "request_type": "Abandoned Vehicles",
    "request_reason": "Abandoned/Junk Vehicles",
    "date_created": "2024-07-19T15:42:40.000",
    "date_modified": "2024-07-19T15:42:40.000",
    "request_status": "Pending",
    "responsible_agency": "Department of Public Works",
    "final_address": "1614 Bodenger Blvd",
    "address_councildis": "C",
    "status": "Pending",
    "rowid": "1114078",
    "final_x": "3688547.00105",
    "final_y": "525701.207485",
    "longitude": "-90.04602491371398",
    "latitude": "29.939280147727743",
    "geocoded_column": {
      "latitude": "29.939280147727743",
      "longitude": "-90.04602491371398"
    }
  },
  {
    "service_request": "2024-1114077",
    "request_type": "Traffic Signals/Signs/Striping/Streetlights",
    "request_reason": "Street Light Outage/Malfunction",
    "date_created": "2024-07-19T15:42:31.000",
    "date_modified": "2024-07-19T15:42:32.000",
    "request_status": "Pending",
    "responsible_agency": "Department of Public Works",
    "final_address": "4715 S Robertson St",
    "address_councildis": "B",
    "status": "Assigned to Contractor",
    "contractor": "Legacy Professional Services",
    "rowid": "1114077",
    "final_x": "3669244.51694",
    "final_y": "524318.253372",
    "longitude": "-90.10701221842926",
    "latitude": "29.93605963841788",
    "geocoded_column": {
      "latitude": "29.93605963841788",
      "longitude": "-90.10701221842926"
    }
  },
  {
    "service_request": "2024-1114075",
    "request_type": "Parks & Parkways",
    "request_reason": "Request Tree Service (Right of Way/Public Property)",
    "date_created": "2024-07-19T15:36:54.000",
    "date_modified": "2024-07-19T15:36:55.000",
    "request_status": "Pending",
    "responsible_agency": "Department of Parks & Parkway",
    "final_address": "3845 Peach Tree Ct",
    "address_councildis": "C",
    "status": "Pending",
    "rowid": "1114075",
    "final_x": "3704136.70686",
    "final_y": "512398.590129",
    "longitude": "-89.99729630411032",
    "latitude": "29.90221175383216",
    "geocoded_column": {
      "latitude": "29.90221175383216",
      "longitude": "-89.99729630411032"
    }
  },
  {
    "service_request": "2024-1114074",
    "request_type": "Trash/Recycling",
    "request_reason": "Replace Trash Cart",
    "date_created": "2024-07-19T15:31:47.000",
    "date_modified": "2024-07-19T15:31:47.000",
    "request_status": "Pending",
    "responsible_agency": "Department of Sanitation",
    "final_address": "1725 Valmont St",
    "address_councildis": "B",
    "status": "Assigned to Contractor",
    "contractor": "IV Waste",
    "rowid": "1114074",
    "final_x": "3668009.84711",
    "final_y": "522026.724602",
    "longitude": "-90.11098728954666",
    "latitude": "29.929794942732663",
    "geocoded_column": {
      "latitude": "29.929794942732663",
      "longitude": "-90.11098728954666"
    }
  },
  {
    "service_request": "2024-1114073",
    "request_type": "Property Maintenance",
    "request_reason": "Property Maintenance",
    "date_created": "2024-07-19T15:30:30.000",
    "date_modified": "2024-07-19T15:50:31.000",
    "case_close_date": "2024-07-19T10:50:31.000",
    "request_status": "Closed",
    "responsible_agency": "Department of Code Enforcement",
    "final_address": "8920 Pear St",
    "address_councildis": "A",
    "status": "Referred to Code Enforcement",
    "rowid": "1114073",
    "final_x": "3666871.57581",
    "final_y": "538250.463177",
    "longitude": "-90.11403563892834",
    "latitude": "29.974438276745875",
    "geocoded_column": {
      "latitude": "29.974438276745875",
      "longitude": "-90.11403563892834"
    }
  },
  {
    "service_request": "2024-1114072",
    "request_type": "Traffic Signals/Signs/Striping/Streetlights",
    "request_reason": "Traffic Signal Malfunctioning/Damaged",
    "date_created": "2024-07-19T15:29:25.000",
    "date_modified": "2024-07-19T15:29:25.000",
    "request_status": "Pending",
    "responsible_agency": "Department of Public Works",
    "final_address": "S BROAD ST & GRAVIER ST & S BROAD ST OVERPASS & S BROAD AVE",
    "address_councildis": "B",
    "status": "Pending",
    "rowid": "1114072",
    "final_x": "3674058.3",
    "final_y": "533314.68",
    "longitude": "-90.09150715007313",
    "latitude": "29.960654303240595",
    "geocoded_column": {
      "latitude": "29.960654303240595",
      "longitude": "-90.09150715007313"
    }
  },
  {
    "service_request": "2024-1114071",
    "request_type": "Trash/Recycling",
    "request_reason": "Order Recycling Cart",
    "date_created": "2024-07-19T15:27:20.000",
    "date_modified": "2024-07-19T15:27:21.000",
    "request_status": "Pending",
    "responsible_agency": "Department of Sanitation",
    "final_address": "3218 Chippewa St",
    "address_councildis": "B",
    "status": "Pending",
    "rowid": "1114071",
    "final_x": "3676376.08405",
    "final_y": "518526.716407",
    "longitude": "-90.0846969060357",
    "latitude": "29.919922997164928",
    "geocoded_column": {
      "latitude": "29.919922997164928",
      "longitude": "-90.0846969060357"
    }
  },
  {
    "service_request": "2024-1114070",
    "request_type": "Trash/Recycling",
    "request_reason": "Request a Large Item Pick Up",
    "date_created": "2024-07-19T15:27:08.000",
    "date_modified": "2024-07-19T15:27:09.000",
    "request_status": "Pending",
    "responsible_agency": "Department of Sanitation",
    "final_address": "6000 Craigie Rd",
    "address_councildis": "E",
    "status": "Assigned to Contractor",
    "contractor": "Waste Pro",
    "rowid": "1114070",
    "final_x": "3695252.96317",
    "final_y": "558519.590812",
    "longitude": "-90.02366919508705",
    "latitude": "30.02930994736514",
    "geocoded_column": {
      "latitude": "30.02930994736514",
      "longitude": "-90.02366919508705"
    }
  },
  {
    "service_request": "2024-1114069",
    "request_type": "Trash/Recycling",
    "request_reason": "Order Trash Cart",
    "date_created": "2024-07-19T15:22:31.000",
    "date_modified": "2024-07-19T15:22:32.000",
    "request_status": "Pending",
    "responsible_agency": "Department of Sanitation",
    "final_address": "7122 Downman Rd",
    "address_councildis": "D",
    "status": "Assigned to Contractor",
    "contractor": "Waste Pro",
    "rowid": "1114069",
    "final_x": "3695087.62403",
    "final_y": "556620.318874",
    "longitude": "-90.0242602266527",
    "latitude": "30.024092866578687",
    "geocoded_column": {
      "latitude": "30.024092866578687",
      "longitude": "-90.0242602266527"
    }
  },
  {
    "service_request": "2024-1114068",
    "request_type": "Trash/Recycling",
    "request_reason": "Order Recycling Cart",
    "date_created": "2024-07-19T15:20:47.000",
    "date_modified": "2024-07-19T15:20:47.000",
    "request_status": "Pending",
    "responsible_agency": "Department of Sanitation",
    "final_address": "2301 Magazine St",
    "address_councildis": "B",
    "status": "Pending",
    "rowid": "1114068",
    "final_x": "3678487.91016",
    "final_y": "521851.003578",
    "longitude": "-90.07791592815494",
    "latitude": "29.929000259503336",
    "geocoded_column": {
      "latitude": "29.929000259503336",
      "longitude": "-90.07791592815494"
    }
  },
  {
    "service_request": "2024-1114067",
    "request_type": "Property Maintenance",
    "request_reason": "Property Maintenance",
    "date_created": "2024-07-19T15:20:31.000",
    "date_modified": "2024-07-19T15:44:38.000",
    "case_close_date": "2024-07-19T10:44:38.000",
    "request_status": "Closed",
    "responsible_agency": "Department of Code Enforcement",
    "final_address": "8702 Pear St",
    "address_councildis": "A",
    "status": "Referred to Code Enforcement",
    "rowid": "1114067",
    "final_x": "3667471.3426",
    "final_y": "537677.25268",
    "longitude": "-90.11216071877062",
    "latitude": "29.972844577287944",
    "geocoded_column": {
      "latitude": "29.972844577287944",
      "longitude": "-90.11216071877062"
    }
  },
  {
    "service_request": "2024-1114066",
    "request_type": "Roads/Drainage",
    "request_reason": "Street Subsidence (Sinking)",
    "date_created": "2024-07-19T15:19:11.000",
    "date_modified": "2024-07-19T15:19:12.000",
    "request_status": "Pending",
    "responsible_agency": "Department of Public Works",
    "final_address": "CHEF MENTEUR HWY & MICHOUD BLVD",
    "address_councildis": "E",
    "status": "Pending",
    "rowid": "1114066",
    "final_x": "3725626.6",
    "final_y": "559566.08",
    "longitude": "-89.92765004516288",
    "latitude": "30.031197821341838",
    "geocoded_column": {
      "latitude": "30.031197821341838",
      "longitude": "-89.92765004516288"
    }
  },
  {
    "service_request": "2024-1114065",
    "request_type": "Abandoned Vehicles",
    "request_reason": "Abandoned/Junk Vehicles",
    "date_created": "2024-07-19T15:17:28.000",
    "date_modified": "2024-07-19T15:19:55.000",
    "request_status": "Pending",
    "responsible_agency": "Department of Public Works",
    "final_address": "3025 Memorial Park Dr",
    "address_councildis": "C",
    "status": "Pending",
    "rowid": "1114065",
    "final_x": "3694541.97085",
    "final_y": "519457.509751",
    "longitude": "-90.02732279774546",
    "latitude": "29.92192555248067",
    "geocoded_column": {
      "latitude": "29.92192555248067",
      "longitude": "-90.02732279774546"
    }
  },
  {
    "service_request": "2024-1114064",
    "request_type": "Roads/Drainage",
    "request_reason": "Catch Basin - Broken/Damage",
    "date_created": "2024-07-19T15:16:57.000",
    "date_modified": "2024-07-19T15:16:57.000",
    "request_status": "Pending",
    "responsible_agency": "Department of Public Works",
    "final_address": "4306 Hamilton St",
    "address_councildis": "A",
    "status": "Pending",
    "rowid": "1114064",
    "final_x": "3666776.87425",
    "final_y": "538961.431562",
    "longitude": "-90.1143108420309",
    "latitude": "29.976395972347373",
    "geocoded_column": {
      "latitude": "29.976395972347373",
      "longitude": "-90.1143108420309"
    }
  },
  {
    "service_request": "2024-1114063",
    "request_type": "Trash/Recycling",
    "request_reason": "Request a Large Item Pick Up",
    "date_created": "2024-07-19T15:13:03.000",
    "date_modified": "2024-07-19T15:13:04.000",
    "request_status": "Pending",
    "responsible_agency": "Department of Sanitation",
    "final_address": "4126 Copernicus St",
    "address_councildis": "C",
    "status": "Assigned to Contractor",
    "contractor": "Richards Disposal",
    "rowid": "1114063",
    "final_x": "3699221.4936",
    "final_y": "523315.464251",
    "longitude": "-90.01241122405335",
    "latitude": "29.932386114438852",
    "geocoded_column": {
      "latitude": "29.932386114438852",
      "longitude": "-90.01241122405335"
    }
  },
  {
    "service_request": "2024-1114062",
    "request_type": "Parks & Parkways",
    "request_reason": "Request Tree Service (Right of Way/Public Property)",
    "date_created": "2024-07-19T15:11:31.000",
    "date_modified": "2024-07-19T15:11:32.000",
    "request_status": "Pending",
    "responsible_agency": "Department of Parks & Parkway",
    "final_address": "615 Jefferson Ave",
    "address_councildis": "B",
    "status": "Pending",
    "rowid": "1114062",
    "final_x": "3666592.3266",
    "final_y": "517696.842742",
    "longitude": "-90.11560743554148",
    "latitude": "29.917930635750533",
    "geocoded_column": {
      "latitude": "29.917930635750533",
      "longitude": "-90.11560743554148"
    }
  },
  {
    "service_request": "2024-1114061",
    "request_type": "Trash/Recycling",
    "request_reason": "Request a Large Item Pick Up",
    "date_created": "2024-07-19T15:11:05.000",
    "date_modified": "2024-07-19T15:11:06.000",
    "request_status": "Pending",
    "responsible_agency": "Department of Sanitation",
    "final_address": "8201 Jeannette St",
    "address_councildis": "A",
    "status": "Assigned to Contractor",
    "contractor": "IV Waste",
    "rowid": "1114061",
    "final_x": "3662412.2841",
    "final_y": "529437.030081",
    "longitude": "-90.12841192194905",
    "latitude": "29.950333933009393",
    "geocoded_column": {
      "latitude": "29.950333933009393",
      "longitude": "-90.12841192194905"
    }
  },
  {
    "service_request": "2024-1114060",
    "request_type": "Trash/Recycling",
    "request_reason": "Illegal Dumping",
    "date_created": "2024-07-19T15:07:43.000",
    "date_modified": "2024-07-19T15:24:07.000",
    "case_close_date": "2024-07-19T10:24:07.000",
    "request_status": "Closed",
    "responsible_agency": "Department of Public Works",
    "final_address": "9000 BLK Old Gentilly Rd",
    "address_councildis": "E",
    "status": "Referred to External Agency",
    "rowid": "1114060",
    "final_x": "3708954.50495",
    "final_y": "553119.187512",
    "longitude": "-89.98057450580565",
    "latitude": "30.014023221919356",
    "geocoded_column": {
      "latitude": "30.014023221919356",
      "longitude": "-89.98057450580565"
    }
  },
  {
    "service_request": "2024-1114059",
    "request_type": "Parks & Parkways",
    "request_reason": "Request Tree Service (Right of Way/Public Property)",
    "date_created": "2024-07-19T15:07:34.000",
    "date_modified": "2024-07-19T15:07:34.000",
    "request_status": "Pending",
    "responsible_agency": "Department of Parks & Parkway",
    "final_address": "4601 Macarthur Blvd",
    "address_councildis": "C",
    "status": "Pending",
    "rowid": "1114059",
    "final_x": "3700783.8625",
    "final_y": "519915.731448",
    "longitude": "-90.00760317658991",
    "latitude": "29.922988406469383",
    "geocoded_column": {
      "latitude": "29.922988406469383",
      "longitude": "-90.00760317658991"
    }
  },
  {
    "service_request": "2024-1114058",
    "request_type": "Trash/Recycling",
    "request_reason": "Replace Trash Cart",
    "date_created": "2024-07-19T15:06:28.000",
    "date_modified": "2024-07-19T15:06:29.000",
    "request_status": "Pending",
    "responsible_agency": "Department of Sanitation",
    "final_address": "1209 Decatur St",
    "address_councildis": "C",
    "status": "Assigned to Contractor",
    "contractor": "Empire Services",
    "rowid": "1114058",
    "final_x": "3684308.84796",
    "final_y": "533552.958405",
    "longitude": "-90.05912962021254",
    "latitude": "29.961000039913422",
    "geocoded_column": {
      "latitude": "29.961000039913422",
      "longitude": "-90.05912962021254"
    }
  },
  {
    "service_request": "2024-1114057",
    "request_type": "Property Maintenance",
    "request_reason": "Property Maintenance",
    "date_created": "2024-07-19T15:05:02.000",
    "date_modified": "2024-07-19T15:05:03.000",
    "request_status": "Pending",
    "responsible_agency": "Department of Code Enforcement",
    "final_address": "7512 Read Blvd",
    "address_councildis": "E",
    "status": "Pending",
    "rowid": "1114057",
    "final_x": "3708561.42206",
    "final_y": "564270.778401",
    "longitude": "-89.98140073330406",
    "latitude": "30.04469846670807",
    "geocoded_column": {
      "latitude": "30.04469846670807",
      "longitude": "-89.98140073330406"
    }
  },
  {
    "service_request": "2024-1114056",
    "request_type": "Mosquito, Termite & Rodent Control",
    "request_reason": "Rodent Complaint (Rats)",
    "date_created": "2024-07-19T15:02:09.000",
    "date_modified": "2024-07-19T15:03:56.000",
    "request_status": "Pending",
    "responsible_agency": "Mosquito, Termite & Rodent Control Board",
    "final_address": "2616 Allen St",
    "address_councildis": "D",
    "status": "Pending",
    "rowid": "1114056",
    "final_x": "3682290.73404",
    "final_y": "541780.801292",
    "longitude": "-90.06521489611785",
    "latitude": "29.98368531152066",
    "geocoded_column": {
      "latitude": "29.98368531152066",
      "longitude": "-90.06521489611785"
    }
  },
  {
    "service_request": "2024-1114055",
    "request_type": "Trash/Recycling",
    "request_reason": "MIssed Recycling Pick-Up",
    "date_created": "2024-07-19T15:00:19.000",
    "date_modified": "2024-07-19T15:00:20.000",
    "request_status": "Pending",
    "responsible_agency": "Department of Sanitation",
    "final_address": "4430 Lancelot Dr, New Orleans, Louisiana, 70127",
    "address_councildis": "E",
    "status": "Assigned to Contractor",
    "contractor": "Waste Pro",
    "rowid": "1114055",
    "final_x": "3707544.13688",
    "final_y": "553760.070743",
    "longitude": "-89.98500668723098",
    "latitude": "30.01583111096896",
    "geocoded_column": {
      "latitude": "30.01583111096896",
      "longitude": "-89.98500668723098"
    }
  },
  {
    "service_request": "2024-1114054",
    "request_type": "Abandoned Vehicles",
    "request_reason": "Abandoned/Junk Vehicles",
    "date_created": "2024-07-19T15:00:06.000",
    "date_modified": "2024-07-19T15:00:06.000",
    "request_status": "Pending",
    "responsible_agency": "Department of Public Works",
    "final_address": "4227 Hamilton St",
    "address_councildis": "A",
    "status": "Pending",
    "rowid": "1114054",
    "final_x": "3666720.73511",
    "final_y": "538714.249481",
    "longitude": "-90.11449645111135",
    "latitude": "29.97571794653267",
    "geocoded_column": {
      "latitude": "29.97571794653267",
      "longitude": "-90.11449645111135"
    }
  },
  {
    "service_request": "2024-1114053",
    "request_type": "Trash/Recycling",
    "request_reason": "Return Recycling Cart",
    "date_created": "2024-07-19T14:56:59.000",
    "date_modified": "2024-07-19T14:57:00.000",
    "request_status": "Pending",
    "responsible_agency": "Department of Sanitation",
    "final_address": "1457 N Roman St",
    "address_councildis": "D",
    "status": "Pending",
    "rowid": "1114053",
    "final_x": "3681005.06063",
    "final_y": "537477.627912",
    "longitude": "-90.06942565666895",
    "latitude": "29.971892141205515",
    "geocoded_column": {
      "latitude": "29.971892141205515",
      "longitude": "-90.06942565666895"
    }
  },
  {
    "service_request": "2024-1114052",
    "request_type": "Trash/Recycling",
    "request_reason": "Order Trash Cart",
    "date_created": "2024-07-19T14:55:50.000",
    "date_modified": "2024-07-19T14:55:51.000",
    "request_status": "Pending",
    "responsible_agency": "Department of Sanitation",
    "final_address": "511 Lowerline St Apt 1A",
    "address_councildis": "A",
    "status": "Assigned to Contractor",
    "contractor": "IV Waste",
    "rowid": "1114052",
    "final_x": "3662230.39578",
    "final_y": "524557.279356",
    "longitude": "-90.12914815561372",
    "latitude": "29.93692143245433",
    "geocoded_column": {
      "latitude": "29.93692143245433",
      "longitude": "-90.12914815561372"
    }
  },
  {
    "service_request": "2024-1114051",
    "request_type": "Traffic Signals/Signs/Striping/Streetlights",
    "request_reason": "Crosswalks and Signage",
    "date_created": "2024-07-19T14:54:17.000",
    "date_modified": "2024-07-19T14:54:17.000",
    "request_status": "Pending",
    "responsible_agency": "Department of Public Works",
    "final_address": "S CARROLLTON AVE & SPRUCE ST",
    "address_councildis": "A",
    "status": "Pending",
    "rowid": "1114051",
    "final_x": "3663877.3",
    "final_y": "530430.48",
    "longitude": "-90.12375303461232",
    "latitude": "29.953023157760004",
    "geocoded_column": {
      "latitude": "29.953023157760004",
      "longitude": "-90.12375303461232"
    }
  },
  {
    "service_request": "2024-1114050",
    "request_type": "Abandoned Vehicles",
    "request_reason": "Abandoned/Junk Vehicles",
    "date_created": "2024-07-19T14:53:50.000",
    "date_modified": "2024-07-19T14:53:50.000",
    "request_status": "Pending",
    "responsible_agency": "Department of Public Works",
    "final_address": "1800 BLK Feliciana St",
    "address_councildis": "D",
    "status": "Pending",
    "rowid": "1114050",
    "final_x": "3689436.43671",
    "final_y": "538879.285874",
    "longitude": "-90.04274825722777",
    "latitude": "29.975487790445428",
    "geocoded_column": {
      "latitude": "29.975487790445428",
      "longitude": "-90.04274825722777"
    }
  },
  {
    "service_request": "2024-1114049",
    "request_type": "Roads/Drainage",
    "request_reason": "Street Subsidence (Sinking)",
    "date_created": "2024-07-19T14:52:10.000",
    "date_modified": "2024-07-19T14:52:10.000",
    "request_status": "Pending",
    "responsible_agency": "Department of Public Works",
    "final_address": "429 N Galvez St",
    "address_councildis": "B",
    "status": "Pending",
    "rowid": "1114049",
    "final_x": "3677764.20008",
    "final_y": "535027.658246",
    "longitude": "-90.07974546313999",
    "latitude": "29.965253456917125",
    "geocoded_column": {
      "latitude": "29.965253456917125",
      "longitude": "-90.07974546313999"
    }
  },
  {
    "service_request": "2024-1114048",
    "request_type": "Abandoned Vehicles",
    "request_reason": "Abandoned/Junk Vehicles",
    "date_created": "2024-07-19T14:50:18.000",
    "date_modified": "2024-07-19T14:50:19.000",
    "request_status": "Pending",
    "responsible_agency": "Department of Public Works",
    "final_address": "ST BERNARD AVE & I 610 E",
    "address_councildis": "D",
    "status": "Pending",
    "rowid": "1114048",
    "final_x": "3678420.3",
    "final_y": "545069.28",
    "longitude": "-90.07732593505737",
    "latitude": "29.992844691153376",
    "geocoded_column": {
      "latitude": "29.992844691153376",
      "longitude": "-90.07732593505737"
    }
  },
  {
    "service_request": "2024-1114047",
    "request_type": "Trash/Recycling",
    "request_reason": "Request a Large Item Pick Up",
    "date_created": "2024-07-19T14:49:58.000",
    "date_modified": "2024-07-19T14:49:59.000",
    "request_status": "Pending",
    "responsible_agency": "Department of Sanitation",
    "final_address": "8213 Neron Pl",
    "address_councildis": "A",
    "status": "Assigned to Contractor",
    "contractor": "IV Waste",
    "rowid": "1114047",
    "final_x": "3664167.44832",
    "final_y": "531640.833923",
    "longitude": "-90.12279649373708",
    "latitude": "29.956342813087858",
    "geocoded_column": {
      "latitude": "29.956342813087858",
      "longitude": "-90.12279649373708"
    }
  },
  {
    "service_request": "2024-1114046",
    "request_type": "Trash/Recycling",
    "request_reason": "Request a Large Item Pick Up",
    "date_created": "2024-07-19T14:49:41.000",
    "date_modified": "2024-07-19T14:49:42.000",
    "request_status": "Pending",
    "responsible_agency": "Department of Sanitation",
    "final_address": "301 28Th St",
    "address_councildis": "A",
    "status": "Assigned to Contractor",
    "contractor": "IV Waste",
    "rowid": "1114046",
    "final_x": "3665233.85863",
    "final_y": "550278.611668",
    "longitude": "-90.1188053130208",
    "latitude": "30.007559413341625",
    "geocoded_column": {
      "latitude": "30.007559413341625",
      "longitude": "-90.1188053130208"
    }
  },
  {
    "service_request": "2024-1114045",
    "request_type": "Abandoned Vehicles",
    "request_reason": "Abandoned/Junk Vehicles",
    "date_created": "2024-07-19T14:47:38.000",
    "date_modified": "2024-07-19T14:47:38.000",
    "request_status": "Pending",
    "responsible_agency": "Department of Public Works",
    "final_address": "1436 Allen Toussaint Blvd",
    "address_councildis": "D",
    "status": "Pending",
    "rowid": "1114045",
    "final_x": "3678020.5579",
    "final_y": "555182.333337",
    "longitude": "-90.0782387368516",
    "latitude": "30.020664020105833",
    "geocoded_column": {
      "latitude": "30.020664020105833",
      "longitude": "-90.0782387368516"
    }
  },
  {
    "service_request": "2024-1114044",
    "request_type": "Trash/Recycling",
    "request_reason": "Replace Trash Cart",
    "date_created": "2024-07-19T14:46:50.000",
    "date_modified": "2024-07-19T14:46:50.000",
    "request_status": "Pending",
    "responsible_agency": "Department of Sanitation",
    "final_address": "2663 Lavender St",
    "address_councildis": "D",
    "status": "Assigned to Contractor",
    "contractor": "IV Waste",
    "rowid": "1114044",
    "final_x": "3687593.97417",
    "final_y": "547052.112529",
    "longitude": "-90.04827776061276",
    "latitude": "29.998017081279126",
    "geocoded_column": {
      "latitude": "29.998017081279126",
      "longitude": "-90.04827776061276"
    }
  },
  {
    "service_request": "2024-1114043",
    "request_type": "Property Maintenance",
    "request_reason": "Property Maintenance",
    "date_created": "2024-07-19T14:46:22.000",
    "date_modified": "2024-07-19T14:46:22.000",
    "request_status": "Pending",
    "responsible_agency": "Department of Code Enforcement",
    "final_address": "4309 Woodland Dr",
    "address_councildis": "C",
    "status": "Pending",
    "rowid": "1114043",
    "final_x": "3705311.41163",
    "final_y": "514636.762163",
    "longitude": "-89.99350642531763",
    "latitude": "29.908328248506546",
    "geocoded_column": {
      "latitude": "29.908328248506546",
      "longitude": "-89.99350642531763"
    }
  },
  {
    "service_request": "2024-1114042",
    "request_type": "Roads/Drainage",
    "request_reason": "Pothole",
    "date_created": "2024-07-19T14:46:14.000",
    "date_modified": "2024-07-19T14:46:14.000",
    "request_status": "Pending",
    "responsible_agency": "Department of Public Works",
    "final_address": "119 S Galvez St",
    "address_councildis": "B",
    "status": "Pending",
    "rowid": "1114042",
    "final_x": "3676098.91477",
    "final_y": "533599.364101",
    "longitude": "-90.08505349086397",
    "latitude": "29.961376120611177",
    "geocoded_column": {
      "latitude": "29.961376120611177",
      "longitude": "-90.08505349086397"
    }
  },
  {
    "service_request": "2024-1114041",
    "request_type": "Property Maintenance",
    "request_reason": "Property Maintenance",
    "date_created": "2024-07-19T14:43:32.000",
    "date_modified": "2024-07-19T14:43:32.000",
    "request_status": "Pending",
    "responsible_agency": "Department of Code Enforcement",
    "final_address": "4305 Woodland Dr",
    "address_councildis": "C",
    "status": "Pending",
    "rowid": "1114041",
    "final_x": "3705310.65623",
    "final_y": "514681.392179",
    "longitude": "-89.99350716239971",
    "latitude": "29.908450990054067",
    "geocoded_column": {
      "latitude": "29.908450990054067",
      "longitude": "-89.99350716239971"
    }
  },
  {
    "service_request": "2024-1114040",
    "request_type": "Property Maintenance",
    "request_reason": "Property Maintenance",
    "date_created": "2024-07-19T14:43:26.000",
    "date_modified": "2024-07-19T14:55:35.000",
    "case_close_date": "2024-07-19T09:55:35.000",
    "request_status": "Closed",
    "responsible_agency": "Department of Code Enforcement",
    "final_address": "4012 Hollygrove St",
    "address_councildis": "A",
    "status": "Referred to Code Enforcement",
    "rowid": "1114040",
    "final_x": "3666371.25953",
    "final_y": "537985.534537",
    "longitude": "-90.1156246554308",
    "latitude": "29.973724440887814",
    "geocoded_column": {
      "latitude": "29.973724440887814",
      "longitude": "-90.1156246554308"
    }
  },
  {
    "service_request": "2024-1114039",
    "request_type": "Trash/Recycling",
    "request_reason": "Request a Large Item Pick Up",
    "date_created": "2024-07-19T14:41:48.000",
    "date_modified": "2024-07-19T14:41:49.000",
    "request_status": "Pending",
    "responsible_agency": "Department of Sanitation",
    "final_address": "11425 N Easterlyn Cir",
    "address_councildis": "E",
    "status": "Assigned to Contractor",
    "contractor": "Waste Pro",
    "rowid": "1114039",
    "final_x": "3718472.88761",
    "final_y": "561024.710494",
    "longitude": "-89.95020012046852",
    "latitude": "30.0354478312785",
    "geocoded_column": {
      "latitude": "30.0354478312785",
      "longitude": "-89.95020012046852"
    }
  },
  {
    "service_request": "2024-1114038",
    "request_type": "Parks & Parkways",
    "request_reason": "Request Tree Service (Right of Way/Public Property)",
    "date_created": "2024-07-19T14:41:47.000",
    "date_modified": "2024-07-19T14:41:48.000",
    "request_status": "Pending",
    "responsible_agency": "Department of Parks & Parkway",
    "final_address": "7151 Lake Barrington Dr",
    "address_councildis": "E",
    "status": "Pending",
    "rowid": "1114038",
    "final_x": "3712373.46821",
    "final_y": "564339.884705",
    "longitude": "-89.96935042144965",
    "latitude": "30.044764261035805",
    "geocoded_column": {
      "latitude": "30.044764261035805",
      "longitude": "-89.96935042144965"
    }
  },
  {
    "service_request": "2024-1114037",
    "request_type": "Property Maintenance",
    "request_reason": "Property Maintenance",
    "date_created": "2024-07-19T14:39:56.000",
    "date_modified": "2024-07-19T14:39:56.000",
    "request_status": "Pending",
    "responsible_agency": "Department of Code Enforcement",
    "final_address": "4301 Woodland Dr",
    "address_councildis": "C",
    "status": "Pending",
    "rowid": "1114037",
    "final_x": "3705307.95569",
    "final_y": "514729.686899",
    "longitude": "-89.99351390335464",
    "latitude": "29.908583870820024",
    "geocoded_column": {
      "latitude": "29.908583870820024",
      "longitude": "-89.99351390335464"
    }
  },
  {
    "service_request": "2024-1114036",
    "request_type": "Roads/Drainage",
    "request_reason": "Catch Basin - Broken/Damage",
    "date_created": "2024-07-19T14:39:49.000",
    "date_modified": "2024-07-19T14:39:49.000",
    "request_status": "Pending",
    "responsible_agency": "Department of Public Works",
    "final_address": "4027 Hollygrove St",
    "address_councildis": "A",
    "status": "Pending",
    "rowid": "1114036",
    "final_x": "3666464.67937",
    "final_y": "537988.645961",
    "longitude": "-90.11532950975014",
    "latitude": "29.97373026609402",
    "geocoded_column": {
      "latitude": "29.97373026609402",
      "longitude": "-90.11532950975014"
    }
  },
  {
    "service_request": "2024-1114035",
    "request_type": "Trash/Recycling",
    "request_reason": "Request a Large Item Pick Up",
    "date_created": "2024-07-19T14:35:46.000",
    "date_modified": "2024-07-19T14:35:46.000",
    "request_status": "Pending",
    "responsible_agency": "Department of Sanitation",
    "final_address": "7325 Cranbrook Dr",
    "address_councildis": "E",
    "status": "Assigned to Contractor",
    "contractor": "Waste Pro",
    "rowid": "1114035",
    "final_x": "3713868.26834",
    "final_y": "565961.674019",
    "longitude": "-89.96456497880354",
    "latitude": "30.049174512649316",
    "geocoded_column": {
      "latitude": "30.049174512649316",
      "longitude": "-89.96456497880354"
    }
  },
  {
    "service_request": "2024-1114034",
    "request_type": "Roads/Drainage",
    "request_reason": "Street Subsidence (Sinking)",
    "date_created": "2024-07-19T14:35:28.000",
    "date_modified": "2024-07-19T14:35:28.000",
    "request_status": "Pending",
    "responsible_agency": "Department of Public Works",
    "final_address": "429 N Galvez St",
    "address_councildis": "B",
    "status": "Pending",
    "rowid": "1114034",
    "final_x": "3677764.20008",
    "final_y": "535027.658246",
    "longitude": "-90.07974546313999",
    "latitude": "29.965253456917125",
    "geocoded_column": {
      "latitude": "29.965253456917125",
      "longitude": "-90.07974546313999"
    }
  },
  {
    "service_request": "2024-1114033",
    "request_type": "Roads/Drainage",
    "request_reason": "Catch Basin - Broken/Damage",
    "date_created": "2024-07-19T14:32:31.000",
    "date_modified": "2024-07-19T14:32:31.000",
    "request_status": "Pending",
    "responsible_agency": "Department of Public Works",
    "final_address": "4121 Hollygrove St",
    "address_councildis": "A",
    "status": "Pending",
    "rowid": "1114033",
    "final_x": "3666703.62586",
    "final_y": "538240.451401",
    "longitude": "-90.11456640337053",
    "latitude": "29.974415660743603",
    "geocoded_column": {
      "latitude": "29.974415660743603",
      "longitude": "-90.11456640337053"
    }
  },
  {
    "service_request": "2024-1114032",
    "request_type": "Roads/Drainage",
    "request_reason": "Pothole",
    "date_created": "2024-07-19T14:30:01.000",
    "date_modified": "2024-07-19T14:30:01.000",
    "request_status": "Pending",
    "responsible_agency": "Department of Public Works",
    "final_address": "417 N Galvez St",
    "address_councildis": "B",
    "status": "Pending",
    "rowid": "1114032",
    "final_x": "3677713.73096",
    "final_y": "534968.802438",
    "longitude": "-90.07990687525142",
    "latitude": "29.965093141562463",
    "geocoded_column": {
      "latitude": "29.965093141562463",
      "longitude": "-90.07990687525142"
    }
  },
  {
    "service_request": "2024-1114031",
    "request_type": "Roads/Drainage",
    "request_reason": "Catch Basin - Broken/Damage",
    "date_created": "2024-07-19T14:29:48.000",
    "date_modified": "2024-07-19T14:29:48.000",
    "request_status": "Pending",
    "responsible_agency": "Department of Public Works",
    "final_address": "4201 Hollygrove St",
    "address_councildis": "A",
    "status": "Pending",
    "rowid": "1114031",
    "final_x": "3666841.67124",
    "final_y": "538377.717257",
    "longitude": "-90.11412580874118",
    "latitude": "29.974789057851183",
    "geocoded_column": {
      "latitude": "29.974789057851183",
      "longitude": "-90.11412580874118"
    }
  },
  {
    "service_request": "2024-1114030",
    "request_type": "Trash/Recycling",
    "request_reason": "Repair Recycling Cart",
    "date_created": "2024-07-19T14:25:38.000",
    "date_modified": "2024-07-19T14:25:39.000",
    "request_status": "Pending",
    "responsible_agency": "Department of Sanitation",
    "final_address": "1338 Mithra St",
    "address_councildis": "D",
    "status": "Pending",
    "rowid": "1114030",
    "final_x": "3677250.41262",
    "final_y": "551980.526678",
    "longitude": "-90.08078275804155",
    "latitude": "30.01188337853698",
    "geocoded_column": {
      "latitude": "30.01188337853698",
      "longitude": "-90.08078275804155"
    }
  },
  {
    "service_request": "2024-1114029",
    "request_type": "Property Maintenance",
    "request_reason": "Property Maintenance",
    "date_created": "2024-07-19T14:24:54.000",
    "date_modified": "2024-07-19T14:45:47.000",
    "case_close_date": "2024-07-19T09:45:47.000",
    "request_status": "Closed",
    "responsible_agency": "Department of Code Enforcement",
    "final_address": "4215 Hollygrove St",
    "address_councildis": "A",
    "status": "Referred to Code Enforcement",
    "rowid": "1114029",
    "final_x": "3666892.40986",
    "final_y": "538450.142857",
    "longitude": "-90.11396312871358",
    "latitude": "29.974986719446967",
    "geocoded_column": {
      "latitude": "29.974986719446967",
      "longitude": "-90.11396312871358"
    }
  },
  {
    "service_request": "2024-1114028",
    "request_type": "Trash/Recycling",
    "request_reason": "Repair Recycling Cart",
    "date_created": "2024-07-19T14:23:11.000",
    "date_modified": "2024-07-19T14:23:12.000",
    "request_status": "Pending",
    "responsible_agency": "Department of Sanitation",
    "final_address": "1531 Audubon St",
    "address_councildis": "A",
    "status": "Pending",
    "rowid": "1114028",
    "final_x": "3665214.28288",
    "final_y": "527436.194175",
    "longitude": "-90.11963155710215",
    "latitude": "29.94475096422697",
    "geocoded_column": {
      "latitude": "29.94475096422697",
      "longitude": "-90.11963155710215"
    }
  },
  {
    "service_request": "2024-1114027",
    "request_type": "Trash/Recycling",
    "request_reason": "Repair Trash Cart",
    "date_created": "2024-07-19T14:22:28.000",
    "date_modified": "2024-07-19T14:22:29.000",
    "request_status": "Pending",
    "responsible_agency": "Department of Sanitation",
    "final_address": "451 Broadway St",
    "address_councildis": "A",
    "status": "Assigned to Contractor",
    "contractor": "IV Waste",
    "rowid": "1114027",
    "final_x": "3662334.82343",
    "final_y": "523652.938043",
    "longitude": "-90.12884848221383",
    "latitude": "29.934431761576246",
    "geocoded_column": {
      "latitude": "29.934431761576246",
      "longitude": "-90.12884848221383"
    }
  },
  {
    "service_request": "2024-1114026",
    "request_type": "Trash/Recycling",
    "request_reason": "Illegal Dumping",
    "date_created": "2024-07-19T14:19:49.000",
    "date_modified": "2024-07-19T14:19:49.000",
    "request_status": "Pending",
    "responsible_agency": "Department of Sanitation",
    "final_address": "AUDUBON ST & BIRCH ST",
    "address_councildis": "A",
    "status": "Pending",
    "rowid": "1114026",
    "final_x": "3665211.7",
    "final_y": "527501.48",
    "longitude": "-90.1196375287247",
    "latitude": "29.944930554470105",
    "geocoded_column": {
      "latitude": "29.944930554470105",
      "longitude": "-90.1196375287247"
    }
  },
  {
    "service_request": "2024-1114025",
    "request_type": "Trash/Recycling",
    "request_reason": "Missed Trash Pick-Up",
    "date_created": "2024-07-19T14:19:25.000",
    "date_modified": "2024-07-19T14:19:26.000",
    "request_status": "Pending",
    "responsible_agency": "Department of Sanitation",
    "final_address": "925 Tricou St",
    "address_councildis": "E",
    "status": "Assigned to Contractor",
    "contractor": "Waste Pro",
    "rowid": "1114025",
    "final_x": "3699934.96477",
    "final_y": "532473.944964",
    "longitude": "-90.00982492082633",
    "latitude": "29.957546087850684",
    "geocoded_column": {
      "latitude": "29.957546087850684",
      "longitude": "-90.00982492082633"
    }
  },
  {
    "service_request": "2024-1114024",
    "request_type": "Trash/Recycling",
    "request_reason": "Return Trash Cart",
    "date_created": "2024-07-19T14:19:11.000",
    "date_modified": "2024-07-19T14:19:12.000",
    "request_status": "Pending",
    "responsible_agency": "Department of Sanitation",
    "final_address": "6018 Shetland Dr",
    "address_councildis": "C",
    "status": "Assigned to Contractor",
    "contractor": "Richards Disposal",
    "rowid": "1114024",
    "final_x": "3705462.22379",
    "final_y": "520705.624057",
    "longitude": "-89.99280635765038",
    "latitude": "29.92501067230249",
    "geocoded_column": {
      "latitude": "29.92501067230249",
      "longitude": "-89.99280635765038"
    }
  },
  {
    "service_request": "2024-1114023",
    "request_type": "Trash/Recycling",
    "request_reason": "Order Trash Cart",
    "date_created": "2024-07-19T14:19:03.000",
    "date_modified": "2024-07-19T14:19:04.000",
    "request_status": "Pending",
    "responsible_agency": "Department of Sanitation",
    "final_address": "3110 Somerset Dr",
    "address_councildis": "C",
    "status": "Assigned to Contractor",
    "contractor": "Richards Disposal",
    "rowid": "1114023",
    "final_x": "3702620.15972",
    "final_y": "519688.361912",
    "longitude": "-90.00181508176902",
    "latitude": "29.922304671969766",
    "geocoded_column": {
      "latitude": "29.922304671969766",
      "longitude": "-90.00181508176902"
    }
  },
  {
    "service_request": "2024-1114022",
    "request_type": "Trash/Recycling",
    "request_reason": "Return Recycling Cart",
    "date_created": "2024-07-19T14:15:07.000",
    "date_modified": "2024-07-19T14:15:08.000",
    "request_status": "Pending",
    "responsible_agency": "Department of Sanitation",
    "final_address": "3907 N Rampart St",
    "address_councildis": "C",
    "status": "Pending",
    "rowid": "1114022",
    "final_x": "3691477.29558",
    "final_y": "534959.435718",
    "longitude": "-90.03644281201106",
    "latitude": "29.964646223928828",
    "geocoded_column": {
      "latitude": "29.964646223928828",
      "longitude": "-90.03644281201106"
    }
  },
  {
    "service_request": "2024-1114021",
    "request_type": "Parks & Parkways",
    "request_reason": "Request Tree Service (Right of Way/Public Property)",
    "date_created": "2024-07-19T14:14:30.000",
    "date_modified": "2024-07-19T14:14:31.000",
    "request_status": "Pending",
    "responsible_agency": "Department of Parks & Parkway",
    "final_address": "3811 Paris Ave",
    "address_councildis": "D",
    "status": "Pending",
    "rowid": "1114021",
    "final_x": "3679687.21199",
    "final_y": "546333.513616",
    "longitude": "-90.07328007061052",
    "latitude": "29.99628264137512",
    "geocoded_column": {
      "latitude": "29.99628264137512",
      "longitude": "-90.07328007061052"
    }
  },
  {
    "service_request": "2024-1114020",
    "request_type": "Property Maintenance",
    "request_reason": "Property Maintenance",
    "date_created": "2024-07-19T14:14:04.000",
    "date_modified": "2024-07-19T14:14:05.000",
    "request_status": "Pending",
    "responsible_agency": "Department of Code Enforcement",
    "final_address": "1520 Odeon St",
    "address_councildis": "C",
    "status": "Pending",
    "rowid": "1114020",
    "final_x": "3696002.41251",
    "final_y": "525623.190077",
    "longitude": "-90.02249017331363",
    "latitude": "29.938833212807083",
    "geocoded_column": {
      "latitude": "29.938833212807083",
      "longitude": "-90.02249017331363"
    }
  },
  {
    "service_request": "2024-1114019",
    "request_type": "Trash/Recycling",
    "request_reason": "Request a Large Item Pick Up",
    "date_created": "2024-07-19T14:13:23.000",
    "date_modified": "2024-07-19T14:13:23.000",
    "request_status": "Pending",
    "responsible_agency": "Department of Sanitation",
    "final_address": "4228 Hollygrove St",
    "address_councildis": "A",
    "status": "Assigned to Contractor",
    "contractor": "IV Waste",
    "rowid": "1114019",
    "final_x": "3666916.19444",
    "final_y": "538597.706313",
    "longitude": "-90.1138830507991",
    "latitude": "29.97539177356217",
    "geocoded_column": {
      "latitude": "29.97539177356217",
      "longitude": "-90.1138830507991"
    }
  },
  {
    "service_request": "2024-1114018",
    "request_type": "Trash/Recycling",
    "request_reason": "Order Recycling Cart",
    "date_created": "2024-07-19T14:13:01.000",
    "date_modified": "2024-07-19T14:13:01.000",
    "request_status": "Pending",
    "responsible_agency": "Department of Sanitation",
    "final_address": "3907 N Rampart St",
    "address_councildis": "C",
    "status": "Pending",
    "rowid": "1114018",
    "final_x": "3691477.29558",
    "final_y": "534959.435718",
    "longitude": "-90.03644281201106",
    "latitude": "29.964646223928828",
    "geocoded_column": {
      "latitude": "29.964646223928828",
      "longitude": "-90.03644281201106"
    }
  },
  {
    "service_request": "2024-1114016",
    "request_type": "Trash/Recycling",
    "request_reason": "Order Recycling Cart",
    "date_created": "2024-07-19T14:11:50.000",
    "date_modified": "2024-07-19T14:11:51.000",
    "request_status": "Pending",
    "responsible_agency": "Department of Sanitation",
    "final_address": "3907 N Rampart St",
    "address_councildis": "C",
    "status": "Pending",
    "rowid": "1114016",
    "final_x": "3691477.29558",
    "final_y": "534959.435718",
    "longitude": "-90.03644281201106",
    "latitude": "29.964646223928828",
    "geocoded_column": {
      "latitude": "29.964646223928828",
      "longitude": "-90.03644281201106"
    }
  },
  {
    "service_request": "2024-1114015",
    "request_type": "Roads/Drainage",
    "request_reason": "Catch Basin - Clogged",
    "date_created": "2024-07-19T14:08:48.000",
    "date_modified": "2024-07-19T14:08:49.000",
    "request_status": "Pending",
    "responsible_agency": "Department of Public Works",
    "final_address": "1927 Mazant St",
    "address_councildis": "D",
    "status": "Pending",
    "rowid": "1114015",
    "final_x": "3692946.43056",
    "final_y": "538431.704649",
    "longitude": "-90.03167884472433",
    "latitude": "29.974147930461402",
    "geocoded_column": {
      "latitude": "29.974147930461402",
      "longitude": "-90.03167884472433"
    }
  },
  {
    "service_request": "2024-1114014",
    "request_type": "Trash/Recycling",
    "request_reason": "Repair Trash Cart",
    "date_created": "2024-07-19T14:07:21.000",
    "date_modified": "2024-07-19T14:07:22.000",
    "request_status": "Pending",
    "responsible_agency": "Department of Sanitation",
    "final_address": "1927 Mazant St",
    "address_councildis": "D",
    "status": "Assigned to Contractor",
    "contractor": "IV Waste",
    "rowid": "1114014",
    "final_x": "3692946.43056",
    "final_y": "538431.704649",
    "longitude": "-90.03167884472433",
    "latitude": "29.974147930461402",
    "geocoded_column": {
      "latitude": "29.974147930461402",
      "longitude": "-90.03167884472433"
    }
  },
  {
    "service_request": "2024-1114013",
    "request_type": "Roads/Drainage",
    "request_reason": "Street Subsidence (Sinking)",
    "date_created": "2024-07-19T14:07:06.000",
    "date_modified": "2024-07-19T14:07:07.000",
    "request_status": "Pending",
    "responsible_agency": "Department of Public Works",
    "final_address": "ST CLAUDE AVE & MAZANT ST",
    "address_councildis": "C",
    "status": "Pending",
    "rowid": "1114013",
    "final_x": "3692105.4",
    "final_y": "535236.58",
    "longitude": "-90.034449389463",
    "latitude": "29.965388710853208",
    "geocoded_column": {
      "latitude": "29.965388710853208",
      "longitude": "-90.034449389463"
    }
  },
  {
    "service_request": "2024-1114012",
    "request_type": "Roads/Drainage",
    "request_reason": "Catch Basin - Clogged",
    "date_created": "2024-07-19T14:03:42.000",
    "date_modified": "2024-07-19T14:03:42.000",
    "request_status": "Pending",
    "responsible_agency": "Department of Public Works",
    "final_address": "4100 BLK General Ogden St",
    "address_councildis": "A",
    "status": "Pending",
    "rowid": "1114012",
    "final_x": "3666921.31573",
    "final_y": "538019.73674",
    "longitude": "-90.1138863027776",
    "latitude": "29.973802400744574",
    "geocoded_column": {
      "latitude": "29.973802400744574",
      "longitude": "-90.1138863027776"
    }
  },
  {
    "service_request": "2024-1114011",
    "request_type": "Roads/Drainage",
    "request_reason": "Debris in Roadway",
    "date_created": "2024-07-19T14:03:27.000",
    "date_modified": "2024-07-19T16:10:42.000",
    "request_status": "Pending",
    "responsible_agency": "Department of Public Works",
    "final_address": "4708 Mendez St",
    "address_councildis": "D",
    "status": "Inspected",
    "rowid": "1114011",
    "final_x": "3691065.02243",
    "final_y": "553973.227288",
    "longitude": "-90.0370654686114",
    "latitude": "30.016940104396937",
    "geocoded_column": {
      "latitude": "30.016940104396937",
      "longitude": "-90.0370654686114"
    }
  },
  {
    "service_request": "2024-1114010",
    "request_type": "Roads/Drainage",
    "request_reason": "Catch Basin - Clogged",
    "date_created": "2024-07-19T14:01:54.000",
    "date_modified": "2024-07-19T14:01:54.000",
    "request_status": "Pending",
    "responsible_agency": "Department of Public Works",
    "final_address": "711 S Peters St",
    "address_councildis": "B",
    "status": "Pending",
    "rowid": "1114010",
    "final_x": "3682205.22876",
    "final_y": "528018.242495",
    "longitude": "-90.06596576521947",
    "latitude": "29.945845601389827",
    "geocoded_column": {
      "latitude": "29.945845601389827",
      "longitude": "-90.06596576521947"
    }
  },
  {
    "service_request": "2024-1114009",
    "request_type": "Abandoned Vehicles",
    "request_reason": "Abandoned/Junk Vehicles",
    "date_created": "2024-07-19T14:00:25.000",
    "date_modified": "2024-07-19T14:02:16.000",
    "request_status": "Pending",
    "responsible_agency": "Department of Public Works",
    "final_address": "3121 Dumaine St",
    "address_councildis": "A",
    "status": "Pending",
    "rowid": "1114009",
    "final_x": "3675570.98939",
    "final_y": "538770.871177",
    "longitude": "-90.08654289431423",
    "latitude": "29.975611814161994",
    "geocoded_column": {
      "latitude": "29.975611814161994",
      "longitude": "-90.08654289431423"
    }
  },
  {
    "service_request": "2024-1114008",
    "request_type": "Property Maintenance",
    "request_reason": "Property Maintenance",
    "date_created": "2024-07-19T13:59:59.000",
    "date_modified": "2024-07-19T14:34:30.000",
    "case_close_date": "2024-07-19T09:34:30.000",
    "request_status": "Closed",
    "responsible_agency": "Department of Code Enforcement",
    "final_address": "4928 Paris Ave",
    "address_councildis": "D",
    "status": "Referred to Code Enforcement",
    "rowid": "1114008",
    "final_x": "3679130.41173",
    "final_y": "550596.229076",
    "longitude": "-90.07489107529686",
    "latitude": "30.008020416090073",
    "geocoded_column": {
      "latitude": "30.008020416090073",
      "longitude": "-90.07489107529686"
    }
  },
  {
    "service_request": "2024-1114007",
    "request_type": "Roads/Drainage",
    "request_reason": "Street Flooding / Drainage",
    "date_created": "2024-07-19T13:56:33.000",
    "date_modified": "2024-07-19T13:59:22.000",
    "request_status": "Pending",
    "responsible_agency": "Department of Public Works",
    "final_address": "3721 Vincennes Pl",
    "address_councildis": "A",
    "status": "Pending",
    "rowid": "1114007",
    "final_x": "3668272.26593",
    "final_y": "529442.113665",
    "longitude": "-90.10990893469783",
    "latitude": "29.95017717211281",
    "geocoded_column": {
      "latitude": "29.95017717211281",
      "longitude": "-90.10990893469783"
    }
  },
  {
    "service_request": "2024-1114006",
    "request_type": "Trash/Recycling",
    "request_reason": "Missed Trash Pick-Up",
    "date_created": "2024-07-19T13:55:19.000",
    "date_modified": "2024-07-19T13:55:20.000",
    "request_status": "Pending",
    "responsible_agency": "Department of Sanitation",
    "final_address": "5772 Shirley Taylor St",
    "address_councildis": "E",
    "status": "Assigned to Contractor",
    "contractor": "Waste Pro",
    "rowid": "1114006",
    "final_x": "3699876.59895",
    "final_y": "538463.981641",
    "longitude": "-90.00979074058577",
    "latitude": "29.97401839299289",
    "geocoded_column": {
      "latitude": "29.97401839299289",
      "longitude": "-90.00979074058577"
    }
  },
  {
    "service_request": "2024-1114005",
    "request_type": "Roads/Drainage",
    "request_reason": "Catch Basin - Clogged",
    "date_created": "2024-07-19T13:54:06.000",
    "date_modified": "2024-07-19T13:54:06.000",
    "request_status": "Pending",
    "responsible_agency": "Department of Public Works",
    "final_address": "1205 St Charles Ave",
    "address_councildis": "B",
    "status": "Pending",
    "rowid": "1114005",
    "final_x": "3679654.76706",
    "final_y": "526356.192382",
    "longitude": "-90.07407609579455",
    "latitude": "29.94135283774421",
    "geocoded_column": {
      "latitude": "29.94135283774421",
      "longitude": "-90.07407609579455"
    }
  },
  {
    "service_request": "2024-1114004",
    "request_type": "Property Maintenance",
    "request_reason": "Property Maintenance",
    "date_created": "2024-07-19T13:53:20.000",
    "date_modified": "2024-07-19T14:04:23.000",
    "case_close_date": "2024-07-19T09:04:23.000",
    "request_status": "Closed",
    "responsible_agency": "Department of Code Enforcement",
    "final_address": "2716 Jackson Ave",
    "address_councildis": "B",
    "status": "Referred to Code Enforcement",
    "rowid": "1114004",
    "final_x": "3674906.31624",
    "final_y": "527147.415615",
    "longitude": "-90.08904076155402",
    "latitude": "29.943671077709137",
    "geocoded_column": {
      "latitude": "29.943671077709137",
      "longitude": "-90.08904076155402"
    }
  },
  {
    "service_request": "2024-1114003",
    "request_type": "Abandoned Vehicles",
    "request_reason": "Abandoned/Junk Vehicles",
    "date_created": "2024-07-19T13:51:15.000",
    "date_modified": "2024-07-19T13:51:16.000",
    "request_status": "Pending",
    "responsible_agency": "Department of Public Works",
    "final_address": "223 Bermuda St",
    "address_councildis": "C",
    "status": "Pending",
    "rowid": "1114003",
    "final_x": "3686144.59305",
    "final_y": "530904.284354",
    "longitude": "-90.05342611704216",
    "latitude": "29.953660837494727",
    "geocoded_column": {
      "latitude": "29.953660837494727",
      "longitude": "-90.05342611704216"
    }
  },
  {
    "service_request": "2024-1114002",
    "request_type": "Trash/Recycling",
    "request_reason": "Order Trash Cart",
    "date_created": "2024-07-19T13:49:24.000",
    "date_modified": "2024-07-19T13:49:25.000",
    "request_status": "Pending",
    "responsible_agency": "Department of Sanitation",
    "final_address": "4803 Dixon St",
    "address_councildis": "B",
    "status": "Assigned to Contractor",
    "contractor": "IV Waste",
    "rowid": "1114002",
    "final_x": "3670232.5842",
    "final_y": "534103.005381",
    "longitude": "-90.10356132261204",
    "latitude": "29.962935387867176",
    "geocoded_column": {
      "latitude": "29.962935387867176",
      "longitude": "-90.10356132261204"
    }
  },
  {
    "service_request": "2024-1114001",
    "request_type": "Parks & Parkways",
    "request_reason": "Request Tree Service (Right of Way/Public Property)",
    "date_created": "2024-07-19T13:46:40.000",
    "date_modified": "2024-07-19T13:46:41.000",
    "request_status": "Pending",
    "responsible_agency": "Department of Parks & Parkway",
    "final_address": "1200 Mirabeau Ave",
    "address_councildis": "D",
    "status": "Pending",
    "rowid": "1114001",
    "final_x": "3677367.61589",
    "final_y": "549726.508052",
    "longitude": "-90.08049032714148",
    "latitude": "30.00568210926404",
    "geocoded_column": {
      "latitude": "30.00568210926404",
      "longitude": "-90.08049032714148"
    }
  },
  {
    "service_request": "2024-1114000",
    "request_type": "Property Maintenance",
    "request_reason": "Property Maintenance",
    "date_created": "2024-07-19T13:44:54.000",
    "date_modified": "2024-07-19T13:55:21.000",
    "case_close_date": "2024-07-19T08:55:21.000",
    "request_status": "Closed",
    "responsible_agency": "Department of Code Enforcement",
    "final_address": "DESIRE ST & N CLAIBORNE AVE",
    "address_councildis": "D",
    "status": "Referred to Code Enforcement",
    "rowid": "1114000",
    "final_x": "3690646.9",
    "final_y": "537574.48",
    "longitude": "-90.03897184831987",
    "latitude": "29.971862492608903",
    "geocoded_column": {
      "latitude": "29.971862492608903",
      "longitude": "-90.03897184831987"
    }
  },