[
  {
    "service_request": "2026-1252515",
    "request_type": "Streetlights",
    "request_reason": "Streetlight Outage/Malfunction",
    "date_created": "2026-01-15T23:51:54.000",
    "date_modified": "2026-01-15T23:51:56.000",
    "request_status": "Pending",
    "responsible_agency": "Department of Public Works",
    "final_address": "1806 Mardi Gras Blvd",
    "address_councildis": "C",
    "status": "Pending",
    "rowid": "1252515",
    "final_x": "3690770.84694",
    "final_y": "525354.836797",
    "longitude": "-90.03901632725878",
    "latitude": "29.938258861139243",
    "geocoded_column": {
      "latitude": "29.938258861139243",
      "longitude": "-90.03901632725878"
    }
  },
  {
    "service_request": "2026-1252514",
    "request_type": "Trash/Recycling",
    "request_reason": "Missed Trash Pick-Up",
    "date_created": "2026-01-15T22:19:28.000",
    "date_modified": "2026-01-15T22:19:29.000",
    "request_status": "Pending",
    "responsible_agency": "Department of Sanitation",
    "final_address": "5242 Elysian Fields Ave",
    "address_councildis": "D",
    "status": "Assigned to Contractor",
    "contractor": "IV Waste",
    "rowid": "1252514",
    "final_x": "3683609.70735",
    "final_y": "552179.390166",
    "longitude": "-90.0606840913317",
    "latitude": "30.01223750587499",
    "geocoded_column": {
      "latitude": "30.01223750587499",
      "longitude": "-90.0606840913317"
    }
  },
  {
    "service_request": "2026-1252513",
    "request_type": "Streetlights",
    "request_reason": "Streetlight Outage/Malfunction",
    "date_created": "2026-01-15T22:19:04.000",
    "date_modified": "2026-01-15T22:19:06.000",
    "request_status": "Pending",
    "responsible_agency": "Department of Public Works",
    "final_address": "149 Millaudon St",
    "address_councildis": "A",
    "status": "Pending",
    "rowid": "1252513",
    "final_x": "3660961.6135",
    "final_y": "523541.998075",
    "longitude": "-90.13318736136667",
    "latitude": "29.934166331437453",
    "geocoded_column": {
      "latitude": "29.934166331437453",
      "longitude": "-90.13318736136667"
    }
  },
  {
    "service_request": "2026-1252512",
    "request_type": "Streetlights",
    "request_reason": "Streetlight Outage/Malfunction",
    "date_created": "2026-01-15T22:14:34.000",
    "date_modified": "2026-01-15T22:14:37.000",
    "request_status": "Pending",
    "responsible_agency": "Department of Public Works",
    "final_address": "8001 Oak St",
    "address_councildis": "A",
    "status": "Pending",
    "rowid": "1252512",
    "final_x": "3662302.84083",
    "final_y": "528130.231935",
    "longitude": "-90.12880086366587",
    "latitude": "29.946743821315263",
    "geocoded_column": {
      "latitude": "29.946743821315263",
      "longitude": "-90.12880086366587"
    }
  },
  {
    "service_request": "2026-1252511",
    "request_type": "Street and Traffic Signs",
    "request_reason": "Additional Signage Request",
    "date_created": "2026-01-15T22:09:29.000",
    "date_modified": "2026-01-15T22:09:30.000",
    "request_status": "Pending",
    "responsible_agency": "Department of Public Works",
    "final_address": "4300 BLK S Galvez St",
    "address_councildis": "B",
    "status": "Pending",
    "rowid": "1252511",
    "final_x": "3670403.56368",
    "final_y": "527557.677612",
    "longitude": "-90.1032432802103",
    "latitude": "29.94493284529157",
    "geocoded_column": {
      "latitude": "29.94493284529157",
      "longitude": "-90.1032432802103"
    }
  },
  {
    "service_request": "2026-1252510",
    "request_type": "Trash/Recycling",
    "request_reason": "Missed Trash Pick-Up",
    "date_created": "2026-01-15T22:05:44.000",
    "date_modified": "2026-01-15T22:05:46.000",
    "request_status": "Pending",
    "responsible_agency": "Department of Sanitation",
    "final_address": "633 Whitney Ave",
    "address_councildis": "C",
    "status": "Assigned to Contractor",
    "contractor": "Richards Disposal",
    "rowid": "1252510",
    "final_x": "3690138.10172",
    "final_y": "529099.51392",
    "longitude": "-90.04088060737199",
    "latitude": "29.94857508087663",
    "geocoded_column": {
      "latitude": "29.94857508087663",
      "longitude": "-90.04088060737199"
    }
  },
  {
    "service_request": "2026-1252509",
    "request_type": "Roads and Streets",
    "request_reason": "Sidewalk Damaged or Missing",
    "date_created": "2026-01-15T21:26:09.000",
    "date_modified": "2026-01-15T21:26:11.000",
    "request_status": "Pending",
    "responsible_agency": "Department of Public Works",
    "final_address": "1706 St Anthony St",
    "address_councildis": "D",
    "status": "Pending",
    "rowid": "1252509",
    "final_x": "3683297.78261",
    "final_y": "538471.755529",
    "longitude": "-90.06215005511196",
    "latitude": "29.97455590971117",
    "geocoded_column": {
      "latitude": "29.97455590971117",
      "longitude": "-90.06215005511196"
    }
  },
  {
    "service_request": "2026-1252508",
    "request_type": "Trash/Recycling",
    "request_reason": "Request a Large Item Pick Up",
    "date_created": "2026-01-15T21:15:40.000",
    "date_modified": "2026-01-15T21:15:41.000",
    "request_status": "Pending",
    "responsible_agency": "Department of Sanitation",
    "final_address": "6120 Catina St",
    "address_councildis": "A",
    "status": "Assigned to Contractor",
    "contractor": "IV Waste",
    "rowid": "1252508",
    "final_x": "3666731.16692",
    "final_y": "548246.13941",
    "longitude": "-90.1141431892791",
    "latitude": "30.00192709591028",
    "geocoded_column": {
      "latitude": "30.00192709591028",
      "longitude": "-90.1141431892791"
    }
  },
  {
    "service_request": "2026-1252507",
    "request_type": "Streetlights",
    "request_reason": "Streetlight Outage/Malfunction",
    "date_created": "2026-01-15T21:14:01.000",
    "date_modified": "2026-01-15T21:14:03.000",
    "request_status": "Pending",
    "responsible_agency": "Department of Public Works",
    "final_address": "1941 Allen St",
    "address_councildis": "D",
    "status": "Pending",
    "rowid": "1252507",
    "final_x": "3682556.07311",
    "final_y": "539403.862986",
    "longitude": "-90.06445995253864",
    "latitude": "29.97714148543269",
    "geocoded_column": {
      "latitude": "29.97714148543269",
      "longitude": "-90.06445995253864"
    }
  },
  {
    "service_request": "2026-1252506",
    "request_type": "Streetlights",
    "request_reason": "Streetlight Outage/Malfunction",
    "date_created": "2026-01-15T21:11:27.000",
    "date_modified": "2026-01-15T21:11:28.000",
    "request_status": "Pending",
    "responsible_agency": "Department of Public Works",
    "final_address": "6315 Cartier Dr",
    "address_councildis": "D",
    "status": "Pending",
    "rowid": "1252506",
    "final_x": "3677658.146",
    "final_y": "556128.090522",
    "longitude": "-90.07935114801901",
    "latitude": "30.023275419030103",
    "geocoded_column": {
      "latitude": "30.023275419030103",
      "longitude": "-90.07935114801901"
    }
  },
  {
    "service_request": "2026-1252505",
    "request_type": "Trash/Recycling",
    "request_reason": "Request a Large Item Pick Up",
    "date_created": "2026-01-15T20:57:16.000",
    "date_modified": "2026-01-15T20:57:19.000",
    "request_status": "Pending",
    "responsible_agency": "Department of Sanitation",
    "final_address": "6868 Vicksburg St",
    "address_councildis": "A",
    "status": "Assigned to Contractor",
    "contractor": "IV Waste",
    "rowid": "1252505",
    "final_x": "3669320.96282",
    "final_y": "553203.953111",
    "longitude": "-90.10579392556124",
    "latitude": "30.01548332241488",
    "geocoded_column": {
      "latitude": "30.01548332241488",
      "longitude": "-90.10579392556124"
    }
  },
  {
    "service_request": "2026-1252503",
    "request_type": "Roads and Streets",
    "request_reason": "Pothole",
    "date_created": "2026-01-15T20:42:39.000",
    "date_modified": "2026-01-15T20:42:42.000",
    "request_status": "Pending",
    "responsible_agency": "Department of Public Works",
    "final_address": "4116 General Pershing St",
    "address_councildis": "B",
    "status": "Pending",
    "rowid": "1252503",
    "final_x": "3670049.73268",
    "final_y": "529282.003329",
    "longitude": "-90.10430204097534",
    "latitude": "29.949684617757768",
    "geocoded_column": {
      "latitude": "29.949684617757768",
      "longitude": "-90.10430204097534"
    }
  },
  {
    "service_request": "2026-1252502",
    "request_type": "Roads and Streets",
    "request_reason": "Pothole",
    "date_created": "2026-01-15T20:42:39.000",
    "date_modified": "2026-01-15T20:42:43.000",
    "request_status": "Pending",
    "responsible_agency": "Department of Public Works",
    "final_address": "4116 General Pershing St",
    "address_councildis": "B",
    "status": "Pending",
    "rowid": "1252502",
    "final_x": "3670049.73268",
    "final_y": "529282.003329",
    "longitude": "-90.10430204097534",
    "latitude": "29.949684617757768",
    "geocoded_column": {
      "latitude": "29.949684617757768",
      "longitude": "-90.10430204097534"
    }
  },
  {
    "service_request": "2026-1252501",
    "request_type": "Roads and Streets",
    "request_reason": "Pothole",
    "date_created": "2026-01-15T20:42:39.000",
    "date_modified": "2026-01-15T20:42:43.000",
    "request_status": "Pending",
    "responsible_agency": "Department of Public Works",
    "final_address": "4116 General Pershing St",
    "address_councildis": "B",
    "status": "Pending",
    "rowid": "1252501",
    "final_x": "3670049.73268",
    "final_y": "529282.003329",
    "longitude": "-90.10430204097534",
    "latitude": "29.949684617757768",
    "geocoded_column": {
      "latitude": "29.949684617757768",
      "longitude": "-90.10430204097534"
    }
  },
  {
    "service_request": "2026-1252500",
    "request_type": "Roads and Streets",
    "request_reason": "Pothole",
    "date_created": "2026-01-15T20:42:39.000",
    "date_modified": "2026-01-15T20:42:43.000",
    "request_status": "Pending",
    "responsible_agency": "Department of Public Works",
    "final_address": "4116 General Pershing St",
    "address_councildis": "B",
    "status": "Pending",
    "rowid": "1252500",
    "final_x": "3670049.73268",
    "final_y": "529282.003329",
    "longitude": "-90.10430204097534",
    "latitude": "29.949684617757768",
    "geocoded_column": {
      "latitude": "29.949684617757768",
      "longitude": "-90.10430204097534"
    }
  },
  {
    "service_request": "2026-1252504",
    "request_type": "Roads and Streets",
    "request_reason": "Pothole",
    "date_created": "2026-01-15T20:42:39.000",
    "date_modified": "2026-01-15T20:42:42.000",
    "request_status": "Pending",
    "responsible_agency": "Department of Public Works",
    "final_address": "4116 General Pershing St",
    "address_councildis": "B",
    "status": "Pending",
    "rowid": "1252504",
    "final_x": "3670049.73268",
    "final_y": "529282.003329",
    "longitude": "-90.10430204097534",
    "latitude": "29.949684617757768",
    "geocoded_column": {
      "latitude": "29.949684617757768",
      "longitude": "-90.10430204097534"
    }
  },
  {
    "service_request": "2026-1252498",
    "request_type": "Streetlights",
    "request_reason": "Streetlight Outage/Malfunction",
    "date_created": "2026-01-15T20:21:36.000",
    "date_modified": "2026-01-15T20:21:38.000",
    "request_status": "Pending",
    "responsible_agency": "Department of Public Works",
    "final_address": "10100 BLK Boulevard Way",
    "address_councildis": "E",
    "status": "Pending",
    "rowid": "1252498",
    "final_x": "3708660.72601",
    "final_y": "564781.313138",
    "longitude": "-89.98106784755093",
    "latitude": "30.04609901081831",
    "geocoded_column": {
      "latitude": "30.04609901081831",
      "longitude": "-89.98106784755093"
    }
  },
  {
    "service_request": "2026-1252497",
    "request_type": "Abandoned Vehicles",
    "request_reason": "Abandoned/Junk Vehicles",
    "date_created": "2026-01-15T20:16:12.000",
    "date_modified": "2026-01-15T20:16:13.000",
    "request_status": "Pending",
    "responsible_agency": "Department of Public Works",
    "final_address": "10100 BLK Boulevard Way",
    "address_councildis": "E",
    "status": "Pending",
    "rowid": "1252497",
    "final_x": "3708660.72601",
    "final_y": "564781.313138",
    "longitude": "-89.98106784755093",
    "latitude": "30.04609901081831",
    "geocoded_column": {
      "latitude": "30.04609901081831",
      "longitude": "-89.98106784755093"
    }
  },
  {
    "service_request": "2026-1252496",
    "request_type": "Trash/Recycling",
    "request_reason": "Request a Large Item Pick Up",
    "date_created": "2026-01-15T20:15:41.000",
    "date_modified": "2026-01-15T20:15:43.000",
    "request_status": "Pending",
    "responsible_agency": "Department of Sanitation",
    "final_address": "6073 Wilton Dr",
    "address_councildis": "D",
    "status": "Assigned to Contractor",
    "contractor": "IV Waste",
    "rowid": "1252496",
    "final_x": "3681741.77455",
    "final_y": "555232.030745",
    "longitude": "-90.0664790693951",
    "latitude": "30.020688068853044",
    "geocoded_column": {
      "latitude": "30.020688068853044",
      "longitude": "-90.0664790693951"
    }
  },
  {
    "service_request": "2026-1252495",
    "request_type": "Roads and Streets",
    "request_reason": "Sidewalk Damaged or Missing",
    "date_created": "2026-01-15T20:15:12.000",
    "date_modified": "2026-01-15T20:15:13.000",
    "request_status": "Pending",
    "responsible_agency": "Department of Public Works",
    "final_address": "1421 Verna St",
    "address_councildis": "A",
    "status": "Pending",
    "rowid": "1252495",
    "final_x": "3675727.67336",
    "final_y": "541045.092107",
    "longitude": "-90.08596985238353",
    "latitude": "29.981860451946368",
    "geocoded_column": {
      "latitude": "29.981860451946368",
      "longitude": "-90.08596985238353"
    }
  },
  {
    "service_request": "2026-1252494",
    "request_type": "Abandoned Vehicles",
    "request_reason": "Abandoned/Junk Vehicles",
    "date_created": "2026-01-15T20:13:44.000",
    "date_modified": "2026-01-15T20:13:46.000",
    "request_status": "Pending",
    "responsible_agency": "Department of Public Works",
    "final_address": "10100 BLK Boulevard Way",
    "address_councildis": "E",
    "status": "Pending",
    "rowid": "1252494",
    "final_x": "3708660.72601",
    "final_y": "564781.313138",
    "longitude": "-89.98106784755093",
    "latitude": "30.04609901081831",
    "geocoded_column": {
      "latitude": "30.04609901081831",
      "longitude": "-89.98106784755093"
    }
  },
  {
    "service_request": "2026-1252493",
    "request_type": "Abandoned Vehicles",
    "request_reason": "Abandoned/Junk Vehicles",
    "date_created": "2026-01-15T20:11:54.000",
    "date_modified": "2026-01-15T20:11:55.000",
    "request_status": "Pending",
    "responsible_agency": "Department of Public Works",
    "final_address": "10100 BLK Boulevard Way",
    "address_councildis": "E",
    "status": "Pending",
    "rowid": "1252493",
    "final_x": "3708660.72601",
    "final_y": "564781.313138",
    "longitude": "-89.98106784755093",
    "latitude": "30.04609901081831",
    "geocoded_column": {
      "latitude": "30.04609901081831",
      "longitude": "-89.98106784755093"
    }
  },
  {
    "service_request": "2026-1252492",
    "request_type": "Trash/Recycling",
    "request_reason": "Order Recycling Cart",
    "date_created": "2026-01-15T20:09:51.000",
    "date_modified": "2026-01-15T20:09:53.000",
    "request_status": "Pending",
    "responsible_agency": "Department of Sanitation",
    "final_address": "2623 Dauphine St",
    "address_councildis": "C",
    "status": "Pending",
    "rowid": "1252492",
    "final_x": "3687046.42697",
    "final_y": "535300.630598",
    "longitude": "-90.05042308542534",
    "latitude": "29.965721541739686",
    "geocoded_column": {
      "latitude": "29.965721541739686",
      "longitude": "-90.05042308542534"
    }
  },
  {
    "service_request": "2026-1252491",
    "request_type": "Abandoned Vehicles",
    "request_reason": "Abandoned/Junk Vehicles",
    "date_created": "2026-01-15T20:09:35.000",
    "date_modified": "2026-01-15T20:09:37.000",
    "request_status": "Pending",
    "responsible_agency": "Department of Public Works",
    "final_address": "10100 BLK Boulevard Way",
    "address_councildis": "E",
    "status": "Pending",
    "rowid": "1252491",
    "final_x": "3708660.72601",
    "final_y": "564781.313138",
    "longitude": "-89.98106784755093",
    "latitude": "30.04609901081831",
    "geocoded_column": {
      "latitude": "30.04609901081831",
      "longitude": "-89.98106784755093"
    }
  },
  {
    "service_request": "2026-1252490",
    "request_type": "Trash/Recycling",
    "request_reason": "Request a Large Item Pick Up",
    "date_created": "2026-01-15T19:44:14.000",
    "date_modified": "2026-01-15T19:44:16.000",
    "request_status": "Pending",
    "responsible_agency": "Department of Sanitation",
    "final_address": "5170 Spain St",
    "address_councildis": "D",
    "status": "Assigned to Contractor",
    "contractor": "IV Waste",
    "rowid": "1252490",
    "final_x": "3684792.19746",
    "final_y": "551872.646678",
    "longitude": "-90.05695889090909",
    "latitude": "30.011357907652613",
    "geocoded_column": {
      "latitude": "30.011357907652613",
      "longitude": "-90.05695889090909"
    }
  },
  {
    "service_request": "2026-1252489",
    "request_type": "Roads and Streets",
    "request_reason": "Pothole",
    "date_created": "2026-01-15T19:30:25.000",
    "date_modified": "2026-01-15T19:30:27.000",
    "request_status": "Pending",
    "responsible_agency": "Department of Public Works",
    "final_address": "334 Bellaire Dr",
    "address_councildis": "A",
    "status": "Pending",
    "rowid": "1252489",
    "final_x": "3663881.91482",
    "final_y": "541774.202124",
    "longitude": "-90.1233602297806",
    "latitude": "29.984214518544228",
    "geocoded_column": {
      "latitude": "29.984214518544228",
      "longitude": "-90.1233602297806"
    }
  },
  {
    "service_request": "2026-1252488",
    "request_type": "Roads and Streets",
    "request_reason": "Pothole",
    "date_created": "2026-01-15T19:03:46.000",
    "date_modified": "2026-01-15T19:03:48.000",
    "request_status": "Pending",
    "responsible_agency": "Department of Public Works",
    "final_address": "334 Bellaire Dr",
    "address_councildis": "A",
    "status": "Pending",
    "rowid": "1252488",
    "final_x": "3663881.91482",
    "final_y": "541774.202124",
    "longitude": "-90.1233602297806",
    "latitude": "29.984214518544228",
    "geocoded_column": {
      "latitude": "29.984214518544228",
      "longitude": "-90.1233602297806"
    }
  },
  {
    "service_request": "2026-1252487",
    "request_type": "Trash/Recycling",
    "request_reason": "Return Trash Cart",
    "date_created": "2026-01-15T18:54:50.000",
    "date_modified": "2026-01-15T18:54:53.000",
    "request_status": "Pending",
    "responsible_agency": "Department of Sanitation",
    "final_address": "3701 Octavia St",
    "address_councildis": "A",
    "status": "Assigned to Contractor",
    "contractor": "IV Waste",
    "rowid": "1252487",
    "final_x": "3668741.66382",
    "final_y": "529048.55424",
    "longitude": "-90.1084401034067",
    "latitude": "29.949081222983942",
    "geocoded_column": {
      "latitude": "29.949081222983942",
      "longitude": "-90.1084401034067"
    }
  },
  {
    "service_request": "2026-1252486",
    "request_type": "Streetlights",
    "request_reason": "Streetlight Outage/Malfunction",
    "date_created": "2026-01-15T18:44:18.000",
    "date_modified": "2026-01-15T18:44:20.000",
    "request_status": "Pending",
    "responsible_agency": "Department of Public Works",
    "final_address": "1020 Red Allen Way",
    "address_councildis": "C",
    "status": "Pending",
    "rowid": "1252486",
    "final_x": "3688667.33244",
    "final_y": "528745.061696",
    "longitude": "-90.04553700968621",
    "latitude": "29.947645992364404",
    "geocoded_column": {
      "latitude": "29.947645992364404",
      "longitude": "-90.04553700968621"
    }
  },
  {
    "service_request": "2026-1252485",
    "request_type": "Trash/Recycling",
    "request_reason": "Repair Recycling Cart",
    "date_created": "2026-01-15T18:27:10.000",
    "date_modified": "2026-01-15T18:27:12.000",
    "request_status": "Pending",
    "responsible_agency": "Department of Sanitation",
    "final_address": "520 Octavia St",
    "address_councildis": "A",
    "status": "Pending",
    "rowid": "1252485",
    "final_x": "3666235.90804",
    "final_y": "518068.929718",
    "longitude": "-90.11671998769167",
    "latitude": "29.918964168887502",
    "geocoded_column": {
      "latitude": "29.918964168887502",
      "longitude": "-90.11671998769167"
    }
  },
  {
    "service_request": "2026-1252484",
    "request_type": "Abandoned Vehicles",
    "request_reason": "Abandoned/Junk Vehicles",
    "date_created": "2026-01-15T18:25:45.000",
    "date_modified": "2026-01-15T18:25:48.000",
    "request_status": "Pending",
    "responsible_agency": "Department of Public Works",
    "final_address": "1111 Shirley Dr",
    "address_councildis": "C",
    "status": "Pending",
    "rowid": "1252484",
    "final_x": "3693048.87305",
    "final_y": "527209.981119",
    "longitude": "-90.03175788517305",
    "latitude": "29.94328891987638",
    "geocoded_column": {
      "latitude": "29.94328891987638",
      "longitude": "-90.03175788517305"
    }
  },
  {
    "service_request": "2026-1252483",
    "request_type": "Trash/Recycling",
    "request_reason": "Replace Trash Cart",
    "date_created": "2026-01-15T17:46:40.000",
    "date_modified": "2026-01-15T17:46:42.000",
    "request_status": "Pending",
    "responsible_agency": "Department of Sanitation",
    "final_address": "8918 Palm St",
    "address_councildis": "A",
    "status": "Assigned to Contractor",
    "contractor": "IV Waste",
    "rowid": "1252483",
    "final_x": "3665487.91975",
    "final_y": "536677.729607",
    "longitude": "-90.11845823716503",
    "latitude": "29.970154194687836",
    "geocoded_column": {
      "latitude": "29.970154194687836",
      "longitude": "-90.11845823716503"
    }
  },
  {
    "service_request": "2026-1252482",
    "request_type": "Roads and Streets",
    "request_reason": "Curb Damage",
    "date_created": "2026-01-15T17:43:23.000",
    "date_modified": "2026-01-15T17:43:25.000",
    "request_status": "Pending",
    "responsible_agency": "Department of Public Works",
    "final_address": "15 Kristen Ct",
    "address_councildis": "E",
    "status": "Pending",
    "rowid": "1252482",
    "final_x": "3713647.22136",
    "final_y": "567405.736932",
    "longitude": "-89.9652091188105",
    "latitude": "30.0531523555854",
    "geocoded_column": {
      "latitude": "30.0531523555854",
      "longitude": "-89.9652091188105"
    }
  },
  {
    "service_request": "2026-1252481",
    "request_type": "Abandoned Vehicles",
    "request_reason": "Abandoned/Junk Vehicles",
    "date_created": "2026-01-15T17:20:16.000",
    "date_modified": "2026-01-15T17:20:17.000",
    "request_status": "Pending",
    "responsible_agency": "Department of Public Works",
    "final_address": "2113 Duels St",
    "address_councildis": "D",
    "status": "Pending",
    "rowid": "1252481",
    "final_x": "3683846.37007",
    "final_y": "542544.954957",
    "longitude": "-90.06027456096713",
    "latitude": "29.98573903371985",
    "geocoded_column": {
      "latitude": "29.98573903371985",
      "longitude": "-90.06027456096713"
    }
  },
  {
    "service_request": "2026-1252480",
    "request_type": "Trash/Recycling",
    "request_reason": "Order Trash Cart",
    "date_created": "2026-01-15T17:17:53.000",
    "date_modified": "2026-01-15T17:17:55.000",
    "request_status": "Pending",
    "responsible_agency": "Department of Sanitation",
    "final_address": "4429 Laine Ave",
    "address_councildis": "E",
    "status": "Assigned to Contractor",
    "contractor": "Waste Pro",
    "rowid": "1252480",
    "final_x": "3705981.39147",
    "final_y": "553565.840087",
    "longitude": "-89.98995141309852",
    "latitude": "30.015347521899457",
    "geocoded_column": {
      "latitude": "30.015347521899457",
      "longitude": "-89.98995141309852"
    }
  },
  {
    "service_request": "2026-1252479",
    "request_type": "Trash/Recycling",
    "request_reason": "Replace Trash Cart",
    "date_created": "2026-01-15T17:10:50.000",
    "date_modified": "2026-01-15T17:10:51.000",
    "request_status": "Pending",
    "responsible_agency": "Department of Sanitation",
    "final_address": "8633 Plum St",
    "address_councildis": "A",
    "status": "Assigned to Contractor",
    "contractor": "IV Waste",
    "rowid": "1252479",
    "final_x": "3660705.10899",
    "final_y": "530045.492993",
    "longitude": "-90.13378220418299",
    "latitude": "29.95205626263389",
    "geocoded_column": {
      "latitude": "29.95205626263389",
      "longitude": "-90.13378220418299"
    }
  },
  {
    "service_request": "2026-1252478",
    "request_type": "Trash/Recycling",
    "request_reason": "Repair Trash Cart",
    "date_created": "2026-01-15T16:59:19.000",
    "date_modified": "2026-01-15T16:59:39.000",
    "request_status": "Pending",
    "responsible_agency": "Department of Sanitation",
    "final_address": "4753 Press Dr",
    "address_councildis": "D",
    "status": "Assigned to Contractor",
    "contractor": "IV Waste",
    "rowid": "1252478",
    "final_x": "3689692.46531",
    "final_y": "550982.013653",
    "longitude": "-90.0415087167071",
    "latitude": "30.008757995310557",
    "geocoded_column": {
      "latitude": "30.008757995310557",
      "longitude": "-90.0415087167071"
    }
  },
  {
    "service_request": "2026-1252477",
    "request_type": "Street and Traffic Signs",
    "request_reason": "Stop Sign Missing or Damaged",
    "date_created": "2026-01-15T16:58:07.000",
    "date_modified": "2026-01-15T16:58:08.000",
    "request_status": "Pending",
    "responsible_agency": "Department of Public Works",
    "final_address": "8100 BLK Saint Charles Ave",
    "address_councildis": "A",
    "status": "Pending",
    "rowid": "1252477",
    "final_x": "3660508.37219",
    "final_y": "526916.84392",
    "longitude": "-90.13450676660769",
    "latitude": "29.94345913757153",
    "geocoded_column": {
      "latitude": "29.94345913757153",
      "longitude": "-90.13450676660769"
    }
  },
  {
    "service_request": "2026-1252476",
    "request_type": "Parks & Parkways",
    "request_reason": "Request Grass Cutting Service (City Owned Property)",
    "date_created": "2026-01-15T16:57:44.000",
    "date_modified": "2026-01-15T16:57:45.000",
    "request_status": "Pending",
    "responsible_agency": "Department of Parks & Parkway",
    "final_address": "7900 BLK Vanderkloot Ave",
    "address_councildis": "E",
    "status": "Pending",
    "rowid": "1252476",
    "final_x": "3705395.3769",
    "final_y": "564154.237621",
    "longitude": "-89.99141113944819",
    "latitude": "30.044480357537086",
    "geocoded_column": {
      "latitude": "30.044480357537086",
      "longitude": "-89.99141113944819"
    }
  },
  {
    "service_request": "2026-1252475",
    "request_type": "Trash/Recycling",
    "request_reason": "Request a Large Item Pick Up",
    "date_created": "2026-01-15T16:54:58.000",
    "date_modified": "2026-01-15T16:55:00.000",
    "request_status": "Pending",
    "responsible_agency": "Department of Sanitation",
    "final_address": "5062 Stephen Girard Ave",
    "address_councildis": "D",
    "status": "Assigned to Contractor",
    "contractor": "IV Waste",
    "rowid": "1252475",
    "final_x": "3693075.81936",
    "final_y": "551205.015573",
    "longitude": "-90.03081163495635",
    "latitude": "30.0092658516872",
    "geocoded_column": {
      "latitude": "30.0092658516872",
      "longitude": "-90.03081163495635"
    }
  },
  {
    "service_request": "2026-1252474",
    "request_type": "Trash/Recycling",
    "request_reason": "Request a Large Item Pick Up",
    "date_created": "2026-01-15T16:52:57.000",
    "date_modified": "2026-01-15T16:52:59.000",
    "request_status": "Pending",
    "responsible_agency": "Department of Sanitation",
    "final_address": "1440 Magazine St",
    "address_councildis": "B",
    "status": "Assigned to Contractor",
    "contractor": "IV Waste",
    "rowid": "1252474",
    "final_x": "3680317.01781",
    "final_y": "524161.851132",
    "longitude": "-90.07206150215748",
    "latitude": "29.93529909829683",
    "geocoded_column": {
      "latitude": "29.93529909829683",
      "longitude": "-90.07206150215748"
    }
  },
  {
    "service_request": "2026-1252473",
    "request_type": "Trash/Recycling",
    "request_reason": "Request a Large Item Pick Up",
    "date_created": "2026-01-15T16:51:17.000",
    "date_modified": "2026-01-15T16:51:18.000",
    "request_status": "Pending",
    "responsible_agency": "Department of Sanitation",
    "final_address": "2719 Pressburg St",
    "address_councildis": "D",
    "status": "Assigned to Contractor",
    "contractor": "IV Waste",
    "rowid": "1252473",
    "final_x": "3687318.09929",
    "final_y": "554946.61212",
    "longitude": "-90.04886968677569",
    "latitude": "30.01973257272206",
    "geocoded_column": {
      "latitude": "30.01973257272206",
      "longitude": "-90.04886968677569"
    }
  },
  {
    "service_request": "2026-1252472",
    "request_type": "Road Striping",
    "request_reason": "Lane Striping or other Pavement Markings",
    "date_created": "2026-01-15T16:49:08.000",
    "date_modified": "2026-01-15T16:49:09.000",
    "request_status": "Pending",
    "responsible_agency": "Department of Public Works",
    "final_address": "100 BLK Convention Center Blvd",
    "address_councildis": "B",
    "status": "Pending",
    "rowid": "1252472",
    "final_x": "3682773.50482",
    "final_y": "529164.786602",
    "longitude": "-90.0641314319662",
    "latitude": "29.948980916036433",
    "geocoded_column": {
      "latitude": "29.948980916036433",
      "longitude": "-90.0641314319662"
    }
  },
  {
    "service_request": "2026-1252471",
    "request_type": "Streetlights",
    "request_reason": "Streetlight Outage/Malfunction",
    "date_created": "2026-01-15T16:45:06.000",
    "date_modified": "2026-01-15T16:45:09.000",
    "request_status": "Pending",
    "responsible_agency": "Department of Public Works",
    "final_address": "1233 St Mary St",
    "address_councildis": "B",
    "status": "Pending",
    "rowid": "1252471",
    "final_x": "3679308.91528",
    "final_y": "523346.731771",
    "longitude": "-90.07527233632892",
    "latitude": "29.93308826190815",
    "geocoded_column": {
      "latitude": "29.93308826190815",
      "longitude": "-90.07527233632892"
    }
  },
  {
    "service_request": "2026-1252470",
    "request_type": "Trash/Recycling",
    "request_reason": "Request a Large Item Pick Up",
    "date_created": "2026-01-15T16:44:57.000",
    "date_modified": "2026-01-15T16:44:58.000",
    "request_status": "Pending",
    "responsible_agency": "Department of Sanitation",
    "final_address": "2616 Joseph St",
    "address_councildis": "A",
    "status": "Assigned to Contractor",
    "contractor": "IV Waste",
    "rowid": "1252470",
    "final_x": "3667572.31757",
    "final_y": "525579.725437",
    "longitude": "-90.11224897177817",
    "latitude": "29.93957738526633",
    "geocoded_column": {
      "latitude": "29.93957738526633",
      "longitude": "-90.11224897177817"
    }
  },
  {
    "service_request": "2026-1252469",
    "request_type": "Trash/Recycling",
    "request_reason": "Request a Large Item Pick Up",
    "date_created": "2026-01-15T16:42:47.000",
    "date_modified": "2026-01-15T16:42:49.000",
    "request_status": "Pending",
    "responsible_agency": "Department of Sanitation",
    "final_address": "1736 France St",
    "address_councildis": "D",
    "status": "Assigned to Contractor",
    "contractor": "IV Waste",
    "rowid": "1252469",
    "final_x": "3692989.03171",
    "final_y": "537713.00564",
    "longitude": "-90.0315700878935",
    "latitude": "29.97217043311501",
    "geocoded_column": {
      "latitude": "29.97217043311501",
      "longitude": "-90.0315700878935"
    }
  },
  {
    "service_request": "2026-1252468",
    "request_type": "Health Related Request",
    "request_reason": "Property Maintenance",
    "date_created": "2026-01-15T16:35:19.000",
    "date_modified": "2026-01-15T16:35:21.000",
    "request_status": "Pending",
    "responsible_agency": "Department of Code Enforcement",
    "final_address": "5921 Jamison St",
    "address_councildis": "D",
    "status": "Pending",
    "rowid": "1252468",
    "final_x": "3696189.73008",
    "final_y": "553596.570391",
    "longitude": "-90.0208872339325",
    "latitude": "30.01574403449208",
    "geocoded_column": {
      "latitude": "30.01574403449208",
      "longitude": "-90.0208872339325"
    }
  },
  {
    "service_request": "2026-1252467",
    "request_type": "Trash/Recycling",
    "request_reason": "Request a Large Item Pick Up",
    "date_created": "2026-01-15T16:34:37.000",
    "date_modified": "2026-01-15T16:34:38.000",
    "request_status": "Pending",
    "responsible_agency": "Department of Sanitation",
    "final_address": "7031 Dorchester St",
    "address_councildis": "E",
    "status": "Assigned to Contractor",
    "contractor": "Waste Pro",
    "rowid": "1252467",
    "final_x": "3699345.03543",
    "final_y": "559514.325533",
    "longitude": "-90.01070213779109",
    "latitude": "30.031915845965884",
    "geocoded_column": {
      "latitude": "30.031915845965884",
      "longitude": "-90.01070213779109"
    }
  },
  {
    "service_request": "2026-1252466",
    "request_type": "Trash/Recycling",
    "request_reason": "Missed Trash Pick-Up",
    "date_created": "2026-01-15T16:34:04.000",
    "date_modified": "2026-01-15T16:44:11.000",
    "case_close_date": "2026-01-15T10:44:10.000",
    "request_status": "Closed",
    "responsible_agency": "Department of Sanitation",
    "final_address": "1726 Egania St",
    "address_councildis": "E",
    "status": "Invalid Request",
    "contractor": "Waste Pro",
    "contractor_action": "Invalid",
    "rowid": "1252466",
    "final_x": "3697460.15792",
    "final_y": "536537.168327",
    "longitude": "-90.01749224597185",
    "latitude": "29.96879687475703",
    "geocoded_column": {
      "latitude": "29.96879687475703",
      "longitude": "-90.01749224597185"
    }
  },
  {
    "service_request": "2026-1252465",
    "request_type": "Trash/Recycling",
    "request_reason": "Missed Trash Pick-Up",
    "date_created": "2026-01-15T16:31:07.000",
    "date_modified": "2026-01-15T16:31:09.000",
    "request_status": "Pending",
    "responsible_agency": "Department of Sanitation",
    "final_address": "10132 Lincoln Beach Blvd",
    "address_councildis": "E",
    "status": "Assigned to Contractor",
    "contractor": "Waste Pro",
    "rowid": "1252465",
    "final_x": "3707960.37867",
    "final_y": "565978.790563",
    "longitude": "-89.9832366891367",
    "latitude": "30.04941430103959",
    "geocoded_column": {
      "latitude": "30.04941430103959",
      "longitude": "-89.9832366891367"
    }
  },
  {
    "service_request": "2026-1252464",
    "request_type": "Trash/Recycling",
    "request_reason": "Request a Large Item Pick Up",
    "date_created": "2026-01-15T16:26:53.000",
    "date_modified": "2026-01-15T16:26:55.000",
    "request_status": "Pending",
    "responsible_agency": "Department of Sanitation",
    "final_address": "8916 Marks St",
    "address_councildis": "A",
    "status": "Assigned to Contractor",
    "contractor": "IV Waste",
    "rowid": "1252464",
    "final_x": "3666664.10234",
    "final_y": "537968.123913",
    "longitude": "-90.1147003756947",
    "latitude": "29.973668007017682",
    "geocoded_column": {
      "latitude": "29.973668007017682",
      "longitude": "-90.1147003756947"
    }
  },
  {
    "service_request": "2026-1252463",
    "request_type": "Drainage",
    "request_reason": "Drainage Manhole Cover Missing or Damaged",
    "date_created": "2026-01-15T16:24:48.000",
    "date_modified": "2026-01-15T16:24:51.000",
    "request_status": "Pending",
    "responsible_agency": "Sewerage & Water Board",
    "final_address": "900 BLK N Miro St",
    "address_councildis": "D",
    "status": "Pending",
    "rowid": "1252463",
    "final_x": "3678639.78278",
    "final_y": "536636.035768",
    "longitude": "-90.07692472455064",
    "latitude": "29.969649577611598",
    "geocoded_column": {
      "latitude": "29.969649577611598",
      "longitude": "-90.07692472455064"
    }
  },
  {
    "service_request": "2026-1252462",
    "request_type": "Trash/Recycling",
    "request_reason": "Request a Large Item Pick Up",
    "date_created": "2026-01-15T16:20:36.000",
    "date_modified": "2026-01-15T16:20:38.000",
    "request_status": "Pending",
    "responsible_agency": "Department of Sanitation",
    "final_address": "7820 Sand St",
    "address_councildis": "E",
    "status": "Assigned to Contractor",
    "contractor": "Waste Pro",
    "rowid": "1252462",
    "final_x": "3720236.98918",
    "final_y": "574119.984938",
    "longitude": "-89.94412360322552",
    "latitude": "30.07139573584904",
    "geocoded_column": {
      "latitude": "30.07139573584904",
      "longitude": "-89.94412360322552"
    }
  },
  {
    "service_request": "2026-1252461",
    "request_type": "Trash/Recycling",
    "request_reason": "Request a Large Item Pick Up",
    "date_created": "2026-01-15T16:19:38.000",
    "date_modified": "2026-01-15T16:19:40.000",
    "request_status": "Pending",
    "responsible_agency": "Department of Sanitation",
    "final_address": "1237 Louisa St",
    "address_councildis": "C",
    "status": "Assigned to Contractor",
    "contractor": "IV Waste",
    "rowid": "1252461",
    "final_x": "3689764.08067",
    "final_y": "536513.301319",
    "longitude": "-90.04179769706947",
    "latitude": "29.968972015988303",
    "geocoded_column": {
      "latitude": "29.968972015988303",
      "longitude": "-90.04179769706947"
    }
  },
  {
    "service_request": "2026-1252460",
    "request_type": "Roads and Streets",
    "request_reason": "Sidewalk Damaged or Missing",
    "date_created": "2026-01-15T16:16:31.000",
    "date_modified": "2026-01-15T16:16:33.000",
    "request_status": "Pending",
    "responsible_agency": "Department of Public Works",
    "final_address": "619 Second St",
    "address_councildis": "B",
    "status": "Pending",
    "rowid": "1252460",
    "final_x": "3678774.05333",
    "final_y": "519968.017656",
    "longitude": "-90.07707780083888",
    "latitude": "29.92381403858243",
    "geocoded_column": {
      "latitude": "29.92381403858243",
      "longitude": "-90.07707780083888"
    }
  },
  {
    "service_request": "2026-1252459",
    "request_type": "Roads and Streets",
    "request_reason": "Sidewalk Damaged or Missing",
    "date_created": "2026-01-15T16:16:16.000",
    "date_modified": "2026-01-15T16:16:18.000",
    "request_status": "Pending",
    "responsible_agency": "Department of Public Works",
    "final_address": "4859 Perelli Dr",
    "address_councildis": "E",
    "status": "Pending",
    "rowid": "1252459",
    "final_x": "3711725.09266",
    "final_y": "556785.924698",
    "longitude": "-89.97168327427099",
    "latitude": "30.024015085248674",
    "geocoded_column": {
      "latitude": "30.024015085248674",
      "longitude": "-89.97168327427099"
    }
  },
  {
    "service_request": "2026-1252458",
    "request_type": "Streetlights",
    "request_reason": "Streetlight Outage/Malfunction",
    "date_created": "2026-01-15T16:09:28.000",
    "date_modified": "2026-01-15T16:09:29.000",
    "request_status": "Pending",
    "responsible_agency": "Department of Public Works",
    "final_address": "1494 Granada Dr",
    "address_councildis": "D",
    "status": "Pending",
    "rowid": "1252458",
    "final_x": "3678585.76469",
    "final_y": "550542.075604",
    "longitude": "-90.0766136569246",
    "latitude": "30.007887949698866",
    "geocoded_column": {
      "latitude": "30.007887949698866",
      "longitude": "-90.0766136569246"
    }
  },
  {
    "service_request": "2026-1252457",
    "request_type": "Trash/Recycling",
    "request_reason": "Request a Large Item Pick Up",
    "date_created": "2026-01-15T16:08:36.000",
    "date_modified": "2026-01-15T16:08:39.000",
    "request_status": "Pending",
    "responsible_agency": "Department of Sanitation",
    "final_address": "2016 Urquhart St",
    "address_councildis": "C",
    "status": "Assigned to Contractor",
    "contractor": "IV Waste",
    "rowid": "1252457",
    "final_x": "3684306.78972",
    "final_y": "536959.213768",
    "longitude": "-90.05901649616068",
    "latitude": "29.970366128610745",
    "geocoded_column": {
      "latitude": "29.970366128610745",
      "longitude": "-90.05901649616068"
    }
  },
  {
    "service_request": "2026-1252456",
    "request_type": "Trash/Recycling",
    "request_reason": "Request a Large Item Pick Up",
    "date_created": "2026-01-15T16:01:27.000",
    "date_modified": "2026-01-15T16:01:28.000",
    "request_status": "Pending",
    "responsible_agency": "Department of Sanitation",
    "final_address": "3122 N Johnson St",
    "address_councildis": "D",
    "status": "Assigned to Contractor",
    "contractor": "IV Waste",
    "rowid": "1252456",
    "final_x": "3689996.83561",
    "final_y": "539232.051466",
    "longitude": "-90.0409658045926",
    "latitude": "29.976440403427816",
    "geocoded_column": {
      "latitude": "29.976440403427816",
      "longitude": "-90.0409658045926"
    }
  },
  {
    "service_request": "2026-1252455",
    "request_type": "Trash/Recycling",
    "request_reason": "Request a Large Item Pick Up",
    "date_created": "2026-01-15T16:01:26.000",
    "date_modified": "2026-01-15T16:01:28.000",
    "request_status": "Pending",
    "responsible_agency": "Department of Sanitation",
    "final_address": "2326 Mithra St",
    "address_councildis": "D",
    "status": "Assigned to Contractor",
    "contractor": "IV Waste",
    "rowid": "1252455",
    "final_x": "3684646.85666",
    "final_y": "552696.400342",
    "longitude": "-90.05738910029088",
    "latitude": "30.0136273804175",
    "geocoded_column": {
      "latitude": "30.0136273804175",
      "longitude": "-90.05738910029088"
    }
  },
  {
    "service_request": "2026-1252454",
    "request_type": "Trash/Recycling",
    "request_reason": "Return Trash Cart",
    "date_created": "2026-01-15T15:59:49.000",
    "date_modified": "2026-01-15T15:59:50.000",
    "request_status": "Pending",
    "responsible_agency": "Department of Sanitation",
    "final_address": "5846 Louis Xiv St",
    "address_councildis": "A",
    "status": "Assigned to Contractor",
    "contractor": "IV Waste",
    "rowid": "1252454",
    "final_x": "3667933.95053",
    "final_y": "546449.833553",
    "longitude": "-90.11040401619863",
    "latitude": "29.996952631302385",
    "geocoded_column": {
      "latitude": "29.996952631302385",
      "longitude": "-90.11040401619863"
    }
  },
  {
    "service_request": "2026-1252453",
    "request_type": "Trash/Recycling",
    "request_reason": "Return Trash Cart",
    "date_created": "2026-01-15T15:55:55.000",
    "date_modified": "2026-01-15T15:55:57.000",
    "request_status": "Pending",
    "responsible_agency": "Department of Sanitation",
    "final_address": "1541 Steeple Chase Ln",
    "address_councildis": "C",
    "status": "Assigned to Contractor",
    "contractor": "Richards Disposal",
    "rowid": "1252453",
    "final_x": "3699941.63076",
    "final_y": "525435.651517",
    "longitude": "-90.01006053469055",
    "latitude": "29.938193046500064",
    "geocoded_column": {
      "latitude": "29.938193046500064",
      "longitude": "-90.01006053469055"
    }
  },
  {
    "service_request": "2026-1252452",
    "request_type": "Trash/Recycling",
    "request_reason": "Repair Recycling Cart",
    "date_created": "2026-01-15T15:54:22.000",
    "date_modified": "2026-01-15T15:54:24.000",
    "request_status": "Pending",
    "responsible_agency": "Department of Sanitation",
    "final_address": "1541 Steeple Chase Ln",
    "address_councildis": "C",
    "status": "Pending",
    "rowid": "1252452",
    "final_x": "3699941.63076",
    "final_y": "525435.651517",
    "longitude": "-90.01006053469055",
    "latitude": "29.938193046500064",
    "geocoded_column": {
      "latitude": "29.938193046500064",
      "longitude": "-90.01006053469055"
    }
  },
  {
    "service_request": "2026-1252451",
    "request_type": "Trash/Recycling",
    "request_reason": "Request a Large Item Pick Up",
    "date_created": "2026-01-15T15:53:28.000",
    "date_modified": "2026-01-15T15:53:30.000",
    "request_status": "Pending",
    "responsible_agency": "Department of Sanitation",
    "final_address": "14901 Emory Rd",
    "address_councildis": "E",
    "status": "Assigned to Contractor",
    "contractor": "Waste Pro",
    "rowid": "1252451",
    "final_x": "3720711.8279",
    "final_y": "574016.151466",
    "longitude": "-89.94262649399802",
    "latitude": "30.07109440001228",
    "geocoded_column": {
      "latitude": "30.07109440001228",
      "longitude": "-89.94262649399802"
    }
  },
  {
    "service_request": "2026-1252450",
    "request_type": "Trash/Recycling",
    "request_reason": "Request a Large Item Pick Up",
    "date_created": "2026-01-15T15:52:19.000",
    "date_modified": "2026-01-15T15:52:21.000",
    "request_status": "Pending",
    "responsible_agency": "Department of Sanitation",
    "final_address": "3421 Palmyra St",
    "address_councildis": "B",
    "status": "Assigned to Contractor",
    "contractor": "IV Waste",
    "rowid": "1252450",
    "final_x": "3672513.06964",
    "final_y": "536315.702919",
    "longitude": "-90.0962843832652",
    "latitude": "29.968952067520373",
    "geocoded_column": {
      "latitude": "29.968952067520373",
      "longitude": "-90.0962843832652"
    }
  },
  {
    "service_request": "2026-1252449",
    "request_type": "Traffic Signals",
    "request_reason": "Traffic Signal Malfunctioning or Damaged",
    "date_created": "2026-01-15T15:50:07.000",
    "date_modified": "2026-01-15T15:50:09.000",
    "request_status": "Pending",
    "responsible_agency": "Department of Public Works",
    "final_address": "WASHINGTON AVE & PINE ST",
    "address_councildis": "B",
    "status": "Pending",
    "rowid": "1252449",
    "final_x": "3669059.4",
    "final_y": "534199.78",
    "longitude": "-90.10726283326873",
    "latitude": "29.963236055326554",
    "geocoded_column": {
      "latitude": "29.963236055326554",
      "longitude": "-90.10726283326873"
    }
  },
  {
    "service_request": "2026-1252448",
    "request_type": "Trash/Recycling",
    "request_reason": "Request a Large Item Pick Up",
    "date_created": "2026-01-15T15:48:42.000",
    "date_modified": "2026-01-15T15:48:43.000",
    "request_status": "Pending",
    "responsible_agency": "Department of Sanitation",
    "final_address": "7517 Edward St",
    "address_councildis": "E",
    "status": "Assigned to Contractor",
    "contractor": "Waste Pro",
    "rowid": "1252448",
    "final_x": "3701233.95185",
    "final_y": "560653.65027",
    "longitude": "-90.00469134290343",
    "latitude": "30.034988459532524",
    "geocoded_column": {
      "latitude": "30.034988459532524",
      "longitude": "-90.00469134290343"
    }
  },
  {
    "service_request": "2026-1252447",
    "request_type": "Trash/Recycling",
    "request_reason": "Dead Animal Pick Up",
    "date_created": "2026-01-15T15:45:15.000",
    "date_modified": "2026-01-15T17:01:46.000",
    "case_close_date": "2026-01-15T11:01:45.000",
    "request_status": "Closed",
    "responsible_agency": "Department of Sanitation",
    "final_address": "I 610 W & BENEFIT ST",
    "address_councildis": "D",
    "status": "Invalid Request",
    "contractor": "IV Waste",
    "contractor_action": "Invalid Request",
    "rowid": "1252447",
    "final_x": "3682344.6",
    "final_y": "544466.68",
    "longitude": "-90.06495085198817",
    "latitude": "29.991068892071485",
    "geocoded_column": {
      "latitude": "29.991068892071485",
      "longitude": "-90.06495085198817"
    }
  },
  {
    "service_request": "2026-1252446",
    "request_type": "Streetlights",
    "request_reason": "New Streetlight Request",
    "date_created": "2026-01-15T15:41:47.000",
    "date_modified": "2026-01-15T15:41:49.000",
    "request_status": "Pending",
    "responsible_agency": "Department of Public Works",
    "final_address": "400 River Oaks Dr",
    "address_councildis": "C",
    "status": "Pending",
    "rowid": "1252446",
    "final_x": "3701617.4714",
    "final_y": "522363.80153",
    "longitude": "-90.00488222415454",
    "latitude": "29.929693207037243",
    "geocoded_column": {
      "latitude": "29.929693207037243",
      "longitude": "-90.00488222415454"
    }
  },
  {
    "service_request": "2026-1252445",
    "request_type": "Trash/Recycling",
    "request_reason": "Repair Trash Cart",
    "date_created": "2026-01-15T15:33:57.000",
    "date_modified": "2026-01-15T15:34:01.000",
    "request_status": "Pending",
    "responsible_agency": "Department of Sanitation",
    "final_address": "402 River Oaks Dr",
    "address_councildis": "C",
    "status": "Assigned to Contractor",
    "contractor": "Richards Disposal",
    "rowid": "1252445",
    "final_x": "3701614.91562",
    "final_y": "522303.91193",
    "longitude": "-90.00489248413535",
    "latitude": "29.929528612875128",
    "geocoded_column": {
      "latitude": "29.929528612875128",
      "longitude": "-90.00489248413535"
    }
  },
  {
    "service_request": "2026-1252444",
    "request_type": "Trash/Recycling",
    "request_reason": "Request a Large Item Pick Up",
    "date_created": "2026-01-15T15:29:43.000",
    "date_modified": "2026-01-15T15:29:44.000",
    "request_status": "Pending",
    "responsible_agency": "Department of Sanitation",
    "final_address": "244 West Robert E Lee Blvd",
    "address_councildis": "A",
    "status": "Assigned to Contractor",
    "contractor": "IV Waste",
    "rowid": "1252444",
    "final_x": "3665827.08122",
    "final_y": "554854.992792",
    "longitude": "-90.11677764044373",
    "latitude": "30.020125557028265",
    "geocoded_column": {
      "latitude": "30.020125557028265",
      "longitude": "-90.11677764044373"
    }
  },
  {
    "service_request": "2026-1252443",
    "request_type": "Streetlights",
    "request_reason": "Streetlight Outage/Malfunction",
    "date_created": "2026-01-15T15:24:04.000",
    "date_modified": "2026-01-15T15:24:06.000",
    "request_status": "Pending",
    "responsible_agency": "Department of Public Works",
    "final_address": "403 River Oaks Dr",
    "address_councildis": "C",
    "status": "Pending",
    "rowid": "1252443",
    "final_x": "3701511.75761",
    "final_y": "522312.356794",
    "longitude": "-90.00521782399424",
    "latitude": "29.92955512144497",
    "geocoded_column": {
      "latitude": "29.92955512144497",
      "longitude": "-90.00521782399424"
    }
  },
  {
    "service_request": "2026-1252442",
    "request_type": "Road Striping",
    "request_reason": "Lane Striping or other Pavement Markings",
    "date_created": "2026-01-15T15:22:33.000",
    "date_modified": "2026-01-15T15:22:35.000",
    "request_status": "Pending",
    "responsible_agency": "Department of Public Works",
    "final_address": "8204 Maple St",
    "address_councildis": "A",
    "status": "Pending",
    "rowid": "1252442",
    "final_x": "3660671.97082",
    "final_y": "527602.982015",
    "longitude": "-90.13396756537428",
    "latitude": "29.94534109174659",
    "geocoded_column": {
      "latitude": "29.94534109174659",
      "longitude": "-90.13396756537428"
    }
  },
  {
    "service_request": "2026-1252441",
    "request_type": "Abandoned Vehicles",
    "request_reason": "Abandoned/Junk Vehicles",
    "date_created": "2026-01-15T15:17:33.000",
    "date_modified": "2026-01-15T15:17:35.000",
    "request_status": "Pending",
    "responsible_agency": "Department of Public Works",
    "final_address": "7811 Oak St",
    "address_councildis": "A",
    "status": "Pending",
    "rowid": "1252441",
    "final_x": "3662752.91949",
    "final_y": "527704.992831",
    "longitude": "-90.12739392559781",
    "latitude": "29.945561532688853",
    "geocoded_column": {
      "latitude": "29.945561532688853",
      "longitude": "-90.12739392559781"
    }
  },
  {
    "service_request": "2026-1252440",
    "request_type": "Trash/Recycling",
    "request_reason": "Request a Large Item Pick Up",
    "date_created": "2026-01-15T15:16:59.000",
    "date_modified": "2026-01-15T15:17:02.000",
    "request_status": "Pending",
    "responsible_agency": "Department of Sanitation",
    "final_address": "7157 Parkside Ct",
    "address_councildis": "E",
    "status": "Assigned to Contractor",
    "contractor": "Waste Pro",
    "rowid": "1252440",
    "final_x": "3704500.85066",
    "final_y": "560387.324574",
    "longitude": "-89.99437734560306",
    "latitude": "30.034151605546306",
    "geocoded_column": {
      "latitude": "30.034151605546306",
      "longitude": "-89.99437734560306"
    }
  },
  {
    "service_request": "2026-1252439",
    "request_type": "Trash/Recycling",
    "request_reason": "Request a Large Item Pick Up",
    "date_created": "2026-01-15T15:14:36.000",
    "date_modified": "2026-01-15T15:14:38.000",
    "request_status": "Pending",
    "responsible_agency": "Department of Sanitation",
    "final_address": "625 N Hennessey St",
    "address_councildis": "A",
    "status": "Assigned to Contractor",
    "contractor": "IV Waste",
    "rowid": "1252439",
    "final_x": "3671471.11515",
    "final_y": "540577.057611",
    "longitude": "-90.09943003234356",
    "latitude": "29.980700240627815",
    "geocoded_column": {
      "latitude": "29.980700240627815",
      "longitude": "-90.09943003234356"
    }
  },
  {
    "service_request": "2026-1252438",
    "request_type": "Trash/Recycling",
    "request_reason": "Return Trash Cart",
    "date_created": "2026-01-15T15:13:43.000",
    "date_modified": "2026-01-15T15:15:05.000",
    "request_status": "Pending",
    "responsible_agency": "Department of Sanitation",
    "final_address": "4345 Jeanne Marie Pl",
    "address_councildis": "D",
    "status": "Assigned to Contractor",
    "contractor": "IV Waste",
    "rowid": "1252438",
    "final_x": "3678623.23957",
    "final_y": "548454.930834",
    "longitude": "-90.0765675850751",
    "latitude": "30.002147915860828",
    "geocoded_column": {
      "latitude": "30.002147915860828",
      "longitude": "-90.0765675850751"
    }
  },
  {
    "service_request": "2026-1252437",
    "request_type": "Abandoned Vehicles",
    "request_reason": "Abandoned/Junk Vehicles",
    "date_created": "2026-01-15T15:00:05.000",
    "date_modified": "2026-01-15T15:02:06.000",
    "request_status": "Pending",
    "responsible_agency": "Department of Public Works",
    "final_address": "302 S Genois St",
    "address_councildis": "B",
    "status": "Pending",
    "rowid": "1252437",
    "final_x": "3672101.08647",
    "final_y": "536484.523783",
    "longitude": "-90.0975797061349",
    "latitude": "29.96942849148354",
    "geocoded_column": {
      "latitude": "29.96942849148354",
      "longitude": "-90.0975797061349"
    }
  },
  {
    "service_request": "2026-1252436",
    "request_type": "Trash/Recycling",
    "request_reason": "Replace Trash Cart",
    "date_created": "2026-01-15T14:58:48.000",
    "date_modified": "2026-01-15T14:58:50.000",
    "request_status": "Pending",
    "responsible_agency": "Department of Sanitation",
    "final_address": "1612 N Prieur St",
    "address_councildis": "D",
    "status": "Assigned to Contractor",
    "contractor": "IV Waste",
    "rowid": "1252436",
    "final_x": "3681433.15605",
    "final_y": "538498.644553",
    "longitude": "-90.06803805735356",
    "latitude": "29.974686592728563",
    "geocoded_column": {
      "latitude": "29.974686592728563",
      "longitude": "-90.06803805735356"
    }
  },
  {
    "service_request": "2026-1252435",
    "request_type": "Street and Traffic Signs",
    "request_reason": "New Disabled Parking Sign Request ",
    "date_created": "2026-01-15T14:53:40.000",
    "date_modified": "2026-01-15T14:53:44.000",
    "case_close_date": "2026-01-15T08:53:44.000",
    "request_status": "Closed",
    "responsible_agency": "Department of Public Works",
    "final_address": "8615 Nelson St",
    "address_councildis": "A",
    "status": "Resolved",
    "rowid": "1252435",
    "final_x": "3663729.62765",
    "final_y": "533158.751236",
    "longitude": "-90.12412841043478",
    "latitude": "29.960529302422035",
    "geocoded_column": {
      "latitude": "29.960529302422035",
      "longitude": "-90.12412841043478"
    }
  },
  {
    "service_request": "2026-1252434",
    "request_type": "Trash/Recycling",
    "request_reason": "Request a Large Item Pick Up",
    "date_created": "2026-01-15T14:53:11.000",
    "date_modified": "2026-01-15T14:53:13.000",
    "request_status": "Pending",
    "responsible_agency": "Department of Sanitation",
    "final_address": "264 Lowerline St",
    "address_councildis": "A",
    "status": "Assigned to Contractor",
    "contractor": "IV Waste",
    "rowid": "1252434",
    "final_x": "3661223.08781",
    "final_y": "523222.965243",
    "longitude": "-90.13237244796392",
    "latitude": "29.933281558424163",
    "geocoded_column": {
      "latitude": "29.933281558424163",
      "longitude": "-90.13237244796392"
    }
  },
  {
    "service_request": "2026-1252433",
    "request_type": "Parks & Parkways",
    "request_reason": "Request Tree Service (Right of Way/Public Property)",
    "date_created": "2026-01-15T14:49:12.000",
    "date_modified": "2026-01-15T14:57:51.000",
    "case_close_date": "2026-01-15T08:57:49.000",
    "request_status": "Closed",
    "responsible_agency": "Department of Parks & Parkway",
    "final_address": "6462 General Diaz St",
    "address_councildis": "A",
    "status": "Duplicate Request",
    "rowid": "1252433",
    "final_x": "3669720.19143",
    "final_y": "550367.993364",
    "longitude": "-90.1046286267855",
    "latitude": "30.00767366577779",
    "geocoded_column": {
      "latitude": "30.00767366577779",
      "longitude": "-90.1046286267855"
    }
  },
  {
    "service_request": "2026-1252432",
    "request_type": "Streetlights",
    "request_reason": "Streetlight Outage/Malfunction",
    "date_created": "2026-01-15T14:48:07.000",
    "date_modified": "2026-01-15T14:48:08.000",
    "request_status": "Pending",
    "responsible_agency": "Department of Public Works",
    "final_address": "28 N Oak Ridge Ct",
    "address_councildis": "E",
    "status": "Pending",
    "rowid": "1252432",
    "final_x": "3713605.358",
    "final_y": "568095.524453",
    "longitude": "-89.96531540656694",
    "latitude": "30.055050363485933",
    "geocoded_column": {
      "latitude": "30.055050363485933",
      "longitude": "-89.96531540656694"
    }
  },
  {
    "service_request": "2026-1252431",
    "request_type": "Drainage",
    "request_reason": "Catch Basin Not Draining",
    "date_created": "2026-01-15T14:46:32.000",
    "date_modified": "2026-01-15T14:46:34.000",
    "request_status": "Pending",
    "responsible_agency": "Sewerage & Water Board",
    "final_address": "6462 General Diaz St",
    "address_councildis": "A",
    "status": "Pending",
    "rowid": "1252431",
    "final_x": "3669720.19143",
    "final_y": "550367.993364",
    "longitude": "-90.1046286267855",
    "latitude": "30.00767366577779",
    "geocoded_column": {
      "latitude": "30.00767366577779",
      "longitude": "-90.1046286267855"
    }
  },
  {
    "service_request": "2026-1252430",
    "request_type": "Street and Traffic Signs",
    "request_reason": "Disabled Parking Sign Missing or Damaged",
    "date_created": "2026-01-15T14:39:45.000",
    "date_modified": "2026-01-15T14:41:02.000",
    "request_status": "Pending",
    "responsible_agency": "Department of Public Works",
    "final_address": "8613 Nelson St",
    "address_councildis": "A",
    "status": "Pending",
    "rowid": "1252430",
    "final_x": "3663740.90099",
    "final_y": "533148.14554",
    "longitude": "-90.12409316476523",
    "latitude": "29.960499813094994",
    "geocoded_column": {
      "latitude": "29.960499813094994",
      "longitude": "-90.12409316476523"
    }
  },
  {
    "service_request": "2026-1252429",
    "request_type": "Trash/Recycling",
    "request_reason": "Request a Large Item Pick Up",
    "date_created": "2026-01-15T14:36:50.000",
    "date_modified": "2026-01-15T14:36:52.000",
    "request_status": "Pending",
    "responsible_agency": "Department of Sanitation",
    "final_address": "1211 S Clark St",
    "address_councildis": "B",
    "status": "Assigned to Contractor",
    "contractor": "IV Waste",
    "rowid": "1252429",
    "final_x": "3669671.28327",
    "final_y": "532563.53178",
    "longitude": "-90.1053859442902",
    "latitude": "29.95871889808498",
    "geocoded_column": {
      "latitude": "29.95871889808498",
      "longitude": "-90.1053859442902"
    }
  },
  {
    "service_request": "2026-1252428",
    "request_type": "Trash/Recycling",
    "request_reason": "Request a Large Item Pick Up",
    "date_created": "2026-01-15T14:31:17.000",
    "date_modified": "2026-01-15T14:31:45.000",
    "request_status": "Pending",
    "responsible_agency": "Department of Sanitation",
    "final_address": "8041 Wales St",
    "address_councildis": "E",
    "status": "Assigned to Contractor",
    "contractor": "Waste Pro",
    "rowid": "1252428",
    "final_x": "3702047.3258",
    "final_y": "562322.731615",
    "longitude": "-90.00205969035535",
    "latitude": "30.039551823040245",
    "geocoded_column": {
      "latitude": "30.039551823040245",
      "longitude": "-90.00205969035535"
    }
  },
  {
    "service_request": "2026-1252427",
    "request_type": "Parks & Parkways",
    "request_reason": "Request Tree Service (Right of Way/Public Property)",
    "date_created": "2026-01-15T14:29:48.000",
    "date_modified": "2026-01-15T14:41:54.000",
    "request_status": "Pending",
    "responsible_agency": "Department of Parks & Parkway",
    "final_address": "1237 Seventh St",
    "address_councildis": "B",
    "status": "Pending",
    "rowid": "1252427",
    "final_x": "3676034.37787",
    "final_y": "520978.854713",
    "longitude": "-90.08569122876929",
    "latitude": "29.92667582065522",
    "geocoded_column": {
      "latitude": "29.92667582065522",
      "longitude": "-90.08569122876929"
    }
  },
  {
    "service_request": "2026-1252426",
    "request_type": "Roads and Streets",
    "request_reason": "Curb Damage",
    "date_created": "2026-01-15T14:28:43.000",
    "date_modified": "2026-01-15T14:28:46.000",
    "request_status": "Pending",
    "responsible_agency": "Department of Public Works",
    "final_address": "3625 Iberville St",
    "address_councildis": "B",
    "status": "Pending",
    "rowid": "1252426",
    "final_x": "3672709.30612",
    "final_y": "537705.03988",
    "longitude": "-90.09561726007786",
    "latitude": "29.97276644805764",
    "geocoded_column": {
      "latitude": "29.97276644805764",
      "longitude": "-90.09561726007786"
    }
  },
  {
    "service_request": "2026-1252425",
    "request_type": "Trash/Recycling",
    "request_reason": "Replace Trash Cart",
    "date_created": "2026-01-15T14:26:57.000",
    "date_modified": "2026-01-15T14:26:58.000",
    "request_status": "Pending",
    "responsible_agency": "Department of Sanitation",
    "final_address": "1705 Burgundy St",
    "address_councildis": "C",
    "status": "Assigned to Contractor",
    "contractor": "IV Waste",
    "rowid": "1252425",
    "final_x": "3683403.26082",
    "final_y": "535417.047622",
    "longitude": "-90.06192397715175",
    "latitude": "29.966153303355554",
    "geocoded_column": {
      "latitude": "29.966153303355554",
      "longitude": "-90.06192397715175"
    }
  },
  {
    "service_request": "2026-1252424",
    "request_type": "Abandoned Vehicles",
    "request_reason": "Abandoned/Junk Vehicles",
    "date_created": "2026-01-15T14:21:48.000",
    "date_modified": "2026-01-15T14:21:49.000",
    "request_status": "Pending",
    "responsible_agency": "Department of Public Works",
    "final_address": "1819 S Gayoso St",
    "address_councildis": "B",
    "status": "Pending",
    "rowid": "1252424",
    "final_x": "3670159.60084",
    "final_y": "529872.390081",
    "longitude": "-90.1039351355656",
    "latitude": "29.95130474698576",
    "geocoded_column": {
      "latitude": "29.95130474698576",
      "longitude": "-90.1039351355656"
    }
  },
  {
    "service_request": "2026-1252423",
    "request_type": "Abandoned Vehicles",
    "request_reason": "Abandoned/Junk Vehicles",
    "date_created": "2026-01-15T14:20:00.000",
    "date_modified": "2026-01-15T14:20:01.000",
    "request_status": "Pending",
    "responsible_agency": "Department of Public Works",
    "final_address": "610 Thayer St",
    "address_councildis": "C",
    "status": "Pending",
    "rowid": "1252423",
    "final_x": "3689550.60047",
    "final_y": "529313.031809",
    "longitude": "-90.0427279968511",
    "latitude": "29.94918038995161",
    "geocoded_column": {
      "latitude": "29.94918038995161",
      "longitude": "-90.0427279968511"
    }
  },
  {
    "service_request": "2026-1252422",
    "request_type": "Roads and Streets",
    "request_reason": "Abandoned Service Cut",
    "date_created": "2026-01-15T14:16:15.000",
    "date_modified": "2026-01-15T14:16:16.000",
    "request_status": "Pending",
    "responsible_agency": "Department of Public Works",
    "final_address": "600 Port Of New Orleans Pl",
    "address_councildis": "C",
    "status": "Pending",
    "rowid": "1252422",
    "final_x": "3683208.23612",
    "final_y": "528458.734208",
    "longitude": "-90.06278351777672",
    "latitude": "29.947026262617538",
    "geocoded_column": {
      "latitude": "29.947026262617538",
      "longitude": "-90.06278351777672"
    }
  },
  {
    "service_request": "2026-1252421",
    "request_type": "Trash/Recycling",
    "request_reason": "Request a Large Item Pick Up",
    "date_created": "2026-01-15T14:12:05.000",
    "date_modified": "2026-01-15T14:12:06.000",
    "request_status": "Pending",
    "responsible_agency": "Department of Sanitation",
    "final_address": "7839 Sail St",
    "address_councildis": "E",
    "status": "Assigned to Contractor",
    "contractor": "Waste Pro",
    "rowid": "1252421",
    "final_x": "3720037.67788",
    "final_y": "574136.688554",
    "longitude": "-89.9447530401927",
    "latitude": "30.071448306459256",
    "geocoded_column": {
      "latitude": "30.071448306459256",
      "longitude": "-89.9447530401927"
    }
  },
  {
    "service_request": "2026-1252420",
    "request_type": "Trash/Recycling",
    "request_reason": "Request a Large Item Pick Up",
    "date_created": "2026-01-15T14:09:20.000",
    "date_modified": "2026-01-15T14:09:22.000",
    "request_status": "Pending",
    "responsible_agency": "Department of Sanitation",
    "final_address": "1238 Flood St",
    "address_councildis": "E",
    "status": "Assigned to Contractor",
    "contractor": "Waste Pro",
    "rowid": "1252420",
    "final_x": "3697850.14634",
    "final_y": "534505.183813",
    "longitude": "-90.01633440259799",
    "latitude": "29.963197322958028",
    "geocoded_column": {
      "latitude": "29.963197322958028",
      "longitude": "-90.01633440259799"
    }
  },
  {
    "service_request": "2026-1252419",
    "request_type": "Abandoned Vehicles",
    "request_reason": "Abandoned/Junk Vehicles",
    "date_created": "2026-01-15T14:08:23.000",
    "date_modified": "2026-01-15T14:08:25.000",
    "request_status": "Pending",
    "responsible_agency": "Department of Public Works",
    "final_address": "3915 Johnny Jackson Jr Blvd",
    "address_councildis": "D",
    "status": "Pending",
    "rowid": "1252419",
    "final_x": "3691820.14012",
    "final_y": "547695.20053",
    "longitude": "-90.03490439342677",
    "latitude": "29.99965433860358",
    "geocoded_column": {
      "latitude": "29.99965433860358",
      "longitude": "-90.03490439342677"
    }
  },
  {
    "service_request": "2026-1252418",
    "request_type": "Roads and Streets",
    "request_reason": "Debris in Driving Lanes",
    "date_created": "2026-01-15T14:08:06.000",
    "date_modified": "2026-01-15T14:08:07.000",
    "request_status": "Pending",
    "responsible_agency": "Department of Public Works",
    "final_address": "8601 Palmetto St",
    "address_councildis": "A",
    "status": "Pending",
    "rowid": "1252418",
    "final_x": "3666866.95034",
    "final_y": "536523.105159",
    "longitude": "-90.11410829537694",
    "latitude": "29.96968875364591",
    "geocoded_column": {
      "latitude": "29.96968875364591",
      "longitude": "-90.11410829537694"
    }
  },
  {
    "service_request": "2026-1252417",
    "request_type": "Trash/Recycling",
    "request_reason": "Replace Recycling Cart",
    "date_created": "2026-01-15T14:00:24.000",
    "date_modified": "2026-01-15T14:00:29.000",
    "request_status": "Pending",
    "responsible_agency": "Department of Sanitation",
    "final_address": "4607 Constance St",
    "address_councildis": "B",
    "status": "Pending",
    "rowid": "1252417",
    "final_x": "3670263.54401",
    "final_y": "518363.822902",
    "longitude": "-90.10399679691692",
    "latitude": "29.919656830076057",
    "geocoded_column": {
      "latitude": "29.919656830076057",
      "longitude": "-90.10399679691692"
    }
  },
  {
    "service_request": "2026-1252416",
    "request_type": "Trash/Recycling",
    "request_reason": "Replace Trash Cart",
    "date_created": "2026-01-15T13:57:36.000",
    "date_modified": "2026-01-15T13:57:38.000",
    "request_status": "Pending",
    "responsible_agency": "Department of Sanitation",
    "final_address": "2477 N Johnson St",
    "address_councildis": "D",
    "status": "Assigned to Contractor",
    "contractor": "IV Waste",
    "rowid": "1252416",
    "final_x": "3686902.41878",
    "final_y": "539824.288458",
    "longitude": "-90.05071794946633",
    "latitude": "29.97816444993821",
    "geocoded_column": {
      "latitude": "29.97816444993821",
      "longitude": "-90.05071794946633"
    }
  },
  {
    "service_request": "2026-1252415",
    "request_type": "Streetlights",
    "request_reason": "Streetlight Outage/Malfunction",
    "date_created": "2026-01-15T13:55:35.000",
    "date_modified": "2026-01-15T13:55:37.000",
    "request_status": "Pending",
    "responsible_agency": "Department of Public Works",
    "final_address": "3527 Sullen Pl",
    "address_councildis": "C",
    "status": "Pending",
    "rowid": "1252415",
    "final_x": "3707595.69803",
    "final_y": "517826.36351",
    "longitude": "-89.98617858832938",
    "latitude": "29.917024907191568",
    "geocoded_column": {
      "latitude": "29.917024907191568",
      "longitude": "-89.98617858832938"
    }
  },
  {
    "service_request": "2026-1252414",
    "request_type": "Safety & Permits",
    "request_reason": "Licenses & Permits",
    "date_created": "2026-01-15T13:54:35.000",
    "date_modified": "2026-01-15T13:56:58.000",
    "request_status": "Pending",
    "responsible_agency": "Safety and Permits",
    "final_address": "7600 BLK Plum St",
    "address_councildis": "A",
    "status": "Pending",
    "rowid": "1252414",
    "final_x": "3663410.52813",
    "final_y": "527528.669796",
    "longitude": "-90.12532350042787",
    "latitude": "29.945057653986066",
    "geocoded_column": {
      "latitude": "29.945057653986066",
      "longitude": "-90.12532350042787"
    }
  },
  {
    "service_request": "2026-1252413",
    "request_type": "Trash/Recycling",
    "request_reason": "Request a Large Item Pick Up",
    "date_created": "2026-01-15T13:54:32.000",
    "date_modified": "2026-01-15T13:54:35.000",
    "request_status": "Pending",
    "responsible_agency": "Department of Sanitation",
    "final_address": "8204 Maple St",
    "address_councildis": "A",
    "status": "Assigned to Contractor",
    "contractor": "IV Waste",
    "rowid": "1252413",
    "final_x": "3660671.97082",
    "final_y": "527602.982015",
    "longitude": "-90.13396756537428",
    "latitude": "29.94534109174659",
    "geocoded_column": {
      "latitude": "29.94534109174659",
      "longitude": "-90.13396756537428"
    }
  },
  {
    "service_request": "2026-1252412",
    "request_type": "Trash/Recycling",
    "request_reason": "Return Trash Cart",
    "date_created": "2026-01-15T13:51:03.000",
    "date_modified": "2026-01-15T13:51:05.000",
    "request_status": "Pending",
    "responsible_agency": "Department of Sanitation",
    "final_address": "1819 Octavia St",
    "address_councildis": "A",
    "status": "Assigned to Contractor",
    "contractor": "IV Waste",
    "rowid": "1252412",
    "final_x": "3667333.41229",
    "final_y": "522524.15513",
    "longitude": "-90.11310596227409",
    "latitude": "29.93118254274101",
    "geocoded_column": {
      "latitude": "29.93118254274101",
      "longitude": "-90.11310596227409"
    }
  },
  {
    "service_request": "2026-1252411",
    "request_type": "Trash/Recycling",
    "request_reason": "Request a Large Item Pick Up",
    "date_created": "2026-01-15T13:49:25.000",
    "date_modified": "2026-01-15T13:49:28.000",
    "request_status": "Pending",
    "responsible_agency": "Department of Sanitation",
    "final_address": "5165 Warrington Dr",
    "address_councildis": "D",
    "status": "Assigned to Contractor",
    "contractor": "IV Waste",
    "rowid": "1252411",
    "final_x": "3681182.55701",
    "final_y": "551531.395477",
    "longitude": "-90.06837511492833",
    "latitude": "30.010529655124223",
    "geocoded_column": {
      "latitude": "30.010529655124223",
      "longitude": "-90.06837511492833"
    }
  },
  {
    "service_request": "2026-1252410",
    "request_type": "Streetlights",
    "request_reason": "Streetlight Outage/Malfunction",
    "date_created": "2026-01-15T13:44:13.000",
    "date_modified": "2026-01-15T13:44:14.000",
    "request_status": "Pending",
    "responsible_agency": "Department of Public Works",
    "final_address": "10 Elysian Fields Ave",
    "address_councildis": "D",
    "status": "Pending",
    "rowid": "1252410",
    "final_x": "3683547.89602",
    "final_y": "552090.847318",
    "longitude": "-90.06088248659371",
    "latitude": "30.011995932794086",
    "geocoded_column": {
      "latitude": "30.011995932794086",
      "longitude": "-90.06088248659371"
    }
  },
  {
    "service_request": "2026-1252409",
    "request_type": "Trash/Recycling",
    "request_reason": "Order Trash Cart",
    "date_created": "2026-01-15T13:40:35.000",
    "date_modified": "2026-01-15T13:40:37.000",
    "request_status": "Pending",
    "responsible_agency": "Department of Sanitation",
    "final_address": "6922 Memphis St",
    "address_councildis": "A",
    "status": "Assigned to Contractor",
    "contractor": "IV Waste",
    "rowid": "1252409",
    "final_x": "3669666.76718",
    "final_y": "553533.393879",
    "longitude": "-90.104690179037",
    "latitude": "30.016378977037654",
    "geocoded_column": {
      "latitude": "30.016378977037654",
      "longitude": "-90.104690179037"
    }
  },
  {
    "service_request": "2026-1252408",
    "request_type": "Trash/Recycling",
    "request_reason": "Order Recycling Cart",
    "date_created": "2026-01-15T13:39:57.000",
    "date_modified": "2026-01-15T13:40:00.000",
    "request_status": "Pending",
    "responsible_agency": "Department of Sanitation",
    "final_address": "4975 Friar Tuck Dr",
    "address_councildis": "E",
    "status": "Pending",
    "rowid": "1252408",
    "final_x": "3717680.18188",
    "final_y": "558212.399708",
    "longitude": "-89.9528122518598",
    "latitude": "30.02774139461758",
    "geocoded_column": {
      "latitude": "30.02774139461758",
      "longitude": "-89.9528122518598"
    }
  },
  {
    "service_request": "2026-1252407",
    "request_type": "Abandoned Vehicles",
    "request_reason": "Abandoned/Junk Vehicles",
    "date_created": "2026-01-15T13:24:55.000",
    "date_modified": "2026-01-15T13:24:57.000",
    "request_status": "Pending",
    "responsible_agency": "Department of Public Works",
    "final_address": "2215 Clara St",
    "address_councildis": "B",
    "status": "Pending",
    "rowid": "1252407",
    "final_x": "3674899.44168",
    "final_y": "527011.44275",
    "longitude": "-90.08906712818555",
    "latitude": "29.94329740234129",
    "geocoded_column": {
      "latitude": "29.94329740234129",
      "longitude": "-90.08906712818555"
    }
  },
  {
    "service_request": "2026-1252406",
    "request_type": "Trash/Recycling",
    "request_reason": "Request a Large Item Pick Up",
    "date_created": "2026-01-15T13:23:54.000",
    "date_modified": "2026-01-15T13:38:09.000",
    "request_status": "Pending",
    "responsible_agency": "Department of Sanitation",
    "final_address": "1909 Mazant St",
    "address_councildis": "D",
    "status": "Assigned to Contractor",
    "contractor": "IV Waste",
    "rowid": "1252406",
    "final_x": "3692915.02192",
    "final_y": "538305.073097",
    "longitude": "-90.03178258280438",
    "latitude": "29.973800719803027",
    "geocoded_column": {
      "latitude": "29.973800719803027",
      "longitude": "-90.03178258280438"
    }
  },
  {
    "service_request": "2026-1252405",
    "request_type": "Roads and Streets",
    "request_reason": "Sidewalk Damaged or Missing",
    "date_created": "2026-01-15T13:23:42.000",
    "date_modified": "2026-01-15T13:23:43.000",
    "request_status": "Pending",
    "responsible_agency": "Department of Public Works",
    "final_address": "0 BLK Audubon Blvd",
    "address_councildis": "A",
    "status": "Pending",
    "rowid": "1252405",
    "final_x": "3665405.01594",
    "final_y": "526946.754949",
    "longitude": "-90.11904572932777",
    "latitude": "29.94339960723005",
    "geocoded_column": {
      "latitude": "29.94339960723005",
      "longitude": "-90.11904572932777"
    }
  },
  {
    "service_request": "2026-1252404",
    "request_type": "Trash/Recycling",
    "request_reason": "Order Trash Cart",
    "date_created": "2026-01-15T13:23:02.000",
    "date_modified": "2026-01-15T13:23:06.000",
    "request_status": "Pending",
    "responsible_agency": "Department of Sanitation",
    "final_address": "2639 Almonaster Ave",
    "address_councildis": "D",
    "status": "Assigned to Contractor",
    "contractor": "IV Waste",
    "rowid": "1252404",
    "final_x": "3688668.43689",
    "final_y": "542373.711885",
    "longitude": "-90.04504971993212",
    "latitude": "29.985119984317496",
    "geocoded_column": {
      "latitude": "29.985119984317496",
      "longitude": "-90.04504971993212"
    }
  },
  {
    "service_request": "2026-1252403",
    "request_type": "Trash/Recycling",
    "request_reason": "Request a Large Item Pick Up",
    "date_created": "2026-01-15T13:21:48.000",
    "date_modified": "2026-01-15T14:11:10.000",
    "case_close_date": "2026-01-15T08:11:10.000",
    "request_status": "Closed",
    "responsible_agency": "Department of Sanitation",
    "final_address": "6631 Morrison Rd",
    "address_councildis": "E",
    "status": "Invalid Request",
    "contractor": "Waste Pro",
    "contractor_action": "Invalid",
    "rowid": "1252403",
    "final_x": "3698116.08285",
    "final_y": "558584.11702",
    "longitude": "-90.01461950858598",
    "latitude": "30.0293970782149",
    "geocoded_column": {
      "latitude": "30.0293970782149",
      "longitude": "-90.01461950858598"
    }
  },
  {
    "service_request": "2026-1252402",
    "request_type": "Streetlights",
    "request_reason": "Streetlight Outage/Malfunction",
    "date_created": "2026-01-15T13:14:57.000",
    "date_modified": "2026-01-15T13:42:05.000",
    "request_status": "Pending",
    "responsible_agency": "Department of Public Works",
    "final_address": "BROOKS ST & CANAL BLVD",
    "address_councildis": "A",
    "status": "Pending",
    "rowid": "1252402",
    "final_x": "3668356.7",
    "final_y": "546629.78",
    "longitude": "-90.10906249299013",
    "latitude": "29.997435009016836",
    "geocoded_column": {
      "latitude": "29.997435009016836",
      "longitude": "-90.10906249299013"
    }
  },
  {
    "service_request": "2026-1252401",
    "request_type": "Streetlights",
    "request_reason": "Streetlight Outage/Malfunction",
    "date_created": "2026-01-15T13:12:24.000",
    "date_modified": "2026-01-15T13:32:00.000",
    "request_status": "Pending",
    "responsible_agency": "Department of Public Works",
    "final_address": "HARRISON AVE & MARCONI DR",
    "address_councildis": "A",
    "status": "Pending",
    "rowid": "1252401",
    "final_x": "3671555.5",
    "final_y": "549053.28",
    "longitude": "-90.09887508622282",
    "latitude": "30.00400442416237",
    "geocoded_column": {
      "latitude": "30.00400442416237",
      "longitude": "-90.09887508622282"
    }
  },
  {
    "service_request": "2026-1252400",
    "request_type": "Abandoned Vehicles",
    "request_reason": "Abandoned/Junk Vehicles",
    "date_created": "2026-01-15T13:08:51.000",
    "date_modified": "2026-01-15T13:08:58.000",
    "request_status": "Pending",
    "responsible_agency": "Department of Public Works",
    "final_address": "4616 Willow St",
    "address_councildis": "B",
    "status": "Pending",
    "rowid": "1252400",
    "final_x": "3669524.62305",
    "final_y": "525299.648637",
    "longitude": "-90.10609472998372",
    "latitude": "29.938749913037338",
    "geocoded_column": {
      "latitude": "29.938749913037338",
      "longitude": "-90.10609472998372"
    }
  },
  {
    "service_request": "2026-1252399",
    "request_type": "Trash/Recycling",
    "request_reason": "Request a Large Item Pick Up",
    "date_created": "2026-01-15T12:58:48.000",
    "date_modified": "2026-01-15T12:58:50.000",
    "request_status": "Pending",
    "responsible_agency": "Department of Sanitation",
    "final_address": "714 Emerald St",
    "address_councildis": "D",
    "status": "Assigned to Contractor",
    "contractor": "IV Waste",
    "rowid": "1252399",
    "final_x": "3669760.62529",
    "final_y": "554935.594584",
    "longitude": "-90.10434610880398",
    "latitude": "30.02023176343494",
    "geocoded_column": {
      "latitude": "30.02023176343494",
      "longitude": "-90.10434610880398"
    }
  },
  {
    "service_request": "2026-1252398",
    "request_type": "Trash/Recycling",
    "request_reason": "Request a Large Item Pick Up",
    "date_created": "2026-01-15T12:56:08.000",
    "date_modified": "2026-01-15T12:56:10.000",
    "request_status": "Pending",
    "responsible_agency": "Department of Sanitation",
    "final_address": "7500 Woodbine Dr",
    "address_councildis": "E",
    "status": "Assigned to Contractor",
    "contractor": "Waste Pro",
    "rowid": "1252398",
    "final_x": "3702105.03895",
    "final_y": "560927.29155",
    "longitude": "-90.00192854252354",
    "latitude": "30.035713064807666",
    "geocoded_column": {
      "latitude": "30.035713064807666",
      "longitude": "-90.00192854252354"
    }
  },
  {
    "service_request": "2026-1252397",
    "request_type": "Parks & Parkways",
    "request_reason": "Request Grass Cutting Service (City Owned Property)",
    "date_created": "2026-01-15T12:53:15.000",
    "date_modified": "2026-01-15T14:47:35.000",
    "case_close_date": "2026-01-15T08:47:33.000",
    "request_status": "Closed",
    "responsible_agency": "Department of Parks & Parkway",
    "final_address": "1400 BLK Newton St",
    "address_councildis": "C",
    "status": "Referred to Property Owner",
    "rowid": "1252397",
    "final_x": "3689596.74479",
    "final_y": "527882.511608",
    "longitude": "-90.04263317736803",
    "latitude": "29.945245520555897",
    "geocoded_column": {
      "latitude": "29.945245520555897",
      "longitude": "-90.04263317736803"
    }
  },
  {
    "service_request": "2026-1252396",
    "request_type": "Trash/Recycling",
    "request_reason": "Request a Large Item Pick Up",
    "date_created": "2026-01-15T12:51:04.000",
    "date_modified": "2026-01-15T12:51:06.000",
    "request_status": "Pending",
    "responsible_agency": "Department of Sanitation",
    "final_address": "749 S Genois St",
    "address_councildis": "B",
    "status": "Assigned to Contractor",
    "contractor": "IV Waste",
    "rowid": "1252396",
    "final_x": "3670881.31438",
    "final_y": "535010.131846",
    "longitude": "-90.10148191227124",
    "latitude": "29.96541052252787",
    "geocoded_column": {
      "latitude": "29.96541052252787",
      "longitude": "-90.10148191227124"
    }
  },
  {
    "service_request": "2026-1252395",
    "request_type": "Roads and Streets",
    "request_reason": "Pothole",
    "date_created": "2026-01-15T12:48:18.000",
    "date_modified": "2026-01-15T12:48:20.000",
    "request_status": "Pending",
    "responsible_agency": "Department of Public Works",
    "final_address": "1300 BLK Red Allen Way",
    "address_councildis": "C",
    "status": "Pending",
    "rowid": "1252395",
    "final_x": "3689631.66007",
    "final_y": "528653.786312",
    "longitude": "-90.04249550610899",
    "latitude": "29.947365180384885",
    "geocoded_column": {
      "latitude": "29.947365180384885",
      "longitude": "-90.04249550610899"
    }
  },
  {
    "service_request": "2026-1252394",
    "request_type": "Trash/Recycling",
    "request_reason": "Repair Trash Cart",
    "date_created": "2026-01-15T12:47:45.000",
    "date_modified": "2026-01-15T12:47:46.000",
    "request_status": "Pending",
    "responsible_agency": "Department of Sanitation",
    "final_address": "1117 Casa Calvo St",
    "address_councildis": "C",
    "status": "Assigned to Contractor",
    "contractor": "Richards Disposal",
    "rowid": "1252394",
    "final_x": "3692064.66",
    "final_y": "527184.888895",
    "longitude": "-90.0348661809462",
    "latitude": "29.943250628891352",
    "geocoded_column": {
      "latitude": "29.943250628891352",
      "longitude": "-90.0348661809462"
    }
  },
  {
    "service_request": "2026-1252393",
    "request_type": "Property Maintenance",
    "request_reason": "Property Maintenance",
    "date_created": "2026-01-15T12:46:40.000",
    "date_modified": "2026-01-15T12:46:42.000",
    "request_status": "Pending",
    "responsible_agency": "Department of Code Enforcement",
    "final_address": "814 Thayer St",
    "address_councildis": "C",
    "status": "Pending",
    "rowid": "1252393",
    "final_x": "3689506.23126",
    "final_y": "528511.252736",
    "longitude": "-90.04289659984153",
    "latitude": "29.94697714659683",
    "geocoded_column": {
      "latitude": "29.94697714659683",
      "longitude": "-90.04289659984153"
    }
  },
  {
    "service_request": "2026-1252392",
    "request_type": "Trash/Recycling",
    "request_reason": "Request a Large Item Pick Up",
    "date_created": "2026-01-15T12:43:57.000",
    "date_modified": "2026-01-15T12:43:59.000",
    "request_status": "Pending",
    "responsible_agency": "Department of Sanitation",
    "final_address": "13045 Lemans St",
    "address_councildis": "E",
    "status": "Assigned to Contractor",
    "contractor": "Waste Pro",
    "rowid": "1252392",
    "final_x": "3723895.44934",
    "final_y": "562822.847072",
    "longitude": "-89.93299469453116",
    "latitude": "30.040210876348898",
    "geocoded_column": {
      "latitude": "30.040210876348898",
      "longitude": "-89.93299469453116"
    }
  },
  {
    "service_request": "2026-1252391",
    "request_type": "Property Maintenance",
    "request_reason": "Property Maintenance",
    "date_created": "2026-01-15T12:43:02.000",
    "date_modified": "2026-01-15T12:43:20.000",
    "request_status": "Pending",
    "responsible_agency": "Department of Code Enforcement",
    "final_address": "800 Thayer St",
    "address_councildis": "C",
    "status": "Pending",
    "rowid": "1252391",
    "final_x": "3689509.37635",
    "final_y": "528612.50048",
    "longitude": "-90.04288306945129",
    "latitude": "29.947255445805734",
    "geocoded_column": {
      "latitude": "29.947255445805734",
      "longitude": "-90.04288306945129"
    }
  },
  {
    "service_request": "2026-1252390",
    "request_type": "Trash/Recycling",
    "request_reason": "Order Second Trash Cart",
    "date_created": "2026-01-15T12:42:06.000",
    "date_modified": "2026-01-15T12:42:08.000",
    "request_status": "Pending",
    "responsible_agency": "Department of Sanitation",
    "final_address": "1337 Esplanade Ave",
    "address_councildis": "C",
    "status": "Assigned to Contractor",
    "contractor": "IV Waste",
    "rowid": "1252390",
    "final_x": "3681949.48296",
    "final_y": "536125.623559",
    "longitude": "-90.06649023091612",
    "latitude": "29.968145917883767",
    "geocoded_column": {
      "latitude": "29.968145917883767",
      "longitude": "-90.06649023091612"
    }
  },
  {
    "service_request": "2026-1252389",
    "request_type": "Trash/Recycling",
    "request_reason": "Replace Recycling Cart",
    "date_created": "2026-01-15T12:41:44.000",
    "date_modified": "2026-01-15T12:52:36.000",
    "request_status": "Pending",
    "responsible_agency": "Department of Sanitation",
    "final_address": "1115 Casa Calvo St",
    "address_councildis": "C",
    "status": "Pending",
    "rowid": "1252389",
    "final_x": "3692065.88739",
    "final_y": "527209.520191",
    "longitude": "-90.03486142452067",
    "latitude": "29.94331831825191",
    "geocoded_column": {
      "latitude": "29.94331831825191",
      "longitude": "-90.03486142452067"
    }
  },
  {
    "service_request": "2026-1252388",
    "request_type": "Trash/Recycling",
    "request_reason": "Request a Large Item Pick Up",
    "date_created": "2026-01-15T12:39:05.000",
    "date_modified": "2026-01-15T12:39:07.000",
    "request_status": "Pending",
    "responsible_agency": "Department of Sanitation",
    "final_address": "10924 S Hardy St",
    "address_councildis": "E",
    "status": "Assigned to Contractor",
    "contractor": "Waste Pro",
    "rowid": "1252388",
    "final_x": "3712984.70136",
    "final_y": "561533.897887",
    "longitude": "-89.96752436621772",
    "latitude": "30.03702890582446",
    "geocoded_column": {
      "latitude": "30.03702890582446",
      "longitude": "-89.96752436621772"
    }
  },
  {
    "service_request": "2026-1252387",
    "request_type": "Trash/Recycling",
    "request_reason": "Repair Trash Cart",
    "date_created": "2026-01-15T12:36:52.000",
    "date_modified": "2026-01-15T12:36:54.000",
    "request_status": "Pending",
    "responsible_agency": "Department of Sanitation",
    "final_address": "2304 Carondelet St",
    "address_councildis": "B",
    "status": "Assigned to Contractor",
    "contractor": "IV Waste",
    "rowid": "1252387",
    "final_x": "3676897.54261",
    "final_y": "523602.823419",
    "longitude": "-90.08287605614093",
    "latitude": "29.933865008479216",
    "geocoded_column": {
      "latitude": "29.933865008479216",
      "longitude": "-90.08287605614093"
    }
  },
  {
    "service_request": "2026-1252386",
    "request_type": "Street and Traffic Signs",
    "request_reason": "Traffic or Parking Sign Damaged or Missing",
    "date_created": "2026-01-15T12:35:18.000",
    "date_modified": "2026-01-15T12:35:21.000",
    "request_status": "Pending",
    "responsible_agency": "Department of Public Works",
    "final_address": "MONTEGUT ST & CHARTRES ST",
    "address_councildis": "C",
    "status": "Pending",
    "rowid": "1252386",
    "final_x": "3687972.3",
    "final_y": "534294.08",
    "longitude": "-90.04753488904188",
    "latitude": "29.962925341595437",
    "geocoded_column": {
      "latitude": "29.962925341595437",
      "longitude": "-90.04753488904188"
    }
  },
  {
    "service_request": "2026-1252385",
    "request_type": "Trash/Recycling",
    "request_reason": "Replace Trash Cart",
    "date_created": "2026-01-15T12:31:05.000",
    "date_modified": "2026-01-15T12:31:07.000",
    "request_status": "Pending",
    "responsible_agency": "Department of Sanitation",
    "final_address": "5353 Annunciation St",
    "address_councildis": "B",
    "status": "Assigned to Contractor",
    "contractor": "IV Waste",
    "rowid": "1252385",
    "final_x": "3666858.16359",
    "final_y": "517620.37759",
    "longitude": "-90.1147708975941",
    "latitude": "29.91771260961093",
    "geocoded_column": {
      "latitude": "29.91771260961093",
      "longitude": "-90.1147708975941"
    }
  },
  {
    "service_request": "2026-1252384",
    "request_type": "Trash/Recycling",
    "request_reason": "Illegal Dumping",
    "date_created": "2026-01-15T12:28:19.000",
    "date_modified": "2026-01-15T12:30:12.000",
    "request_status": "Pending",
    "responsible_agency": "Department of Sanitation",
    "final_address": "3022 Baronne St",
    "address_councildis": "B",
    "status": "Pending",
    "rowid": "1252384",
    "final_x": "3674703.19617",
    "final_y": "522572.621626",
    "longitude": "-90.08983881469605",
    "latitude": "29.93109795203343",
    "geocoded_column": {
      "latitude": "29.93109795203343",
      "longitude": "-90.08983881469605"
    }
  },
  {
    "service_request": "2026-1252383",
    "request_type": "Safety & Permits",
    "request_reason": "Licenses & Permits",
    "date_created": "2026-01-15T12:25:05.000",
    "date_modified": "2026-01-15T12:25:06.000",
    "request_status": "Pending",
    "responsible_agency": "Safety and Permits",
    "final_address": "3801 Tchoupitoulas St",
    "address_councildis": "B",
    "status": "Pending",
    "rowid": "1252383",
    "final_x": "3673671.26804",
    "final_y": "517749.470262",
    "longitude": "-90.09326126339094",
    "latitude": "29.917866587178136",
    "geocoded_column": {
      "latitude": "29.917866587178136",
      "longitude": "-90.09326126339094"
    }
  },
  {
    "service_request": "2026-1252382",
    "request_type": "Roads and Streets",
    "request_reason": "Pothole",
    "date_created": "2026-01-15T12:23:48.000",
    "date_modified": "2026-01-15T12:25:13.000",
    "request_status": "Pending",
    "responsible_agency": "Department of Public Works",
    "final_address": "DOWNMAN RD & DWYER RD",
    "address_councildis": "D",
    "status": "Pending",
    "rowid": "1252382",
    "final_x": "3695928.6",
    "final_y": "554596.98",
    "longitude": "-90.02167610005444",
    "latitude": "30.018503005684007",
    "geocoded_column": {
      "latitude": "30.018503005684007",
      "longitude": "-90.02167610005444"
    }
  },
  {
    "service_request": "2026-1252381",
    "request_type": "Abandoned Vehicles",
    "request_reason": "Abandoned/Junk Vehicles",
    "date_created": "2026-01-15T12:20:07.000",
    "date_modified": "2026-01-15T12:20:08.000",
    "request_status": "Pending",
    "responsible_agency": "Department of Public Works",
    "final_address": "717 Spain St",
    "address_councildis": "C",
    "status": "Pending",
    "rowid": "1252381",
    "final_x": "3686264.34799",
    "final_y": "535104.47687",
    "longitude": "-90.05289977904516",
    "latitude": "29.965206240805564",
    "geocoded_column": {
      "latitude": "29.965206240805564",
      "longitude": "-90.05289977904516"
    }
  },
  {
    "service_request": "2026-1252380",
    "request_type": "Streetlights",
    "request_reason": "Streetlight Outage/Malfunction",
    "date_created": "2026-01-15T12:19:15.000",
    "date_modified": "2026-01-15T12:19:16.000",
    "request_status": "Pending",
    "responsible_agency": "Department of Public Works",
    "final_address": "1900 Holiday Dr",
    "address_councildis": "C",
    "status": "Pending",
    "rowid": "1252380",
    "final_x": "3699043.24836",
    "final_y": "523998.992252",
    "longitude": "-90.0129490592726",
    "latitude": "29.93427122891395",
    "geocoded_column": {
      "latitude": "29.93427122891395",
      "longitude": "-90.0129490592726"
    }
  },
  {
    "service_request": "2026-1252379",
    "request_type": "Trash/Recycling",
    "request_reason": "Replace Trash Cart",
    "date_created": "2026-01-15T12:18:25.000",
    "date_modified": "2026-01-15T12:18:27.000",
    "request_status": "Pending",
    "responsible_agency": "Department of Sanitation",
    "final_address": "932 Webster St",
    "address_councildis": "A",
    "status": "Assigned to Contractor",
    "contractor": "IV Waste",
    "rowid": "1252379",
    "final_x": "3664269.33485",
    "final_y": "519993.427576",
    "longitude": "-90.12286329992783",
    "latitude": "29.924313204499082",
    "geocoded_column": {
      "latitude": "29.924313204499082",
      "longitude": "-90.12286329992783"
    }
  },
  {
    "service_request": "2026-1252378",
    "request_type": "Roads and Streets",
    "request_reason": "Pothole",
    "date_created": "2026-01-15T12:15:02.000",
    "date_modified": "2026-01-15T12:15:04.000",
    "request_status": "Pending",
    "responsible_agency": "Department of Public Works",
    "final_address": "7800 Trapier Ave",
    "address_councildis": "E",
    "status": "Pending",
    "rowid": "1252378",
    "final_x": "3706271.98065",
    "final_y": "563968.873761",
    "longitude": "-89.9886475685734",
    "latitude": "30.043942423601237",
    "geocoded_column": {
      "latitude": "30.043942423601237",
      "longitude": "-89.9886475685734"
    }
  },
  {
    "service_request": "2026-1252377",
    "request_type": "Roads and Streets",
    "request_reason": "Sidewalk Damaged or Missing",
    "date_created": "2026-01-15T12:13:25.000",
    "date_modified": "2026-01-15T12:13:26.000",
    "request_status": "Pending",
    "responsible_agency": "Department of Public Works",
    "final_address": "541 Bourbon St",
    "address_councildis": "C",
    "status": "Pending",
    "rowid": "1252377",
    "final_x": "3681942.674",
    "final_y": "532323.070467",
    "longitude": "-90.06664448511796",
    "latitude": "29.957690405576976",
    "geocoded_column": {
      "latitude": "29.957690405576976",
      "longitude": "-90.06664448511796"
    }
  },
  {
    "service_request": "2026-1252376",
    "request_type": "Trash/Recycling",
    "request_reason": "Order Recycling Cart",
    "date_created": "2026-01-15T12:12:12.000",
    "date_modified": "2026-01-15T12:12:14.000",
    "request_status": "Pending",
    "responsible_agency": "Department of Sanitation",
    "final_address": "1627 Jefferson Ave",
    "address_councildis": "B",
    "status": "Pending",
    "rowid": "1252376",
    "final_x": "3667479.41933",
    "final_y": "521777.618042",
    "longitude": "-90.11267014146743",
    "latitude": "29.929125527077346",
    "geocoded_column": {
      "latitude": "29.929125527077346",
      "longitude": "-90.11267014146743"
    }
  },