[
  {
    "service_request": "2023-993441",
    "request_type": "Trash/Recycling",
    "request_reason": "Replace Trash Cart",
    "date_created": "2023-04-22T23:51:23.000",
    "date_modified": "2023-04-22T23:51:24.000",
    "request_status": "Pending",
    "responsible_agency": "Department of Sanitation",
    "status": "Assigned to Contractor",
    "rowid": "993441",
    "longitude": "0.0",
    "latitude": "0.0",
    "geocoded_column": {
      "latitude": "0.0",
      "longitude": "0.0"
    }
  },
  {
    "service_request": "2023-993440",
    "request_type": "Traffic Signals/Signs/Striping/Streetlights",
    "request_reason": "Street Light Outage/Malfunction",
    "date_created": "2023-04-22T22:44:37.000",
    "date_modified": "2023-04-22T22:44:37.000",
    "request_status": "Pending",
    "responsible_agency": "Department of Public Works",
    "final_address": "3524 Canal St",
    "address_councildis": "B",
    "status": "Assigned to Contractor",
    "contractor": "Legacy Professional Services",
    "rowid": "993440",
    "final_x": "3672648.43617",
    "final_y": "537045.873992",
    "longitude": "-90.09583198211119",
    "latitude": "29.97095577253195",
    "geocoded_column": {
      "latitude": "29.97095577253195",
      "longitude": "-90.09583198211119"
    }
  },
  {
    "service_request": "2023-993439",
    "request_type": "Traffic Signals/Signs/Striping/Streetlights",
    "request_reason": "Street Light Outage/Malfunction",
    "date_created": "2023-04-22T22:40:44.000",
    "date_modified": "2023-04-22T22:40:45.000",
    "request_status": "Pending",
    "responsible_agency": "Department of Public Works",
    "final_address": "301 Delacroix Rd",
    "address_councildis": "C",
    "status": "Assigned to Contractor",
    "contractor": "Legacy Professional Services",
    "rowid": "993439",
    "final_x": "3726487.42496",
    "final_y": "516531.081461",
    "longitude": "-89.92659939796987",
    "latitude": "29.91283911260007",
    "geocoded_column": {
      "latitude": "29.91283911260007",
      "longitude": "-89.92659939796987"
    }
  },
  {
    "service_request": "2023-993438",
    "request_type": "Property Maintenance",
    "request_reason": "Property Maintenance",
    "date_created": "2023-04-22T22:20:29.000",
    "date_modified": "2023-04-22T22:20:29.000",
    "request_status": "Pending",
    "responsible_agency": "Department of Code Enforcement",
    "final_address": "1765 N Dorgenois St",
    "address_councildis": "D",
    "status": "Pending",
    "rowid": "993438",
    "final_x": "3680293.65781",
    "final_y": "540850.329611",
    "longitude": "-90.0715550863402",
    "latitude": "29.981187460333476",
    "geocoded_column": {
      "latitude": "29.981187460333476",
      "longitude": "-90.0715550863402"
    }
  },
  {
    "service_request": "2023-993437",
    "request_type": "Health Related Request",
    "request_reason": "Noise Ordinance Complaint",
    "date_created": "2023-04-22T22:19:01.000",
    "date_modified": "2023-04-22T22:19:02.000",
    "request_status": "Pending",
    "responsible_agency": "Health Department",
    "final_address": "907 Montegut St",
    "address_councildis": "C",
    "status": "Pending",
    "rowid": "993437",
    "final_x": "3688295.61039",
    "final_y": "535418.19623",
    "longitude": "-90.04647405117092",
    "latitude": "29.96600628996925",
    "geocoded_column": {
      "latitude": "29.96600628996925",
      "longitude": "-90.04647405117092"
    }
  },
  {
    "service_request": "2023-993435",
    "request_type": "Health Related Request",
    "request_reason": "Noise Ordinance Complaint",
    "date_created": "2023-04-22T22:09:25.000",
    "date_modified": "2023-04-22T22:09:25.000",
    "request_status": "Pending",
    "responsible_agency": "Health Department",
    "final_address": "711 Bourbon St, New Orleans, Louisiana, 70116",
    "address_councildis": "C",
    "status": "Pending",
    "rowid": "993435",
    "final_x": "3682299.38447",
    "final_y": "532765.705988",
    "longitude": "-90.06550263299877",
    "latitude": "29.95889665479323",
    "geocoded_column": {
      "latitude": "29.95889665479323",
      "longitude": "-90.06550263299877"
    }
  },
  {
    "service_request": "2023-993434",
    "request_type": "Health Related Request",
    "request_reason": "Noise Ordinance Complaint",
    "date_created": "2023-04-22T22:01:32.000",
    "date_modified": "2023-04-22T22:01:32.000",
    "request_status": "Pending",
    "responsible_agency": "Health Department",
    "final_address": "711 Bourbon St, New Orleans, Louisiana, 70116",
    "address_councildis": "C",
    "status": "Pending",
    "rowid": "993434",
    "final_x": "3682299.38447",
    "final_y": "532765.705988",
    "longitude": "-90.06550263299877",
    "latitude": "29.95889665479323",
    "geocoded_column": {
      "latitude": "29.95889665479323",
      "longitude": "-90.06550263299877"
    }
  },
  {
    "service_request": "2023-993433",
    "request_type": "Health Related Request",
    "request_reason": "Noise Ordinance Complaint",
    "date_created": "2023-04-22T21:57:34.000",
    "date_modified": "2023-04-22T21:57:34.000",
    "request_status": "Pending",
    "responsible_agency": "Health Department",
    "final_address": "711 Bourbon St, New Orleans, Louisiana, 70116",
    "address_councildis": "C",
    "status": "Pending",
    "rowid": "993433",
    "final_x": "3682299.38447",
    "final_y": "532765.705988",
    "longitude": "-90.06550263299877",
    "latitude": "29.95889665479323",
    "geocoded_column": {
      "latitude": "29.95889665479323",
      "longitude": "-90.06550263299877"
    }
  },
  {
    "service_request": "2023-993432",
    "request_type": "Health Related Request",
    "request_reason": "Noise Ordinance Complaint",
    "date_created": "2023-04-22T21:52:14.000",
    "date_modified": "2023-04-22T21:52:14.000",
    "request_status": "Pending",
    "responsible_agency": "Health Department",
    "final_address": "711 Bourbon St, New Orleans, Louisiana, 70116",
    "address_councildis": "C",
    "status": "Pending",
    "rowid": "993432",
    "final_x": "3682299.38447",
    "final_y": "532765.705988",
    "longitude": "-90.06550263299877",
    "latitude": "29.95889665479323",
    "geocoded_column": {
      "latitude": "29.95889665479323",
      "longitude": "-90.06550263299877"
    }
  },
  {
    "service_request": "2023-993431",
    "request_type": "Health Related Request",
    "request_reason": "Noise Ordinance Complaint",
    "date_created": "2023-04-22T21:49:53.000",
    "date_modified": "2023-04-22T21:49:53.000",
    "request_status": "Pending",
    "responsible_agency": "Health Department",
    "final_address": "711 Bourbon St, New Orleans, Louisiana, 70116",
    "address_councildis": "C",
    "status": "Pending",
    "rowid": "993431",
    "final_x": "3682299.38447",
    "final_y": "532765.705988",
    "longitude": "-90.06550263299877",
    "latitude": "29.95889665479323",
    "geocoded_column": {
      "latitude": "29.95889665479323",
      "longitude": "-90.06550263299877"
    }
  },
  {
    "service_request": "2023-993430",
    "request_type": "Traffic Signals/Signs/Striping/Streetlights",
    "request_reason": "Traffic Signal Malfunctioning/Damaged",
    "date_created": "2023-04-22T21:37:07.000",
    "date_modified": "2023-04-22T21:37:07.000",
    "request_status": "Pending",
    "responsible_agency": "Department of Public Works",
    "final_address": "501 Canal Street",
    "address_councildis": "A",
    "status": "Pending",
    "rowid": "993430",
    "final_x": "3669772.5355",
    "final_y": "539552.999818",
    "longitude": "-90.10482958298029",
    "latitude": "29.977934613870417",
    "geocoded_column": {
      "latitude": "29.977934613870417",
      "longitude": "-90.10482958298029"
    }
  },
  {
    "service_request": "2023-993429",
    "request_type": "Traffic Signals/Signs/Striping/Streetlights",
    "request_reason": "Street Light Outage/Malfunction",
    "date_created": "2023-04-22T21:34:14.000",
    "date_modified": "2023-04-22T21:34:14.000",
    "request_status": "Pending",
    "responsible_agency": "Department of Public Works",
    "status": "Assigned to Contractor",
    "contractor": "Legacy Professional Services",
    "rowid": "993429",
    "longitude": "0.0",
    "latitude": "0.0",
    "geocoded_column": {
      "latitude": "0.0",
      "longitude": "0.0"
    }
  },
  {
    "service_request": "2023-993427",
    "request_type": "Health Related Request",
    "request_reason": "Noise Ordinance Complaint",
    "date_created": "2023-04-22T20:33:51.000",
    "date_modified": "2023-04-22T20:33:51.000",
    "request_status": "Pending",
    "responsible_agency": "Health Department",
    "final_address": "711 Bourbon St, New Orleans, Louisiana, 70116",
    "address_councildis": "C",
    "status": "Pending",
    "rowid": "993427",
    "final_x": "3682299.38447",
    "final_y": "532765.705988",
    "longitude": "-90.06550263299877",
    "latitude": "29.95889665479323",
    "geocoded_column": {
      "latitude": "29.95889665479323",
      "longitude": "-90.06550263299877"
    }
  },
  {
    "service_request": "2023-993426",
    "request_type": "Traffic Signals/Signs/Striping/Streetlights",
    "request_reason": "Street Light Knocked Down/Leaning",
    "date_created": "2023-04-22T20:30:57.000",
    "date_modified": "2023-04-22T20:30:58.000",
    "request_status": "Pending",
    "responsible_agency": "Department of Public Works",
    "final_address": "5351 Paris Ave",
    "address_councildis": "D",
    "status": "Pending",
    "contractor": "Legacy Professional Services",
    "rowid": "993426",
    "final_x": "3679282.89832",
    "final_y": "551992.204374",
    "longitude": "-90.07436086650455",
    "latitude": "30.011854240783084",
    "geocoded_column": {
      "latitude": "30.011854240783084",
      "longitude": "-90.07436086650455"
    }
  },
  {
    "service_request": "2023-993425",
    "request_type": "Trash/Recycling",
    "request_reason": "Replace Trash Cart",
    "date_created": "2023-04-22T20:26:50.000",
    "date_modified": "2023-04-22T20:26:51.000",
    "request_status": "Pending",
    "responsible_agency": "Department of Sanitation",
    "final_address": "2713 Dante St",
    "address_councildis": "A",
    "status": "Assigned to Contractor",
    "contractor": "Richards Disposal",
    "rowid": "993425",
    "final_x": "3665178.53837",
    "final_y": "532931.376324",
    "longitude": "-90.11956062799926",
    "latitude": "29.95986197300416",
    "geocoded_column": {
      "latitude": "29.95986197300416",
      "longitude": "-90.11956062799926"
    }
  },
  {
    "service_request": "2023-993424",
    "request_type": "Trash/Recycling",
    "request_reason": "Replace Trash Cart",
    "date_created": "2023-04-22T20:25:13.000",
    "date_modified": "2023-04-22T20:25:13.000",
    "request_status": "Pending",
    "responsible_agency": "Department of Sanitation",
    "final_address": "2709 Dante St",
    "address_councildis": "A",
    "status": "Assigned to Contractor",
    "contractor": "Richards Disposal",
    "rowid": "993424",
    "final_x": "3665146.54861",
    "final_y": "532893.549188",
    "longitude": "-90.11966291019277",
    "latitude": "29.959758892483418",
    "geocoded_column": {
      "latitude": "29.959758892483418",
      "longitude": "-90.11966291019277"
    }
  },
  {
    "service_request": "2023-993423",
    "request_type": "Abandoned Vehicles",
    "request_reason": "Abandoned/Junk Vehicles",
    "date_created": "2023-04-22T19:42:07.000",
    "date_modified": "2023-04-22T19:42:07.000",
    "request_status": "Pending",
    "responsible_agency": "Department of Public Works",
    "final_address": "LA",
    "address_councildis": "A",
    "status": "Pending",
    "rowid": "993423",
    "final_x": "3671421.65313",
    "final_y": "537615.406152",
    "longitude": "-90.09968696553598",
    "latitude": "29.972558167701763",
    "geocoded_column": {
      "latitude": "29.972558167701763",
      "longitude": "-90.09968696553598"
    }
  },
  {
    "service_request": "2023-993422",
    "request_type": "Health Related Request",
    "request_reason": "Noise Ordinance Complaint",
    "date_created": "2023-04-22T19:32:30.000",
    "date_modified": "2023-04-22T19:32:30.000",
    "request_status": "Pending",
    "responsible_agency": "Health Department",
    "final_address": "711 Bourbon St, New Orleans, Louisiana, 70116",
    "address_councildis": "C",
    "status": "Pending",
    "rowid": "993422",
    "final_x": "3682299.38447",
    "final_y": "532765.705988",
    "longitude": "-90.06550263299877",
    "latitude": "29.95889665479323",
    "geocoded_column": {
      "latitude": "29.95889665479323",
      "longitude": "-90.06550263299877"
    }
  },
  {
    "service_request": "2023-993421",
    "request_type": "Traffic Signals/Signs/Striping/Streetlights",
    "request_reason": "Traffic Signal Malfunctioning/Damaged",
    "date_created": "2023-04-22T19:32:24.000",
    "date_modified": "2023-04-22T19:32:25.000",
    "request_status": "Pending",
    "responsible_agency": "Department of Public Works",
    "final_address": "CANAL ST & DECATUR ST & MAGAZINE ST",
    "address_councildis": "C",
    "status": "Pending",
    "rowid": "993421",
    "final_x": "3681822.3",
    "final_y": "530252.08",
    "longitude": "-90.06709685805245",
    "latitude": "29.95199954248446",
    "geocoded_column": {
      "latitude": "29.95199954248446",
      "longitude": "-90.06709685805245"
    }
  },
  {
    "service_request": "2023-993419",
    "request_type": "Parks & Parkways",
    "request_reason": "Request Tree Service (Right of Way/Public Property)",
    "date_created": "2023-04-22T19:23:27.000",
    "date_modified": "2023-04-22T19:23:27.000",
    "request_status": "Pending",
    "responsible_agency": "Department of Parks & Parkway",
    "final_address": "1806 Audubon St",
    "address_councildis": "A",
    "status": "Pending",
    "rowid": "993419",
    "final_x": "3665617.16928",
    "final_y": "528184.363904",
    "longitude": "-90.11833447102542",
    "latitude": "29.946796449510195",
    "geocoded_column": {
      "latitude": "29.946796449510195",
      "longitude": "-90.11833447102542"
    }
  },
  {
    "service_request": "2023-993418",
    "request_type": "Trash/Recycling",
    "request_reason": "Return Trash Cart",
    "date_created": "2023-04-22T18:47:23.000",
    "date_modified": "2023-04-22T18:47:24.000",
    "request_status": "Pending",
    "responsible_agency": "Department of Sanitation",
    "final_address": "829 N Rocheblave St",
    "address_councildis": "D",
    "status": "Assigned to Contractor",
    "contractor": "Richards Disposal",
    "rowid": "993418",
    "final_x": "3677838.00046",
    "final_y": "536820.659528",
    "longitude": "-90.07945044421399",
    "latitude": "29.970181379144364",
    "geocoded_column": {
      "latitude": "29.970181379144364",
      "longitude": "-90.07945044421399"
    }
  },
  {
    "service_request": "2023-993417",
    "request_type": "Trash/Recycling",
    "request_reason": "Return Trash Cart",
    "date_created": "2023-04-22T18:46:02.000",
    "date_modified": "2023-04-22T18:46:03.000",
    "request_status": "Pending",
    "responsible_agency": "Department of Sanitation",
    "final_address": "829 N Rocheblave St",
    "address_councildis": "D",
    "status": "Assigned to Contractor",
    "contractor": "Richards Disposal",
    "rowid": "993417",
    "final_x": "3677838.00046",
    "final_y": "536820.659528",
    "longitude": "-90.07945044421399",
    "latitude": "29.970181379144364",
    "geocoded_column": {
      "latitude": "29.970181379144364",
      "longitude": "-90.07945044421399"
    }
  },
  {
    "service_request": "2023-993416",
    "request_type": "Trash/Recycling",
    "request_reason": "Missed Trash Pick-Up",
    "date_created": "2023-04-22T18:34:07.000",
    "date_modified": "2023-04-22T18:34:07.000",
    "request_status": "Pending",
    "responsible_agency": "Department of Sanitation",
    "final_address": "5507 Chestnut St",
    "address_councildis": "A",
    "status": "Assigned to Contractor",
    "contractor": "Richards Disposal",
    "rowid": "993416",
    "final_x": "3666509.39444",
    "final_y": "519654.60748",
    "longitude": "-90.11580354566038",
    "latitude": "29.923316297349935",
    "geocoded_column": {
      "latitude": "29.923316297349935",
      "longitude": "-90.11580354566038"
    }
  },
  {
    "service_request": "2023-993414",
    "request_type": "Trash/Recycling",
    "request_reason": "Missed Trash Pick-Up",
    "date_created": "2023-04-22T17:59:27.000",
    "date_modified": "2023-04-22T17:59:27.000",
    "request_status": "Pending",
    "responsible_agency": "Department of Sanitation",
    "final_address": "6551 Morrison Rd",
    "address_councildis": "E",
    "status": "Assigned to Contractor",
    "contractor": "Waste Pro",
    "rowid": "993414",
    "final_x": "3697909.80496",
    "final_y": "558509.421916",
    "longitude": "-90.01527405390915",
    "latitude": "30.0291982213156",
    "geocoded_column": {
      "latitude": "30.0291982213156",
      "longitude": "-90.01527405390915"
    }
  },
  {
    "service_request": "2023-993413",
    "request_type": "Roads/Drainage",
    "request_reason": "Pothole",
    "date_created": "2023-04-22T17:19:42.000",
    "date_modified": "2023-04-22T17:19:42.000",
    "request_status": "Pending",
    "responsible_agency": "Department of Public Works",
    "final_address": "5623 Milne St",
    "address_councildis": "A",
    "status": "Pending",
    "rowid": "993413",
    "final_x": "3666866.15559",
    "final_y": "544926.738703",
    "longitude": "-90.11382834886828",
    "latitude": "29.992795935284583",
    "geocoded_column": {
      "latitude": "29.992795935284583",
      "longitude": "-90.11382834886828"
    }
  },
  {
    "service_request": "2023-993412",
    "request_type": "Traffic Signals/Signs/Striping/Streetlights",
    "request_reason": "Street Light Outage/Malfunction",
    "date_created": "2023-04-22T17:14:04.000",
    "date_modified": "2023-04-22T17:14:04.000",
    "request_status": "Pending",
    "responsible_agency": "Department of Public Works",
    "final_address": "2414 Gravier St",
    "address_councildis": "B",
    "status": "Assigned to Contractor",
    "contractor": "Legacy Professional Services",
    "rowid": "993412",
    "final_x": "3675077.36622",
    "final_y": "532751.298436",
    "longitude": "-90.08830846600397",
    "latitude": "29.95907478541103",
    "geocoded_column": {
      "latitude": "29.95907478541103",
      "longitude": "-90.08830846600397"
    }
  },
  {
    "service_request": "2023-993411",
    "request_type": "Roads/Drainage",
    "request_reason": "Man hole cover issue",
    "date_created": "2023-04-22T17:10:26.000",
    "date_modified": "2023-04-22T17:10:26.000",
    "request_status": "Pending",
    "responsible_agency": "Department of Public Works",
    "final_address": "1201 Spain St",
    "address_councildis": "C",
    "status": "Pending",
    "rowid": "993411",
    "final_x": "3686139.04393",
    "final_y": "536796.771336",
    "longitude": "-90.0532357783621",
    "latitude": "29.969863311784533",
    "geocoded_column": {
      "latitude": "29.969863311784533",
      "longitude": "-90.0532357783621"
    }
  },
  {
    "service_request": "2023-993410",
    "request_type": "Abandoned Vehicles",
    "request_reason": "Abandoned/Junk Vehicles",
    "date_created": "2023-04-22T17:06:32.000",
    "date_modified": "2023-04-22T17:06:32.000",
    "request_status": "Pending",
    "responsible_agency": "Department of Public Works",
    "final_address": "2612 St Philip St",
    "address_councildis": "D",
    "status": "Pending",
    "rowid": "993410",
    "final_x": "3677708.56686",
    "final_y": "537567.639944",
    "longitude": "-90.07983340234365",
    "latitude": "29.972239213709376",
    "geocoded_column": {
      "latitude": "29.972239213709376",
      "longitude": "-90.07983340234365"
    }
  },
  {
    "service_request": "2023-993409",
    "request_type": "Traffic Signals/Signs/Striping/Streetlights",
    "request_reason": "Street Light Outage/Malfunction",
    "date_created": "2023-04-22T16:57:34.000",
    "date_modified": "2023-04-22T16:57:35.000",
    "request_status": "Pending",
    "responsible_agency": "Department of Public Works",
    "final_address": "2814 St Claude Ave",
    "address_councildis": "C",
    "status": "Assigned to Contractor",
    "contractor": "Legacy Professional Services",
    "rowid": "993409",
    "final_x": "3687837.02902",
    "final_y": "536250.956423",
    "longitude": "-90.04789273240645",
    "latitude": "29.968310243188522",
    "geocoded_column": {
      "latitude": "29.968310243188522",
      "longitude": "-90.04789273240645"
    }
  },
  {
    "service_request": "2023-993408",
    "request_type": "Trash/Recycling",
    "request_reason": "Replace Trash Cart",
    "date_created": "2023-04-22T16:49:01.000",
    "date_modified": "2023-04-22T16:49:01.000",
    "request_status": "Pending",
    "responsible_agency": "Department of Sanitation",
    "final_address": "4115 Loyola Ave, New Orleans, Louisiana, 70115",
    "address_councildis": "B",
    "status": "Assigned to Contractor",
    "contractor": "Richards Disposal",
    "rowid": "993408",
    "final_x": "3671601.89044",
    "final_y": "523151.669435",
    "longitude": "-90.09960956836896",
    "latitude": "29.932782326064643",
    "geocoded_column": {
      "latitude": "29.932782326064643",
      "longitude": "-90.09960956836896"
    }
  },
  {
    "service_request": "2023-993407",
    "request_type": "Trash/Recycling",
    "request_reason": "Replace Trash Cart",
    "date_created": "2023-04-22T16:12:33.000",
    "date_modified": "2023-04-22T16:12:33.000",
    "request_status": "Pending",
    "responsible_agency": "Department of Sanitation",
    "final_address": "1018 Dublin St",
    "address_councildis": "A",
    "status": "Assigned to Contractor",
    "contractor": "Richards Disposal",
    "rowid": "993407",
    "final_x": "3661312.99616",
    "final_y": "528248.282048",
    "longitude": "-90.1319222711042",
    "latitude": "29.94709699590424",
    "geocoded_column": {
      "latitude": "29.94709699590424",
      "longitude": "-90.1319222711042"
    }
  },
  {
    "service_request": "2023-993406",
    "request_type": "Parks & Parkways",
    "request_reason": "Tree Stump (removal, grind)",
    "date_created": "2023-04-22T16:09:39.000",
    "date_modified": "2023-04-22T16:09:40.000",
    "request_status": "Pending",
    "responsible_agency": "Department of Parks & Parkway",
    "final_address": "101 Sherwood Forest Dr",
    "address_councildis": "A",
    "status": "Pending",
    "rowid": "993406",
    "final_x": "3673257.85006",
    "final_y": "541313.731212",
    "longitude": "-90.09376156084629",
    "latitude": "29.982672814865065",
    "geocoded_column": {
      "latitude": "29.982672814865065",
      "longitude": "-90.09376156084629"
    }
  },
  {
    "service_request": "2023-993405",
    "request_type": "Abandoned Vehicles",
    "request_reason": "Abandoned/Junk Vehicles",
    "date_created": "2023-04-22T16:00:01.000",
    "date_modified": "2023-04-22T16:00:01.000",
    "request_status": "Pending",
    "responsible_agency": "Department of Public Works",
    "final_address": "221 N Alexander St, New Orleans, Louisiana, 70119",
    "address_councildis": "A",
    "status": "Pending",
    "rowid": "993405",
    "final_x": "3670311.76058",
    "final_y": "539701.24225",
    "longitude": "-90.10312149011716",
    "latitude": "29.978326322848872",
    "geocoded_column": {
      "latitude": "29.978326322848872",
      "longitude": "-90.10312149011716"
    }
  },
  {
    "service_request": "2023-993404",
    "request_type": "Roads/Drainage",
    "request_reason": "Pothole",
    "date_created": "2023-04-22T15:54:00.000",
    "date_modified": "2023-04-22T15:54:00.000",
    "request_status": "Pending",
    "responsible_agency": "Department of Public Works",
    "final_address": "442 S Rendon St",
    "address_councildis": "B",
    "status": "Pending",
    "rowid": "993404",
    "final_x": "3672710.80532",
    "final_y": "535228.605062",
    "longitude": "-90.09569700141458",
    "latitude": "29.965957042838507",
    "geocoded_column": {
      "latitude": "29.965957042838507",
      "longitude": "-90.09569700141458"
    }
  },
  {
    "service_request": "2023-993403",
    "request_type": "Roads/Drainage",
    "request_reason": "Pothole",
    "date_created": "2023-04-22T15:50:10.000",
    "date_modified": "2023-04-22T15:50:10.000",
    "request_status": "Pending",
    "responsible_agency": "Department of Public Works",
    "final_address": "442 S Rendon St",
    "address_councildis": "B",
    "status": "Pending",
    "rowid": "993403",
    "final_x": "3672710.80532",
    "final_y": "535228.605062",
    "longitude": "-90.09569700141458",
    "latitude": "29.965957042838507",
    "geocoded_column": {
      "latitude": "29.965957042838507",
      "longitude": "-90.09569700141458"
    }
  },
  {
    "service_request": "2023-993402",
    "request_type": "Health Related Request",
    "request_reason": "Noise Ordinance Complaint",
    "date_created": "2023-04-22T15:33:39.000",
    "date_modified": "2023-04-22T15:33:39.000",
    "request_status": "Pending",
    "responsible_agency": "Health Department",
    "final_address": "711 Bourbon St, New Orleans, Louisiana, 70116",
    "address_councildis": "C",
    "status": "Pending",
    "rowid": "993402",
    "final_x": "3682299.38447",
    "final_y": "532765.705988",
    "longitude": "-90.06550263299877",
    "latitude": "29.95889665479323",
    "geocoded_column": {
      "latitude": "29.95889665479323",
      "longitude": "-90.06550263299877"
    }
  },
  {
    "service_request": "2023-993401",
    "request_type": "Trash/Recycling",
    "request_reason": "Request a Large Item Pick Up",
    "date_created": "2023-04-22T15:29:09.000",
    "date_modified": "2023-04-22T15:29:10.000",
    "request_status": "Pending",
    "responsible_agency": "Department of Sanitation",
    "final_address": "311 Warrington Dr",
    "address_councildis": "D",
    "status": "Assigned to Contractor",
    "contractor": "IV Waste",
    "rowid": "993401",
    "final_x": "3682083.84085",
    "final_y": "547751.711698",
    "longitude": "-90.06565972881704",
    "latitude": "30.00010949520099",
    "geocoded_column": {
      "latitude": "30.00010949520099",
      "longitude": "-90.06565972881704"
    }
  },
  {
    "service_request": "2023-993400",
    "request_type": "Health Related Request",
    "request_reason": "Noise Ordinance Complaint",
    "date_created": "2023-04-22T15:26:07.000",
    "date_modified": "2023-04-22T15:26:07.000",
    "request_status": "Pending",
    "responsible_agency": "Health Department",
    "final_address": "711 Bourbon St, New Orleans, Louisiana, 70116",
    "address_councildis": "C",
    "status": "Pending",
    "rowid": "993400",
    "final_x": "3682299.38447",
    "final_y": "532765.705988",
    "longitude": "-90.06550263299877",
    "latitude": "29.95889665479323",
    "geocoded_column": {
      "latitude": "29.95889665479323",
      "longitude": "-90.06550263299877"
    }
  },
  {
    "service_request": "2023-993399",
    "request_type": "Health Related Request",
    "request_reason": "Noise Ordinance Complaint",
    "date_created": "2023-04-22T15:25:22.000",
    "date_modified": "2023-04-22T15:25:22.000",
    "request_status": "Pending",
    "responsible_agency": "Health Department",
    "final_address": "711 Bourbon St, New Orleans, Louisiana, 70116",
    "address_councildis": "C",
    "status": "Pending",
    "rowid": "993399",
    "final_x": "3682299.38447",
    "final_y": "532765.705988",
    "longitude": "-90.06550263299877",
    "latitude": "29.95889665479323",
    "geocoded_column": {
      "latitude": "29.95889665479323",
      "longitude": "-90.06550263299877"
    }
  },
  {
    "service_request": "2023-993398",
    "request_type": "Health Related Request",
    "request_reason": "Noise Ordinance Complaint",
    "date_created": "2023-04-22T15:24:25.000",
    "date_modified": "2023-04-22T15:24:25.000",
    "request_status": "Pending",
    "responsible_agency": "Health Department",
    "final_address": "711 Bourbon St, New Orleans, Louisiana, 70116",
    "address_councildis": "C",
    "status": "Pending",
    "rowid": "993398",
    "final_x": "3682299.38447",
    "final_y": "532765.705988",
    "longitude": "-90.06550263299877",
    "latitude": "29.95889665479323",
    "geocoded_column": {
      "latitude": "29.95889665479323",
      "longitude": "-90.06550263299877"
    }
  },
  {
    "service_request": "2023-993397",
    "request_type": "Traffic Signals/Signs/Striping/Streetlights",
    "request_reason": "Street Light Outage/Malfunction",
    "date_created": "2023-04-22T15:22:38.000",
    "date_modified": "2023-04-22T15:22:39.000",
    "request_status": "Pending",
    "responsible_agency": "Department of Public Works",
    "final_address": "BELFAST ST & EAGLE ST",
    "address_councildis": "A",
    "status": "Assigned to Contractor",
    "contractor": "Legacy Professional Services",
    "rowid": "993397",
    "final_x": "3663760.3",
    "final_y": "534028.98",
    "longitude": "-90.12400255009426",
    "latitude": "29.962921256924805",
    "geocoded_column": {
      "latitude": "29.962921256924805",
      "longitude": "-90.12400255009426"
    }
  },
  {
    "service_request": "2023-993396",
    "request_type": "Trash/Recycling",
    "request_reason": "Order Trash Cart",
    "date_created": "2023-04-22T15:12:45.000",
    "date_modified": "2023-04-22T15:17:12.000",
    "request_status": "Pending",
    "responsible_agency": "Department of Sanitation",
    "final_address": "2219 Almonaster Ave",
    "address_councildis": "D",
    "status": "Assigned to Contractor",
    "contractor": "IV Waste",
    "rowid": "993396",
    "final_x": "3688263.60438",
    "final_y": "540759.676875",
    "longitude": "-90.04638566987495",
    "latitude": "29.980694471067032",
    "geocoded_column": {
      "latitude": "29.980694471067032",
      "longitude": "-90.04638566987495"
    }
  },
  {
    "service_request": "2023-993395",
    "request_type": "Traffic Signals/Signs/Striping/Streetlights",
    "request_reason": "Street Light Outage/Malfunction",
    "date_created": "2023-04-22T15:02:08.000",
    "date_modified": "2023-04-22T15:02:08.000",
    "request_status": "Pending",
    "responsible_agency": "Department of Public Works",
    "final_address": "1215 Terry St",
    "address_councildis": "C",
    "status": "Assigned to Contractor",
    "contractor": "Legacy Professional Services",
    "rowid": "993395",
    "final_x": "3696923.76938",
    "final_y": "526828.085566",
    "longitude": "-90.01953774607497",
    "latitude": "29.942117243285825",
    "geocoded_column": {
      "latitude": "29.942117243285825",
      "longitude": "-90.01953774607497"
    }
  },
  {
    "service_request": "2023-993394",
    "request_type": "Traffic Signals/Signs/Striping/Streetlights",
    "request_reason": "Traffic Signal Malfunctioning/Damaged",
    "date_created": "2023-04-22T14:54:53.000",
    "date_modified": "2023-04-22T14:55:50.000",
    "request_status": "Pending",
    "responsible_agency": "Department of Public Works",
    "final_address": "POYDRAS ST & S CLAIBORNE AVE",
    "address_councildis": "B",
    "status": "Pending",
    "rowid": "993394",
    "final_x": "3676795.1",
    "final_y": "530810.68",
    "longitude": "-90.08295115364751",
    "latitude": "29.95368730370341",
    "geocoded_column": {
      "latitude": "29.95368730370341",
      "longitude": "-90.08295115364751"
    }
  },
  {
    "service_request": "2023-993393",
    "request_type": "Trash/Recycling",
    "request_reason": "MIssed Recycling Pick-Up",
    "date_created": "2023-04-22T14:42:50.000",
    "date_modified": "2023-04-22T14:42:50.000",
    "request_status": "Pending",
    "responsible_agency": "Department of Sanitation",
    "final_address": "8001 Fig St",
    "address_councildis": "B",
    "status": "Assigned to Contractor",
    "contractor": "Richards Disposal",
    "rowid": "993393",
    "final_x": "3666658.75649",
    "final_y": "532921.957508",
    "longitude": "-90.11488672649722",
    "latitude": "29.959792877303094",
    "geocoded_column": {
      "latitude": "29.959792877303094",
      "longitude": "-90.11488672649722"
    }
  },
  {
    "service_request": "2023-993392",
    "request_type": "Health Related Request",
    "request_reason": "Noise Ordinance Complaint",
    "date_created": "2023-04-22T14:20:21.000",
    "date_modified": "2023-04-22T14:20:21.000",
    "request_status": "Pending",
    "responsible_agency": "Health Department",
    "final_address": "711 Bourbon St, New Orleans, Louisiana, 70116",
    "address_councildis": "C",
    "status": "Pending",
    "rowid": "993392",
    "final_x": "3682299.38447",
    "final_y": "532765.705988",
    "longitude": "-90.06550263299877",
    "latitude": "29.95889665479323",
    "geocoded_column": {
      "latitude": "29.95889665479323",
      "longitude": "-90.06550263299877"
    }
  },
  {
    "service_request": "2023-993391",
    "request_type": "Health Related Request",
    "request_reason": "Noise Ordinance Complaint",
    "date_created": "2023-04-22T14:16:40.000",
    "date_modified": "2023-04-22T14:16:40.000",
    "request_status": "Pending",
    "responsible_agency": "Health Department",
    "final_address": "711 Bourbon St, New Orleans, Louisiana, 70116",
    "address_councildis": "C",
    "status": "Pending",
    "rowid": "993391",
    "final_x": "3682299.38447",
    "final_y": "532765.705988",
    "longitude": "-90.06550263299877",
    "latitude": "29.95889665479323",
    "geocoded_column": {
      "latitude": "29.95889665479323",
      "longitude": "-90.06550263299877"
    }
  },
  {
    "service_request": "2023-993390",
    "request_type": "Abandoned Vehicles",
    "request_reason": "Abandoned/Junk Vehicles",
    "date_created": "2023-04-22T14:15:57.000",
    "date_modified": "2023-04-22T14:15:57.000",
    "request_status": "Pending",
    "responsible_agency": "Department of Public Works",
    "final_address": "214 N Alexander St, New Orleans, Louisiana, 70119",
    "address_councildis": "A",
    "status": "Pending",
    "rowid": "993390",
    "final_x": "3670354.9954",
    "final_y": "539588.490634",
    "longitude": "-90.10298876225767",
    "latitude": "29.97801501768856",
    "geocoded_column": {
      "latitude": "29.97801501768856",
      "longitude": "-90.10298876225767"
    }
  },
  {
    "service_request": "2023-993389",
    "request_type": "Health Related Request",
    "request_reason": "Noise Ordinance Complaint",
    "date_created": "2023-04-22T14:03:58.000",
    "date_modified": "2023-04-22T14:03:58.000",
    "request_status": "Pending",
    "responsible_agency": "Health Department",
    "final_address": "711 Bourbon St, New Orleans, Louisiana, 70116",
    "address_councildis": "C",
    "status": "Pending",
    "rowid": "993389",
    "final_x": "3682299.38447",
    "final_y": "532765.705988",
    "longitude": "-90.06550263299877",
    "latitude": "29.95889665479323",
    "geocoded_column": {
      "latitude": "29.95889665479323",
      "longitude": "-90.06550263299877"
    }
  },
  {
    "service_request": "2023-993388",
    "request_type": "Abandoned Vehicles",
    "request_reason": "Abandoned/Junk Vehicles",
    "date_created": "2023-04-22T13:57:41.000",
    "date_modified": "2023-04-22T13:57:41.000",
    "request_status": "Pending",
    "responsible_agency": "Department of Public Works",
    "final_address": "2410 N Rampart St",
    "address_councildis": "C",
    "status": "Pending",
    "rowid": "993388",
    "final_x": "3685912.07702",
    "final_y": "535979.054279",
    "longitude": "-90.05398139312564",
    "latitude": "29.967621844485347",
    "geocoded_column": {
      "latitude": "29.967621844485347",
      "longitude": "-90.05398139312564"
    }
  },
  {
    "service_request": "2023-993387",
    "request_type": "Health Related Request",
    "request_reason": "Noise Ordinance Complaint",
    "date_created": "2023-04-22T13:54:48.000",
    "date_modified": "2023-04-22T13:54:48.000",
    "request_status": "Pending",
    "responsible_agency": "Health Department",
    "final_address": "711 Bourbon St, New Orleans, Louisiana, 70116",
    "address_councildis": "C",
    "status": "Pending",
    "rowid": "993387",
    "final_x": "3682299.38447",
    "final_y": "532765.705988",
    "longitude": "-90.06550263299877",
    "latitude": "29.95889665479323",
    "geocoded_column": {
      "latitude": "29.95889665479323",
      "longitude": "-90.06550263299877"
    }
  },
  {
    "service_request": "2023-993386",
    "request_type": "Trash/Recycling",
    "request_reason": "Order Recycling Cart",
    "date_created": "2023-04-22T13:48:59.000",
    "date_modified": "2023-04-22T13:48:59.000",
    "request_status": "Pending",
    "responsible_agency": "Department of Sanitation",
    "final_address": "5968 Canal Blvd",
    "address_councildis": "A",
    "status": "Pending",
    "rowid": "993386",
    "final_x": "3668304.72474",
    "final_y": "547187.967761",
    "longitude": "-90.10920784398623",
    "latitude": "29.998971359447086",
    "geocoded_column": {
      "latitude": "29.998971359447086",
      "longitude": "-90.10920784398623"
    }
  },
  {
    "service_request": "2023-993385",
    "request_type": "Health Related Request",
    "request_reason": "Noise Ordinance Complaint",
    "date_created": "2023-04-22T13:46:59.000",
    "date_modified": "2023-04-22T13:46:59.000",
    "request_status": "Pending",
    "responsible_agency": "Health Department",
    "final_address": "711 Bourbon St, New Orleans, Louisiana, 70116",
    "address_councildis": "C",
    "status": "Pending",
    "rowid": "993385",
    "final_x": "3682299.38447",
    "final_y": "532765.705988",
    "longitude": "-90.06550263299877",
    "latitude": "29.95889665479323",
    "geocoded_column": {
      "latitude": "29.95889665479323",
      "longitude": "-90.06550263299877"
    }
  },
  {
    "service_request": "2023-993384",
    "request_type": "Health Related Request",
    "request_reason": "Noise Ordinance Complaint",
    "date_created": "2023-04-22T13:46:07.000",
    "date_modified": "2023-04-22T13:46:07.000",
    "request_status": "Pending",
    "responsible_agency": "Health Department",
    "final_address": "711 Bourbon St, New Orleans, Louisiana, 70116",
    "address_councildis": "C",
    "status": "Pending",
    "rowid": "993384",
    "final_x": "3682299.38447",
    "final_y": "532765.705988",
    "longitude": "-90.06550263299877",
    "latitude": "29.95889665479323",
    "geocoded_column": {
      "latitude": "29.95889665479323",
      "longitude": "-90.06550263299877"
    }
  },
  {
    "service_request": "2023-993383",
    "request_type": "Health Related Request",
    "request_reason": "Noise Ordinance Complaint",
    "date_created": "2023-04-22T13:45:36.000",
    "date_modified": "2023-04-22T13:45:36.000",
    "request_status": "Pending",
    "responsible_agency": "Health Department",
    "final_address": "711 Bourbon St, New Orleans, Louisiana, 70116",
    "address_councildis": "C",
    "status": "Pending",
    "rowid": "993383",
    "final_x": "3682299.38447",
    "final_y": "532765.705988",
    "longitude": "-90.06550263299877",
    "latitude": "29.95889665479323",
    "geocoded_column": {
      "latitude": "29.95889665479323",
      "longitude": "-90.06550263299877"
    }
  },
  {
    "service_request": "2023-993382",
    "request_type": "Health Related Request",
    "request_reason": "Noise Ordinance Complaint",
    "date_created": "2023-04-22T13:44:36.000",
    "date_modified": "2023-04-22T13:44:36.000",
    "request_status": "Pending",
    "responsible_agency": "Health Department",
    "final_address": "711 Bourbon St, New Orleans, Louisiana, 70116",
    "address_councildis": "C",
    "status": "Pending",
    "rowid": "993382",
    "final_x": "3682299.38447",
    "final_y": "532765.705988",
    "longitude": "-90.06550263299877",
    "latitude": "29.95889665479323",
    "geocoded_column": {
      "latitude": "29.95889665479323",
      "longitude": "-90.06550263299877"
    }
  },
  {
    "service_request": "2023-993381",
    "request_type": "Trash/Recycling",
    "request_reason": "Replace Trash Cart",
    "date_created": "2023-04-22T13:38:04.000",
    "date_modified": "2023-04-22T13:38:04.000",
    "request_status": "Pending",
    "responsible_agency": "Department of Sanitation",
    "final_address": "7072 E Tamaron Blvd",
    "address_councildis": "E",
    "status": "Assigned to Contractor",
    "contractor": "Waste Pro",
    "rowid": "993381",
    "final_x": "3718729.58245",
    "final_y": "568605.228069",
    "longitude": "-89.94909953457669",
    "latitude": "30.056282625632136",
    "geocoded_column": {
      "latitude": "30.056282625632136",
      "longitude": "-89.94909953457669"
    }
  },
  {
    "service_request": "2023-993380",
    "request_type": "Trash/Recycling",
    "request_reason": "Repair Trash Cart",
    "date_created": "2023-04-22T13:08:36.000",
    "date_modified": "2023-04-22T13:08:37.000",
    "request_status": "Pending",
    "responsible_agency": "Department of Sanitation",
    "final_address": "6030 Hurst St",
    "address_councildis": "A",
    "status": "Assigned to Contractor",
    "contractor": "Richards Disposal",
    "rowid": "993380",
    "final_x": "3665256.5074",
    "final_y": "521786.983866",
    "longitude": "-90.11968715854152",
    "latitude": "29.92921620713637",
    "geocoded_column": {
      "latitude": "29.92921620713637",
      "longitude": "-90.11968715854152"
    }
  },
  {
    "service_request": "2023-993379",
    "request_type": "Traffic Signals/Signs/Striping/Streetlights",
    "request_reason": "Traffic Signal Malfunctioning/Damaged",
    "date_created": "2023-04-22T13:06:31.000",
    "date_modified": "2023-04-22T13:06:31.000",
    "request_status": "Pending",
    "responsible_agency": "Department of Public Works",
    "status": "Pending",
    "rowid": "993379",
    "longitude": "0.0",
    "latitude": "0.0",
    "geocoded_column": {
      "latitude": "0.0",
      "longitude": "0.0"
    }
  },
  {
    "service_request": "2023-993378",
    "request_type": "Trash/Recycling",
    "request_reason": "Request a Large Item Pick Up",
    "date_created": "2023-04-22T12:59:12.000",
    "date_modified": "2023-04-22T12:59:12.000",
    "request_status": "Pending",
    "responsible_agency": "Department of Sanitation",
    "final_address": "5107 Burgundy St",
    "address_councildis": "E",
    "status": "Assigned to Contractor",
    "contractor": "Waste Pro",
    "rowid": "993378",
    "final_x": "3696117.21546",
    "final_y": "533444.33178",
    "longitude": "-90.02184511142157",
    "latitude": "29.960335008809494",
    "geocoded_column": {
      "latitude": "29.960335008809494",
      "longitude": "-90.02184511142157"
    }
  },
  {
    "service_request": "2023-993377",
    "request_type": "Health Related Request",
    "request_reason": "Noise Ordinance Complaint",
    "date_created": "2023-04-22T12:43:17.000",
    "date_modified": "2023-04-22T12:43:17.000",
    "request_status": "Pending",
    "responsible_agency": "Health Department",
    "final_address": "1219 St Roch Ave.",
    "address_councildis": "C",
    "status": "Pending",
    "rowid": "993377",
    "final_x": "3686539.18831",
    "final_y": "536960.144968",
    "longitude": "-90.05196631765905",
    "latitude": "29.97030023443292",
    "geocoded_column": {
      "latitude": "29.97030023443292",
      "longitude": "-90.05196631765905"
    }
  },
  {
    "service_request": "2023-993376",
    "request_type": "Property Maintenance",
    "request_reason": "Property Maintenance",
    "date_created": "2023-04-22T12:31:02.000",
    "date_modified": "2023-04-22T12:31:02.000",
    "request_status": "Pending",
    "responsible_agency": "Department of Code Enforcement",
    "final_address": "4671 Perelli Dr",
    "address_councildis": "E",
    "status": "Pending",
    "rowid": "993376",
    "final_x": "3711825.44555",
    "final_y": "555733.081497",
    "longitude": "-89.9714057230101",
    "latitude": "30.0211169008583",
    "geocoded_column": {
      "latitude": "30.0211169008583",
      "longitude": "-89.9714057230101"
    }
  },
  {
    "service_request": "2023-993375",
    "request_type": "Property Maintenance",
    "request_reason": "Property Maintenance",
    "date_created": "2023-04-22T12:30:59.000",
    "date_modified": "2023-04-22T12:30:59.000",
    "request_status": "Pending",
    "responsible_agency": "Department of Code Enforcement",
    "final_address": "4671 Perelli Dr",
    "address_councildis": "E",
    "status": "Pending",
    "rowid": "993375",
    "final_x": "3711825.44555",
    "final_y": "555733.081497",
    "longitude": "-89.9714057230101",
    "latitude": "30.0211169008583",
    "geocoded_column": {
      "latitude": "30.0211169008583",
      "longitude": "-89.9714057230101"
    }
  },
  {
    "service_request": "2023-993374",
    "request_type": "Property Maintenance",
    "request_reason": "Property Maintenance",
    "date_created": "2023-04-22T12:30:54.000",
    "date_modified": "2023-04-22T12:30:54.000",
    "request_status": "Pending",
    "responsible_agency": "Department of Code Enforcement",
    "final_address": "4671 Perelli Dr",
    "address_councildis": "E",
    "status": "Pending",
    "rowid": "993374",
    "final_x": "3711825.44555",
    "final_y": "555733.081497",
    "longitude": "-89.9714057230101",
    "latitude": "30.0211169008583",
    "geocoded_column": {
      "latitude": "30.0211169008583",
      "longitude": "-89.9714057230101"
    }
  },
  {
    "service_request": "2023-993373",
    "request_type": "Property Maintenance",
    "request_reason": "Property Maintenance",
    "date_created": "2023-04-22T12:30:54.000",
    "date_modified": "2023-04-22T12:30:54.000",
    "request_status": "Pending",
    "responsible_agency": "Department of Code Enforcement",
    "final_address": "4671 Perelli Dr",
    "address_councildis": "E",
    "status": "Pending",
    "rowid": "993373",
    "final_x": "3711825.44555",
    "final_y": "555733.081497",
    "longitude": "-89.9714057230101",
    "latitude": "30.0211169008583",
    "geocoded_column": {
      "latitude": "30.0211169008583",
      "longitude": "-89.9714057230101"
    }
  },
  {
    "service_request": "2023-993369",
    "request_type": "Property Maintenance",
    "request_reason": "Property Maintenance",
    "date_created": "2023-04-22T12:30:53.000",
    "date_modified": "2023-04-22T12:30:53.000",
    "request_status": "Pending",
    "responsible_agency": "Department of Code Enforcement",
    "final_address": "4671 Perelli Dr",
    "address_councildis": "E",
    "status": "Pending",
    "rowid": "993369",
    "final_x": "3711825.44555",
    "final_y": "555733.081497",
    "longitude": "-89.9714057230101",
    "latitude": "30.0211169008583",
    "geocoded_column": {
      "latitude": "30.0211169008583",
      "longitude": "-89.9714057230101"
    }
  },
  {
    "service_request": "2023-993370",
    "request_type": "Property Maintenance",
    "request_reason": "Property Maintenance",
    "date_created": "2023-04-22T12:30:53.000",
    "date_modified": "2023-04-22T12:30:53.000",
    "request_status": "Pending",
    "responsible_agency": "Department of Code Enforcement",
    "final_address": "4671 Perelli Dr",
    "address_councildis": "E",
    "status": "Pending",
    "rowid": "993370",
    "final_x": "3711825.44555",
    "final_y": "555733.081497",
    "longitude": "-89.9714057230101",
    "latitude": "30.0211169008583",
    "geocoded_column": {
      "latitude": "30.0211169008583",
      "longitude": "-89.9714057230101"
    }
  },
  {
    "service_request": "2023-993371",
    "request_type": "Property Maintenance",
    "request_reason": "Property Maintenance",
    "date_created": "2023-04-22T12:30:53.000",
    "date_modified": "2023-04-22T12:30:53.000",
    "request_status": "Pending",
    "responsible_agency": "Department of Code Enforcement",
    "final_address": "4671 Perelli Dr",
    "address_councildis": "E",
    "status": "Pending",
    "rowid": "993371",
    "final_x": "3711825.44555",
    "final_y": "555733.081497",
    "longitude": "-89.9714057230101",
    "latitude": "30.0211169008583",
    "geocoded_column": {
      "latitude": "30.0211169008583",
      "longitude": "-89.9714057230101"
    }
  },
  {
    "service_request": "2023-993372",
    "request_type": "Property Maintenance",
    "request_reason": "Property Maintenance",
    "date_created": "2023-04-22T12:30:53.000",
    "date_modified": "2023-04-22T12:30:53.000",
    "request_status": "Pending",
    "responsible_agency": "Department of Code Enforcement",
    "final_address": "4671 Perelli Dr",
    "address_councildis": "E",
    "status": "Pending",
    "rowid": "993372",
    "final_x": "3711825.44555",
    "final_y": "555733.081497",
    "longitude": "-89.9714057230101",
    "latitude": "30.0211169008583",
    "geocoded_column": {
      "latitude": "30.0211169008583",
      "longitude": "-89.9714057230101"
    }
  },
  {
    "service_request": "2023-993368",
    "request_type": "Trash/Recycling",
    "request_reason": "Return Recycling Cart",
    "date_created": "2023-04-22T12:10:24.000",
    "date_modified": "2023-04-22T12:10:24.000",
    "request_status": "Pending",
    "responsible_agency": "Department of Sanitation",
    "final_address": "2601 Danneel St",
    "address_councildis": "B",
    "status": "Pending",
    "rowid": "993368",
    "final_x": "3675595.874",
    "final_y": "524082.656764",
    "longitude": "-90.08696889358153",
    "latitude": "29.935223388845415",
    "geocoded_column": {
      "latitude": "29.935223388845415",
      "longitude": "-90.08696889358153"
    }
  },
  {
    "service_request": "2023-993367",
    "request_type": "Abandoned Vehicles",
    "request_reason": "Abandoned/Junk Vehicles",
    "date_created": "2023-04-22T12:05:35.000",
    "date_modified": "2023-04-22T12:05:35.000",
    "request_status": "Pending",
    "responsible_agency": "Department of Public Works",
    "final_address": "7143 Benson Ct",
    "address_councildis": "E",
    "status": "Pending",
    "rowid": "993367",
    "final_x": "3705364.88721",
    "final_y": "560567.696094",
    "longitude": "-89.9916402253609",
    "latitude": "30.03461976633414",
    "geocoded_column": {
      "latitude": "30.03461976633414",
      "longitude": "-89.9916402253609"
    }
  },
  {
    "service_request": "2023-993366",
    "request_type": "Trash/Recycling",
    "request_reason": "Order Recycling Cart",
    "date_created": "2023-04-22T11:59:19.000",
    "date_modified": "2023-04-22T11:59:20.000",
    "request_status": "Pending",
    "responsible_agency": "Department of Sanitation",
    "final_address": "4525 Laurel St",
    "address_councildis": "B",
    "status": "Pending",
    "rowid": "993366",
    "final_x": "3670505.40724",
    "final_y": "518048.94879",
    "longitude": "-90.10324402191817",
    "latitude": "29.918783888689653",
    "geocoded_column": {
      "latitude": "29.918783888689653",
      "longitude": "-90.10324402191817"
    }
  },
  {
    "service_request": "2023-993365",
    "request_type": "Trash/Recycling",
    "request_reason": "Illegal Dumping",
    "date_created": "2023-04-22T11:56:09.000",
    "date_modified": "2023-04-22T11:56:09.000",
    "request_status": "Pending",
    "responsible_agency": "Department of Sanitation",
    "final_address": "2541 St Peter St",
    "address_councildis": "D",
    "status": "Pending",
    "rowid": "993365",
    "final_x": "3677215.54638",
    "final_y": "536489.044359",
    "longitude": "-90.08142766268782",
    "latitude": "29.969288265028716",
    "geocoded_column": {
      "latitude": "29.969288265028716",
      "longitude": "-90.08142766268782"
    }
  },
  {
    "service_request": "2023-993364",
    "request_type": "Trash/Recycling",
    "request_reason": "Missed Trash Pick-Up",
    "date_created": "2023-04-22T11:47:36.000",
    "date_modified": "2023-04-22T11:47:36.000",
    "request_status": "Pending",
    "responsible_agency": "Department of Sanitation",
    "final_address": "7364 Canterbury St",
    "address_councildis": "E",
    "status": "Assigned to Contractor",
    "contractor": "Waste Pro",
    "rowid": "993364",
    "final_x": "3698740.93514",
    "final_y": "559402.014813",
    "longitude": "-90.01261520998483",
    "latitude": "30.031626194263133",
    "geocoded_column": {
      "latitude": "30.031626194263133",
      "longitude": "-90.01261520998483"
    }
  },
  {
    "service_request": "2023-993363",
    "request_type": "Mosquito, Termite & Rodent Control",
    "request_reason": "Non-Rodent Complaint (Mice, Possums, Snakes)",
    "date_created": "2023-04-22T11:46:54.000",
    "date_modified": "2023-04-22T11:46:54.000",
    "request_status": "Pending",
    "responsible_agency": "Mosquito, Termite & Rodent Control Board",
    "status": "Pending",
    "rowid": "993363",
    "longitude": "0.0",
    "latitude": "0.0",
    "geocoded_column": {
      "latitude": "0.0",
      "longitude": "0.0"
    }
  },
  {
    "service_request": "2023-993362",
    "request_type": "Roads/Drainage",
    "request_reason": "Pothole",
    "date_created": "2023-04-22T11:43:48.000",
    "date_modified": "2023-04-22T11:43:48.000",
    "request_status": "Pending",
    "responsible_agency": "Department of Public Works",
    "final_address": "4957 Venus St",
    "address_councildis": "D",
    "status": "Pending",
    "rowid": "993362",
    "final_x": "3686505.49826",
    "final_y": "551473.950421",
    "longitude": "-90.05155997673839",
    "latitude": "30.010209051207404",
    "geocoded_column": {
      "latitude": "30.010209051207404",
      "longitude": "-90.05155997673839"
    }
  },
  {
    "service_request": "2023-993361",
    "request_type": "Trash/Recycling",
    "request_reason": "Request a Large Item Pick Up",
    "date_created": "2023-04-22T11:41:28.000",
    "date_modified": "2023-04-22T11:41:29.000",
    "request_status": "Pending",
    "responsible_agency": "Department of Sanitation",
    "status": "Assigned to Contractor",
    "rowid": "993361",
    "longitude": "0.0",
    "latitude": "0.0",
    "geocoded_column": {
      "latitude": "0.0",
      "longitude": "0.0"
    }
  },
  {
    "service_request": "2023-993360",
    "request_type": "Trash/Recycling",
    "request_reason": "Replace Trash Cart",
    "date_created": "2023-04-22T11:09:00.000",
    "date_modified": "2023-04-22T11:09:01.000",
    "request_status": "Pending",
    "responsible_agency": "Department of Sanitation",
    "final_address": "1517 Audubon St",
    "address_councildis": "A",
    "status": "Assigned to Contractor",
    "contractor": "Richards Disposal",
    "rowid": "993360",
    "final_x": "3665148.36218",
    "final_y": "527341.708927",
    "longitude": "-90.11984284870844",
    "latitude": "29.944493079965188",
    "geocoded_column": {
      "latitude": "29.944493079965188",
      "longitude": "-90.11984284870844"
    }
  },
  {
    "service_request": "2023-993359",
    "request_type": "Abandoned Vehicles",
    "request_reason": "Abandoned/Junk Vehicles",
    "date_created": "2023-04-22T11:04:05.000",
    "date_modified": "2023-04-22T11:04:05.000",
    "request_status": "Pending",
    "responsible_agency": "Department of Public Works",
    "final_address": "904 Vallette St",
    "address_councildis": "C",
    "status": "Pending",
    "rowid": "993359",
    "final_x": "3687516.72534",
    "final_y": "528290.69504",
    "longitude": "-90.04918599534301",
    "latitude": "29.946432146188734",
    "geocoded_column": {
      "latitude": "29.946432146188734",
      "longitude": "-90.04918599534301"
    }
  },
  {
    "service_request": "2023-993358",
    "request_type": "Abandoned Vehicles",
    "request_reason": "Abandoned/Junk Vehicles",
    "date_created": "2023-04-22T11:03:40.000",
    "date_modified": "2023-04-22T11:03:40.000",
    "request_status": "Pending",
    "responsible_agency": "Department of Public Works",
    "final_address": "1749 Coliseum St",
    "address_councildis": "B",
    "status": "Pending",
    "rowid": "993358",
    "final_x": "3679453.41224",
    "final_y": "524128.750844",
    "longitude": "-90.0747890533511",
    "latitude": "29.93523419366514",
    "geocoded_column": {
      "latitude": "29.93523419366514",
      "longitude": "-90.0747890533511"
    }
  },
  {
    "service_request": "2023-993357",
    "request_type": "Trash/Recycling",
    "request_reason": "Missed Trash Pick-Up",
    "date_created": "2023-04-22T11:01:21.000",
    "date_modified": "2023-04-22T11:01:22.000",
    "request_status": "Pending",
    "responsible_agency": "Department of Sanitation",
    "final_address": "8509 Palmetto St",
    "address_councildis": "A",
    "status": "Assigned to Contractor",
    "contractor": "Richards Disposal",
    "rowid": "993357",
    "final_x": "3667110.23975",
    "final_y": "536328.669447",
    "longitude": "-90.11334650078913",
    "latitude": "29.969146999811603",
    "geocoded_column": {
      "latitude": "29.969146999811603",
      "longitude": "-90.11334650078913"
    }
  },
  {
    "service_request": "2023-993356",
    "request_type": "Property Maintenance",
    "request_reason": "Property Maintenance",
    "date_created": "2023-04-22T10:45:39.000",
    "date_modified": "2023-04-22T10:45:39.000",
    "request_status": "Pending",
    "responsible_agency": "Department of Code Enforcement",
    "final_address": "2937 Dryades St",
    "address_councildis": "B",
    "status": "Pending",
    "rowid": "993356",
    "final_x": "3674654.0226",
    "final_y": "523037.677307",
    "longitude": "-90.08997811876495",
    "latitude": "29.932378171482668",
    "geocoded_column": {
      "latitude": "29.932378171482668",
      "longitude": "-90.08997811876495"
    }
  },
  {
    "service_request": "2023-993355",
    "request_type": "Trash/Recycling",
    "request_reason": "Repair Trash Cart",
    "date_created": "2023-04-22T10:42:20.000",
    "date_modified": "2023-04-22T10:42:21.000",
    "request_status": "Pending",
    "responsible_agency": "Department of Sanitation",
    "final_address": "738 Milan St",
    "address_councildis": "B",
    "status": "Assigned to Contractor",
    "contractor": "Richards Disposal",
    "rowid": "993355",
    "final_x": "3671794.0091",
    "final_y": "518432.292406",
    "longitude": "-90.09916353559795",
    "latitude": "29.919799861340138",
    "geocoded_column": {
      "latitude": "29.919799861340138",
      "longitude": "-90.09916353559795"
    }
  },
  {
    "service_request": "2023-993354",
    "request_type": "Health Related Request",
    "request_reason": "Noise Ordinance Complaint",
    "date_created": "2023-04-22T10:41:36.000",
    "date_modified": "2023-04-22T10:41:36.000",
    "request_status": "Pending",
    "responsible_agency": "Health Department",
    "final_address": "1739 Feliciana St",
    "address_councildis": "D",
    "status": "Pending",
    "rowid": "993354",
    "final_x": "3689408.43779",
    "final_y": "538580.076105",
    "longitude": "-90.04284732792848",
    "latitude": "29.974665936426128",
    "geocoded_column": {
      "latitude": "29.974665936426128",
      "longitude": "-90.04284732792848"
    }
  },
  {
    "service_request": "2023-993353",
    "request_type": "Abandoned Vehicles",
    "request_reason": "Abandoned/Junk Vehicles",
    "date_created": "2023-04-22T10:41:23.000",
    "date_modified": "2023-04-22T10:41:23.000",
    "request_status": "Pending",
    "responsible_agency": "Department of Public Works",
    "final_address": "541 Josephine St Apt B",
    "address_councildis": "B",
    "status": "Pending",
    "rowid": "993353",
    "final_x": "3680374.44904",
    "final_y": "520798.741177",
    "longitude": "-90.07199706699295",
    "latitude": "29.92604991363709",
    "geocoded_column": {
      "latitude": "29.92604991363709",
      "longitude": "-90.07199706699295"
    }
  },
  {
    "service_request": "2023-993352",
    "request_type": "Property Maintenance",
    "request_reason": "Property Maintenance",
    "date_created": "2023-04-22T10:39:50.000",
    "date_modified": "2023-04-22T10:39:50.000",
    "request_status": "Pending",
    "responsible_agency": "Department of Code Enforcement",
    "final_address": "2931 Dryades St",
    "address_councildis": "B",
    "status": "Pending",
    "rowid": "993352",
    "final_x": "3674684.89569",
    "final_y": "523057.082171",
    "longitude": "-90.0898799903286",
    "latitude": "29.932430607365948",
    "geocoded_column": {
      "latitude": "29.932430607365948",
      "longitude": "-90.0898799903286"
    }
  },
  {
    "service_request": "2023-993351",
    "request_type": "Trash/Recycling",
    "request_reason": "Missed Trash Pick-Up",
    "date_created": "2023-04-22T10:32:53.000",
    "date_modified": "2023-04-22T10:32:53.000",
    "request_status": "Pending",
    "responsible_agency": "Department of Sanitation",
    "final_address": "2233 Laurel St",
    "address_councildis": "B",
    "status": "Assigned to Contractor",
    "contractor": "Richards Disposal",
    "rowid": "993351",
    "final_x": "3679051.6381",
    "final_y": "521352.572409",
    "longitude": "-90.07615361407984",
    "latitude": "29.92761274169696",
    "geocoded_column": {
      "latitude": "29.92761274169696",
      "longitude": "-90.07615361407984"
    }
  },
  {
    "service_request": "2023-993350",
    "request_type": "Trash/Recycling",
    "request_reason": "Missed Trash Pick-Up",
    "date_created": "2023-04-22T10:29:39.000",
    "date_modified": "2023-04-22T10:29:39.000",
    "request_status": "Pending",
    "responsible_agency": "Department of Sanitation",
    "final_address": "8708 Palmetto St",
    "address_councildis": "A",
    "status": "Assigned to Contractor",
    "contractor": "Richards Disposal",
    "rowid": "993350",
    "final_x": "3666435.47482",
    "final_y": "536592.881479",
    "longitude": "-90.11546859656065",
    "latitude": "29.96989323222852",
    "geocoded_column": {
      "latitude": "29.96989323222852",
      "longitude": "-90.11546859656065"
    }
  },
  {
    "service_request": "2023-993349",
    "request_type": "Roads/Drainage",
    "request_reason": "Pothole",
    "date_created": "2023-04-22T10:18:34.000",
    "date_modified": "2023-04-22T10:22:59.000",
    "request_status": "Pending",
    "responsible_agency": "Department of Public Works",
    "final_address": "11700 Morrison Rd",
    "address_councildis": "E",
    "status": "Pending",
    "rowid": "993349",
    "final_x": "3713226.46795",
    "final_y": "566298.776355",
    "longitude": "-89.96658072710648",
    "latitude": "30.050122471734742",
    "geocoded_column": {
      "latitude": "30.050122471734742",
      "longitude": "-89.96658072710648"
    }
  },
  {
    "service_request": "2023-993348",
    "request_type": "Trash/Recycling",
    "request_reason": "Dead Animal Pick Up",
    "date_created": "2023-04-22T10:16:13.000",
    "date_modified": "2023-04-22T10:16:14.000",
    "request_status": "Pending",
    "responsible_agency": "Department of Sanitation",
    "final_address": "7925 Willow St",
    "address_councildis": "A",
    "status": "Assigned to Contractor",
    "contractor": "Richards Disposal",
    "rowid": "993348",
    "final_x": "3662901.82093",
    "final_y": "528532.627328",
    "longitude": "-90.12689627992172",
    "latitude": "29.94783295237911",
    "geocoded_column": {
      "latitude": "29.94783295237911",
      "longitude": "-90.12689627992172"
    }
  },
  {
    "service_request": "2023-993347",
    "request_type": "Traffic Signals/Signs/Striping/Streetlights",
    "request_reason": "Street Light Outage/Malfunction",
    "date_created": "2023-04-22T10:15:34.000",
    "date_modified": "2023-04-22T10:22:02.000",
    "request_status": "Pending",
    "responsible_agency": "Department of Public Works",
    "final_address": "9834 E Rockton Cir",
    "address_councildis": "E",
    "status": "Assigned to Contractor",
    "contractor": "Legacy Professional Services",
    "rowid": "993347",
    "final_x": "3708460.78488",
    "final_y": "563109.084192",
    "longitude": "-89.98176209747727",
    "latitude": "30.041507535890037",
    "geocoded_column": {
      "latitude": "30.041507535890037",
      "longitude": "-89.98176209747727"
    }
  },
  {
    "service_request": "2023-993346",
    "request_type": "Trash/Recycling",
    "request_reason": "Request a Large Item Pick Up",
    "date_created": "2023-04-22T10:14:44.000",
    "date_modified": "2023-04-22T10:14:44.000",
    "request_status": "Pending",
    "responsible_agency": "Department of Sanitation",
    "final_address": "2761 Dreux Ave",
    "address_councildis": "D",
    "status": "Assigned to Contractor",
    "contractor": "IV Waste",
    "rowid": "993346",
    "final_x": "3687828.78511",
    "final_y": "552356.830102",
    "longitude": "-90.04734792729376",
    "latitude": "30.01259587770836",
    "geocoded_column": {
      "latitude": "30.01259587770836",
      "longitude": "-90.04734792729376"
    }
  },
  {
    "service_request": "2023-993345",
    "request_type": "Traffic Signals/Signs/Striping/Streetlights",
    "request_reason": "Street Light Outage/Malfunction",
    "date_created": "2023-04-22T10:14:38.000",
    "date_modified": "2023-04-22T10:22:34.000",
    "request_status": "Pending",
    "responsible_agency": "Department of Public Works",
    "final_address": "9862 E Rockton Cir",
    "address_councildis": "E",
    "status": "Assigned to Contractor",
    "contractor": "Legacy Professional Services",
    "rowid": "993345",
    "final_x": "3708616.21195",
    "final_y": "563205.333216",
    "longitude": "-89.98126730666827",
    "latitude": "30.041767140446783",
    "geocoded_column": {
      "latitude": "30.041767140446783",
      "longitude": "-89.98126730666827"
    }
  },
  {
    "service_request": "2023-993344",
    "request_type": "Property Maintenance",
    "request_reason": "Property Maintenance",
    "date_created": "2023-04-22T10:13:42.000",
    "date_modified": "2023-04-22T10:13:42.000",
    "request_status": "Pending",
    "responsible_agency": "Department of Code Enforcement",
    "final_address": "1429 Henriette Delille St",
    "address_councildis": "C",
    "status": "Pending",
    "rowid": "993344",
    "final_x": "3682693.73711",
    "final_y": "535832.534279",
    "longitude": "-90.06415010107918",
    "latitude": "29.96731737692603",
    "geocoded_column": {
      "latitude": "29.96731737692603",
      "longitude": "-90.06415010107918"
    }
  },
  {
    "service_request": "2023-993343",
    "request_type": "Trash/Recycling",
    "request_reason": "Request a Large Item Pick Up",
    "date_created": "2023-04-22T10:08:47.000",
    "date_modified": "2023-04-22T10:08:48.000",
    "request_status": "Pending",
    "responsible_agency": "Department of Sanitation",
    "final_address": "6348 Carlson Dr",
    "address_councildis": "D",
    "status": "Assigned to Contractor",
    "contractor": "IV Waste",
    "rowid": "993343",
    "final_x": "3679100.85512",
    "final_y": "557130.381402",
    "longitude": "-90.07475770964348",
    "latitude": "30.025987860498343",
    "geocoded_column": {
      "latitude": "30.025987860498343",
      "longitude": "-90.07475770964348"
    }
  },
  {
    "service_request": "2023-993342",
    "request_type": "Abandoned Vehicles",
    "request_reason": "Abandoned/Junk Vehicles",
    "date_created": "2023-04-22T10:02:17.000",
    "date_modified": "2023-04-22T10:02:17.000",
    "request_status": "Pending",
    "responsible_agency": "Department of Public Works",
    "final_address": "1413 Melpomene St",
    "address_councildis": "B",
    "status": "Pending",
    "rowid": "993342",
    "final_x": "3679912.8052",
    "final_y": "525129.102397",
    "longitude": "-90.07330402227942",
    "latitude": "29.93797094741907",
    "geocoded_column": {
      "latitude": "29.93797094741907",
      "longitude": "-90.07330402227942"
    }
  },
  {
    "service_request": "2023-993341",
    "request_type": "Trash/Recycling",
    "request_reason": "Replace Trash Cart",
    "date_created": "2023-04-22T09:44:35.000",
    "date_modified": "2023-04-22T09:44:35.000",
    "request_status": "Pending",
    "responsible_agency": "Department of Sanitation",
    "final_address": "520 Short St",
    "address_councildis": "A",
    "status": "Assigned to Contractor",
    "contractor": "Richards Disposal",
    "rowid": "993341",
    "final_x": "3660719.90144",
    "final_y": "526396.917246",
    "longitude": "-90.13385609417911",
    "latitude": "29.9420234171878",
    "geocoded_column": {
      "latitude": "29.9420234171878",
      "longitude": "-90.13385609417911"
    }
  },
  {
    "service_request": "2023-993340",
    "request_type": "Trash/Recycling",
    "request_reason": "Request a Large Item Pick Up",
    "date_created": "2023-04-22T09:43:43.000",
    "date_modified": "2023-04-22T09:43:43.000",
    "request_status": "Pending",
    "responsible_agency": "Department of Sanitation",
    "final_address": "2628 N Miro St",
    "address_councildis": "D",
    "status": "Assigned to Contractor",
    "contractor": "IV Waste",
    "rowid": "993340",
    "final_x": "3687889.6671",
    "final_y": "540577.251083",
    "longitude": "-90.04757318961373",
    "latitude": "29.98020440763883",
    "geocoded_column": {
      "latitude": "29.98020440763883",
      "longitude": "-90.04757318961373"
    }
  },
  {
    "service_request": "2023-993339",
    "request_type": "Trash/Recycling",
    "request_reason": "Dead Animal Pick Up",
    "date_created": "2023-04-22T09:42:12.000",
    "date_modified": "2023-04-22T09:42:12.000",
    "request_status": "Pending",
    "responsible_agency": "Department of Sanitation",
    "final_address": "11755 Dwyer Rd",
    "address_councildis": "E",
    "status": "Assigned to Contractor",
    "contractor": "Waste Pro",
    "rowid": "993339",
    "final_x": "3718728.00722",
    "final_y": "558818.915228",
    "longitude": "-89.9494780949605",
    "latitude": "30.029374314783933",
    "geocoded_column": {
      "latitude": "30.029374314783933",
      "longitude": "-89.9494780949605"
    }
  },
  {
    "service_request": "2023-993338",
    "request_type": "Trash/Recycling",
    "request_reason": "Request a Large Item Pick Up",
    "date_created": "2023-04-22T09:20:31.000",
    "date_modified": "2023-04-22T09:20:31.000",
    "request_status": "Pending",
    "responsible_agency": "Department of Sanitation",
    "final_address": "1608 N Broad St",
    "address_councildis": "D",
    "status": "Assigned to Contractor",
    "contractor": "IV Waste",
    "rowid": "993338",
    "final_x": "3679234.02408",
    "final_y": "540175.962955",
    "longitude": "-90.07492528170927",
    "latitude": "29.979365227744612",
    "geocoded_column": {
      "latitude": "29.979365227744612",
      "longitude": "-90.07492528170927"
    }
  },
  {
    "service_request": "2023-993337",
    "request_type": "Trash/Recycling",
    "request_reason": "Request a Large Item Pick Up",
    "date_created": "2023-04-22T09:18:58.000",
    "date_modified": "2023-04-22T09:18:59.000",
    "request_status": "Pending",
    "responsible_agency": "Department of Sanitation",
    "final_address": "4529 Bonita Dr",
    "address_councildis": "E",
    "status": "Assigned to Contractor",
    "contractor": "Waste Pro",
    "rowid": "993337",
    "final_x": "3704661.87844",
    "final_y": "553903.904535",
    "longitude": "-89.99410794336404",
    "latitude": "30.01631954007418",
    "geocoded_column": {
      "latitude": "30.01631954007418",
      "longitude": "-89.99410794336404"
    }
  },
  {
    "service_request": "2023-993336",
    "request_type": "Roads/Drainage",
    "request_reason": "Pothole",
    "date_created": "2023-04-22T09:15:06.000",
    "date_modified": "2023-04-22T09:30:05.000",
    "case_close_date": "2023-04-22T04:30:05.000",
    "request_status": "Closed",
    "responsible_agency": "Department of Public Works",
    "final_address": "1939 Touro St",
    "address_councildis": "D",
    "status": "Duplicate Request",
    "rowid": "993336",
    "final_x": "3684008.5741",
    "final_y": "539529.91873",
    "longitude": "-90.05986806445215",
    "latitude": "29.977443787590435",
    "geocoded_column": {
      "latitude": "29.977443787590435",
      "longitude": "-90.05986806445215"
    }
  },
  {
    "service_request": "2023-993335",
    "request_type": "Abandoned Vehicles",
    "request_reason": "Abandoned/Junk Vehicles",
    "date_created": "2023-04-22T09:14:07.000",
    "date_modified": "2023-04-22T09:14:07.000",
    "request_status": "Pending",
    "responsible_agency": "Department of Public Works",
    "final_address": "729 Marigny St",
    "address_councildis": "C",
    "status": "Pending",
    "rowid": "993335",
    "final_x": "3685543.27004",
    "final_y": "535150.535686",
    "longitude": "-90.05517527825016",
    "latitude": "29.96535502301678",
    "geocoded_column": {
      "latitude": "29.96535502301678",
      "longitude": "-90.05517527825016"
    }
  },
  {
    "service_request": "2023-993334",
    "request_type": "Trash/Recycling",
    "request_reason": "Order Trash Cart",
    "date_created": "2023-04-22T09:01:23.000",
    "date_modified": "2023-04-22T09:01:24.000",
    "request_status": "Pending",
    "responsible_agency": "Department of Sanitation",
    "final_address": "418 S Alexander St",
    "address_councildis": "A",
    "status": "Assigned to Contractor",
    "contractor": "Richards Disposal",
    "rowid": "993334",
    "final_x": "3669166.48276",
    "final_y": "538022.082633",
    "longitude": "-90.10679547245084",
    "latitude": "29.97374296001568",
    "geocoded_column": {
      "latitude": "29.97374296001568",
      "longitude": "-90.10679547245084"
    }
  },
  {
    "service_request": "2023-993333",
    "request_type": "Trash/Recycling",
    "request_reason": "Missed Trash Pick-Up",
    "date_created": "2023-04-22T08:59:01.000",
    "date_modified": "2023-04-22T17:25:05.000",
    "request_status": "Pending",
    "responsible_agency": "Department of Sanitation",
    "final_address": "7811 Mullet St",
    "address_councildis": "E",
    "status": "Assigned to Contractor",
    "contractor": "Waste Pro",
    "rowid": "993333",
    "final_x": "3699025.82468",
    "final_y": "560694.612702",
    "longitude": "-90.0116678357294",
    "latitude": "30.03517130686744",
    "geocoded_column": {
      "latitude": "30.03517130686744",
      "longitude": "-90.0116678357294"
    }
  },
  {
    "service_request": "2023-993332",
    "request_type": "Trash/Recycling",
    "request_reason": "MIssed Recycling Pick-Up",
    "date_created": "2023-04-22T08:45:08.000",
    "date_modified": "2023-04-22T08:45:09.000",
    "request_status": "Pending",
    "responsible_agency": "Department of Sanitation",
    "final_address": "6910 Manchester St",
    "address_councildis": "E",
    "status": "Assigned to Contractor",
    "contractor": "Waste Pro",
    "rowid": "993332",
    "final_x": "3698773.20215",
    "final_y": "559970.858013",
    "longitude": "-90.0124925241548",
    "latitude": "30.03318927091478",
    "geocoded_column": {
      "latitude": "30.03318927091478",
      "longitude": "-90.0124925241548"
    }
  },
  {
    "service_request": "2023-993331",
    "request_type": "Trash/Recycling",
    "request_reason": "Illegal Dumping",
    "date_created": "2023-04-22T08:15:16.000",
    "date_modified": "2023-04-22T08:15:16.000",
    "request_status": "Pending",
    "responsible_agency": "Department of Sanitation",
    "status": "Pending",
    "rowid": "993331",
    "longitude": "0.0",
    "latitude": "0.0",
    "geocoded_column": {
      "latitude": "0.0",
      "longitude": "0.0"
    }
  },
  {
    "service_request": "2023-993330",
    "request_type": "Property Maintenance",
    "request_reason": "Property Maintenance",
    "date_created": "2023-04-22T08:07:27.000",
    "date_modified": "2023-04-22T08:07:27.000",
    "request_status": "Pending",
    "responsible_agency": "Department of Code Enforcement",
    "final_address": "6600 Morrison Rd",
    "address_councildis": "E",
    "status": "Pending",
    "rowid": "993330",
    "final_x": "3698428.45098",
    "final_y": "558152.841243",
    "longitude": "-90.0136481332858",
    "latitude": "30.02820134692633",
    "geocoded_column": {
      "latitude": "30.02820134692633",
      "longitude": "-90.0136481332858"
    }
  },
  {
    "service_request": "2023-993329",
    "request_type": "Traffic Signals/Signs/Striping/Streetlights",
    "request_reason": "Street Light Outage/Malfunction",
    "date_created": "2023-04-22T08:00:06.000",
    "date_modified": "2023-04-22T08:00:07.000",
    "request_status": "Pending",
    "responsible_agency": "Department of Public Works",
    "final_address": "6125 Pines Blvd",
    "address_councildis": "D",
    "status": "Assigned to Contractor",
    "contractor": "Legacy Professional Services",
    "rowid": "993329",
    "final_x": "3696572.62506",
    "final_y": "556310.77513",
    "longitude": "-90.01957914226281",
    "latitude": "30.02319500647701",
    "geocoded_column": {
      "latitude": "30.02319500647701",
      "longitude": "-90.01957914226281"
    }
  },
  {
    "service_request": "2023-993328",
    "request_type": "Trash/Recycling",
    "request_reason": "Missed Trash Pick-Up",
    "date_created": "2023-04-22T07:41:25.000",
    "date_modified": "2023-04-22T07:41:26.000",
    "request_status": "Pending",
    "responsible_agency": "Department of Sanitation",
    "final_address": "5512 Chestnut St, New Orleans, Louisiana, 70115",
    "address_councildis": "A",
    "status": "Assigned to Contractor",
    "contractor": "Richards Disposal",
    "rowid": "993328",
    "final_x": "3666485.59943",
    "final_y": "519541.463031",
    "longitude": "-90.11588245255203",
    "latitude": "29.923005880934127",
    "geocoded_column": {
      "latitude": "29.923005880934127",
      "longitude": "-90.11588245255203"
    }
  },
  {
    "service_request": "2023-993327",
    "request_type": "Trash/Recycling",
    "request_reason": "Missed Trash Pick-Up",
    "date_created": "2023-04-22T07:29:02.000",
    "date_modified": "2023-04-22T07:29:02.000",
    "request_status": "Pending",
    "responsible_agency": "Department of Sanitation",
    "final_address": "217 S Alexander St",
    "address_councildis": "A",
    "status": "Assigned to Contractor",
    "contractor": "Richards Disposal",
    "rowid": "993327",
    "final_x": "3669613.1666",
    "final_y": "538747.862857",
    "longitude": "-90.10536017899786",
    "latitude": "29.97572545634831",
    "geocoded_column": {
      "latitude": "29.97572545634831",
      "longitude": "-90.10536017899786"
    }
  },
  {
    "service_request": "2023-993326",
    "request_type": "Trash/Recycling",
    "request_reason": "Order Recycling Cart",
    "date_created": "2023-04-22T07:15:21.000",
    "date_modified": "2023-04-22T07:15:21.000",
    "request_status": "Pending",
    "responsible_agency": "Department of Sanitation",
    "final_address": "2113 Chippewa St",
    "address_councildis": "B",
    "status": "Pending",
    "rowid": "993326",
    "final_x": "3679926.05883",
    "final_y": "521101.441209",
    "longitude": "-90.0734019970818",
    "latitude": "29.92689580413008",
    "geocoded_column": {
      "latitude": "29.92689580413008",
      "longitude": "-90.0734019970818"
    }
  },
  {
    "service_request": "2023-993325",
    "request_type": "Property Maintenance",
    "request_reason": "Property Maintenance",
    "date_created": "2023-04-22T06:35:13.000",
    "date_modified": "2023-04-22T06:35:13.000",
    "request_status": "Pending",
    "responsible_agency": "Department of Code Enforcement",
    "final_address": "3310 Dickens Dr",
    "address_councildis": "C",
    "status": "Pending",
    "rowid": "993325",
    "final_x": "3708355.91716",
    "final_y": "518479.703734",
    "longitude": "-89.9837547481539",
    "latitude": "29.91879676717459",
    "geocoded_column": {
      "latitude": "29.91879676717459",
      "longitude": "-89.9837547481539"
    }
  },
  {
    "service_request": "2023-993324",
    "request_type": "Safety & Permits",
    "request_reason": "Licenses & Permits",
    "date_created": "2023-04-22T06:27:59.000",
    "date_modified": "2023-04-22T06:27:59.000",
    "request_status": "Pending",
    "responsible_agency": "Safety and Permits",
    "final_address": "1328 St Bernard Ave",
    "address_councildis": "C",
    "status": "Pending",
    "rowid": "993324",
    "final_x": "3682712.52284",
    "final_y": "536735.540615",
    "longitude": "-90.06405918653729",
    "latitude": "29.96979976049472",
    "geocoded_column": {
      "latitude": "29.96979976049472",
      "longitude": "-90.06405918653729"
    }
  },
  {
    "service_request": "2023-993323",
    "request_type": "Health Related Request",
    "request_reason": "Noise Ordinance Complaint",
    "date_created": "2023-04-22T06:27:19.000",
    "date_modified": "2023-04-22T06:27:19.000",
    "request_status": "Pending",
    "responsible_agency": "Health Department",
    "final_address": "1328 St Bernard Ave",
    "address_councildis": "C",
    "status": "Pending",
    "rowid": "993323",
    "final_x": "3682712.52284",
    "final_y": "536735.540615",
    "longitude": "-90.06405918653729",
    "latitude": "29.96979976049472",
    "geocoded_column": {
      "latitude": "29.96979976049472",
      "longitude": "-90.06405918653729"
    }
  },
  {
    "service_request": "2023-993322",
    "request_type": "Trash/Recycling",
    "request_reason": "Replace Recycling Cart",
    "date_created": "2023-04-22T06:19:41.000",
    "date_modified": "2023-04-22T06:19:41.000",
    "request_status": "Pending",
    "responsible_agency": "Department of Sanitation",
    "final_address": "6101 St Roch Ave",
    "address_councildis": "D",
    "status": "Pending",
    "rowid": "993322",
    "final_x": "3685077.53276",
    "final_y": "555514.786329",
    "longitude": "-90.0559291196056",
    "latitude": "30.021363712549842",
    "geocoded_column": {
      "latitude": "30.021363712549842",
      "longitude": "-90.0559291196056"
    }
  },
  {
    "service_request": "2023-993321",
    "request_type": "Trash/Recycling",
    "request_reason": "Request a Large Item Pick Up",
    "date_created": "2023-04-22T05:03:18.000",
    "date_modified": "2023-04-22T05:03:19.000",
    "request_status": "Pending",
    "responsible_agency": "Department of Sanitation",
    "final_address": "6930 Martin Dr",
    "address_councildis": "E",
    "status": "Assigned to Contractor",
    "contractor": "Waste Pro",
    "rowid": "993321",
    "final_x": "3699030.9153",
    "final_y": "557926.290267",
    "longitude": "-90.01175264948685",
    "latitude": "30.027559326171158",
    "geocoded_column": {
      "latitude": "30.027559326171158",
      "longitude": "-90.01175264948685"
    }
  },
  {
    "service_request": "2023-993320",
    "request_type": "Trash/Recycling",
    "request_reason": "Start Trash Service",
    "date_created": "2023-04-22T05:01:21.000",
    "date_modified": "2023-04-22T05:01:22.000",
    "request_status": "Pending",
    "responsible_agency": "Department of Sanitation",
    "final_address": "6930 Martin Dr",
    "address_councildis": "E",
    "status": "Assigned to Contractor",
    "contractor": "Waste Pro",
    "rowid": "993320",
    "final_x": "3699030.9153",
    "final_y": "557926.290267",
    "longitude": "-90.01175264948685",
    "latitude": "30.027559326171158",
    "geocoded_column": {
      "latitude": "30.027559326171158",
      "longitude": "-90.01175264948685"
    }
  },
  {
    "service_request": "2023-993319",
    "request_type": "Roads/Drainage",
    "request_reason": "Man hole cover issue",
    "date_created": "2023-04-22T03:27:30.000",
    "date_modified": "2023-04-22T08:37:33.000",
    "case_close_date": "2023-04-22T03:37:33.000",
    "request_status": "Closed",
    "responsible_agency": "Department of Public Works",
    "final_address": "BULLARD AVE & I 10 W",
    "address_councildis": "E",
    "status": "Resolved",
    "rowid": "993319",
    "final_x": "3714912.0",
    "final_y": "564900.48",
    "longitude": "-89.96130635148693",
    "latitude": "30.046222337858797",
    "geocoded_column": {
      "latitude": "30.046222337858797",
      "longitude": "-89.96130635148693"
    }
  },
  {
    "service_request": "2023-993318",
    "request_type": "Trash/Recycling",
    "request_reason": "Dead Animal Pick Up",
    "date_created": "2023-04-22T03:10:54.000",
    "date_modified": "2023-04-22T03:10:56.000",
    "request_status": "Pending",
    "responsible_agency": "Department of Sanitation",
    "final_address": "9921 N Interstate 10 Service Rd",
    "address_councildis": "E",
    "status": "Assigned to Contractor",
    "contractor": "Waste Pro",
    "rowid": "993318",
    "final_x": "3709695.51301",
    "final_y": "561811.227103",
    "longitude": "-89.97790846407092",
    "latitude": "30.037898842718608",
    "geocoded_column": {
      "latitude": "30.037898842718608",
      "longitude": "-89.97790846407092"
    }
  },
  {
    "service_request": "2023-993317",
    "request_type": "Trash/Recycling",
    "request_reason": "Illegal Dumping",
    "date_created": "2023-04-22T01:15:15.000",
    "date_modified": "2023-04-22T01:15:15.000",
    "request_status": "Pending",
    "responsible_agency": "Department of Sanitation",
    "final_address": "2700 BLK Orleans Ave",
    "address_councildis": "A",
    "status": "Pending",
    "rowid": "993317",
    "final_x": "3676646.09319",
    "final_y": "537140.033775",
    "longitude": "-90.08320361082494",
    "latitude": "29.971095359204426",
    "geocoded_column": {
      "latitude": "29.971095359204426",
      "longitude": "-90.08320361082494"
    }
  },
  {
    "service_request": "2023-993316",
    "request_type": "Trash/Recycling",
    "request_reason": "Order Recycling Cart",
    "date_created": "2023-04-22T00:03:05.000",
    "date_modified": "2023-04-22T00:03:05.000",
    "request_status": "Pending",
    "responsible_agency": "Department of Sanitation",
    "final_address": "4127 Thalia St",
    "address_councildis": "B",
    "status": "Pending",
    "rowid": "993316",
    "final_x": "3671350.45473",
    "final_y": "530887.182978",
    "longitude": "-90.10014051197865",
    "latitude": "29.9540599069047",
    "geocoded_column": {
      "latitude": "29.9540599069047",
      "longitude": "-90.10014051197865"
    }
  },
  {
    "service_request": "2023-993315",
    "request_type": "Trash/Recycling",
    "request_reason": "Repair Trash Cart",
    "date_created": "2023-04-22T00:01:42.000",
    "date_modified": "2023-04-22T00:01:43.000",
    "request_status": "Pending",
    "responsible_agency": "Department of Sanitation",
    "final_address": "4127 Thalia St",
    "address_councildis": "B",
    "status": "Assigned to Contractor",
    "contractor": "Richards Disposal",
    "rowid": "993315",
    "final_x": "3671350.45473",
    "final_y": "530887.182978",
    "longitude": "-90.10014051197865",
    "latitude": "29.9540599069047",
    "geocoded_column": {
      "latitude": "29.9540599069047",
      "longitude": "-90.10014051197865"
    }
  },
  {
    "service_request": "2023-993314",
    "request_type": "Traffic Signals/Signs/Striping/Streetlights",
    "request_reason": "Street Light Outage/Malfunction",
    "date_created": "2023-04-21T23:55:56.000",
    "date_modified": "2023-04-21T23:55:56.000",
    "request_status": "Pending",
    "responsible_agency": "Department of Public Works",
    "final_address": "54 Park Timbers Dr",
    "address_councildis": "C",
    "status": "Assigned to Contractor",
    "contractor": "Legacy Professional Services",
    "rowid": "993314",
    "final_x": "3699450.66884",
    "final_y": "517068.063669",
    "longitude": "-90.01191518833774",
    "latitude": "29.91520063748767",
    "geocoded_column": {
      "latitude": "29.91520063748767",
      "longitude": "-90.01191518833774"
    }
  },
  {
    "service_request": "2023-993313",
    "request_type": "Traffic Signals/Signs/Striping/Streetlights",
    "request_reason": "Street Light Outage/Malfunction",
    "date_created": "2023-04-21T23:31:34.000",
    "date_modified": "2023-04-21T23:31:34.000",
    "request_status": "Pending",
    "responsible_agency": "Department of Public Works",
    "final_address": "1200 Kabel Dr",
    "address_councildis": "C",
    "status": "Assigned to Contractor",
    "contractor": "Legacy Professional Services",
    "rowid": "993313",
    "final_x": "3700865.88829",
    "final_y": "523276.587579",
    "longitude": "-90.00722147520297",
    "latitude": "29.93222699050869",
    "geocoded_column": {
      "latitude": "29.93222699050869",
      "longitude": "-90.00722147520297"
    }
  },
  {
    "service_request": "2023-993312",
    "request_type": "Health Related Request",
    "request_reason": "Noise Ordinance Complaint",
    "date_created": "2023-04-21T23:23:32.000",
    "date_modified": "2023-04-21T23:23:32.000",
    "request_status": "Pending",
    "responsible_agency": "Health Department",
    "final_address": "1200 St Bernard Ave",
    "address_councildis": "C",
    "status": "Pending",
    "rowid": "993312",
    "final_x": "3683033.3165",
    "final_y": "536132.891847",
    "longitude": "-90.06306719052876",
    "latitude": "29.96813290984115",
    "geocoded_column": {
      "latitude": "29.96813290984115",
      "longitude": "-90.06306719052876"
    }
  },
  {
    "service_request": "2023-993311",
    "request_type": "Parks & Parkways",
    "request_reason": "Request Tree Service (Right of Way/Public Property)",
    "date_created": "2023-04-21T22:48:47.000",
    "date_modified": "2023-04-22T10:19:31.000",
    "request_status": "Pending",
    "responsible_agency": "Department of Parks & Parkway",
    "final_address": "7300 BLK Sheffield St",
    "address_councildis": "E",
    "status": "Pending",
    "rowid": "993311",
    "final_x": "3699462.45274",
    "final_y": "559597.646012",
    "longitude": "-90.01032805433718",
    "latitude": "30.032141217912073",
    "geocoded_column": {
      "latitude": "30.032141217912073",
      "longitude": "-90.01032805433718"
    }
  },
  {
    "service_request": "2023-993310",
    "request_type": "Property Maintenance",
    "request_reason": "Property Maintenance",
    "date_created": "2023-04-21T22:37:43.000",
    "date_modified": "2023-04-21T22:37:43.000",
    "request_status": "Pending",
    "responsible_agency": "Department of Code Enforcement",
    "final_address": "1124 S Gayoso St",
    "address_councildis": "B",
    "status": "Pending",
    "rowid": "993310",
    "final_x": "3671415.75361",
    "final_y": "531713.784899",
    "longitude": "-90.09990622824893",
    "latitude": "29.956330856343598",
    "geocoded_column": {
      "latitude": "29.956330856343598",
      "longitude": "-90.09990622824893"
    }
  },
  {
    "service_request": "2023-993309",
    "request_type": "Health Related Request",
    "request_reason": "Noise Ordinance Complaint",
    "date_created": "2023-04-21T22:35:18.000",
    "date_modified": "2023-04-21T22:35:18.000",
    "request_status": "Pending",
    "responsible_agency": "Health Department",
    "final_address": "700 Frenchmen St",
    "address_councildis": "C",
    "status": "Pending",
    "rowid": "993309",
    "final_x": "3684674.15349",
    "final_y": "534862.19559",
    "longitude": "-90.05793003716528",
    "latitude": "29.964588816083072",
    "geocoded_column": {
      "latitude": "29.964588816083072",
      "longitude": "-90.05793003716528"
    }
  },
  {
    "service_request": "2023-993308",
    "request_type": "Traffic Signals/Signs/Striping/Streetlights",
    "request_reason": "Street Light Outage/Malfunction",
    "date_created": "2023-04-21T22:31:16.000",
    "date_modified": "2023-04-21T22:31:17.000",
    "request_status": "Pending",
    "responsible_agency": "Department of Public Works",
    "final_address": "624 St Roch Ave",
    "address_councildis": "C",
    "status": "Assigned to Contractor",
    "contractor": "Legacy Professional Services",
    "rowid": "993308",
    "final_x": "3686593.33423",
    "final_y": "534847.352646",
    "longitude": "-90.05186994113276",
    "latitude": "29.964489125751367",
    "geocoded_column": {
      "latitude": "29.964489125751367",
      "longitude": "-90.05186994113276"
    }
  },
  {
    "service_request": "2023-993306",
    "request_type": "Roads/Drainage",
    "request_reason": "Street Subsidence (Sinking)",
    "date_created": "2023-04-21T21:17:53.000",
    "date_modified": "2023-04-21T21:17:53.000",
    "request_status": "Pending",
    "responsible_agency": "Department of Public Works",
    "status": "Pending",
    "rowid": "993306",
    "longitude": "0.0",
    "latitude": "0.0",
    "geocoded_column": {
      "latitude": "0.0",
      "longitude": "0.0"
    }
  },
  {
    "service_request": "2023-993305",
    "request_type": "Trash/Recycling",
    "request_reason": "Missed Trash Pick-Up",
    "date_created": "2023-04-21T20:47:29.000",
    "date_modified": "2023-04-21T20:47:29.000",
    "request_status": "Pending",
    "responsible_agency": "Department of Sanitation",
    "final_address": "5517 Laurel St",
    "address_councildis": "A",
    "status": "Assigned to Contractor",
    "contractor": "Richards Disposal",
    "rowid": "993305",
    "final_x": "3666071.89562",
    "final_y": "517915.676406",
    "longitude": "-90.11724282636312",
    "latitude": "29.918547557581643",
    "geocoded_column": {
      "latitude": "29.918547557581643",
      "longitude": "-90.11724282636312"
    }
  },
  {
    "service_request": "2023-993304",
    "request_type": "Trash/Recycling",
    "request_reason": "Order Recycling Cart",
    "date_created": "2023-04-21T20:43:12.000",
    "date_modified": "2023-04-21T20:43:12.000",
    "request_status": "Pending",
    "responsible_agency": "Department of Sanitation",
    "final_address": "936 Florida Blvd",
    "address_councildis": "A",
    "status": "Pending",
    "rowid": "993304",
    "final_x": "3670053.60858",
    "final_y": "545125.725711",
    "longitude": "-90.10375298420362",
    "latitude": "29.993249417585318",
    "geocoded_column": {
      "latitude": "29.993249417585318",
      "longitude": "-90.10375298420362"
    }
  },
  {
    "service_request": "2023-993303",
    "request_type": "Trash/Recycling",
    "request_reason": "Order Trash Cart",
    "date_created": "2023-04-21T20:41:59.000",
    "date_modified": "2023-04-21T20:41:59.000",
    "request_status": "Pending",
    "responsible_agency": "Department of Sanitation",
    "status": "Assigned to Contractor",
    "rowid": "993303",
    "longitude": "0.0",
    "latitude": "0.0",
    "geocoded_column": {
      "latitude": "0.0",
      "longitude": "0.0"
    }
  },
  {
    "service_request": "2023-993302",
    "request_type": "Trash/Recycling",
    "request_reason": "Request a Large Item Pick Up",
    "date_created": "2023-04-21T20:27:50.000",
    "date_modified": "2023-04-21T20:27:50.000",
    "request_status": "Pending",
    "responsible_agency": "Department of Sanitation",
    "final_address": "3501 Annunciation Street new Orleans 70130",
    "address_councildis": "B",
    "status": "Assigned to Contractor",
    "contractor": "Richards Disposal",
    "rowid": "993302",
    "final_x": "3674775.35713",
    "final_y": "518399.114934",
    "longitude": "-90.0897540022201",
    "latitude": "29.91962000043516",
    "geocoded_column": {
      "latitude": "29.91962000043516",
      "longitude": "-90.0897540022201"
    }
  },
  {
    "service_request": "2023-993300",
    "request_type": "Trash/Recycling",
    "request_reason": "Replace Trash Cart",
    "date_created": "2023-04-21T20:22:26.000",
    "date_modified": "2023-04-21T20:22:26.000",
    "request_status": "Pending",
    "responsible_agency": "Department of Sanitation",
    "final_address": "7731 Shelly St",
    "address_councildis": "E",
    "status": "Assigned to Contractor",
    "contractor": "Waste Pro",
    "rowid": "993300",
    "final_x": "3695932.63082",
    "final_y": "559352.779357",
    "longitude": "-90.02149132910432",
    "latitude": "30.03157951942622",
    "geocoded_column": {
      "latitude": "30.03157951942622",
      "longitude": "-90.02149132910432"
    }
  },
  {
    "service_request": "2023-993299",
    "request_type": "Trash/Recycling",
    "request_reason": "Illegal Dumping",
    "date_created": "2023-04-21T20:20:30.000",
    "date_modified": "2023-04-21T20:20:30.000",
    "request_status": "Pending",
    "responsible_agency": "Department of Sanitation",
    "final_address": "6310 Douglass St",
    "address_councildis": "E",
    "status": "Pending",
    "rowid": "993299",
    "final_x": "3699405.49431",
    "final_y": "530908.467842",
    "longitude": "-90.01155384503977",
    "latitude": "29.953258385896852",
    "geocoded_column": {
      "latitude": "29.953258385896852",
      "longitude": "-90.01155384503977"
    }
  },
  {
    "service_request": "2023-993298",
    "request_type": "Trash/Recycling",
    "request_reason": "Order Trash Cart",
    "date_created": "2023-04-21T20:15:36.000",
    "date_modified": "2023-04-21T20:15:37.000",
    "request_status": "Pending",
    "responsible_agency": "Department of Sanitation",
    "final_address": "6734 Tara Ln",
    "address_councildis": "E",
    "status": "Assigned to Contractor",
    "contractor": "Waste Pro",
    "rowid": "993298",
    "final_x": "3707454.97489",
    "final_y": "558828.609244",
    "longitude": "-89.98509996754757",
    "latitude": "30.029770503521853",
    "geocoded_column": {
      "latitude": "30.029770503521853",
      "longitude": "-89.98509996754757"
    }
  },
  {
    "service_request": "2023-993297",
    "request_type": "Trash/Recycling",
    "request_reason": "Request a Large Item Pick Up",
    "date_created": "2023-04-21T20:15:12.000",
    "date_modified": "2023-04-21T20:15:13.000",
    "request_status": "Pending",
    "responsible_agency": "Department of Sanitation",
    "final_address": "870 Tchoupitoulas St",
    "address_councildis": "B",
    "status": "Assigned to Contractor",
    "contractor": "Empire Services",
    "rowid": "993297",
    "final_x": "3681747.17775",
    "final_y": "527140.758399",
    "longitude": "-90.06744259218543",
    "latitude": "29.943446736970266",
    "geocoded_column": {
      "latitude": "29.943446736970266",
      "longitude": "-90.06744259218543"
    }
  },
  {
    "service_request": "2023-993295",
    "request_type": "Trash/Recycling",
    "request_reason": "Missed Trash Pick-Up",
    "date_created": "2023-04-21T19:50:25.000",
    "date_modified": "2023-04-21T19:50:26.000",
    "request_status": "Pending",
    "responsible_agency": "Department of Sanitation",
    "final_address": "1234 Henry Clay Ave",
    "address_councildis": "A",
    "status": "Assigned to Contractor",
    "contractor": "Richards Disposal",
    "rowid": "993295",
    "final_x": "3664327.06445",
    "final_y": "521120.367609",
    "longitude": "-90.12264347982506",
    "latitude": "29.92741025864685",
    "geocoded_column": {
      "latitude": "29.92741025864685",
      "longitude": "-90.12264347982506"
    }
  },