[
  {
    "service_request": "2024-1133229",
    "request_type": "Abandoned Vehicles",
    "request_reason": "Abandoned/Junk Vehicles",
    "date_created": "2024-09-18T22:12:13.000",
    "date_modified": "2024-09-18T22:12:13.000",
    "request_status": "Pending",
    "responsible_agency": "Department of Public Works",
    "final_address": "4217 Baudin St",
    "address_councildis": "A",
    "status": "Pending",
    "rowid": "1133229",
    "final_x": "3669540.85742",
    "final_y": "537587.578056",
    "longitude": "-90.10562781550783",
    "latitude": "29.972537194164378",
    "geocoded_column": {
      "latitude": "29.972537194164378",
      "longitude": "-90.10562781550783"
    }
  },
  {
    "service_request": "2024-1133228",
    "request_type": "Mosquito, Termite & Rodent Control",
    "request_reason": "Mosquito Complaint",
    "date_created": "2024-09-18T22:10:43.000",
    "date_modified": "2024-09-18T22:10:43.000",
    "request_status": "Pending",
    "responsible_agency": "Mosquito, Termite & Rodent Control Board",
    "final_address": "4217 Baudin St",
    "address_councildis": "A",
    "status": "Pending",
    "rowid": "1133228",
    "final_x": "3669540.85742",
    "final_y": "537587.578056",
    "longitude": "-90.10562781550783",
    "latitude": "29.972537194164378",
    "geocoded_column": {
      "latitude": "29.972537194164378",
      "longitude": "-90.10562781550783"
    }
  },
  {
    "service_request": "2024-1133227",
    "request_type": "Streetlights",
    "request_reason": "Streetlight Outage/Malfunction",
    "date_created": "2024-09-18T21:55:49.000",
    "date_modified": "2024-09-18T21:55:50.000",
    "request_status": "Pending",
    "responsible_agency": "Department of Public Works",
    "final_address": "2728 Spain St",
    "address_councildis": "D",
    "status": "Pending",
    "contractor": "Legacy Professional Services",
    "rowid": "1133227",
    "final_x": "3685567.0079",
    "final_y": "542919.651981",
    "longitude": "-90.05482656437084",
    "latitude": "29.98671664111775",
    "geocoded_column": {
      "latitude": "29.98671664111775",
      "longitude": "-90.05482656437084"
    }
  },
  {
    "service_request": "2024-1133226",
    "request_type": "Trash/Recycling",
    "request_reason": "Return Trash Cart",
    "date_created": "2024-09-18T21:48:45.000",
    "date_modified": "2024-09-18T21:48:47.000",
    "request_status": "Pending",
    "responsible_agency": "Department of Sanitation",
    "final_address": "901 Opelousas Ave",
    "address_councildis": "C",
    "status": "Assigned to Contractor",
    "contractor": "Richards Disposal",
    "rowid": "1133226",
    "final_x": "3688205.40054",
    "final_y": "529025.677568",
    "longitude": "-90.0469855589487",
    "latitude": "29.94843185712772",
    "geocoded_column": {
      "latitude": "29.94843185712772",
      "longitude": "-90.0469855589487"
    }
  },
  {
    "service_request": "2024-1133225",
    "request_type": "Abandoned Vehicles",
    "request_reason": "Abandoned/Junk Vehicles",
    "date_created": "2024-09-18T21:46:20.000",
    "date_modified": "2024-09-18T21:46:20.000",
    "request_status": "Pending",
    "responsible_agency": "Department of Public Works",
    "final_address": "2127 Arts St",
    "address_councildis": "D",
    "status": "Pending",
    "rowid": "1133225",
    "final_x": "3686929.69186",
    "final_y": "540388.476363",
    "longitude": "-90.05061186383408",
    "latitude": "29.979714928132363",
    "geocoded_column": {
      "latitude": "29.979714928132363",
      "longitude": "-90.05061186383408"
    }
  },
  {
    "service_request": "2024-1133224",
    "request_type": "Roads and Streets",
    "request_reason": "Pothole",
    "date_created": "2024-09-18T21:27:13.000",
    "date_modified": "2024-09-18T21:27:13.000",
    "request_status": "Pending",
    "responsible_agency": "Department of Public Works",
    "final_address": "EARHART BLVD & PINE ST",
    "address_councildis": "B",
    "status": "Pending",
    "rowid": "1133224",
    "final_x": "3667904.6",
    "final_y": "532618.08",
    "longitude": "-90.1109628553282",
    "latitude": "29.958920828259348",
    "geocoded_column": {
      "latitude": "29.958920828259348",
      "longitude": "-90.1109628553282"
    }
  },
  {
    "service_request": "2024-1133223",
    "request_type": "Streetlights",
    "request_reason": "Streetlight Outage/Malfunction",
    "date_created": "2024-09-18T21:24:02.000",
    "date_modified": "2024-09-18T21:24:04.000",
    "request_status": "Pending",
    "responsible_agency": "Department of Public Works",
    "final_address": "13311 Chef Menteur Hwy",
    "address_councildis": "E",
    "status": "Pending",
    "contractor": "Legacy Professional Services",
    "rowid": "1133223",
    "final_x": "3725862.06982",
    "final_y": "559871.421725",
    "longitude": "-89.92689411964189",
    "latitude": "30.032029441065504",
    "geocoded_column": {
      "latitude": "30.032029441065504",
      "longitude": "-89.92689411964189"
    }
  },
  {
    "service_request": "2024-1133222",
    "request_type": "Abandoned Vehicles",
    "request_reason": "Abandoned/Junk Vehicles",
    "date_created": "2024-09-18T21:20:08.000",
    "date_modified": "2024-09-18T21:20:08.000",
    "request_status": "Pending",
    "responsible_agency": "Department of Public Works",
    "final_address": "2126 Arts St",
    "address_councildis": "D",
    "status": "Pending",
    "rowid": "1133222",
    "final_x": "3686856.9725",
    "final_y": "540396.139531",
    "longitude": "-90.0508412696914",
    "latitude": "29.97973823732841",
    "geocoded_column": {
      "latitude": "29.97973823732841",
      "longitude": "-90.0508412696914"
    }
  },
  {
    "service_request": "2024-1133221",
    "request_type": "Streetlights",
    "request_reason": "Streetlight Outage/Malfunction",
    "date_created": "2024-09-18T21:15:30.000",
    "date_modified": "2024-09-18T21:15:31.000",
    "request_status": "Pending",
    "responsible_agency": "Department of Public Works",
    "final_address": "13890 Chef Menteur Hwy",
    "address_councildis": "E",
    "status": "Pending",
    "contractor": "Legacy Professional Services",
    "rowid": "1133221",
    "final_x": "3727786.85395",
    "final_y": "560227.000861",
    "longitude": "-89.92079792303684",
    "latitude": "30.032942035932845",
    "geocoded_column": {
      "latitude": "30.032942035932845",
      "longitude": "-89.92079792303684"
    }
  },
  {
    "service_request": "2024-1133220",
    "request_type": "Trash/Recycling",
    "request_reason": "Replace Recycling Cart",
    "date_created": "2024-09-18T21:10:47.000",
    "date_modified": "2024-09-18T21:10:47.000",
    "request_status": "Pending",
    "responsible_agency": "Department of Sanitation",
    "final_address": "1033 Verret St",
    "address_councildis": "C",
    "status": "Pending",
    "rowid": "1133220",
    "final_x": "3687214.41846",
    "final_y": "527692.595199",
    "longitude": "-90.05016162999416",
    "latitude": "29.944796887370114",
    "geocoded_column": {
      "latitude": "29.944796887370114",
      "longitude": "-90.05016162999416"
    }
  },
  {
    "service_request": "2024-1133219",
    "request_type": "Street and Traffic Signs",
    "request_reason": "Additional Signage Request",
    "date_created": "2024-09-18T21:05:54.000",
    "date_modified": "2024-09-18T21:05:54.000",
    "request_status": "Pending",
    "responsible_agency": "Department of Public Works",
    "final_address": "8407 Palmetto St",
    "address_councildis": "A",
    "status": "Pending",
    "rowid": "1133219",
    "final_x": "3667347.59572",
    "final_y": "536075.303815",
    "longitude": "-90.11260543534051",
    "latitude": "29.96844337765468",
    "geocoded_column": {
      "latitude": "29.96844337765468",
      "longitude": "-90.11260543534051"
    }
  },
  {
    "service_request": "2024-1133218",
    "request_type": "Streetlights",
    "request_reason": "Streetlight Outage/Malfunction",
    "date_created": "2024-09-18T21:00:39.000",
    "date_modified": "2024-09-18T21:00:40.000",
    "request_status": "Pending",
    "responsible_agency": "Department of Public Works",
    "final_address": "13085 Chef Menteur Hwy",
    "address_councildis": "E",
    "status": "Pending",
    "contractor": "Legacy Professional Services",
    "rowid": "1133218",
    "final_x": "3724461.19334",
    "final_y": "559290.767132",
    "longitude": "-89.93134336479316",
    "latitude": "30.03048008278647",
    "geocoded_column": {
      "latitude": "30.03048008278647",
      "longitude": "-89.93134336479316"
    }
  },
  {
    "service_request": "2024-1133217",
    "request_type": "Streetlights",
    "request_reason": "Streetlight Outage/Malfunction",
    "date_created": "2024-09-18T20:58:21.000",
    "date_modified": "2024-09-18T20:58:22.000",
    "request_status": "Pending",
    "responsible_agency": "Department of Public Works",
    "final_address": "13080 Chef Menteur Hwy",
    "address_councildis": "E",
    "status": "Pending",
    "contractor": "Legacy Professional Services",
    "rowid": "1133217",
    "final_x": "3724769.59827",
    "final_y": "558900.296284",
    "longitude": "-89.93038392256081",
    "latitude": "30.029396068091877",
    "geocoded_column": {
      "latitude": "30.029396068091877",
      "longitude": "-89.93038392256081"
    }
  },
  {
    "service_request": "2024-1133216",
    "request_type": "Streetlights",
    "request_reason": "Streetlight Outage/Malfunction",
    "date_created": "2024-09-18T20:55:09.000",
    "date_modified": "2024-09-18T20:55:10.000",
    "request_status": "Pending",
    "responsible_agency": "Department of Public Works",
    "final_address": "7081 E Tamaron Blvd",
    "address_councildis": "E",
    "status": "Pending",
    "contractor": "Legacy Professional Services",
    "rowid": "1133216",
    "final_x": "3718816.00537",
    "final_y": "568783.233765",
    "longitude": "-89.94881957127647",
    "latitude": "30.056769196486677",
    "geocoded_column": {
      "latitude": "30.056769196486677",
      "longitude": "-89.94881957127647"
    }
  },
  {
    "service_request": "2024-1133215",
    "request_type": "Abandoned Vehicles",
    "request_reason": "Abandoned/Junk Vehicles",
    "date_created": "2024-09-18T20:21:53.000",
    "date_modified": "2024-09-18T20:21:53.000",
    "request_status": "Pending",
    "responsible_agency": "Department of Public Works",
    "final_address": "3400 BLK Almonaster Ave",
    "address_councildis": "D",
    "status": "Pending",
    "rowid": "1133215",
    "final_x": "3689527.66126",
    "final_y": "545885.604211",
    "longitude": "-90.04221081167968",
    "latitude": "29.994749834847937",
    "geocoded_column": {
      "latitude": "29.994749834847937",
      "longitude": "-90.04221081167968"
    }
  },
  {
    "service_request": "2024-1133214",
    "request_type": "Hurricane Francine Tree-Related Issues or Emergencies\t",
    "request_reason": "Hurricane Francine Tree-Related Issues or Emergencies",
    "date_created": "2024-09-18T20:21:27.000",
    "date_modified": "2024-09-18T20:21:27.000",
    "request_status": "Pending",
    "responsible_agency": "Department of Parks & Parkway",
    "final_address": "4925 Montegut Dr",
    "address_councildis": "D",
    "status": "Pending",
    "rowid": "1133214",
    "final_x": "3689854.4831",
    "final_y": "551558.861205",
    "longitude": "-90.04097629654368",
    "latitude": "30.010339090274122",
    "geocoded_column": {
      "latitude": "30.010339090274122",
      "longitude": "-90.04097629654368"
    }
  },
  {
    "service_request": "2024-1133213",
    "request_type": "Trash/Recycling",
    "request_reason": "Storm Debris Collection",
    "date_created": "2024-09-18T20:19:51.000",
    "date_modified": "2024-09-18T20:19:51.000",
    "request_status": "Pending",
    "responsible_agency": "Department of Sanitation",
    "final_address": "3720 DHemecourt St",
    "address_councildis": "B",
    "status": "Pending",
    "rowid": "1133213",
    "final_x": "3670942.45319",
    "final_y": "535858.024455",
    "longitude": "-90.10126004709367",
    "latitude": "29.967740136005556",
    "geocoded_column": {
      "latitude": "29.967740136005556",
      "longitude": "-90.10126004709367"
    }
  },
  {
    "service_request": "2024-1133212",
    "request_type": "Property Maintenance",
    "request_reason": "Property Maintenance",
    "date_created": "2024-09-18T20:19:01.000",
    "date_modified": "2024-09-18T20:19:01.000",
    "request_status": "Pending",
    "responsible_agency": "Department of Code Enforcement",
    "final_address": "3943 S Pin Oak Ave",
    "address_councildis": "C",
    "status": "Pending",
    "rowid": "1133212",
    "final_x": "3704908.03486",
    "final_y": "513422.793714",
    "longitude": "-89.99482428894986",
    "latitude": "29.905003212991986",
    "geocoded_column": {
      "latitude": "29.905003212991986",
      "longitude": "-89.99482428894986"
    }
  },
  {
    "service_request": "2024-1133211",
    "request_type": "Property Maintenance",
    "request_reason": "Property Maintenance",
    "date_created": "2024-09-18T20:16:28.000",
    "date_modified": "2024-09-18T20:16:28.000",
    "request_status": "Pending",
    "responsible_agency": "Department of Code Enforcement",
    "final_address": "3871 S Inwood Ave",
    "address_councildis": "C",
    "status": "Pending",
    "rowid": "1133211",
    "final_x": "3704985.22635",
    "final_y": "514059.708466",
    "longitude": "-89.99455718536169",
    "latitude": "29.906752031543167",
    "geocoded_column": {
      "latitude": "29.906752031543167",
      "longitude": "-89.99455718536169"
    }
  },
  {
    "service_request": "2024-1133210",
    "request_type": "Property Maintenance",
    "request_reason": "Property Maintenance",
    "date_created": "2024-09-18T20:14:13.000",
    "date_modified": "2024-09-18T20:14:13.000",
    "request_status": "Pending",
    "responsible_agency": "Department of Code Enforcement",
    "final_address": "3930 Mimosa Dr",
    "address_councildis": "C",
    "status": "Pending",
    "rowid": "1133210",
    "final_x": "3704587.09802",
    "final_y": "512879.362225",
    "longitude": "-89.99585719070468",
    "latitude": "29.903519266042185",
    "geocoded_column": {
      "latitude": "29.903519266042185",
      "longitude": "-89.99585719070468"
    }
  },
  {
    "service_request": "2024-1133209",
    "request_type": "Traffic Signals",
    "request_reason": "Traffic Signal Malfunctioning or Damaged",
    "date_created": "2024-09-18T20:11:06.000",
    "date_modified": "2024-09-18T20:11:06.000",
    "request_status": "Pending",
    "responsible_agency": "Department of Public Works",
    "final_address": "POYDRAS ST & S GALVEZ ST",
    "address_councildis": "B",
    "status": "Pending",
    "rowid": "1133209",
    "final_x": "3675223.8",
    "final_y": "531617.88",
    "longitude": "-90.08788496556225",
    "latitude": "29.955953888228134",
    "geocoded_column": {
      "latitude": "29.955953888228134",
      "longitude": "-90.08788496556225"
    }
  },
  {
    "service_request": "2024-1133208",
    "request_type": "Property Maintenance",
    "request_reason": "Property Maintenance",
    "date_created": "2024-09-18T20:10:30.000",
    "date_modified": "2024-09-18T20:10:30.000",
    "request_status": "Pending",
    "responsible_agency": "Department of Code Enforcement",
    "final_address": "3759 Pin Oak Ave",
    "address_councildis": "C",
    "status": "Pending",
    "rowid": "1133208",
    "final_x": "3704713.31217",
    "final_y": "514337.941427",
    "longitude": "-89.99540511305896",
    "latitude": "29.90752581004904",
    "geocoded_column": {
      "latitude": "29.90752581004904",
      "longitude": "-89.99540511305896"
    }
  },
  {
    "service_request": "2024-1133207",
    "request_type": "Trash/Recycling",
    "request_reason": "Request a Large Item Pick Up",
    "date_created": "2024-09-18T20:10:22.000",
    "date_modified": "2024-09-18T20:10:23.000",
    "request_status": "Pending",
    "responsible_agency": "Department of Sanitation",
    "final_address": "432 S Hennessey St",
    "address_councildis": "A",
    "status": "Assigned to Contractor",
    "contractor": "IV Waste",
    "rowid": "1133207",
    "final_x": "3669391.53882",
    "final_y": "537711.17492",
    "longitude": "-90.10609521108564",
    "latitude": "29.97288144227833",
    "geocoded_column": {
      "latitude": "29.97288144227833",
      "longitude": "-90.10609521108564"
    }
  },
  {
    "service_request": "2024-1133206",
    "request_type": "Trash/Recycling",
    "request_reason": "Storm Debris Collection",
    "date_created": "2024-09-18T20:09:05.000",
    "date_modified": "2024-09-18T20:09:05.000",
    "request_status": "Pending",
    "responsible_agency": "Department of Sanitation",
    "final_address": "3319 Short St",
    "address_councildis": "B",
    "status": "Pending",
    "rowid": "1133206",
    "final_x": "3667485.92346",
    "final_y": "533702.862661",
    "longitude": "-90.1122484308995",
    "latitude": "29.961915897639205",
    "geocoded_column": {
      "latitude": "29.961915897639205",
      "longitude": "-90.1122484308995"
    }
  },
  {
    "service_request": "2024-1133205",
    "request_type": "Trash/Recycling",
    "request_reason": "Storm Debris Collection",
    "date_created": "2024-09-18T19:59:16.000",
    "date_modified": "2024-09-18T19:59:16.000",
    "request_status": "Pending",
    "responsible_agency": "Department of Sanitation",
    "final_address": "1735 Mendez Dr",
    "address_councildis": "D",
    "status": "Pending",
    "rowid": "1133205",
    "final_x": "3680000.85167",
    "final_y": "553415.949079",
    "longitude": "-90.07204303356612",
    "latitude": "30.01574731412875",
    "geocoded_column": {
      "latitude": "30.01574731412875",
      "longitude": "-90.07204303356612"
    }
  },
  {
    "service_request": "2024-1133204",
    "request_type": "Streetlights",
    "request_reason": "Streetlight Outage/Malfunction",
    "date_created": "2024-09-18T19:38:08.000",
    "date_modified": "2024-09-18T19:38:09.000",
    "request_status": "Pending",
    "responsible_agency": "Department of Public Works",
    "final_address": "4821 Perrier St",
    "address_councildis": "B",
    "status": "Pending",
    "contractor": "Legacy Professional Services",
    "rowid": "1133204",
    "final_x": "3669290.90919",
    "final_y": "519968.116088",
    "longitude": "-90.10701273752578",
    "latitude": "29.924096785708983",
    "geocoded_column": {
      "latitude": "29.924096785708983",
      "longitude": "-90.10701273752578"
    }
  },
  {
    "service_request": "2024-1133203",
    "request_type": "Trash/Recycling",
    "request_reason": "Request a Large Item Pick Up",
    "date_created": "2024-09-18T19:34:44.000",
    "date_modified": "2024-09-18T19:34:45.000",
    "request_status": "Pending",
    "responsible_agency": "Department of Sanitation",
    "final_address": "7015 Lake Willow Dr",
    "address_councildis": "E",
    "status": "Assigned to Contractor",
    "contractor": "Waste Pro",
    "rowid": "1133203",
    "final_x": "3702522.84855",
    "final_y": "558959.186396",
    "longitude": "-90.00068053410376",
    "latitude": "30.030288186723276",
    "geocoded_column": {
      "latitude": "30.030288186723276",
      "longitude": "-90.00068053410376"
    }
  },
  {
    "service_request": "2024-1133202",
    "request_type": "Healthy Homes",
    "request_reason": "Healthy Homes",
    "date_created": "2024-09-18T19:15:47.000",
    "date_modified": "2024-09-18T19:15:47.000",
    "request_status": "Pending",
    "responsible_agency": "Department of Code Enforcement",
    "final_address": "3101 Rue Parc Fontaine Apt 1410",
    "address_councildis": "C",
    "status": "Pending",
    "rowid": "1133202",
    "final_x": "3699838.40714",
    "final_y": "519727.737336",
    "longitude": "-90.01059444329093",
    "latitude": "29.922501531464185",
    "geocoded_column": {
      "latitude": "29.922501531464185",
      "longitude": "-90.01059444329093"
    }
  },
  {
    "service_request": "2024-1133201",
    "request_type": "Drainage",
    "request_reason": "Catch Basin Clogged",
    "date_created": "2024-09-18T19:09:18.000",
    "date_modified": "2024-09-18T19:09:18.000",
    "request_status": "Pending",
    "responsible_agency": "Department of Public Works",
    "final_address": "7142 Bundy Rd",
    "address_councildis": "E",
    "status": "Pending",
    "rowid": "1133201",
    "final_x": "3706593.60862",
    "final_y": "561435.217758",
    "longitude": "-89.98772512588032",
    "latitude": "30.036965491716817",
    "geocoded_column": {
      "latitude": "30.036965491716817",
      "longitude": "-89.98772512588032"
    }
  },
  {
    "service_request": "2024-1133200",
    "request_type": "Trash/Recycling",
    "request_reason": "Illegal Dumping",
    "date_created": "2024-09-18T18:57:44.000",
    "date_modified": "2024-09-18T18:57:44.000",
    "request_status": "Pending",
    "responsible_agency": "Department of Sanitation",
    "final_address": "12550 Old Gentilly Rd",
    "address_councildis": "E",
    "status": "Pending",
    "rowid": "1133200",
    "final_x": "3722969.17113",
    "final_y": "552510.379798",
    "longitude": "-89.93631933752076",
    "latitude": "30.011886859196725",
    "geocoded_column": {
      "latitude": "30.011886859196725",
      "longitude": "-89.93631933752076"
    }
  },
  {
    "service_request": "2024-1133199",
    "request_type": "Roads and Streets",
    "request_reason": "Catch Basin Clogged",
    "date_created": "2024-09-18T18:45:29.000",
    "date_modified": "2024-09-18T18:45:29.000",
    "request_status": "Pending",
    "responsible_agency": "Department of Public Works",
    "final_address": "441 Audubon St, New Orleans, Louisiana, 70118",
    "address_councildis": "A",
    "status": "Pending",
    "rowid": "1133199",
    "final_x": "3662365.72871",
    "final_y": "523172.159099",
    "longitude": "-90.1287668705638",
    "latitude": "29.93310887776141",
    "geocoded_column": {
      "latitude": "29.93310887776141",
      "longitude": "-90.1287668705638"
    }
  },
  {
    "service_request": "2024-1133198",
    "request_type": "Trash/Recycling",
    "request_reason": "Missed Trash Pick-Up",
    "date_created": "2024-09-18T18:43:14.000",
    "date_modified": "2024-09-18T18:43:15.000",
    "request_status": "Pending",
    "responsible_agency": "Department of Sanitation",
    "final_address": "7601 Jeannette St",
    "address_councildis": "A",
    "status": "Assigned to Contractor",
    "contractor": "IV Waste",
    "rowid": "1133198",
    "final_x": "3664025.58221",
    "final_y": "528040.798463",
    "longitude": "-90.12336450103342",
    "latitude": "29.946447999504848",
    "geocoded_column": {
      "latitude": "29.946447999504848",
      "longitude": "-90.12336450103342"
    }
  },
  {
    "service_request": "2024-1133197",
    "request_type": "Abandoned Vehicles",
    "request_reason": "Abandoned/Junk Vehicles",
    "date_created": "2024-09-18T18:39:49.000",
    "date_modified": "2024-09-18T18:39:49.000",
    "request_status": "Pending",
    "responsible_agency": "Department of Public Works",
    "final_address": "2609 Cleveland Ave",
    "address_councildis": "B",
    "status": "Pending",
    "rowid": "1133197",
    "final_x": "3675499.19029",
    "final_y": "534521.656133",
    "longitude": "-90.08691563770483",
    "latitude": "29.963930064035747",
    "geocoded_column": {
      "latitude": "29.963930064035747",
      "longitude": "-90.08691563770483"
    }
  },
  {
    "service_request": "2024-1133196",
    "request_type": "Parks & Parkways",
    "request_reason": "Request Tree Service (Right of Way/Public Property)",
    "date_created": "2024-09-18T18:36:57.000",
    "date_modified": "2024-09-18T18:36:57.000",
    "request_status": "Pending",
    "responsible_agency": "Department of Parks & Parkway",
    "final_address": "3400 BLK Saint Anthony Ave",
    "address_councildis": "D",
    "status": "Pending",
    "rowid": "1133196",
    "final_x": "3682753.02849",
    "final_y": "545206.127551",
    "longitude": "-90.06363484120855",
    "latitude": "29.993089672847276",
    "geocoded_column": {
      "latitude": "29.993089672847276",
      "longitude": "-90.06363484120855"
    }
  },
  {
    "service_request": "2024-1133195",
    "request_type": "Roads and Streets",
    "request_reason": "Street Subsidence (Sinking)",
    "date_created": "2024-09-18T18:33:49.000",
    "date_modified": "2024-09-18T18:33:49.000",
    "request_status": "Pending",
    "responsible_agency": "Department of Public Works",
    "final_address": "7914 Belfast St",
    "address_councildis": "A",
    "status": "Pending",
    "rowid": "1133195",
    "final_x": "3666047.2432",
    "final_y": "531898.558275",
    "longitude": "-90.1168520649928",
    "latitude": "29.95699673044466",
    "geocoded_column": {
      "latitude": "29.95699673044466",
      "longitude": "-90.1168520649928"
    }
  },
  {
    "service_request": "2024-1133194",
    "request_type": "Trash/Recycling",
    "request_reason": "Replace Trash Cart",
    "date_created": "2024-09-18T18:29:43.000",
    "date_modified": "2024-09-18T18:29:44.000",
    "request_status": "Pending",
    "responsible_agency": "Department of Sanitation",
    "final_address": "4600 S Prieur St",
    "address_councildis": "B",
    "status": "Assigned to Contractor",
    "contractor": "IV Waste",
    "rowid": "1133194",
    "final_x": "3669465.75258",
    "final_y": "526785.365758",
    "longitude": "-90.10623035877396",
    "latitude": "29.94283688791381",
    "geocoded_column": {
      "latitude": "29.94283688791381",
      "longitude": "-90.10623035877396"
    }
  },
  {
    "service_request": "2024-1133193",
    "request_type": "Trash/Recycling",
    "request_reason": "Missed Trash Pick-Up",
    "date_created": "2024-09-18T18:11:00.000",
    "date_modified": "2024-09-18T18:11:02.000",
    "request_status": "Pending",
    "responsible_agency": "Department of Sanitation",
    "final_address": "7701 Jeannette St Apt C",
    "address_councildis": "A",
    "status": "Assigned to Contractor",
    "contractor": "IV Waste",
    "rowid": "1133193",
    "final_x": "3663788.4217",
    "final_y": "528237.442944",
    "longitude": "-90.12410675182863",
    "latitude": "29.946995592617913",
    "geocoded_column": {
      "latitude": "29.946995592617913",
      "longitude": "-90.12410675182863"
    }
  },
  {
    "service_request": "2024-1133192",
    "request_type": "Trash/Recycling",
    "request_reason": "Illegal Dumping",
    "date_created": "2024-09-18T18:07:36.000",
    "date_modified": "2024-09-18T18:07:37.000",
    "request_status": "Pending",
    "responsible_agency": "Department of Sanitation",
    "final_address": "REVEL ST & N LEMANS ST",
    "address_councildis": "E",
    "status": "Pending",
    "rowid": "1133192",
    "final_x": "3725060.6",
    "final_y": "562923.78",
    "longitude": "-89.92930858807601",
    "latitude": "30.04044919593313",
    "geocoded_column": {
      "latitude": "30.04044919593313",
      "longitude": "-89.92930858807601"
    }
  },
  {
    "service_request": "2024-1133191",
    "request_type": "Trash/Recycling",
    "request_reason": "MIssed Recycling Pick-Up",
    "date_created": "2024-09-18T18:03:32.000",
    "date_modified": "2024-09-18T18:03:33.000",
    "request_status": "Pending",
    "responsible_agency": "Department of Sanitation",
    "final_address": "4500 Arthur Dr",
    "address_councildis": "E",
    "status": "Assigned to Contractor",
    "contractor": "Waste Pro",
    "rowid": "1133191",
    "final_x": "3707769.40913",
    "final_y": "553962.837336",
    "longitude": "-89.98428739200858",
    "latitude": "30.016381350041613",
    "geocoded_column": {
      "latitude": "30.016381350041613",
      "longitude": "-89.98428739200858"
    }
  },
  {
    "service_request": "2024-1133190",
    "request_type": "Trash/Recycling",
    "request_reason": "Illegal Dumping",
    "date_created": "2024-09-18T18:01:13.000",
    "date_modified": "2024-09-18T18:01:14.000",
    "request_status": "Pending",
    "responsible_agency": "Department of Sanitation",
    "final_address": "5200 Revel St",
    "address_councildis": "E",
    "status": "Pending",
    "rowid": "1133190",
    "final_x": "3725050.2871",
    "final_y": "562421.227551",
    "longitude": "-89.92936063992049",
    "latitude": "30.039067731631736",
    "geocoded_column": {
      "latitude": "30.039067731631736",
      "longitude": "-89.92936063992049"
    }
  },
  {
    "service_request": "2024-1133189",
    "request_type": "Hurricane Francine Tree-Related Issues or Emergencies\t",
    "request_reason": "Hurricane Francine Tree-Related Issues or Emergencies",
    "date_created": "2024-09-18T17:55:56.000",
    "date_modified": "2024-09-18T17:55:56.000",
    "request_status": "Pending",
    "responsible_agency": "Department of Parks & Parkway",
    "final_address": "2415 Palmer Ave",
    "address_councildis": "A",
    "status": "Pending",
    "rowid": "1133189",
    "final_x": "3666423.63194",
    "final_y": "525659.551037",
    "longitude": "-90.11587286495433",
    "latitude": "29.93983048926382",
    "geocoded_column": {
      "latitude": "29.93983048926382",
      "longitude": "-90.11587286495433"
    }
  },
  {
    "service_request": "2024-1133188",
    "request_type": "Trash/Recycling",
    "request_reason": "Replace Trash Cart",
    "date_created": "2024-09-18T17:54:22.000",
    "date_modified": "2024-09-18T17:54:23.000",
    "request_status": "Pending",
    "responsible_agency": "Department of Sanitation",
    "final_address": "6220 Annunciation St",
    "address_councildis": "A",
    "status": "Assigned to Contractor",
    "contractor": "IV Waste",
    "rowid": "1133188",
    "final_x": "3663062.50125",
    "final_y": "518289.840374",
    "longitude": "-90.12672950191919",
    "latitude": "29.91966387120871",
    "geocoded_column": {
      "latitude": "29.91966387120871",
      "longitude": "-90.12672950191919"
    }
  },
  {
    "service_request": "2024-1133187",
    "request_type": "Safety & Permits",
    "request_reason": "Construction permit",
    "date_created": "2024-09-18T17:51:04.000",
    "date_modified": "2024-09-18T17:51:04.000",
    "request_status": "Pending",
    "responsible_agency": "Safety and Permits",
    "final_address": "2022 S Salcedo St",
    "address_councildis": "B",
    "status": "Pending",
    "rowid": "1133187",
    "final_x": "3669583.46209",
    "final_y": "529454.456385",
    "longitude": "-90.10576844060445",
    "latitude": "29.950172550728233",
    "geocoded_column": {
      "latitude": "29.950172550728233",
      "longitude": "-90.10576844060445"
    }
  },
  {
    "service_request": "2024-1133186",
    "request_type": "Trash/Recycling",
    "request_reason": "Storm Debris Collection",
    "date_created": "2024-09-18T17:50:50.000",
    "date_modified": "2024-09-18T17:50:50.000",
    "request_status": "Pending",
    "responsible_agency": "Department of Sanitation",
    "final_address": "4039 Athis Ct",
    "address_councildis": "D",
    "status": "Pending",
    "rowid": "1133186",
    "final_x": "3688443.16707",
    "final_y": "554683.386264",
    "longitude": "-90.04532419870914",
    "latitude": "30.018974073544225",
    "geocoded_column": {
      "latitude": "30.018974073544225",
      "longitude": "-90.04532419870914"
    }
  },
  {
    "service_request": "2024-1133185",
    "request_type": "Trash/Recycling",
    "request_reason": "Request a Large Item Pick Up",
    "date_created": "2024-09-18T17:47:52.000",
    "date_modified": "2024-09-18T17:47:53.000",
    "request_status": "Pending",
    "responsible_agency": "Department of Sanitation",
    "final_address": "2900 BLK Saint Ann St",
    "address_councildis": "A",
    "status": "Assigned to Contractor",
    "contractor": "IV Waste",
    "rowid": "1133185",
    "final_x": "3676072.74198",
    "final_y": "537863.939808",
    "longitude": "-90.08498942514848",
    "latitude": "29.973103041521313",
    "geocoded_column": {
      "latitude": "29.973103041521313",
      "longitude": "-90.08498942514848"
    }
  },
  {
    "service_request": "2024-1133184",
    "request_type": "Trash/Recycling",
    "request_reason": "Replace Recycling Cart",
    "date_created": "2024-09-18T17:45:27.000",
    "date_modified": "2024-09-18T17:45:27.000",
    "request_status": "Pending",
    "responsible_agency": "Department of Sanitation",
    "final_address": "DUFOSSAT ST & PRYTANIA ST",
    "address_councildis": "B",
    "status": "Pending",
    "rowid": "1133184",
    "final_x": "3668093.7",
    "final_y": "520164.38",
    "longitude": "-90.11078530639742",
    "latitude": "29.92467162659313",
    "geocoded_column": {
      "latitude": "29.92467162659313",
      "longitude": "-90.11078530639742"
    }
  },
  {
    "service_request": "2024-1133183",
    "request_type": "Parks & Parkways",
    "request_reason": "Request Tree Service (Right of Way/Public Property)",
    "date_created": "2024-09-18T17:44:19.000",
    "date_modified": "2024-09-18T17:44:19.000",
    "request_status": "Pending",
    "responsible_agency": "Department of Parks & Parkway",
    "final_address": "4721 Tchoupitoulas St",
    "address_councildis": "B",
    "status": "Pending",
    "rowid": "1133183",
    "final_x": "3669888.11668",
    "final_y": "517364.022197",
    "longitude": "-90.10521566384757",
    "latitude": "29.916918763846642",
    "geocoded_column": {
      "latitude": "29.916918763846642",
      "longitude": "-90.10521566384757"
    }
  },
  {
    "service_request": "2024-1133182",
    "request_type": "Abandoned Vehicles",
    "request_reason": "Abandoned/Junk Vehicles",
    "date_created": "2024-09-18T17:41:28.000",
    "date_modified": "2024-09-18T17:41:28.000",
    "request_status": "Pending",
    "responsible_agency": "Department of Public Works",
    "final_address": "1024 Harding Dr",
    "address_councildis": "A",
    "status": "Pending",
    "rowid": "1133182",
    "final_x": "3674710.29672",
    "final_y": "540405.973003",
    "longitude": "-90.08920513271426",
    "latitude": "29.980133507618355",
    "geocoded_column": {
      "latitude": "29.980133507618355",
      "longitude": "-90.08920513271426"
    }
  },
  {
    "service_request": "2024-1133181",
    "request_type": "Trash/Recycling",
    "request_reason": "Missed Trash Pick-Up",
    "date_created": "2024-09-18T17:36:22.000",
    "date_modified": "2024-09-18T17:36:23.000",
    "request_status": "Pending",
    "responsible_agency": "Department of Sanitation",
    "final_address": "6063 Laurel St",
    "address_councildis": "A",
    "status": "Assigned to Contractor",
    "contractor": "IV Waste",
    "rowid": "1133181",
    "final_x": "3663895.60659",
    "final_y": "518424.095798",
    "longitude": "-90.12409531525878",
    "latitude": "29.92000888299222",
    "geocoded_column": {
      "latitude": "29.92000888299222",
      "longitude": "-90.12409531525878"
    }
  },
  {
    "service_request": "2024-1133180",
    "request_type": "Trash/Recycling",
    "request_reason": "Request a Large Item Pick Up",
    "date_created": "2024-09-18T17:29:52.000",
    "date_modified": "2024-09-18T17:29:53.000",
    "request_status": "Pending",
    "responsible_agency": "Department of Sanitation",
    "final_address": "7000 BLK W Tamaron Blvd",
    "address_councildis": "E",
    "status": "Assigned to Contractor",
    "contractor": "Waste Pro",
    "rowid": "1133180",
    "final_x": "3718510.73125",
    "final_y": "568504.849654",
    "longitude": "-89.94979510879249",
    "latitude": "30.05601389427951",
    "geocoded_column": {
      "latitude": "30.05601389427951",
      "longitude": "-89.94979510879249"
    }
  },
  {
    "service_request": "2024-1133179",
    "request_type": "Trash/Recycling",
    "request_reason": "Missed Trash Pick-Up",
    "date_created": "2024-09-18T17:26:24.000",
    "date_modified": "2024-09-18T17:26:25.000",
    "request_status": "Pending",
    "responsible_agency": "Department of Sanitation",
    "final_address": "2230 Broadway St",
    "address_councildis": "A",
    "status": "Assigned to Contractor",
    "contractor": "IV Waste",
    "rowid": "1133179",
    "final_x": "3666236.18849",
    "final_y": "529694.845761",
    "longitude": "-90.11632934069942",
    "latitude": "29.950931722358888",
    "geocoded_column": {
      "latitude": "29.950931722358888",
      "longitude": "-90.11632934069942"
    }
  },
  {
    "service_request": "2024-1133178",
    "request_type": "Property Maintenance",
    "request_reason": "Property Maintenance",
    "date_created": "2024-09-18T17:13:05.000",
    "date_modified": "2024-09-18T17:13:05.000",
    "request_status": "Pending",
    "responsible_agency": "Department of Code Enforcement",
    "final_address": "918 Nunez St",
    "address_councildis": "C",
    "status": "Pending",
    "rowid": "1133178",
    "final_x": "3686977.82178",
    "final_y": "528147.627455",
    "longitude": "-90.05089255580766",
    "latitude": "29.94605535462301",
    "geocoded_column": {
      "latitude": "29.94605535462301",
      "longitude": "-90.05089255580766"
    }
  },
  {
    "service_request": "2024-1133177",
    "request_type": "Trash/Recycling",
    "request_reason": "Missed Trash Pick-Up",
    "date_created": "2024-09-18T17:12:20.000",
    "date_modified": "2024-09-18T17:12:21.000",
    "request_status": "Pending",
    "responsible_agency": "Department of Sanitation",
    "final_address": "6009 Wickfield Dr",
    "address_councildis": "D",
    "status": "Assigned to Contractor",
    "contractor": "IV Waste",
    "rowid": "1133177",
    "final_x": "3681025.90575",
    "final_y": "554714.318616",
    "longitude": "-90.06875905490138",
    "latitude": "30.01928629273023",
    "geocoded_column": {
      "latitude": "30.01928629273023",
      "longitude": "-90.06875905490138"
    }
  },
  {
    "service_request": "2024-1133176",
    "request_type": "Trash/Recycling",
    "request_reason": "Replace Trash Cart",
    "date_created": "2024-09-18T17:00:52.000",
    "date_modified": "2024-09-18T17:00:53.000",
    "request_status": "Pending",
    "responsible_agency": "Department of Sanitation",
    "final_address": "820 Olga St",
    "address_councildis": "A",
    "status": "Assigned to Contractor",
    "contractor": "IV Waste",
    "rowid": "1133176",
    "final_x": "3673344.53166",
    "final_y": "539921.667466",
    "longitude": "-90.09353535023737",
    "latitude": "29.978842537331847",
    "geocoded_column": {
      "latitude": "29.978842537331847",
      "longitude": "-90.09353535023737"
    }
  },
  {
    "service_request": "2024-1133174",
    "request_type": "Trash/Recycling",
    "request_reason": "Repair Trash Cart",
    "date_created": "2024-09-18T16:55:49.000",
    "date_modified": "2024-09-18T16:55:51.000",
    "request_status": "Pending",
    "responsible_agency": "Department of Sanitation",
    "final_address": "4901 St Roch Ave",
    "address_councildis": "D",
    "status": "Assigned to Contractor",
    "contractor": "IV Waste",
    "rowid": "1133174",
    "final_x": "3685345.67413",
    "final_y": "550886.449237",
    "longitude": "-90.05524498942253",
    "latitude": "30.008629260187913",
    "geocoded_column": {
      "latitude": "30.008629260187913",
      "longitude": "-90.05524498942253"
    }
  },
  {
    "service_request": "2024-1133173",
    "request_type": "Drainage",
    "request_reason": "Catch Basin Clogged",
    "date_created": "2024-09-18T16:50:31.000",
    "date_modified": "2024-09-18T16:50:32.000",
    "request_status": "Pending",
    "responsible_agency": "Department of Public Works",
    "final_address": "861 Taft Pl",
    "address_councildis": "A",
    "status": "Pending",
    "rowid": "1133173",
    "final_x": "3673776.51713",
    "final_y": "539891.85793",
    "longitude": "-90.09217199408226",
    "latitude": "29.978747712124207",
    "geocoded_column": {
      "latitude": "29.978747712124207",
      "longitude": "-90.09217199408226"
    }
  },
  {
    "service_request": "2024-1133172",
    "request_type": "Trash/Recycling",
    "request_reason": "Missed Trash Pick-Up",
    "date_created": "2024-09-18T16:50:08.000",
    "date_modified": "2024-09-18T16:50:09.000",
    "request_status": "Pending",
    "responsible_agency": "Department of Sanitation",
    "final_address": "13907 Dwyer Blvd",
    "address_councildis": "E",
    "status": "Assigned to Contractor",
    "contractor": "Waste Pro",
    "rowid": "1133172",
    "final_x": "3727688.59667",
    "final_y": "562730.248864",
    "longitude": "-89.92101091881032",
    "latitude": "30.03982826229823",
    "geocoded_column": {
      "latitude": "30.03982826229823",
      "longitude": "-89.92101091881032"
    }
  },
  {
    "service_request": "2024-1133171",
    "request_type": "Trash/Recycling",
    "request_reason": "Storm Debris Collection",
    "date_created": "2024-09-18T16:49:25.000",
    "date_modified": "2024-09-18T16:49:26.000",
    "request_status": "Pending",
    "responsible_agency": "Department of Sanitation",
    "final_address": "6417 Fleur-De-Lis Dr",
    "address_councildis": "A",
    "status": "Pending",
    "rowid": "1133171",
    "final_x": "3665412.24525",
    "final_y": "550763.594197",
    "longitude": "-90.11822548772766",
    "latitude": "30.00888774664803",
    "geocoded_column": {
      "latitude": "30.00888774664803",
      "longitude": "-90.11822548772766"
    }
  },
  {
    "service_request": "2024-1133170",
    "request_type": "Trash/Recycling",
    "request_reason": "MIssed Recycling Pick-Up",
    "date_created": "2024-09-18T16:46:58.000",
    "date_modified": "2024-09-18T16:46:59.000",
    "request_status": "Pending",
    "responsible_agency": "Department of Sanitation",
    "final_address": "7911 Jeannette St",
    "address_councildis": "A",
    "status": "Assigned to Contractor",
    "contractor": "IV Waste",
    "rowid": "1133170",
    "final_x": "3663202.66061",
    "final_y": "528727.407936",
    "longitude": "-90.12593992459634",
    "latitude": "29.9483598234777",
    "geocoded_column": {
      "latitude": "29.9483598234777",
      "longitude": "-90.12593992459634"
    }
  },
  {
    "service_request": "2024-1133169",
    "request_type": "Traffic Signals",
    "request_reason": "Traffic Signal Malfunctioning or Damaged",
    "date_created": "2024-09-18T16:46:39.000",
    "date_modified": "2024-09-18T16:46:40.000",
    "request_status": "Pending",
    "responsible_agency": "Department of Public Works",
    "final_address": "S RAMPART ST & JULIA ST",
    "address_councildis": "B",
    "status": "Pending",
    "rowid": "1133169",
    "final_x": "3679015.5",
    "final_y": "528373.38",
    "longitude": "-90.07602450307112",
    "latitude": "29.946918734653103",
    "geocoded_column": {
      "latitude": "29.946918734653103",
      "longitude": "-90.07602450307112"
    }
  },
  {
    "service_request": "2024-1133168",
    "request_type": "Trash/Recycling",
    "request_reason": "Request a Large Item Pick Up",
    "date_created": "2024-09-18T16:44:45.000",
    "date_modified": "2024-09-18T16:44:46.000",
    "request_status": "Pending",
    "responsible_agency": "Department of Sanitation",
    "final_address": "4835 Brittany Ct",
    "address_councildis": "E",
    "status": "Assigned to Contractor",
    "contractor": "Waste Pro",
    "rowid": "1133168",
    "final_x": "3726901.62317",
    "final_y": "561607.899103",
    "longitude": "-89.92354160155747",
    "latitude": "30.036768912664257",
    "geocoded_column": {
      "latitude": "30.036768912664257",
      "longitude": "-89.92354160155747"
    }
  },
  {
    "service_request": "2024-1133167",
    "request_type": "Trash/Recycling",
    "request_reason": "Storm Debris Collection",
    "date_created": "2024-09-18T16:42:27.000",
    "date_modified": "2024-09-18T16:42:28.000",
    "request_status": "Pending",
    "responsible_agency": "Department of Sanitation",
    "final_address": "5401 N Rampart St",
    "address_councildis": "E",
    "status": "Pending",
    "rowid": "1133167",
    "final_x": "3697085.67767",
    "final_y": "533571.537477",
    "longitude": "-90.01878231680313",
    "latitude": "29.960654264830893",
    "geocoded_column": {
      "latitude": "29.960654264830893",
      "longitude": "-90.01878231680313"
    }
  },
  {
    "service_request": "2024-1133166",
    "request_type": "Street and Traffic Signs",
    "request_reason": "Traffic or Parking Sign Damaged or Missing",
    "date_created": "2024-09-18T16:38:43.000",
    "date_modified": "2024-09-18T16:38:43.000",
    "request_status": "Pending",
    "responsible_agency": "Department of Public Works",
    "final_address": "1031 Orleans Ave",
    "address_councildis": "C",
    "status": "Pending",
    "rowid": "1133166",
    "final_x": "3681606.3734",
    "final_y": "533422.004932",
    "longitude": "-90.06766809391289",
    "latitude": "29.960722319167377",
    "geocoded_column": {
      "latitude": "29.960722319167377",
      "longitude": "-90.06766809391289"
    }
  },
  {
    "service_request": "2024-1133165",
    "request_type": "Streetlights",
    "request_reason": "Streetlight Outage/Malfunction",
    "date_created": "2024-09-18T16:37:19.000",
    "date_modified": "2024-09-18T16:37:20.000",
    "request_status": "Pending",
    "responsible_agency": "Department of Public Works",
    "final_address": "2470 Wisteria St",
    "address_councildis": "D",
    "status": "Pending",
    "contractor": "Legacy Professional Services",
    "rowid": "1133165",
    "final_x": "3686121.6479",
    "final_y": "548269.338578",
    "longitude": "-90.05288583960059",
    "latitude": "30.0014093339728",
    "geocoded_column": {
      "latitude": "30.0014093339728",
      "longitude": "-90.05288583960059"
    }
  },
  {
    "service_request": "2024-1133164",
    "request_type": "Trash/Recycling",
    "request_reason": "Request a Large Item Pick Up",
    "date_created": "2024-09-18T16:37:10.000",
    "date_modified": "2024-09-18T16:37:11.000",
    "request_status": "Pending",
    "responsible_agency": "Department of Sanitation",
    "final_address": "7032 E Tamaron Blvd",
    "address_councildis": "E",
    "status": "Assigned to Contractor",
    "contractor": "Waste Pro",
    "rowid": "1133164",
    "final_x": "3718914.33522",
    "final_y": "568354.888613",
    "longitude": "-89.94852513246578",
    "latitude": "30.0555881577649",
    "geocoded_column": {
      "latitude": "30.0555881577649",
      "longitude": "-89.94852513246578"
    }
  },
  {
    "service_request": "2024-1133163",
    "request_type": "Trash/Recycling",
    "request_reason": "Order Trash Cart",
    "date_created": "2024-09-18T16:36:41.000",
    "date_modified": "2024-09-18T16:36:42.000",
    "request_status": "Pending",
    "responsible_agency": "Department of Sanitation",
    "final_address": "6575 Elysian Fields Ave",
    "address_councildis": "D",
    "status": "Assigned to Contractor",
    "contractor": "IV Waste",
    "rowid": "1133163",
    "final_x": "3683458.35337",
    "final_y": "557510.886747",
    "longitude": "-90.06097523996857",
    "latitude": "30.026901786104368",
    "geocoded_column": {
      "latitude": "30.026901786104368",
      "longitude": "-90.06097523996857"
    }
  },
  {
    "service_request": "2024-1133162",
    "request_type": "Streetlights",
    "request_reason": "Streetlight Outage/Malfunction",
    "date_created": "2024-09-18T16:36:18.000",
    "date_modified": "2024-09-18T16:36:20.000",
    "request_status": "Pending",
    "responsible_agency": "Department of Public Works",
    "final_address": "1200 Barracks St",
    "address_councildis": "C",
    "status": "Pending",
    "contractor": "Legacy Professional Services",
    "rowid": "1133162",
    "final_x": "3682335.65007",
    "final_y": "535338.643206",
    "longitude": "-90.0652982043444",
    "latitude": "29.965970247615253",
    "geocoded_column": {
      "latitude": "29.965970247615253",
      "longitude": "-90.0652982043444"
    }
  },
  {
    "service_request": "2024-1133161",
    "request_type": "Trash/Recycling",
    "request_reason": "Request a Large Item Pick Up",
    "date_created": "2024-09-18T16:35:31.000",
    "date_modified": "2024-09-18T16:35:32.000",
    "request_status": "Pending",
    "responsible_agency": "Department of Sanitation",
    "final_address": "1814 Tennessee St",
    "address_councildis": "E",
    "status": "Assigned to Contractor",
    "contractor": "Waste Pro",
    "rowid": "1133161",
    "final_x": "3696402.61546",
    "final_y": "537082.368968",
    "longitude": "-90.02081228928888",
    "latitude": "29.970329332320645",
    "geocoded_column": {
      "latitude": "29.970329332320645",
      "longitude": "-90.02081228928888"
    }
  },
  {
    "service_request": "2024-1133159",
    "request_type": "Trash/Recycling",
    "request_reason": "Repair Recycling Cart",
    "date_created": "2024-09-18T16:32:37.000",
    "date_modified": "2024-09-18T16:32:38.000",
    "request_status": "Pending",
    "responsible_agency": "Department of Sanitation",
    "final_address": "1213 Barracks St",
    "address_councildis": "C",
    "status": "Pending",
    "rowid": "1133159",
    "final_x": "3682302.53269",
    "final_y": "535449.515462",
    "longitude": "-90.06539891359148",
    "latitude": "29.966276115875967",
    "geocoded_column": {
      "latitude": "29.966276115875967",
      "longitude": "-90.06539891359148"
    }
  },
  {
    "service_request": "2024-1133158",
    "request_type": "Trash/Recycling",
    "request_reason": "Request a Large Item Pick Up",
    "date_created": "2024-09-18T16:32:18.000",
    "date_modified": "2024-09-18T16:32:19.000",
    "request_status": "Pending",
    "responsible_agency": "Department of Sanitation",
    "final_address": "4403 Canal St",
    "address_councildis": "A",
    "status": "Assigned to Contractor",
    "contractor": "IV Waste",
    "rowid": "1133158",
    "final_x": "3670033.94983",
    "final_y": "539303.116362",
    "longitude": "-90.10401240993998",
    "latitude": "29.977239809756632",
    "geocoded_column": {
      "latitude": "29.977239809756632",
      "longitude": "-90.10401240993998"
    }
  },
  {
    "service_request": "2024-1133157",
    "request_type": "Trash/Recycling",
    "request_reason": "Missed Trash Pick-Up",
    "date_created": "2024-09-18T16:28:20.000",
    "date_modified": "2024-09-18T16:28:21.000",
    "request_status": "Pending",
    "responsible_agency": "Department of Sanitation",
    "final_address": "10930 S Hardy St",
    "address_councildis": "E",
    "status": "Assigned to Contractor",
    "contractor": "Waste Pro",
    "rowid": "1133157",
    "final_x": "3713033.0613",
    "final_y": "561569.807391",
    "longitude": "-89.96737018689227",
    "latitude": "30.037126057504693",
    "geocoded_column": {
      "latitude": "30.037126057504693",
      "longitude": "-89.96737018689227"
    }
  },
  {
    "service_request": "2024-1133156",
    "request_type": "Abandoned Vehicles",
    "request_reason": "Abandoned/Junk Vehicles",
    "date_created": "2024-09-18T16:27:18.000",
    "date_modified": "2024-09-18T16:27:18.000",
    "request_status": "Pending",
    "responsible_agency": "Department of Public Works",
    "final_address": "3200 BLK Almonaster Ave",
    "address_councildis": "D",
    "status": "Pending",
    "rowid": "1133156",
    "final_x": "3689432.72444",
    "final_y": "545508.900568",
    "longitude": "-90.04252411011409",
    "latitude": "29.993716976981915",
    "geocoded_column": {
      "latitude": "29.993716976981915",
      "longitude": "-90.04252411011409"
    }
  },
  {
    "service_request": "2024-1133155",
    "request_type": "Trash/Recycling",
    "request_reason": "Request a Large Item Pick Up",
    "date_created": "2024-09-18T16:26:37.000",
    "date_modified": "2024-09-18T16:26:38.000",
    "request_status": "Pending",
    "responsible_agency": "Department of Sanitation",
    "final_address": "6552 Virgilian St",
    "address_councildis": "D",
    "status": "Assigned to Contractor",
    "contractor": "Waste Pro",
    "rowid": "1133155",
    "final_x": "3697192.93136",
    "final_y": "555436.854617",
    "longitude": "-90.01765082661952",
    "latitude": "30.020772486847964",
    "geocoded_column": {
      "latitude": "30.020772486847964",
      "longitude": "-90.01765082661952"
    }
  },
  {
    "service_request": "2024-1133154",
    "request_type": "Trash/Recycling",
    "request_reason": "Missed Trash Pick-Up",
    "date_created": "2024-09-18T16:26:05.000",
    "date_modified": "2024-09-18T16:26:06.000",
    "request_status": "Pending",
    "responsible_agency": "Department of Sanitation",
    "final_address": "4651 Sierra Madre Dr",
    "address_councildis": "E",
    "status": "Assigned to Contractor",
    "contractor": "Waste Pro",
    "rowid": "1133154",
    "final_x": "3714015.75493",
    "final_y": "556011.935897",
    "longitude": "-89.96447451419623",
    "latitude": "30.021811875714437",
    "geocoded_column": {
      "latitude": "30.021811875714437",
      "longitude": "-89.96447451419623"
    }
  },
  {
    "service_request": "2024-1133153",
    "request_type": "Property Maintenance",
    "request_reason": "Property Maintenance",
    "date_created": "2024-09-18T16:26:04.000",
    "date_modified": "2024-09-18T16:26:04.000",
    "request_status": "Pending",
    "responsible_agency": "Department of Code Enforcement",
    "final_address": "4818 Chrysler St",
    "address_councildis": "E",
    "status": "Pending",
    "rowid": "1133153",
    "final_x": "3715195.60127",
    "final_y": "557128.276378",
    "longitude": "-89.96070429473431",
    "latitude": "30.02484256120358",
    "geocoded_column": {
      "latitude": "30.02484256120358",
      "longitude": "-89.96070429473431"
    }
  },
  {
    "service_request": "2024-1133152",
    "request_type": "Property Maintenance",
    "request_reason": "Property Maintenance",
    "date_created": "2024-09-18T16:25:38.000",
    "date_modified": "2024-09-18T16:25:38.000",
    "request_status": "Pending",
    "responsible_agency": "Department of Code Enforcement",
    "final_address": "1418 Leboeuf St",
    "address_councildis": "C",
    "status": "Pending",
    "rowid": "1133152",
    "final_x": "3689739.17577",
    "final_y": "526174.45907",
    "longitude": "-90.04224424388372",
    "latitude": "29.94054454674672",
    "geocoded_column": {
      "latitude": "29.94054454674672",
      "longitude": "-90.04224424388372"
    }
  },
  {
    "service_request": "2024-1133151",
    "request_type": "Trash/Recycling",
    "request_reason": "Repair Trash Cart",
    "date_created": "2024-09-18T16:24:53.000",
    "date_modified": "2024-09-18T16:24:54.000",
    "request_status": "Pending",
    "responsible_agency": "Department of Sanitation",
    "final_address": "2835 Palmer Ave",
    "address_councildis": "A",
    "status": "Assigned to Contractor",
    "contractor": "IV Waste",
    "rowid": "1133151",
    "final_x": "3667009.14983",
    "final_y": "527034.177598",
    "longitude": "-90.11397811038304",
    "latitude": "29.943593150596318",
    "geocoded_column": {
      "latitude": "29.943593150596318",
      "longitude": "-90.11397811038304"
    }
  },
  {
    "service_request": "2024-1133150",
    "request_type": "Trash/Recycling",
    "request_reason": "Repair Trash Cart",
    "date_created": "2024-09-18T16:24:38.000",
    "date_modified": "2024-09-18T16:24:39.000",
    "request_status": "Pending",
    "responsible_agency": "Department of Sanitation",
    "final_address": "3401 Chartres St",
    "address_councildis": "C",
    "status": "Assigned to Contractor",
    "contractor": "IV Waste",
    "rowid": "1133150",
    "final_x": "3689770.62665",
    "final_y": "533872.279045",
    "longitude": "-90.04187102938364",
    "latitude": "29.961709925923735",
    "geocoded_column": {
      "latitude": "29.961709925923735",
      "longitude": "-90.04187102938364"
    }
  },
  {
    "service_request": "2024-1133149",
    "request_type": "Trash/Recycling",
    "request_reason": "Missed Trash Pick-Up",
    "date_created": "2024-09-18T16:23:14.000",
    "date_modified": "2024-09-18T16:23:15.000",
    "request_status": "Pending",
    "responsible_agency": "Department of Sanitation",
    "final_address": "7701 Jeannette St Apt C",
    "address_councildis": "A",
    "status": "Assigned to Contractor",
    "contractor": "IV Waste",
    "rowid": "1133149",
    "final_x": "3663788.4217",
    "final_y": "528237.442944",
    "longitude": "-90.12410675182863",
    "latitude": "29.946995592617913",
    "geocoded_column": {
      "latitude": "29.946995592617913",
      "longitude": "-90.12410675182863"
    }
  },
  {
    "service_request": "2024-1133148",
    "request_type": "Trash/Recycling",
    "request_reason": "Storm Debris Collection",
    "date_created": "2024-09-18T16:22:05.000",
    "date_modified": "2024-09-18T16:22:06.000",
    "request_status": "Pending",
    "responsible_agency": "Department of Sanitation",
    "final_address": "6561 Catina St",
    "address_councildis": "A",
    "status": "Pending",
    "rowid": "1133148",
    "final_x": "3667040.42074",
    "final_y": "551410.545813",
    "longitude": "-90.11305975798852",
    "latitude": "30.010619061796735",
    "geocoded_column": {
      "latitude": "30.010619061796735",
      "longitude": "-90.11305975798852"
    }
  },
  {
    "service_request": "2024-1133147",
    "request_type": "Hurricane Francine Tree-Related Issues or Emergencies\t",
    "request_reason": "Hurricane Francine Tree-Related Issues or Emergencies",
    "date_created": "2024-09-18T16:21:39.000",
    "date_modified": "2024-09-18T16:21:39.000",
    "request_status": "Pending",
    "responsible_agency": "Department of Parks & Parkway",
    "final_address": "7479 Hurst St",
    "address_councildis": "A",
    "status": "Pending",
    "rowid": "1133147",
    "final_x": "3661248.81626",
    "final_y": "524318.939068",
    "longitude": "-90.13225495722885",
    "latitude": "29.936294399907855",
    "geocoded_column": {
      "latitude": "29.936294399907855",
      "longitude": "-90.13225495722885"
    }
  },
  {
    "service_request": "2024-1133146",
    "request_type": "Trash/Recycling",
    "request_reason": "MIssed Recycling Pick-Up",
    "date_created": "2024-09-18T16:21:30.000",
    "date_modified": "2024-09-18T16:21:31.000",
    "request_status": "Pending",
    "responsible_agency": "Department of Sanitation",
    "final_address": "6016 St Charles Ave",
    "address_councildis": "A",
    "status": "Assigned to Contractor",
    "contractor": "IV Waste",
    "rowid": "1133146",
    "final_x": "3665536.5257",
    "final_y": "522450.08089",
    "longitude": "-90.11878100278054",
    "latitude": "29.931031355859783",
    "geocoded_column": {
      "latitude": "29.931031355859783",
      "longitude": "-90.11878100278054"
    }
  },
  {
    "service_request": "2024-1133145",
    "request_type": "Trash/Recycling",
    "request_reason": "Request a Large Item Pick Up",
    "date_created": "2024-09-18T16:21:26.000",
    "date_modified": "2024-09-18T16:21:27.000",
    "request_status": "Pending",
    "responsible_agency": "Department of Sanitation",
    "final_address": "7810 Windward Ct",
    "address_councildis": "E",
    "status": "Assigned to Contractor",
    "contractor": "Waste Pro",
    "rowid": "1133145",
    "final_x": "3715320.50802",
    "final_y": "570026.593062",
    "longitude": "-89.95982106980223",
    "latitude": "30.06030359043755",
    "geocoded_column": {
      "latitude": "30.06030359043755",
      "longitude": "-89.95982106980223"
    }
  },
  {
    "service_request": "2024-1133144",
    "request_type": "Trash/Recycling",
    "request_reason": "Request a Large Item Pick Up",
    "date_created": "2024-09-18T16:17:59.000",
    "date_modified": "2024-09-18T16:18:00.000",
    "request_status": "Pending",
    "responsible_agency": "Department of Sanitation",
    "final_address": "14706 Emory Rd",
    "address_councildis": "E",
    "status": "Assigned to Contractor",
    "contractor": "Waste Pro",
    "rowid": "1133144",
    "final_x": "3720342.03244",
    "final_y": "573485.111658",
    "longitude": "-89.94381587154238",
    "latitude": "30.069646600669888",
    "geocoded_column": {
      "latitude": "30.069646600669888",
      "longitude": "-89.94381587154238"
    }
  },
  {
    "service_request": "2024-1133143",
    "request_type": "Drainage",
    "request_reason": "Catch Basin Clogged",
    "date_created": "2024-09-18T16:15:21.000",
    "date_modified": "2024-09-18T16:15:22.000",
    "request_status": "Pending",
    "responsible_agency": "Department of Public Works",
    "final_address": "7023 West End Blvd",
    "address_councildis": "A",
    "status": "Pending",
    "rowid": "1133143",
    "final_x": "3666889.29543",
    "final_y": "554367.809368",
    "longitude": "-90.11343775289085",
    "latitude": "30.018754922378566",
    "geocoded_column": {
      "latitude": "30.018754922378566",
      "longitude": "-90.11343775289085"
    }
  },
  {
    "service_request": "2024-1133142",
    "request_type": "Trash/Recycling",
    "request_reason": "Missed Trash Pick-Up",
    "date_created": "2024-09-18T16:14:10.000",
    "date_modified": "2024-09-18T16:14:11.000",
    "request_status": "Pending",
    "responsible_agency": "Department of Sanitation",
    "final_address": "4619 Cerise Ave",
    "address_councildis": "E",
    "status": "Assigned to Contractor",
    "contractor": "Waste Pro",
    "rowid": "1133142",
    "final_x": "3708758.92286",
    "final_y": "554893.2726",
    "longitude": "-89.9811262933771",
    "latitude": "30.018907615692598",
    "geocoded_column": {
      "latitude": "30.018907615692598",
      "longitude": "-89.9811262933771"
    }
  },
  {
    "service_request": "2024-1133141",
    "request_type": "Trash/Recycling",
    "request_reason": "Storm Debris Collection",
    "date_created": "2024-09-18T16:13:58.000",
    "date_modified": "2024-09-18T16:13:58.000",
    "request_status": "Pending",
    "responsible_agency": "Department of Sanitation",
    "final_address": "7319 Sheffield St",
    "address_councildis": "E",
    "status": "Pending",
    "rowid": "1133141",
    "final_x": "3699632.91831",
    "final_y": "559361.683997",
    "longitude": "-90.00979798803601",
    "latitude": "30.03148700055262",
    "geocoded_column": {
      "latitude": "30.03148700055262",
      "longitude": "-90.00979798803601"
    }
  },
  {
    "service_request": "2024-1133140",
    "request_type": "Trash/Recycling",
    "request_reason": "Order Trash Cart",
    "date_created": "2024-09-18T16:12:27.000",
    "date_modified": "2024-09-18T16:12:28.000",
    "request_status": "Pending",
    "responsible_agency": "Department of Sanitation",
    "final_address": "1930 Annunciation St Unit C",
    "address_councildis": "B",
    "status": "Assigned to Contractor",
    "contractor": "IV Waste",
    "rowid": "1133140",
    "final_x": "3680391.95119",
    "final_y": "521797.609466",
    "longitude": "-90.07190710577153",
    "latitude": "29.928795944302017",
    "geocoded_column": {
      "latitude": "29.928795944302017",
      "longitude": "-90.07190710577153"
    }
  },
  {
    "service_request": "2024-1133139",
    "request_type": "Trash/Recycling",
    "request_reason": "Replace Trash Cart",
    "date_created": "2024-09-18T16:11:25.000",
    "date_modified": "2024-09-18T16:11:26.000",
    "request_status": "Pending",
    "responsible_agency": "Department of Sanitation",
    "final_address": "10 Olympic Ct",
    "address_councildis": "C",
    "status": "Assigned to Contractor",
    "contractor": "Richards Disposal",
    "rowid": "1133139",
    "final_x": "3700007.67556",
    "final_y": "516377.521653",
    "longitude": "-90.01018225167297",
    "latitude": "29.913284207139174",
    "geocoded_column": {
      "latitude": "29.913284207139174",
      "longitude": "-90.01018225167297"
    }
  },
  {
    "service_request": "2024-1133138",
    "request_type": "Abandoned Vehicles",
    "request_reason": "Abandoned/Junk Vehicles",
    "date_created": "2024-09-18T16:10:03.000",
    "date_modified": "2024-09-18T16:10:03.000",
    "request_status": "Pending",
    "responsible_agency": "Department of Public Works",
    "final_address": "1612 Urquhart St",
    "address_councildis": "C",
    "status": "Pending",
    "rowid": "1133138",
    "final_x": "3682839.8646",
    "final_y": "536837.787912",
    "longitude": "-90.06365345186481",
    "latitude": "29.97007702593767",
    "geocoded_column": {
      "latitude": "29.97007702593767",
      "longitude": "-90.06365345186481"
    }
  },
  {
    "service_request": "2024-1133137",
    "request_type": "Parks & Parkways",
    "request_reason": "Request Tree Service (Right of Way/Public Property)",
    "date_created": "2024-09-18T16:05:44.000",
    "date_modified": "2024-09-18T16:05:45.000",
    "request_status": "Pending",
    "responsible_agency": "Department of Parks & Parkway",
    "final_address": "709 N Alexander St",
    "address_councildis": "A",
    "status": "Pending",
    "rowid": "1133137",
    "final_x": "3671328.12129",
    "final_y": "540979.144011",
    "longitude": "-90.0998679997657",
    "latitude": "29.981810074428402",
    "geocoded_column": {
      "latitude": "29.981810074428402",
      "longitude": "-90.0998679997657"
    }
  },
  {
    "service_request": "2024-1133136",
    "request_type": "Trash/Recycling",
    "request_reason": "Repair Trash Cart",
    "date_created": "2024-09-18T16:04:55.000",
    "date_modified": "2024-09-18T16:04:56.000",
    "request_status": "Pending",
    "responsible_agency": "Department of Sanitation",
    "final_address": "2827 Powhatan St",
    "address_councildis": "D",
    "status": "Assigned to Contractor",
    "contractor": "IV Waste",
    "rowid": "1133136",
    "final_x": "3688806.22902",
    "final_y": "547822.00725",
    "longitude": "-90.04442091831625",
    "latitude": "30.000096574314238",
    "geocoded_column": {
      "latitude": "30.000096574314238",
      "longitude": "-90.04442091831625"
    }
  },
  {
    "service_request": "2024-1133133",
    "request_type": "Street and Traffic Signs",
    "request_reason": "Street Name Sign Damaged or Missing",
    "date_created": "2024-09-18T16:00:30.000",
    "date_modified": "2024-09-18T16:00:31.000",
    "request_status": "Pending",
    "responsible_agency": "Department of Public Works",
    "final_address": "13300 Granville St",
    "address_councildis": "E",
    "status": "Pending",
    "rowid": "1133133",
    "final_x": "3725160.63174",
    "final_y": "561961.397087",
    "longitude": "-89.92902973418255",
    "latitude": "30.037799669448507",
    "geocoded_column": {
      "latitude": "30.037799669448507",
      "longitude": "-89.92902973418255"
    }
  },
  {
    "service_request": "2024-1133132",
    "request_type": "Streetlights",
    "request_reason": "Streetlight Outage/Malfunction",
    "date_created": "2024-09-18T15:59:08.000",
    "date_modified": "2024-09-18T15:59:10.000",
    "request_status": "Pending",
    "responsible_agency": "Department of Public Works",
    "final_address": "JEFFERSON AVE & PRYTANIA ST",
    "address_councildis": "A",
    "status": "Pending",
    "contractor": "Legacy Professional Services",
    "rowid": "1133132",
    "final_x": "3667085.3",
    "final_y": "520320.28",
    "longitude": "-90.11396326171976",
    "latitude": "29.925129847789723",
    "geocoded_column": {
      "latitude": "29.925129847789723",
      "longitude": "-90.11396326171976"
    }
  },
  {
    "service_request": "2024-1133131",
    "request_type": "Trash/Recycling",
    "request_reason": "Request a Large Item Pick Up",
    "date_created": "2024-09-18T15:56:54.000",
    "date_modified": "2024-09-18T15:56:55.000",
    "request_status": "Pending",
    "responsible_agency": "Department of Sanitation",
    "final_address": "4914 Papania Dr",
    "address_councildis": "E",
    "status": "Assigned to Contractor",
    "contractor": "Waste Pro",
    "rowid": "1133131",
    "final_x": "3715462.84459",
    "final_y": "557593.518107",
    "longitude": "-89.95984223795165",
    "latitude": "30.026112985694848",
    "geocoded_column": {
      "latitude": "30.026112985694848",
      "longitude": "-89.95984223795165"
    }
  },
  {
    "service_request": "2024-1133130",
    "request_type": "Trash/Recycling",
    "request_reason": "Start Trash Service",
    "date_created": "2024-09-18T15:55:51.000",
    "date_modified": "2024-09-18T15:55:52.000",
    "request_status": "Pending",
    "responsible_agency": "Department of Sanitation",
    "final_address": "7607 Lacombe St",
    "address_councildis": "E",
    "status": "Assigned to Contractor",
    "contractor": "Waste Pro",
    "rowid": "1133130",
    "final_x": "3709845.55128",
    "final_y": "565079.724514",
    "longitude": "-89.97731207110334",
    "latitude": "30.046881021744724",
    "geocoded_column": {
      "latitude": "30.046881021744724",
      "longitude": "-89.97731207110334"
    }
  },
  {
    "service_request": "2024-1133129",
    "request_type": "Trash/Recycling",
    "request_reason": "Order Trash Cart",
    "date_created": "2024-09-18T15:55:14.000",
    "date_modified": "2024-09-18T15:55:15.000",
    "request_status": "Pending",
    "responsible_agency": "Department of Sanitation",
    "final_address": "7607 Lacombe St",
    "address_councildis": "E",
    "status": "Assigned to Contractor",
    "contractor": "Waste Pro",
    "rowid": "1133129",
    "final_x": "3709845.55128",
    "final_y": "565079.724514",
    "longitude": "-89.97731207110334",
    "latitude": "30.046881021744724",
    "geocoded_column": {
      "latitude": "30.046881021744724",
      "longitude": "-89.97731207110334"
    }
  },
  {
    "service_request": "2024-1133128",
    "request_type": "Trash/Recycling",
    "request_reason": "Request a Large Item Pick Up",
    "date_created": "2024-09-18T15:54:35.000",
    "date_modified": "2024-09-18T15:54:37.000",
    "request_status": "Pending",
    "responsible_agency": "Department of Sanitation",
    "final_address": "1718 Bordeaux St",
    "address_councildis": "B",
    "status": "Assigned to Contractor",
    "contractor": "IV Waste",
    "rowid": "1133128",
    "final_x": "3669289.00282",
    "final_y": "521240.118969",
    "longitude": "-90.10697578111542",
    "latitude": "29.927594445194373",
    "geocoded_column": {
      "latitude": "29.927594445194373",
      "longitude": "-90.10697578111542"
    }
  },
  {
    "service_request": "2024-1133127",
    "request_type": "Trash/Recycling",
    "request_reason": "Order Recycling Cart",
    "date_created": "2024-09-18T15:49:59.000",
    "date_modified": "2024-09-18T15:50:00.000",
    "request_status": "Pending",
    "responsible_agency": "Department of Sanitation",
    "final_address": "3700 Clematis St",
    "address_councildis": "D",
    "status": "Pending",
    "rowid": "1133127",
    "final_x": "3686020.73871",
    "final_y": "546574.132433",
    "longitude": "-90.05326444702666",
    "latitude": "29.996751228220237",
    "geocoded_column": {
      "latitude": "29.996751228220237",
      "longitude": "-90.05326444702666"
    }
  },
  {
    "service_request": "2024-1133126",
    "request_type": "Trash/Recycling",
    "request_reason": "Order Trash Cart",
    "date_created": "2024-09-18T15:49:34.000",
    "date_modified": "2024-09-18T15:49:35.000",
    "request_status": "Pending",
    "responsible_agency": "Department of Sanitation",
    "final_address": "3700 Clematis St",
    "address_councildis": "D",
    "status": "Assigned to Contractor",
    "contractor": "IV Waste",
    "rowid": "1133126",
    "final_x": "3686020.73871",
    "final_y": "546574.132433",
    "longitude": "-90.05326444702666",
    "latitude": "29.996751228220237",
    "geocoded_column": {
      "latitude": "29.996751228220237",
      "longitude": "-90.05326444702666"
    }
  },
  {
    "service_request": "2024-1133125",
    "request_type": "Trash/Recycling",
    "request_reason": "Missed Trash Pick-Up",
    "date_created": "2024-09-18T15:49:14.000",
    "date_modified": "2024-09-18T15:49:15.000",
    "request_status": "Pending",
    "responsible_agency": "Department of Sanitation",
    "final_address": "2340 State St",
    "address_councildis": "A",
    "status": "Assigned to Contractor",
    "contractor": "IV Waste",
    "rowid": "1133125",
    "final_x": "3666616.25933",
    "final_y": "525404.029693",
    "longitude": "-90.11527328584836",
    "latitude": "29.939122258457594",
    "geocoded_column": {
      "latitude": "29.939122258457594",
      "longitude": "-90.11527328584836"
    }
  },
  {
    "service_request": "2024-1133124",
    "request_type": "Trash/Recycling",
    "request_reason": "Request a Large Item Pick Up",
    "date_created": "2024-09-18T15:47:43.000",
    "date_modified": "2024-09-18T15:47:44.000",
    "request_status": "Pending",
    "responsible_agency": "Department of Sanitation",
    "final_address": "4317 State Street Dr",
    "address_councildis": "B",
    "status": "Assigned to Contractor",
    "contractor": "IV Waste",
    "rowid": "1133124",
    "final_x": "3668587.05882",
    "final_y": "531313.710018",
    "longitude": "-90.1088518309431",
    "latitude": "29.955314203737036",
    "geocoded_column": {
      "latitude": "29.955314203737036",
      "longitude": "-90.1088518309431"
    }
  },
  {
    "service_request": "2024-1133123",
    "request_type": "Parks & Parkways",
    "request_reason": "Request Tree Service (Right of Way/Public Property)",
    "date_created": "2024-09-18T15:47:15.000",
    "date_modified": "2024-09-18T15:47:16.000",
    "request_status": "Pending",
    "responsible_agency": "Department of Parks & Parkway",
    "final_address": "8712 Dinkins St",
    "address_councildis": "E",
    "status": "Pending",
    "rowid": "1133123",
    "final_x": "3704252.68279",
    "final_y": "563130.581088",
    "longitude": "-89.99506033330624",
    "latitude": "30.041702453837395",
    "geocoded_column": {
      "latitude": "30.041702453837395",
      "longitude": "-89.99506033330624"
    }
  },
  {
    "service_request": "2024-1133122",
    "request_type": "Mosquito, Termite & Rodent Control",
    "request_reason": "Mosquito Complaint",
    "date_created": "2024-09-18T15:47:13.000",
    "date_modified": "2024-09-18T15:47:13.000",
    "request_status": "Pending",
    "responsible_agency": "Mosquito, Termite & Rodent Control Board",
    "final_address": "4123 DHemecourt St",
    "address_councildis": "A",
    "status": "Pending",
    "rowid": "1133122",
    "final_x": "3669605.25012",
    "final_y": "537030.870728",
    "longitude": "-90.10544329204224",
    "latitude": "29.971004538618622",
    "geocoded_column": {
      "latitude": "29.971004538618622",
      "longitude": "-90.10544329204224"
    }
  },
  {
    "service_request": "2024-1133121",
    "request_type": "Trash/Recycling",
    "request_reason": "Request a Large Item Pick Up",
    "date_created": "2024-09-18T15:45:23.000",
    "date_modified": "2024-09-18T15:45:25.000",
    "request_status": "Pending",
    "responsible_agency": "Department of Sanitation",
    "final_address": "4827 Evangeline Dr",
    "address_councildis": "E",
    "status": "Assigned to Contractor",
    "contractor": "Waste Pro",
    "rowid": "1133121",
    "final_x": "3709121.46885",
    "final_y": "556294.380378",
    "longitude": "-89.9799284973336",
    "latitude": "30.02274834684033",
    "geocoded_column": {
      "latitude": "30.02274834684033",
      "longitude": "-89.9799284973336"
    }
  },
  {
    "service_request": "2024-1133120",
    "request_type": "Trash/Recycling",
    "request_reason": "Storm Debris Collection",
    "date_created": "2024-09-18T15:44:03.000",
    "date_modified": "2024-09-18T15:44:03.000",
    "request_status": "Pending",
    "responsible_agency": "Department of Sanitation",
    "final_address": "5033 S Saratoga St",
    "address_councildis": "B",
    "status": "Pending",
    "rowid": "1133120",
    "final_x": "3668527.37927",
    "final_y": "522593.577978",
    "longitude": "-90.10933440969431",
    "latitude": "29.931338417887474",
    "geocoded_column": {
      "latitude": "29.931338417887474",
      "longitude": "-90.10933440969431"
    }
  },
  {
    "service_request": "2024-1133119",
    "request_type": "Trash/Recycling",
    "request_reason": "Storm Debris Collection",
    "date_created": "2024-09-18T15:43:40.000",
    "date_modified": "2024-09-18T15:43:41.000",
    "request_status": "Pending",
    "responsible_agency": "Department of Sanitation",
    "final_address": "2009 Soniat St",
    "address_councildis": "B",
    "status": "Pending",
    "rowid": "1133119",
    "final_x": "3668539.32026",
    "final_y": "523029.855803",
    "longitude": "-90.10928200051164",
    "latitude": "29.932537691722416",
    "geocoded_column": {
      "latitude": "29.932537691722416",
      "longitude": "-90.10928200051164"
    }
  },
  {
    "service_request": "2024-1133118",
    "request_type": "Trash/Recycling",
    "request_reason": "Replace Recycling Cart",
    "date_created": "2024-09-18T15:38:29.000",
    "date_modified": "2024-09-18T15:38:29.000",
    "request_status": "Pending",
    "responsible_agency": "Department of Sanitation",
    "final_address": "1525 Marigny St",
    "address_councildis": "C",
    "status": "Pending",
    "rowid": "1133118",
    "final_x": "3685315.91682",
    "final_y": "538018.942089",
    "longitude": "-90.05579225318807",
    "latitude": "29.97324911474864",
    "geocoded_column": {
      "latitude": "29.97324911474864",
      "longitude": "-90.05579225318807"
    }
  },
  {
    "service_request": "2024-1133117",
    "request_type": "Trash/Recycling",
    "request_reason": "Replace Recycling Cart",
    "date_created": "2024-09-18T15:37:46.000",
    "date_modified": "2024-09-18T15:37:47.000",
    "request_status": "Pending",
    "responsible_agency": "Department of Sanitation",
    "final_address": "1523 Marigny St",
    "address_councildis": "C",
    "status": "Pending",
    "rowid": "1133117",
    "final_x": "3685315.91682",
    "final_y": "538002.692041",
    "longitude": "-90.05579282538403",
    "latitude": "29.973204432791462",
    "geocoded_column": {
      "latitude": "29.973204432791462",
      "longitude": "-90.05579282538403"
    }
  },
  {
    "service_request": "2024-1133116",
    "request_type": "Trash/Recycling",
    "request_reason": "Storm Debris Collection",
    "date_created": "2024-09-18T15:34:17.000",
    "date_modified": "2024-09-18T15:34:19.000",
    "request_status": "Pending",
    "responsible_agency": "Department of Sanitation",
    "final_address": "2330 Gentilly Blvd",
    "address_councildis": "D",
    "status": "Pending",
    "rowid": "1133116",
    "final_x": "3681142.96539",
    "final_y": "544693.312015",
    "longitude": "-90.06873863145685",
    "latitude": "29.99172856963129",
    "geocoded_column": {
      "latitude": "29.99172856963129",
      "longitude": "-90.06873863145685"
    }
  },
  {
    "service_request": "2024-1133115",
    "request_type": "Trash/Recycling",
    "request_reason": "Order Recycling Cart",
    "date_created": "2024-09-18T15:33:11.000",
    "date_modified": "2024-09-18T15:33:12.000",
    "request_status": "Pending",
    "responsible_agency": "Department of Sanitation",
    "final_address": "2330 Gentilly Blvd",
    "address_councildis": "D",
    "status": "Pending",
    "rowid": "1133115",
    "final_x": "3681142.96539",
    "final_y": "544693.312015",
    "longitude": "-90.06873863145685",
    "latitude": "29.99172856963129",
    "geocoded_column": {
      "latitude": "29.99172856963129",
      "longitude": "-90.06873863145685"
    }
  },
  {
    "service_request": "2024-1133114",
    "request_type": "Healthy Homes",
    "request_reason": "Healthy Homes",
    "date_created": "2024-09-18T15:32:56.000",
    "date_modified": "2024-09-18T15:32:56.000",
    "request_status": "Pending",
    "responsible_agency": "Department of Code Enforcement",
    "final_address": "4830 Banks St",
    "address_councildis": "A",
    "status": "Pending",
    "rowid": "1133114",
    "final_x": "3667856.99757",
    "final_y": "539216.167306",
    "longitude": "-90.1108908923626",
    "latitude": "29.977064769253253",
    "geocoded_column": {
      "latitude": "29.977064769253253",
      "longitude": "-90.1108908923626"
    }
  },
  {
    "service_request": "2024-1133113",
    "request_type": "Trash/Recycling",
    "request_reason": "Missed Trash Pick-Up",
    "date_created": "2024-09-18T15:32:28.000",
    "date_modified": "2024-09-18T15:40:59.000",
    "case_close_date": "2024-09-18T10:40:59.000",
    "request_status": "Closed",
    "responsible_agency": "Department of Sanitation",
    "final_address": "5961 Winchester Park Dr",
    "address_councildis": "E",
    "status": "Invalid Request",
    "contractor": "Waste Pro",
    "contractor_action": "Invalid Request",
    "rowid": "1133113",
    "final_x": "3714597.32165",
    "final_y": "563060.037152",
    "longitude": "-89.96237048073354",
    "latitude": "30.041172222160515",
    "geocoded_column": {
      "latitude": "30.041172222160515",
      "longitude": "-89.96237048073354"
    }
  },
  {
    "service_request": "2024-1133112",
    "request_type": "Trash/Recycling",
    "request_reason": "Missed Trash Pick-Up",
    "date_created": "2024-09-18T15:32:12.000",
    "date_modified": "2024-09-18T15:41:51.000",
    "case_close_date": "2024-09-18T10:41:51.000",
    "request_status": "Closed",
    "responsible_agency": "Department of Sanitation",
    "final_address": "5970 Winchester Park Dr",
    "address_councildis": "E",
    "status": "Invalid Request",
    "contractor": "Waste Pro",
    "contractor_action": "Invalid Request",
    "rowid": "1133112",
    "final_x": "3714448.4949",
    "final_y": "563097.127648",
    "longitude": "-89.96283941856971",
    "latitude": "30.041279101358025",
    "geocoded_column": {
      "latitude": "30.041279101358025",
      "longitude": "-89.96283941856971"
    }
  },
  {
    "service_request": "2024-1133110",
    "request_type": "Trash/Recycling",
    "request_reason": "Request a Large Item Pick Up",
    "date_created": "2024-09-18T15:29:48.000",
    "date_modified": "2024-09-18T15:29:49.000",
    "request_status": "Pending",
    "responsible_agency": "Department of Sanitation",
    "final_address": "211 Oakmont Dr",
    "address_councildis": "E",
    "status": "Assigned to Contractor",
    "contractor": "Waste Pro",
    "rowid": "1133110",
    "final_x": "3720294.37388",
    "final_y": "562998.214176",
    "longitude": "-89.94436838786756",
    "latitude": "30.040813580185254",
    "geocoded_column": {
      "latitude": "30.040813580185254",
      "longitude": "-89.94436838786756"
    }
  },
  {
    "service_request": "2024-1133109",
    "request_type": "Abandoned Vehicles",
    "request_reason": "Abandoned/Junk Vehicles",
    "date_created": "2024-09-18T15:21:45.000",
    "date_modified": "2024-09-18T15:21:46.000",
    "request_status": "Pending",
    "responsible_agency": "Department of Public Works",
    "final_address": "3405 Franklin Ave",
    "address_councildis": "D",
    "status": "Pending",
    "rowid": "1133109",
    "final_x": "3687255.37986",
    "final_y": "545600.481104",
    "longitude": "-90.04939875599008",
    "latitude": "29.994036054620373",
    "geocoded_column": {
      "latitude": "29.994036054620373",
      "longitude": "-90.04939875599008"
    }
  },
  {
    "service_request": "2024-1133107",
    "request_type": "Property Maintenance",
    "request_reason": "Property Maintenance",
    "date_created": "2024-09-18T15:19:45.000",
    "date_modified": "2024-09-18T15:19:45.000",
    "request_status": "Pending",
    "responsible_agency": "Department of Code Enforcement",
    "final_address": "1716 Marais St",
    "address_councildis": "C",
    "status": "Pending",
    "rowid": "1133107",
    "final_x": "3683256.45538",
    "final_y": "536503.134855",
    "longitude": "-90.06234954052441",
    "latitude": "29.969144146440083",
    "geocoded_column": {
      "latitude": "29.969144146440083",
      "longitude": "-90.06234954052441"
    }
  },
  {
    "service_request": "2024-1133106",
    "request_type": "Trash/Recycling",
    "request_reason": "MIssed Recycling Pick-Up",
    "date_created": "2024-09-18T15:18:30.000",
    "date_modified": "2024-09-18T15:18:31.000",
    "request_status": "Pending",
    "responsible_agency": "Department of Sanitation",
    "final_address": "11321 Old Spanish Trl",
    "address_councildis": "E",
    "status": "Assigned to Contractor",
    "contractor": "Waste Pro",
    "rowid": "1133106",
    "final_x": "3717487.299",
    "final_y": "556372.907546",
    "longitude": "-89.95349173720686",
    "latitude": "30.022689914153144",
    "geocoded_column": {
      "latitude": "30.022689914153144",
      "longitude": "-89.95349173720686"
    }
  },
  {
    "service_request": "2024-1133105",
    "request_type": "Trash/Recycling",
    "request_reason": "Request a Large Item Pick Up",
    "date_created": "2024-09-18T15:15:07.000",
    "date_modified": "2024-09-18T15:15:09.000",
    "request_status": "Pending",
    "responsible_agency": "Department of Sanitation",
    "final_address": "9763 W Rockton Cir",
    "address_councildis": "E",
    "status": "Assigned to Contractor",
    "contractor": "Waste Pro",
    "rowid": "1133105",
    "final_x": "3708063.53547",
    "final_y": "562701.965152",
    "longitude": "-89.9830327009913",
    "latitude": "30.040400998537717",
    "geocoded_column": {
      "latitude": "30.040400998537717",
      "longitude": "-89.9830327009913"
    }
  },
  {
    "service_request": "2024-1133104",
    "request_type": "Property Maintenance",
    "request_reason": "Property Maintenance",
    "date_created": "2024-09-18T15:14:26.000",
    "date_modified": "2024-09-18T15:14:26.000",
    "request_status": "Pending",
    "responsible_agency": "Department of Code Enforcement",
    "final_address": "2901 Bacchus Dr",
    "address_councildis": "C",
    "status": "Pending",
    "rowid": "1133104",
    "final_x": "3710171.21905",
    "final_y": "518790.990839",
    "longitude": "-89.97801321936292",
    "latitude": "29.919593782842306",
    "geocoded_column": {
      "latitude": "29.919593782842306",
      "longitude": "-89.97801321936292"
    }
  },
  {
    "service_request": "2024-1133103",
    "request_type": "Property Maintenance",
    "request_reason": "Property Maintenance",
    "date_created": "2024-09-18T15:14:03.000",
    "date_modified": "2024-09-18T15:14:04.000",
    "request_status": "Pending",
    "responsible_agency": "Department of Code Enforcement",
    "final_address": "2851 Bacchus Dr",
    "address_councildis": "C",
    "status": "Pending",
    "rowid": "1133103",
    "final_x": "3710175.84382",
    "final_y": "518840.286199",
    "longitude": "-89.97799678090608",
    "latitude": "29.91972917737847",
    "geocoded_column": {
      "latitude": "29.91972917737847",
      "longitude": "-89.97799678090608"
    }
  },
  {
    "service_request": "2024-1133102",
    "request_type": "Trash/Recycling",
    "request_reason": "Replace Trash Cart",
    "date_created": "2024-09-18T15:13:49.000",
    "date_modified": "2024-09-18T15:13:50.000",
    "request_status": "Pending",
    "responsible_agency": "Department of Sanitation",
    "final_address": "4609 S Prieur St",
    "address_councildis": "B",
    "status": "Assigned to Contractor",
    "contractor": "IV Waste",
    "rowid": "1133102",
    "final_x": "3669413.08782",
    "final_y": "526855.267518",
    "longitude": "-90.10639427134684",
    "latitude": "29.943030645780755",
    "geocoded_column": {
      "latitude": "29.943030645780755",
      "longitude": "-90.10639427134684"
    }
  },
  {
    "service_request": "2024-1133101",
    "request_type": "Trash/Recycling",
    "request_reason": "Order Recycling Cart",
    "date_created": "2024-09-18T15:13:21.000",
    "date_modified": "2024-09-18T15:19:19.000",
    "request_status": "Pending",
    "responsible_agency": "Department of Sanitation",
    "final_address": "6016 Vicksburg St",
    "address_councildis": "A",
    "status": "Pending",
    "rowid": "1133101",
    "final_x": "3668792.43578",
    "final_y": "547405.283601",
    "longitude": "-90.1076598088012",
    "latitude": "29.99955456721293",
    "geocoded_column": {
      "latitude": "29.99955456721293",
      "longitude": "-90.1076598088012"
    }
  },
  {
    "service_request": "2024-1133100",
    "request_type": "Trash/Recycling",
    "request_reason": "Repair Recycling Cart",
    "date_created": "2024-09-18T15:12:41.000",
    "date_modified": "2024-09-18T15:12:43.000",
    "request_status": "Pending",
    "responsible_agency": "Department of Sanitation",
    "final_address": "1663 St Denis St",
    "address_councildis": "D",
    "status": "Pending",
    "rowid": "1133100",
    "final_x": "3680250.106",
    "final_y": "545980.212624",
    "longitude": "-90.07151421801686",
    "latitude": "29.995294156422652",
    "geocoded_column": {
      "latitude": "29.995294156422652",
      "longitude": "-90.07151421801686"
    }
  },
  {
    "service_request": "2024-1133099",
    "request_type": "Trash/Recycling",
    "request_reason": "Storm Debris Collection",
    "date_created": "2024-09-18T15:12:30.000",
    "date_modified": "2024-09-18T15:12:32.000",
    "request_status": "Pending",
    "responsible_agency": "Department of Sanitation",
    "final_address": "3417 Hamburg St",
    "address_councildis": "D",
    "status": "Pending",
    "rowid": "1133099",
    "final_x": "3679364.43599",
    "final_y": "544890.396879",
    "longitude": "-90.07434978611143",
    "latitude": "29.992324335384282",
    "geocoded_column": {
      "latitude": "29.992324335384282",
      "longitude": "-90.07434978611143"
    }
  },
  {
    "service_request": "2024-1133098",
    "request_type": "Trash/Recycling",
    "request_reason": "Storm Debris Collection",
    "date_created": "2024-09-18T15:11:26.000",
    "date_modified": "2024-09-18T15:11:28.000",
    "request_status": "Pending",
    "responsible_agency": "Department of Sanitation",
    "final_address": "432 Nashville Ave",
    "address_councildis": "A",
    "status": "Pending",
    "rowid": "1133098",
    "final_x": "3665235.04589",
    "final_y": "517944.633142",
    "longitude": "-90.11988336150101",
    "latitude": "29.918651574488536",
    "geocoded_column": {
      "latitude": "29.918651574488536",
      "longitude": "-90.11988336150101"
    }
  },
  {
    "service_request": "2024-1133097",
    "request_type": "Drainage",
    "request_reason": "Catch Basin Clogged",
    "date_created": "2024-09-18T15:11:06.000",
    "date_modified": "2024-09-18T15:11:07.000",
    "request_status": "Pending",
    "responsible_agency": "Department of Public Works",
    "final_address": "6102 S Claiborne Ave",
    "address_councildis": "A",
    "status": "Pending",
    "rowid": "1133097",
    "final_x": "3667175.16455",
    "final_y": "527236.407807",
    "longitude": "-90.11344715876439",
    "latitude": "29.944144359594677",
    "geocoded_column": {
      "latitude": "29.944144359594677",
      "longitude": "-90.11344715876439"
    }
  },
  {
    "service_request": "2024-1133096",
    "request_type": "Trash/Recycling",
    "request_reason": "Storm Debris Collection",
    "date_created": "2024-09-18T15:10:21.000",
    "date_modified": "2024-09-18T15:10:22.000",
    "request_status": "Pending",
    "responsible_agency": "Department of Sanitation",
    "final_address": "7400 Northgate Dr",
    "address_councildis": "E",
    "status": "Pending",
    "rowid": "1133096",
    "final_x": "3712991.86302",
    "final_y": "565881.855907",
    "longitude": "-89.96733792928251",
    "latitude": "30.04898380220225",
    "geocoded_column": {
      "latitude": "30.04898380220225",
      "longitude": "-89.96733792928251"
    }
  },
  {
    "service_request": "2024-1133094",
    "request_type": "Trash/Recycling",
    "request_reason": "Order Recycling Cart",
    "date_created": "2024-09-18T15:10:03.000",
    "date_modified": "2024-09-18T15:10:04.000",
    "request_status": "Pending",
    "responsible_agency": "Department of Sanitation",
    "final_address": "1115 N White St",
    "address_councildis": "A",
    "status": "Pending",
    "rowid": "1133094",
    "final_x": "3677192.98574",
    "final_y": "538917.637322",
    "longitude": "-90.08141511380337",
    "latitude": "29.975966742389016",
    "geocoded_column": {
      "latitude": "29.975966742389016",
      "longitude": "-90.08141511380337"
    }
  },
  {
    "service_request": "2024-1133093",
    "request_type": "Trash/Recycling",
    "request_reason": "Missed Trash Pick-Up",
    "date_created": "2024-09-18T15:09:33.000",
    "date_modified": "2024-09-18T15:21:24.000",
    "case_close_date": "2024-09-18T10:21:24.000",
    "request_status": "Closed",
    "responsible_agency": "Department of Sanitation",
    "final_address": "2416 Pine St",
    "address_councildis": "A",
    "status": "Invalid Request",
    "contractor": "IV Waste",
    "contractor_action": "Invalid",
    "rowid": "1133093",
    "final_x": "3666408.1586",
    "final_y": "530516.925378",
    "longitude": "-90.11575876160433",
    "latitude": "29.953187150416028",
    "geocoded_column": {
      "latitude": "29.953187150416028",
      "longitude": "-90.11575876160433"
    }
  },
  {
    "service_request": "2024-1133092",
    "request_type": "Hurricane Francine Tree-Related Issues or Emergencies\t",
    "request_reason": "Hurricane Francine Tree-Related Issues or Emergencies",
    "date_created": "2024-09-18T15:08:14.000",
    "date_modified": "2024-09-18T15:08:14.000",
    "request_status": "Pending",
    "responsible_agency": "Department of Parks & Parkway",
    "final_address": "7711 Jeannette St",
    "address_councildis": "A",
    "status": "Pending",
    "rowid": "1133092",
    "final_x": "3663668.05504",
    "final_y": "528300.809024",
    "longitude": "-90.12448468505706",
    "latitude": "29.94717332120236",
    "geocoded_column": {
      "latitude": "29.94717332120236",
      "longitude": "-90.12448468505706"
    }
  },
  {
    "service_request": "2024-1133091",
    "request_type": "Healthy Homes",
    "request_reason": "Healthy Homes",
    "date_created": "2024-09-18T15:06:17.000",
    "date_modified": "2024-09-18T15:16:16.000",
    "case_close_date": "2024-09-18T10:16:16.000",
    "request_status": "Closed",
    "responsible_agency": "Department of Code Enforcement",
    "final_address": "6012 Urquhart St",
    "address_councildis": "E",
    "status": "Referred to Code Enforcement",
    "rowid": "1133091",
    "final_x": "3699533.11204",
    "final_y": "534039.955141",
    "longitude": "-90.01103678009068",
    "latitude": "29.961864814862775",
    "geocoded_column": {
      "latitude": "29.961864814862775",
      "longitude": "-90.01103678009068"
    }
  },
  {
    "service_request": "2024-1133090",
    "request_type": "Hurricane Francine Tree-Related Issues or Emergencies\t",
    "request_reason": "Hurricane Francine Tree-Related Issues or Emergencies",
    "date_created": "2024-09-18T15:05:06.000",
    "date_modified": "2024-09-18T15:05:06.000",
    "request_status": "Pending",
    "responsible_agency": "Department of Parks & Parkway",
    "final_address": "5118 N Rampart St",
    "address_councildis": "E",
    "status": "Pending",
    "rowid": "1133090",
    "final_x": "3696271.86615",
    "final_y": "533704.529349",
    "longitude": "-90.02134735126005",
    "latitude": "29.96104559209088",
    "geocoded_column": {
      "latitude": "29.96104559209088",
      "longitude": "-90.02134735126005"
    }
  },
  {
    "service_request": "2024-1133089",
    "request_type": "Trash/Recycling",
    "request_reason": "Request a Large Item Pick Up",
    "date_created": "2024-09-18T15:02:37.000",
    "date_modified": "2024-09-18T15:02:38.000",
    "request_status": "Pending",
    "responsible_agency": "Department of Sanitation",
    "final_address": "10807 Curran Rd",
    "address_councildis": "E",
    "status": "Assigned to Contractor",
    "contractor": "Waste Pro",
    "rowid": "1133089",
    "final_x": "3709796.18827",
    "final_y": "565742.198242",
    "longitude": "-89.97744330725442",
    "latitude": "30.04870416395415",
    "geocoded_column": {
      "latitude": "30.04870416395415",
      "longitude": "-89.97744330725442"
    }
  },
  {
    "service_request": "2024-1133088",
    "request_type": "Trash/Recycling",
    "request_reason": "Request a Large Item Pick Up",
    "date_created": "2024-09-18T15:01:06.000",
    "date_modified": "2024-09-18T15:01:07.000",
    "request_status": "Pending",
    "responsible_agency": "Department of Sanitation",
    "final_address": "4751 Galahad Dr",
    "address_councildis": "E",
    "status": "Assigned to Contractor",
    "contractor": "Waste Pro",
    "rowid": "1133088",
    "final_x": "3707277.34078",
    "final_y": "555535.842713",
    "longitude": "-89.98578365249598",
    "latitude": "30.020722426060345",
    "geocoded_column": {
      "latitude": "30.020722426060345",
      "longitude": "-89.98578365249598"
    }
  },
  {
    "service_request": "2024-1133087",
    "request_type": "Abandoned Vehicles",
    "request_reason": "Abandoned/Junk Vehicles",
    "date_created": "2024-09-18T15:00:51.000",
    "date_modified": "2024-09-18T15:00:52.000",
    "request_status": "Pending",
    "responsible_agency": "Department of Public Works",
    "final_address": "901 Clouet St",
    "address_councildis": "C",
    "status": "Pending",
    "rowid": "1133087",
    "final_x": "3688836.76406",
    "final_y": "535232.533638",
    "longitude": "-90.044771701261",
    "latitude": "29.965479060453887",
    "geocoded_column": {
      "latitude": "29.965479060453887",
      "longitude": "-90.044771701261"
    }
  },
  {
    "service_request": "2024-1133086",
    "request_type": "Trash/Recycling",
    "request_reason": "Return Trash Cart",
    "date_created": "2024-09-18T15:00:37.000",
    "date_modified": "2024-09-18T15:00:38.000",
    "request_status": "Pending",
    "responsible_agency": "Department of Sanitation",
    "final_address": "2333 St Thomas St",
    "address_councildis": "B",
    "status": "Assigned to Contractor",
    "contractor": "IV Waste",
    "rowid": "1133086",
    "final_x": "3679409.51183",
    "final_y": "520254.897464",
    "longitude": "-90.07506194434146",
    "latitude": "29.924583692537336",
    "geocoded_column": {
      "latitude": "29.924583692537336",
      "longitude": "-90.07506194434146"
    }
  },
  {
    "service_request": "2024-1133085",
    "request_type": "Drainage",
    "request_reason": "Street Flooding",
    "date_created": "2024-09-18T14:56:28.000",
    "date_modified": "2024-09-18T14:56:28.000",
    "request_status": "Pending",
    "responsible_agency": "Department of Public Works",
    "final_address": "1300 BLK Audubon St",
    "address_councildis": "A",
    "status": "Pending",
    "rowid": "1133085",
    "final_x": "3664709.80735",
    "final_y": "526764.084711",
    "longitude": "-90.12124679193",
    "latitude": "29.94291756219088",
    "geocoded_column": {
      "latitude": "29.94291756219088",
      "longitude": "-90.12124679193"
    }
  },