[
  {
    "service_request": "2023-1035022",
    "request_type": "Roads/Drainage",
    "request_reason": "Pothole",
    "date_created": "2023-09-14T01:58:39.000",
    "date_modified": "2023-09-14T01:58:39.000",
    "request_status": "Pending",
    "responsible_agency": "Department of Public Works",
    "final_address": "4901 Dryades St",
    "address_councildis": "B",
    "status": "Pending",
    "rowid": "1035022",
    "final_x": "3669061.19386",
    "final_y": "521866.93529",
    "longitude": "-90.1076737554389",
    "latitude": "29.929324692464",
    "geocoded_column": {
      "latitude": "29.929324692464",
      "longitude": "-90.1076737554389"
    }
  },
  {
    "service_request": "2023-1035021",
    "request_type": "Roads/Drainage",
    "request_reason": "Pothole",
    "date_created": "2023-09-14T01:12:49.000",
    "date_modified": "2023-09-14T01:12:49.000",
    "request_status": "Pending",
    "responsible_agency": "Department of Public Works",
    "final_address": "4909 Prytania St",
    "address_councildis": "B",
    "status": "Pending",
    "rowid": "1035021",
    "final_x": "3668814.42881",
    "final_y": "520274.415544",
    "longitude": "-90.10850648711484",
    "latitude": "29.924953025353908",
    "geocoded_column": {
      "latitude": "29.924953025353908",
      "longitude": "-90.10850648711484"
    }
  },
  {
    "service_request": "2023-1035020",
    "request_type": "Roads/Drainage",
    "request_reason": "Service Cut",
    "date_created": "2023-09-14T00:22:48.000",
    "date_modified": "2023-09-14T00:22:48.000",
    "request_status": "Pending",
    "responsible_agency": "Department of Public Works",
    "final_address": "4739 Dryades St",
    "address_councildis": "B",
    "status": "Pending",
    "rowid": "1035020",
    "final_x": "3669310.42426",
    "final_y": "521851.683194",
    "longitude": "-90.10688749493693",
    "latitude": "29.92927542130942",
    "geocoded_column": {
      "latitude": "29.92927542130942",
      "longitude": "-90.10688749493693"
    }
  },
  {
    "service_request": "2023-1035019",
    "request_type": "Trash/Recycling",
    "request_reason": "MIssed Recycling Pick-Up",
    "date_created": "2023-09-13T23:29:54.000",
    "date_modified": "2023-09-13T23:29:54.000",
    "request_status": "Pending",
    "responsible_agency": "Department of Sanitation",
    "final_address": "4571 Veronese Rd",
    "address_councildis": "E",
    "status": "Assigned to Contractor",
    "contractor": "Waste Pro",
    "rowid": "1035019",
    "final_x": "3763056.96157",
    "final_y": "574111.805418",
    "longitude": "-89.80876045321",
    "latitude": "30.069876258440456",
    "geocoded_column": {
      "latitude": "30.069876258440456",
      "longitude": "-89.80876045321"
    }
  },
  {
    "service_request": "2023-1035018",
    "request_type": "Property Maintenance",
    "request_reason": "Property Maintenance",
    "date_created": "2023-09-13T23:20:50.000",
    "date_modified": "2023-09-13T23:20:50.000",
    "request_status": "Pending",
    "responsible_agency": "Department of Code Enforcement",
    "final_address": "235 S Telemachus St",
    "address_councildis": "A",
    "status": "Pending",
    "rowid": "1035018",
    "final_x": "3671820.31521",
    "final_y": "536858.030664",
    "longitude": "-90.09845369416995",
    "latitude": "29.970463832712998",
    "geocoded_column": {
      "latitude": "29.970463832712998",
      "longitude": "-90.09845369416995"
    }
  },
  {
    "service_request": "2023-1035017",
    "request_type": "Trash/Recycling",
    "request_reason": "Order Recycling Cart",
    "date_created": "2023-09-13T22:53:55.000",
    "date_modified": "2023-09-13T22:53:55.000",
    "request_status": "Pending",
    "responsible_agency": "Department of Sanitation",
    "final_address": "2726 Athis St",
    "address_councildis": "D",
    "status": "Pending",
    "rowid": "1035017",
    "final_x": "3687415.48495",
    "final_y": "554490.656344",
    "longitude": "-90.04857813392003",
    "latitude": "30.018475861049957",
    "geocoded_column": {
      "latitude": "30.018475861049957",
      "longitude": "-90.04857813392003"
    }
  },
  {
    "service_request": "2023-1035016",
    "request_type": "Traffic Signals/Signs/Striping/Streetlights",
    "request_reason": "Request for Stop Sign",
    "date_created": "2023-09-13T22:17:02.000",
    "date_modified": "2023-09-13T22:17:02.000",
    "request_status": "Pending",
    "responsible_agency": "Department of Public Works",
    "final_address": "4200 BLK Constance St",
    "address_councildis": "B",
    "status": "Pending",
    "rowid": "1035016",
    "final_x": "3671666.57658",
    "final_y": "518472.738433",
    "longitude": "-90.09956440398521",
    "latitude": "29.919914848539396",
    "geocoded_column": {
      "latitude": "29.919914848539396",
      "longitude": "-90.09956440398521"
    }
  },
  {
    "service_request": "2023-1035015",
    "request_type": "Trash/Recycling",
    "request_reason": "Replace Trash Cart",
    "date_created": "2023-09-13T22:08:39.000",
    "date_modified": "2023-09-13T22:08:40.000",
    "request_status": "Pending",
    "responsible_agency": "Department of Sanitation",
    "final_address": "576 Audubon St",
    "address_councildis": "A",
    "status": "Assigned to Contractor",
    "contractor": "Richards Disposal",
    "rowid": "1035015",
    "final_x": "3662944.91015",
    "final_y": "524284.735164",
    "longitude": "-90.12690144487883",
    "latitude": "29.93615135572155",
    "geocoded_column": {
      "latitude": "29.93615135572155",
      "longitude": "-90.12690144487883"
    }
  },
  {
    "service_request": "2023-1035014",
    "request_type": "Roads/Drainage",
    "request_reason": "Road Shoulder Repair",
    "date_created": "2023-09-13T22:00:21.000",
    "date_modified": "2023-09-13T22:00:21.000",
    "request_status": "Pending",
    "responsible_agency": "Department of Public Works",
    "final_address": "6761 Manchester St",
    "address_councildis": "E",
    "status": "Pending",
    "rowid": "1035014",
    "final_x": "3698244.13706",
    "final_y": "559930.040349",
    "longitude": "-90.01416589793575",
    "latitude": "30.033093796537447",
    "geocoded_column": {
      "latitude": "30.033093796537447",
      "longitude": "-90.01416589793575"
    }
  },
  {
    "service_request": "2023-1035013",
    "request_type": "Roads/Drainage",
    "request_reason": "Ditch Issue",
    "date_created": "2023-09-13T21:47:49.000",
    "date_modified": "2023-09-13T21:47:49.000",
    "request_status": "Pending",
    "responsible_agency": "Department of Public Works",
    "final_address": "4407 S Carrollton Ave",
    "address_councildis": "A",
    "status": "Pending",
    "rowid": "1035013",
    "final_x": "3670039.81146",
    "final_y": "537296.607944",
    "longitude": "-90.10406188337352",
    "latitude": "29.97172241499035",
    "geocoded_column": {
      "latitude": "29.97172241499035",
      "longitude": "-90.10406188337352"
    }
  },
  {
    "service_request": "2023-1035011",
    "request_type": "Trash/Recycling",
    "request_reason": "Illegal Dumping",
    "date_created": "2023-09-13T21:33:54.000",
    "date_modified": "2023-09-13T21:33:54.000",
    "request_status": "Pending",
    "responsible_agency": "Department of Sanitation",
    "final_address": "2708 St Roch Ave",
    "address_councildis": "D",
    "status": "Pending",
    "rowid": "1035011",
    "final_x": "3685875.4934",
    "final_y": "542864.272269",
    "longitude": "-90.05385412864344",
    "latitude": "29.986554898617754",
    "geocoded_column": {
      "latitude": "29.986554898617754",
      "longitude": "-90.05385412864344"
    }
  },
  {
    "service_request": "2023-1035010",
    "request_type": "Roads/Drainage",
    "request_reason": "Pothole",
    "date_created": "2023-09-13T21:26:53.000",
    "date_modified": "2023-09-13T21:26:53.000",
    "request_status": "Pending",
    "responsible_agency": "Department of Public Works",
    "final_address": "1221 Constantinople St",
    "address_councildis": "B",
    "status": "Pending",
    "rowid": "1035010",
    "final_x": "3672464.70081",
    "final_y": "520181.419896",
    "longitude": "-90.09698691327688",
    "latitude": "29.92458952289487",
    "geocoded_column": {
      "latitude": "29.92458952289487",
      "longitude": "-90.09698691327688"
    }
  },
  {
    "service_request": "2023-1035009",
    "request_type": "Roads/Drainage",
    "request_reason": "Pothole",
    "date_created": "2023-09-13T21:19:41.000",
    "date_modified": "2023-09-13T21:19:41.000",
    "request_status": "Pending",
    "responsible_agency": "Department of Public Works",
    "final_address": "4315 Pitt St",
    "address_councildis": "B",
    "status": "Pending",
    "rowid": "1035009",
    "final_x": "3671135.74062",
    "final_y": "520647.281017",
    "longitude": "-90.10116618834792",
    "latitude": "29.92590985375874",
    "geocoded_column": {
      "latitude": "29.92590985375874",
      "longitude": "-90.10116618834792"
    }
  },
  {
    "service_request": "2023-1035008",
    "request_type": "Trash/Recycling",
    "request_reason": "Order Trash Cart",
    "date_created": "2023-09-13T21:04:46.000",
    "date_modified": "2023-09-13T21:04:47.000",
    "request_status": "Pending",
    "responsible_agency": "Department of Sanitation",
    "final_address": "10815 Curran Rd",
    "address_councildis": "E",
    "status": "Assigned to Contractor",
    "contractor": "Waste Pro",
    "rowid": "1035008",
    "final_x": "3709842.57547",
    "final_y": "565779.982883",
    "longitude": "-89.97729528437385",
    "latitude": "30.048806547123178",
    "geocoded_column": {
      "latitude": "30.048806547123178",
      "longitude": "-89.97729528437385"
    }
  },
  {
    "service_request": "2023-1035007",
    "request_type": "Trash/Recycling",
    "request_reason": "MIssed Recycling Pick-Up",
    "date_created": "2023-09-13T21:04:28.000",
    "date_modified": "2023-09-13T21:04:29.000",
    "request_status": "Pending",
    "responsible_agency": "Department of Sanitation",
    "final_address": "606 Third St",
    "address_councildis": "B",
    "status": "Assigned to Contractor",
    "contractor": "Richards Disposal",
    "rowid": "1035007",
    "final_x": "3678508.44571",
    "final_y": "519679.1854",
    "longitude": "-90.07792621726803",
    "latitude": "29.923027848106884",
    "geocoded_column": {
      "latitude": "29.923027848106884",
      "longitude": "-90.07792621726803"
    }
  },
  {
    "service_request": "2023-1035006",
    "request_type": "Trash/Recycling",
    "request_reason": "Return Trash Cart",
    "date_created": "2023-09-13T20:44:30.000",
    "date_modified": "2023-09-13T20:44:30.000",
    "request_status": "Pending",
    "responsible_agency": "Department of Sanitation",
    "final_address": "2322 Coliseum St",
    "address_councildis": "B",
    "status": "Assigned to Contractor",
    "contractor": "Richards Disposal",
    "rowid": "1035006",
    "final_x": "3677770.48744",
    "final_y": "522519.14201",
    "longitude": "-90.0801576228923",
    "latitude": "29.93085901583104",
    "geocoded_column": {
      "latitude": "29.93085901583104",
      "longitude": "-90.0801576228923"
    }
  },
  {
    "service_request": "2023-1035005",
    "request_type": "Trash/Recycling",
    "request_reason": "MIssed Recycling Pick-Up",
    "date_created": "2023-09-13T20:35:45.000",
    "date_modified": "2023-09-13T20:35:46.000",
    "request_status": "Pending",
    "responsible_agency": "Department of Sanitation",
    "status": "Assigned to Contractor",
    "rowid": "1035005",
    "longitude": "0.0",
    "latitude": "0.0",
    "geocoded_column": {
      "latitude": "0.0",
      "longitude": "0.0"
    }
  },
  {
    "service_request": "2023-1035004",
    "request_type": "Roads/Drainage",
    "request_reason": "Catch Basin - Clogged",
    "date_created": "2023-09-13T20:35:24.000",
    "date_modified": "2023-09-13T20:35:24.000",
    "request_status": "Pending",
    "responsible_agency": "Department of Public Works",
    "final_address": "5650 Marshal Foch St",
    "address_councildis": "A",
    "status": "Pending",
    "rowid": "1035004",
    "final_x": "3669494.34094",
    "final_y": "544674.684111",
    "longitude": "-90.10553489025261",
    "latitude": "29.992025698234748",
    "geocoded_column": {
      "latitude": "29.992025698234748",
      "longitude": "-90.10553489025261"
    }
  },
  {
    "service_request": "2023-1035003",
    "request_type": "Traffic Signals/Signs/Striping/Streetlights",
    "request_reason": "Street Light Outage/Malfunction",
    "date_created": "2023-09-13T20:21:56.000",
    "date_modified": "2023-09-13T20:21:56.000",
    "request_status": "Pending",
    "responsible_agency": "Department of Public Works",
    "final_address": "1122 Arabella St",
    "address_councildis": "A",
    "status": "Assigned to Contractor",
    "contractor": "Legacy Professional Services",
    "rowid": "1035003",
    "final_x": "3666035.07623",
    "final_y": "520101.819064",
    "longitude": "-90.1172858130871",
    "latitude": "29.924559838144816",
    "geocoded_column": {
      "latitude": "29.924559838144816",
      "longitude": "-90.1172858130871"
    }
  },
  {
    "service_request": "2023-1035002",
    "request_type": "Traffic Signals/Signs/Striping/Streetlights",
    "request_reason": "Street Light Outage/Malfunction",
    "date_created": "2023-09-13T20:19:14.000",
    "date_modified": "2023-09-13T20:19:15.000",
    "request_status": "Pending",
    "responsible_agency": "Department of Public Works",
    "final_address": "2013 Palmer creating safety concern. and Freret",
    "status": "Assigned to Contractor",
    "contractor": "Legacy Professional Services",
    "rowid": "1035002",
    "longitude": "0.0",
    "latitude": "0.0",
    "geocoded_column": {
      "latitude": "0.0",
      "longitude": "0.0"
    }
  },
  {
    "service_request": "2023-1035001",
    "request_type": "Traffic Signals/Signs/Striping/Streetlights",
    "request_reason": "Street Light Outage/Malfunction",
    "date_created": "2023-09-13T20:14:36.000",
    "date_modified": "2023-09-13T20:14:37.000",
    "request_status": "Pending",
    "responsible_agency": "Department of Public Works",
    "final_address": "2228 General Taylor St",
    "address_councildis": "B",
    "status": "Assigned to Contractor",
    "contractor": "Legacy Professional Services",
    "rowid": "1035001",
    "final_x": "3672038.59163",
    "final_y": "523390.934587",
    "longitude": "-90.0982227921917",
    "latitude": "29.933427291922325",
    "geocoded_column": {
      "latitude": "29.933427291922325",
      "longitude": "-90.0982227921917"
    }
  },
  {
    "service_request": "2023-1035000",
    "request_type": "Trash/Recycling",
    "request_reason": "Request a Large Item Pick Up",
    "date_created": "2023-09-13T19:30:01.000",
    "date_modified": "2023-09-13T19:30:01.000",
    "request_status": "Pending",
    "responsible_agency": "Department of Sanitation",
    "final_address": "1843 Marigny St",
    "address_councildis": "D",
    "status": "Assigned to Contractor",
    "contractor": "IV Waste",
    "rowid": "1035000",
    "final_x": "3685217.64853",
    "final_y": "539254.242634",
    "longitude": "-90.05605911542231",
    "latitude": "29.97664877134958",
    "geocoded_column": {
      "latitude": "29.97664877134958",
      "longitude": "-90.05605911542231"
    }
  },
  {
    "service_request": "2023-1034998",
    "request_type": "Trash/Recycling",
    "request_reason": "Request a Large Item Pick Up",
    "date_created": "2023-09-13T19:23:06.000",
    "date_modified": "2023-09-13T19:23:07.000",
    "request_status": "Pending",
    "responsible_agency": "Department of Sanitation",
    "final_address": "4926 Gabriel Dr",
    "address_councildis": "E",
    "status": "Assigned to Contractor",
    "contractor": "Waste Pro",
    "rowid": "1034998",
    "final_x": "3708726.73336",
    "final_y": "556737.294106",
    "longitude": "-89.9811592437263",
    "latitude": "30.023979000539597",
    "geocoded_column": {
      "latitude": "30.023979000539597",
      "longitude": "-89.9811592437263"
    }
  },
  {
    "service_request": "2023-1034997",
    "request_type": "Trash/Recycling",
    "request_reason": "MIssed Recycling Pick-Up",
    "date_created": "2023-09-13T19:18:52.000",
    "date_modified": "2023-09-13T19:18:53.000",
    "request_status": "Pending",
    "responsible_agency": "Department of Sanitation",
    "final_address": "916 Cadiz St",
    "address_councildis": "B",
    "status": "Assigned to Contractor",
    "contractor": "Richards Disposal",
    "rowid": "1034997",
    "final_x": "3670235.75687",
    "final_y": "518862.953015",
    "longitude": "-90.10406760526669",
    "latitude": "29.921030099444632",
    "geocoded_column": {
      "latitude": "29.921030099444632",
      "longitude": "-90.10406760526669"
    }
  },
  {
    "service_request": "2023-1034996",
    "request_type": "Traffic Signals/Signs/Striping/Streetlights",
    "request_reason": "Road Surface Marking Maintenance-Traffic Control",
    "date_created": "2023-09-13T19:18:27.000",
    "date_modified": "2023-09-13T19:18:27.000",
    "request_status": "Pending",
    "responsible_agency": "Department of Public Works",
    "final_address": "1102 Prytania St",
    "address_councildis": "A",
    "status": "Pending",
    "rowid": "1034996",
    "final_x": "3661776.61107",
    "final_y": "522626.131322",
    "longitude": "-90.13064477728146",
    "latitude": "29.931624488913673",
    "geocoded_column": {
      "latitude": "29.931624488913673",
      "longitude": "-90.13064477728146"
    }
  },
  {
    "service_request": "2023-1034995",
    "request_type": "Roads/Drainage",
    "request_reason": "Pothole",
    "date_created": "2023-09-13T19:16:51.000",
    "date_modified": "2023-09-13T19:16:51.000",
    "request_status": "Pending",
    "responsible_agency": "Department of Public Works",
    "final_address": "100 Henry Clay Ave",
    "address_councildis": "A",
    "status": "Pending",
    "rowid": "1034995",
    "final_x": "3662200.39392",
    "final_y": "516863.577525",
    "longitude": "-90.12949806183448",
    "latitude": "29.915767023866923",
    "geocoded_column": {
      "latitude": "29.915767023866923",
      "longitude": "-90.12949806183448"
    }
  },
  {
    "service_request": "2023-1034994",
    "request_type": "Roads/Drainage",
    "request_reason": "Pothole",
    "date_created": "2023-09-13T19:14:32.000",
    "date_modified": "2023-09-13T19:14:32.000",
    "request_status": "Pending",
    "responsible_agency": "Department of Public Works",
    "final_address": "100 BLK Henry Clay Ave",
    "address_councildis": "A",
    "status": "Pending",
    "rowid": "1034994",
    "final_x": "3662979.62938",
    "final_y": "517557.039477",
    "longitude": "-90.12701544057285",
    "latitude": "29.91765129549873",
    "geocoded_column": {
      "latitude": "29.91765129549873",
      "longitude": "-90.12701544057285"
    }
  },
  {
    "service_request": "2023-1034993",
    "request_type": "Trash/Recycling",
    "request_reason": "Replace Trash Cart",
    "date_created": "2023-09-13T19:10:45.000",
    "date_modified": "2023-09-13T19:10:46.000",
    "request_status": "Pending",
    "responsible_agency": "Department of Sanitation",
    "final_address": "536 Soniat St",
    "address_councildis": "B",
    "status": "Assigned to Contractor",
    "contractor": "Richards Disposal",
    "rowid": "1034993",
    "final_x": "3668273.50273",
    "final_y": "517512.62847",
    "longitude": "-90.11030707322263",
    "latitude": "29.917374870304293",
    "geocoded_column": {
      "latitude": "29.917374870304293",
      "longitude": "-90.11030707322263"
    }
  },
  {
    "service_request": "2023-1034992",
    "request_type": "Trash/Recycling",
    "request_reason": "Missed Trash Pick-Up",
    "date_created": "2023-09-13T19:02:20.000",
    "date_modified": "2023-09-13T19:02:22.000",
    "request_status": "Pending",
    "responsible_agency": "Department of Sanitation",
    "final_address": "533 Third",
    "address_councildis": "B",
    "status": "Assigned to Contractor",
    "contractor": "Richards Disposal",
    "rowid": "1034992",
    "final_x": "3678707.83106",
    "final_y": "519546.092471",
    "longitude": "-90.07730144004744",
    "latitude": "29.922655877572755",
    "geocoded_column": {
      "latitude": "29.922655877572755",
      "longitude": "-90.07730144004744"
    }
  },
  {
    "service_request": "2023-1034991",
    "request_type": "Roads/Drainage",
    "request_reason": "Catch Basin - Clogged",
    "date_created": "2023-09-13T18:59:10.000",
    "date_modified": "2023-09-13T18:59:10.000",
    "request_status": "Pending",
    "responsible_agency": "Department of Public Works",
    "final_address": "235 S Gayoso St",
    "address_councildis": "B",
    "status": "Pending",
    "rowid": "1034991",
    "final_x": "3673827.6324",
    "final_y": "535314.845958",
    "longitude": "-90.09216713820742",
    "latitude": "29.966160959878643",
    "geocoded_column": {
      "latitude": "29.966160959878643",
      "longitude": "-90.09216713820742"
    }
  },
  {
    "service_request": "2023-1034990",
    "request_type": "Trash/Recycling",
    "request_reason": "Replace Trash Cart",
    "date_created": "2023-09-13T18:57:05.000",
    "date_modified": "2023-09-13T18:57:06.000",
    "request_status": "Pending",
    "responsible_agency": "Department of Sanitation",
    "final_address": "235 S Gayoso St",
    "address_councildis": "B",
    "status": "Assigned to Contractor",
    "contractor": "Richards Disposal",
    "rowid": "1034990",
    "final_x": "3673827.6324",
    "final_y": "535314.845958",
    "longitude": "-90.09216713820742",
    "latitude": "29.966160959878643",
    "geocoded_column": {
      "latitude": "29.966160959878643",
      "longitude": "-90.09216713820742"
    }
  },
  {
    "service_request": "2023-1034989",
    "request_type": "Trash/Recycling",
    "request_reason": "Request a Large Item Pick Up",
    "date_created": "2023-09-13T18:35:23.000",
    "date_modified": "2023-09-13T18:35:24.000",
    "request_status": "Pending",
    "responsible_agency": "Department of Sanitation",
    "final_address": "6314 Ransom St",
    "address_councildis": "D",
    "status": "Assigned to Contractor",
    "contractor": "Waste Pro",
    "rowid": "1034989",
    "final_x": "3698159.59408",
    "final_y": "552853.378391",
    "longitude": "-90.0146904145094",
    "latitude": "30.01363835042148",
    "geocoded_column": {
      "latitude": "30.01363835042148",
      "longitude": "-90.0146904145094"
    }
  },
  {
    "service_request": "2023-1034988",
    "request_type": "Trash/Recycling",
    "request_reason": "Replace Trash Cart",
    "date_created": "2023-09-13T18:28:26.000",
    "date_modified": "2023-09-13T18:28:27.000",
    "request_status": "Pending",
    "responsible_agency": "Department of Sanitation",
    "final_address": "726 Third St",
    "address_councildis": "B",
    "status": "Assigned to Contractor",
    "contractor": "Richards Disposal",
    "rowid": "1034988",
    "final_x": "3678224.81768",
    "final_y": "520075.945592",
    "longitude": "-90.07880780930961",
    "latitude": "29.924127351403257",
    "geocoded_column": {
      "latitude": "29.924127351403257",
      "longitude": "-90.07880780930961"
    }
  },
  {
    "service_request": "2023-1034987",
    "request_type": "Trash/Recycling",
    "request_reason": "Request a Large Item Pick Up",
    "date_created": "2023-09-13T18:25:06.000",
    "date_modified": "2023-09-13T18:25:07.000",
    "request_status": "Pending",
    "responsible_agency": "Department of Sanitation",
    "final_address": "204 David St",
    "address_councildis": "A",
    "status": "Assigned to Contractor",
    "contractor": "Richards Disposal",
    "rowid": "1034987",
    "final_x": "3671230.34631",
    "final_y": "538876.753225",
    "longitude": "-90.10024827958794",
    "latitude": "29.97603210787383",
    "geocoded_column": {
      "latitude": "29.97603210787383",
      "longitude": "-90.10024827958794"
    }
  },
  {
    "service_request": "2023-1034986",
    "request_type": "Property Maintenance",
    "request_reason": "Property Maintenance",
    "date_created": "2023-09-13T18:21:59.000",
    "date_modified": "2023-09-13T18:21:59.000",
    "request_status": "Pending",
    "responsible_agency": "Department of Code Enforcement",
    "final_address": "4224 Baudin St",
    "address_councildis": "A",
    "status": "Pending",
    "rowid": "1034986",
    "final_x": "3669429.31687",
    "final_y": "537547.472776",
    "longitude": "-90.10598143828268",
    "latitude": "29.972430203745386",
    "geocoded_column": {
      "latitude": "29.972430203745386",
      "longitude": "-90.10598143828268"
    }
  },
  {
    "service_request": "2023-1034985",
    "request_type": "Trash/Recycling",
    "request_reason": "MIssed Recycling Pick-Up",
    "date_created": "2023-09-13T18:05:18.000",
    "date_modified": "2023-09-13T18:05:18.000",
    "request_status": "Pending",
    "responsible_agency": "Department of Sanitation",
    "final_address": "1712 General Pershing St",
    "address_councildis": "B",
    "status": "Assigned to Contractor",
    "contractor": "Richards Disposal",
    "rowid": "1034985",
    "final_x": "3671142.36903",
    "final_y": "521403.151993",
    "longitude": "-90.10111960513036",
    "latitude": "29.92798806112126",
    "geocoded_column": {
      "latitude": "29.92798806112126",
      "longitude": "-90.10111960513036"
    }
  },
  {
    "service_request": "2023-1034984",
    "request_type": "Trash/Recycling",
    "request_reason": "MIssed Recycling Pick-Up",
    "date_created": "2023-09-13T17:55:33.000",
    "date_modified": "2023-09-13T17:55:34.000",
    "request_status": "Pending",
    "responsible_agency": "Department of Sanitation",
    "final_address": "4548 Schemkel Dr",
    "address_councildis": "E",
    "status": "Assigned to Contractor",
    "contractor": "Waste Pro",
    "rowid": "1034984",
    "final_x": "3784711.1262",
    "final_y": "607604.479946",
    "longitude": "-89.73883508000559",
    "latitude": "30.161154082799523",
    "geocoded_column": {
      "latitude": "30.161154082799523",
      "longitude": "-89.73883508000559"
    }
  },
  {
    "service_request": "2023-1034983",
    "request_type": "Trash/Recycling",
    "request_reason": "Replace Trash Cart",
    "date_created": "2023-09-13T17:54:39.000",
    "date_modified": "2023-09-13T17:54:39.000",
    "request_status": "Pending",
    "responsible_agency": "Department of Sanitation",
    "final_address": "2116 Short St",
    "address_councildis": "A",
    "status": "Assigned to Contractor",
    "contractor": "Richards Disposal",
    "rowid": "1034983",
    "final_x": "3664504.69869",
    "final_y": "530548.51533",
    "longitude": "-90.12176803508385",
    "latitude": "29.953329490703766",
    "geocoded_column": {
      "latitude": "29.953329490703766",
      "longitude": "-90.12176803508385"
    }
  },
  {
    "service_request": "2023-1034982",
    "request_type": "Mosquito, Termite & Rodent Control",
    "request_reason": "Mosquito Complaint",
    "date_created": "2023-09-13T17:52:10.000",
    "date_modified": "2023-09-13T17:52:10.000",
    "request_status": "Pending",
    "responsible_agency": "Mosquito, Termite & Rodent Control Board",
    "status": "Pending",
    "rowid": "1034982",
    "longitude": "0.0",
    "latitude": "0.0",
    "geocoded_column": {
      "latitude": "0.0",
      "longitude": "0.0"
    }
  },
  {
    "service_request": "2023-1034981",
    "request_type": "Trash/Recycling",
    "request_reason": "Missed Trash Pick-Up",
    "date_created": "2023-09-13T17:51:11.000",
    "date_modified": "2023-09-13T17:51:12.000",
    "request_status": "Pending",
    "responsible_agency": "Department of Sanitation",
    "final_address": "4424 LaSalle St",
    "address_councildis": "B",
    "status": "Assigned to Contractor",
    "contractor": "Richards Disposal",
    "rowid": "1034981",
    "final_x": "3670278.55156",
    "final_y": "523631.766075",
    "longitude": "-90.10377099263765",
    "latitude": "29.934141549429913",
    "geocoded_column": {
      "latitude": "29.934141549429913",
      "longitude": "-90.10377099263765"
    }
  },
  {
    "service_request": "2023-1034980",
    "request_type": "Trash/Recycling",
    "request_reason": "Illegal Dumping",
    "date_created": "2023-09-13T17:49:46.000",
    "date_modified": "2023-09-13T17:49:46.000",
    "request_status": "Pending",
    "responsible_agency": "Department of Code Enforcement",
    "final_address": "2100 Flood St",
    "address_councildis": "E",
    "status": "Pending",
    "rowid": "1034980",
    "final_x": "3698694.95114",
    "final_y": "537637.073928",
    "longitude": "-90.01355270892716",
    "latitude": "29.971782172102323",
    "geocoded_column": {
      "latitude": "29.971782172102323",
      "longitude": "-90.01355270892716"
    }
  },
  {
    "service_request": "2023-1034978",
    "request_type": "Abandoned Vehicles",
    "request_reason": "Abandoned/Junk Vehicles",
    "date_created": "2023-09-13T17:36:50.000",
    "date_modified": "2023-09-13T17:38:41.000",
    "request_status": "Pending",
    "responsible_agency": "Department of Public Works",
    "final_address": "2008 Almonaster Ave",
    "address_councildis": "D",
    "status": "Pending",
    "rowid": "1034978",
    "final_x": "3687904.99971",
    "final_y": "539984.362827",
    "longitude": "-90.04754577587265",
    "latitude": "29.978573701664853",
    "geocoded_column": {
      "latitude": "29.978573701664853",
      "longitude": "-90.04754577587265"
    }
  },
  {
    "service_request": "2023-1034975",
    "request_type": "Parks & Parkways",
    "request_reason": "Request Grass Cutting Service (City Owned Property)",
    "date_created": "2023-09-13T17:26:21.000",
    "date_modified": "2023-09-13T17:26:21.000",
    "request_status": "Pending",
    "responsible_agency": "Department of Parks & Parkway",
    "final_address": "3200 BLK Algiers Pkwy",
    "address_councildis": "C",
    "status": "Pending",
    "rowid": "1034975",
    "final_x": "3698334.48682",
    "final_y": "517802.646597",
    "longitude": "-90.01541157767683",
    "latitude": "29.917255838482642",
    "geocoded_column": {
      "latitude": "29.917255838482642",
      "longitude": "-90.01541157767683"
    }
  },
  {
    "service_request": "2023-1034974",
    "request_type": "Traffic Signals/Signs/Striping/Streetlights",
    "request_reason": "Street Light Outage/Malfunction",
    "date_created": "2023-09-13T17:11:56.000",
    "date_modified": "2023-09-13T17:11:57.000",
    "request_status": "Pending",
    "responsible_agency": "Department of Public Works",
    "final_address": "DESAIX BLVD & WINTHROP PL",
    "address_councildis": "D",
    "status": "Assigned to Contractor",
    "contractor": "Legacy Professional Services",
    "rowid": "1034974",
    "final_x": "3677600.6",
    "final_y": "543621.58",
    "longitude": "-90.07996524449345",
    "latitude": "29.988888703135093",
    "geocoded_column": {
      "latitude": "29.988888703135093",
      "longitude": "-90.07996524449345"
    }
  },
  {
    "service_request": "2023-1034973",
    "request_type": "Traffic Signals/Signs/Striping/Streetlights",
    "request_reason": "Street Light Outage/Malfunction",
    "date_created": "2023-09-13T17:05:37.000",
    "date_modified": "2023-09-13T17:09:40.000",
    "request_status": "Pending",
    "responsible_agency": "Department of Public Works",
    "final_address": "207 Norland Ave",
    "address_councildis": "C",
    "status": "Assigned to Contractor",
    "contractor": "Legacy Professional Services",
    "rowid": "1034973",
    "final_x": "3706368.79063",
    "final_y": "520328.73708",
    "longitude": "-89.9899585925437",
    "latitude": "29.923945170599215",
    "geocoded_column": {
      "latitude": "29.923945170599215",
      "longitude": "-89.9899585925437"
    }
  },
  {
    "service_request": "2023-1034972",
    "request_type": "Trash/Recycling",
    "request_reason": "Request a Large Item Pick Up",
    "date_created": "2023-09-13T17:03:40.000",
    "date_modified": "2023-09-13T17:09:33.000",
    "request_status": "Pending",
    "responsible_agency": "Department of Sanitation",
    "final_address": "324 S St Patrick St",
    "address_councildis": "A",
    "status": "Assigned to Contractor",
    "contractor": "Richards Disposal",
    "rowid": "1034972",
    "final_x": "3668600.25972",
    "final_y": "539004.066378",
    "longitude": "-90.10855058369152",
    "latitude": "29.976459738768135",
    "geocoded_column": {
      "latitude": "29.976459738768135",
      "longitude": "-90.10855058369152"
    }
  },
  {
    "service_request": "2023-1034971",
    "request_type": "Trash/Recycling",
    "request_reason": "Repair Trash Cart",
    "date_created": "2023-09-13T17:01:43.000",
    "date_modified": "2023-09-13T17:08:19.000",
    "request_status": "Pending",
    "responsible_agency": "Department of Sanitation",
    "final_address": "3524 N Derbigny St",
    "address_councildis": "D",
    "status": "Assigned to Contractor",
    "contractor": "IV Waste",
    "rowid": "1034971",
    "final_x": "3691230.03331",
    "final_y": "537790.136136",
    "longitude": "-90.03712252354595",
    "latitude": "29.97243734534437",
    "geocoded_column": {
      "latitude": "29.97243734534437",
      "longitude": "-90.03712252354595"
    }
  },
  {
    "service_request": "2023-1034970",
    "request_type": "Roads/Drainage",
    "request_reason": "Pothole",
    "date_created": "2023-09-13T17:01:08.000",
    "date_modified": "2023-09-13T17:01:08.000",
    "request_status": "Pending",
    "responsible_agency": "Department of Public Works",
    "final_address": "7727 Benjamin St",
    "address_councildis": "A",
    "status": "Pending",
    "rowid": "1034970",
    "final_x": "3660755.39597",
    "final_y": "525251.296573",
    "longitude": "-90.13378189495782",
    "latitude": "29.938872301215525",
    "geocoded_column": {
      "latitude": "29.938872301215525",
      "longitude": "-90.13378189495782"
    }
  },
  {
    "service_request": "2023-1034969",
    "request_type": "Traffic Signals/Signs/Striping/Streetlights",
    "request_reason": "Additional signage",
    "date_created": "2023-09-13T16:59:25.000",
    "date_modified": "2023-09-13T16:59:25.000",
    "request_status": "Pending",
    "responsible_agency": "Department of Public Works",
    "final_address": "4909 Prytania St",
    "address_councildis": "B",
    "status": "Pending",
    "rowid": "1034969",
    "final_x": "3668814.42881",
    "final_y": "520274.415544",
    "longitude": "-90.10850648711484",
    "latitude": "29.924953025353908",
    "geocoded_column": {
      "latitude": "29.924953025353908",
      "longitude": "-90.10850648711484"
    }
  },
  {
    "service_request": "2023-1034968",
    "request_type": "Trash/Recycling",
    "request_reason": "Order Recycling Cart",
    "date_created": "2023-09-13T16:57:56.000",
    "date_modified": "2023-09-13T16:57:56.000",
    "request_status": "Pending",
    "responsible_agency": "Department of Sanitation",
    "final_address": "7821 Maple St",
    "address_councildis": "A",
    "status": "Pending",
    "rowid": "1034968",
    "final_x": "3661729.10797",
    "final_y": "526748.786174",
    "longitude": "-90.1306581367403",
    "latitude": "29.942961857403066",
    "geocoded_column": {
      "latitude": "29.942961857403066",
      "longitude": "-90.1306581367403"
    }
  },
  {
    "service_request": "2023-1034967",
    "request_type": "Trash/Recycling",
    "request_reason": "Repair Trash Cart",
    "date_created": "2023-09-13T16:49:30.000",
    "date_modified": "2023-09-13T16:56:39.000",
    "request_status": "Pending",
    "responsible_agency": "Department of Sanitation",
    "final_address": "4490 Lennox Blvd",
    "address_councildis": "C",
    "status": "Assigned to Contractor",
    "contractor": "Richards Disposal",
    "rowid": "1034967",
    "final_x": "3700891.74289",
    "final_y": "514639.866035",
    "longitude": "-90.00745534751286",
    "latitude": "29.908478143798433",
    "geocoded_column": {
      "latitude": "29.908478143798433",
      "longitude": "-90.00745534751286"
    }
  },
  {
    "service_request": "2023-1034966",
    "request_type": "Trash/Recycling",
    "request_reason": "Request a Large Item Pick Up",
    "date_created": "2023-09-13T16:48:33.000",
    "date_modified": "2023-09-13T16:55:49.000",
    "request_status": "Pending",
    "responsible_agency": "Department of Sanitation",
    "final_address": "4 Audubon Blvd",
    "address_councildis": "A",
    "status": "Assigned to Contractor",
    "contractor": "Richards Disposal",
    "rowid": "1034966",
    "final_x": "3665135.85914",
    "final_y": "526804.942142",
    "longitude": "-90.11990027165078",
    "latitude": "29.94301750781576",
    "geocoded_column": {
      "latitude": "29.94301750781576",
      "longitude": "-90.11990027165078"
    }
  },
  {
    "service_request": "2023-1034965",
    "request_type": "Trash/Recycling",
    "request_reason": "Missed Trash Pick-Up",
    "date_created": "2023-09-13T16:47:52.000",
    "date_modified": "2023-09-13T16:55:11.000",
    "request_status": "Pending",
    "responsible_agency": "Department of Sanitation",
    "final_address": "4 Audubon Blvd",
    "address_councildis": "A",
    "status": "Assigned to Contractor",
    "contractor": "Richards Disposal",
    "rowid": "1034965",
    "final_x": "3665135.85914",
    "final_y": "526804.942142",
    "longitude": "-90.11990027165078",
    "latitude": "29.94301750781576",
    "geocoded_column": {
      "latitude": "29.94301750781576",
      "longitude": "-90.11990027165078"
    }
  },
  {
    "service_request": "2023-1034964",
    "request_type": "Trash/Recycling",
    "request_reason": "Order Recycling Cart",
    "date_created": "2023-09-13T16:45:56.000",
    "date_modified": "2023-09-13T16:45:56.000",
    "request_status": "Pending",
    "responsible_agency": "Department of Sanitation",
    "final_address": "2355 Chippewa St",
    "address_councildis": "B",
    "status": "Pending",
    "rowid": "1034964",
    "final_x": "3679033.04315",
    "final_y": "520413.356344",
    "longitude": "-90.07624484117326",
    "latitude": "29.92503076486207",
    "geocoded_column": {
      "latitude": "29.92503076486207",
      "longitude": "-90.07624484117326"
    }
  },
  {
    "service_request": "2023-1034963",
    "request_type": "Trash/Recycling",
    "request_reason": "Order Recycling Cart",
    "date_created": "2023-09-13T16:45:38.000",
    "date_modified": "2023-09-13T16:53:01.000",
    "request_status": "Pending",
    "responsible_agency": "Department of Sanitation",
    "final_address": "2357 Chippewa St",
    "address_councildis": "B",
    "status": "Pending",
    "rowid": "1034963",
    "final_x": "3679015.95534",
    "final_y": "520404.059704",
    "longitude": "-90.07629910380341",
    "latitude": "29.925005717596164",
    "geocoded_column": {
      "latitude": "29.925005717596164",
      "longitude": "-90.07629910380341"
    }
  },
  {
    "service_request": "2023-1034962",
    "request_type": "Trash/Recycling",
    "request_reason": "Missed Trash Pick-Up",
    "date_created": "2023-09-13T16:45:22.000",
    "date_modified": "2023-09-13T16:52:43.000",
    "request_status": "Pending",
    "responsible_agency": "Department of Sanitation",
    "final_address": "4 Marlborough Gate Pl",
    "address_councildis": "B",
    "status": "Assigned to Contractor",
    "contractor": "Richards Disposal",
    "rowid": "1034962",
    "final_x": "3669059.277",
    "final_y": "523682.326203",
    "longitude": "-90.10761850321947",
    "latitude": "29.934316492926513",
    "geocoded_column": {
      "latitude": "29.934316492926513",
      "longitude": "-90.10761850321947"
    }
  },
  {
    "service_request": "2023-1034961",
    "request_type": "Traffic Signals/Signs/Striping/Streetlights",
    "request_reason": "Street Light Outage/Malfunction",
    "date_created": "2023-09-13T16:38:55.000",
    "date_modified": "2023-09-13T16:45:01.000",
    "request_status": "Pending",
    "responsible_agency": "Department of Public Works",
    "final_address": "1901 Montegut St",
    "address_councildis": "D",
    "status": "Assigned to Contractor",
    "contractor": "Legacy Professional Services",
    "rowid": "1034961",
    "final_x": "3689278.79081",
    "final_y": "539162.113994",
    "longitude": "-90.04323608737957",
    "latitude": "29.97627034909598",
    "geocoded_column": {
      "latitude": "29.97627034909598",
      "longitude": "-90.04323608737957"
    }
  },
  {
    "service_request": "2023-1034960",
    "request_type": "Traffic Signals/Signs/Striping/Streetlights",
    "request_reason": "Street Light Outage/Malfunction",
    "date_created": "2023-09-13T16:37:34.000",
    "date_modified": "2023-09-13T16:43:15.000",
    "request_status": "Pending",
    "responsible_agency": "Department of Public Works",
    "final_address": "1901 Feliciana St",
    "address_councildis": "D",
    "status": "Assigned to Contractor",
    "contractor": "Legacy Professional Services",
    "rowid": "1034960",
    "final_x": "3689536.36502",
    "final_y": "539096.707594",
    "longitude": "-90.04242492126126",
    "latitude": "29.976082528095034",
    "geocoded_column": {
      "latitude": "29.976082528095034",
      "longitude": "-90.04242492126126"
    }
  },
  {
    "service_request": "2023-1034959",
    "request_type": "Traffic Signals/Signs/Striping/Streetlights",
    "request_reason": "Street Light Outage/Malfunction",
    "date_created": "2023-09-13T16:35:12.000",
    "date_modified": "2023-09-13T16:39:53.000",
    "request_status": "Pending",
    "responsible_agency": "Department of Public Works",
    "final_address": "1900 Clouet St",
    "address_councildis": "D",
    "status": "Assigned to Contractor",
    "contractor": "Legacy Professional Services",
    "rowid": "1034959",
    "final_x": "3689719.19817",
    "final_y": "539046.423818",
    "longitude": "-90.04184927271778",
    "latitude": "29.97593860050021",
    "geocoded_column": {
      "latitude": "29.97593860050021",
      "longitude": "-90.04184927271778"
    }
  },
  {
    "service_request": "2023-1034958",
    "request_type": "Trash/Recycling",
    "request_reason": "Order Recycling Cart",
    "date_created": "2023-09-13T16:34:50.000",
    "date_modified": "2023-09-13T16:39:23.000",
    "request_status": "Pending",
    "responsible_agency": "Department of Sanitation",
    "final_address": "2522 S Carrollton Ave",
    "address_councildis": "A",
    "status": "Pending",
    "rowid": "1034958",
    "final_x": "3665208.72039",
    "final_y": "532010.852035",
    "longitude": "-90.11949611260593",
    "latitude": "29.95732995300453",
    "geocoded_column": {
      "latitude": "29.95732995300453",
      "longitude": "-90.11949611260593"
    }
  },
  {
    "service_request": "2023-1034957",
    "request_type": "Traffic Signals/Signs/Striping/Streetlights",
    "request_reason": "Street Light Outage/Malfunction",
    "date_created": "2023-09-13T16:33:52.000",
    "date_modified": "2023-09-13T16:38:00.000",
    "request_status": "Pending",
    "responsible_agency": "Department of Public Works",
    "final_address": "3111 N Prieur St",
    "address_councildis": "D",
    "status": "Assigned to Contractor",
    "contractor": "Legacy Professional Services",
    "rowid": "1034957",
    "final_x": "3689880.55324",
    "final_y": "539011.129866",
    "longitude": "-90.04134092564819",
    "latitude": "29.975836553009497",
    "geocoded_column": {
      "latitude": "29.975836553009497",
      "longitude": "-90.04134092564819"
    }
  },
  {
    "service_request": "2023-1034956",
    "request_type": "Property Maintenance",
    "request_reason": "Property Maintenance",
    "date_created": "2023-09-13T16:31:43.000",
    "date_modified": "2023-09-13T16:31:43.000",
    "request_status": "Pending",
    "responsible_agency": "Department of Code Enforcement",
    "final_address": "401 N Cortez St Apt 2432",
    "address_councildis": "A",
    "status": "Pending",
    "rowid": "1034956",
    "final_x": "3672792.93467",
    "final_y": "538647.199497",
    "longitude": "-90.09532099632035",
    "latitude": "29.97535458334624",
    "geocoded_column": {
      "latitude": "29.97535458334624",
      "longitude": "-90.09532099632035"
    }
  },
  {
    "service_request": "2023-1034955",
    "request_type": "Traffic Signals/Signs/Striping/Streetlights",
    "request_reason": "Street Light Outage/Malfunction",
    "date_created": "2023-09-13T16:31:01.000",
    "date_modified": "2023-09-13T16:33:47.000",
    "request_status": "Pending",
    "responsible_agency": "Department of Public Works",
    "final_address": "3113 N Prieur St",
    "address_councildis": "D",
    "status": "Assigned to Contractor",
    "contractor": "Legacy Professional Services",
    "rowid": "1034955",
    "final_x": "3689912.38377",
    "final_y": "539006.64737",
    "longitude": "-90.0412405557756",
    "latitude": "29.975823240830458",
    "geocoded_column": {
      "latitude": "29.975823240830458",
      "longitude": "-90.0412405557756"
    }
  },
  {
    "service_request": "2023-1034954",
    "request_type": "Traffic Signals/Signs/Striping/Streetlights",
    "request_reason": "Street Light Outage/Malfunction",
    "date_created": "2023-09-13T16:29:13.000",
    "date_modified": "2023-09-13T16:31:14.000",
    "request_status": "Pending",
    "responsible_agency": "Department of Public Works",
    "final_address": "3143 N Prieur St",
    "address_councildis": "D",
    "status": "Assigned to Contractor",
    "contractor": "Legacy Professional Services",
    "rowid": "1034954",
    "final_x": "3690101.67689",
    "final_y": "538968.048906",
    "longitude": "-90.04064409176814",
    "latitude": "29.97571123812915",
    "geocoded_column": {
      "latitude": "29.97571123812915",
      "longitude": "-90.04064409176814"
    }
  },
  {
    "service_request": "2023-1034952",
    "request_type": "Trash/Recycling",
    "request_reason": "MIssed Recycling Pick-Up",
    "date_created": "2023-09-13T16:27:20.000",
    "date_modified": "2023-09-13T16:28:51.000",
    "request_status": "Pending",
    "responsible_agency": "Department of Sanitation",
    "final_address": "2711 Ursulines Ave",
    "address_councildis": "A",
    "status": "Assigned to Contractor",
    "contractor": "Richards Disposal",
    "rowid": "1034952",
    "final_x": "3677389.04744",
    "final_y": "538419.911113",
    "longitude": "-90.08081307734945",
    "latitude": "29.974592274676144",
    "geocoded_column": {
      "latitude": "29.974592274676144",
      "longitude": "-90.08081307734945"
    }
  },
  {
    "service_request": "2023-1034951",
    "request_type": "Abandoned Vehicles",
    "request_reason": "Vehicle Blocking Your Driveway",
    "date_created": "2023-09-13T16:26:53.000",
    "date_modified": "2023-09-13T16:28:17.000",
    "request_status": "Pending",
    "responsible_agency": "Department of Public Works",
    "final_address": "939 Forstall St",
    "address_councildis": "E",
    "status": "Pending",
    "rowid": "1034951",
    "final_x": "3696183.0888",
    "final_y": "533719.249605",
    "longitude": "-90.02162716015725",
    "latitude": "29.961088862313215",
    "geocoded_column": {
      "latitude": "29.961088862313215",
      "longitude": "-90.02162716015725"
    }
  },
  {
    "service_request": "2023-1034950",
    "request_type": "Traffic Signals/Signs/Striping/Streetlights",
    "request_reason": "Additional signage",
    "date_created": "2023-09-13T16:25:45.000",
    "date_modified": "2023-09-13T16:25:45.000",
    "request_status": "Pending",
    "responsible_agency": "Department of Public Works",
    "final_address": "6800 BLK General Haig St",
    "address_councildis": "A",
    "status": "Pending",
    "rowid": "1034950",
    "final_x": "3671051.58765",
    "final_y": "552815.018173",
    "longitude": "-90.10033915856127",
    "latitude": "30.014362796876792",
    "geocoded_column": {
      "latitude": "30.014362796876792",
      "longitude": "-90.10033915856127"
    }
  },
  {
    "service_request": "2023-1034949",
    "request_type": "Trash/Recycling",
    "request_reason": "Request a Large Item Pick Up",
    "date_created": "2023-09-13T16:24:02.000",
    "date_modified": "2023-09-13T16:25:14.000",
    "request_status": "Pending",
    "responsible_agency": "Department of Sanitation",
    "final_address": "2435 Governor Nicholls St",
    "address_councildis": "D",
    "status": "Assigned to Contractor",
    "contractor": "Richards Disposal",
    "rowid": "1034949",
    "final_x": "3678720.42453",
    "final_y": "537783.581832",
    "longitude": "-90.07663030392345",
    "latitude": "29.97280250421531",
    "geocoded_column": {
      "latitude": "29.97280250421531",
      "longitude": "-90.07663030392345"
    }
  },
  {
    "service_request": "2023-1034948",
    "request_type": "Traffic Signals/Signs/Striping/Streetlights",
    "request_reason": "Street Light Outage/Malfunction",
    "date_created": "2023-09-13T16:20:08.000",
    "date_modified": "2023-09-13T16:21:16.000",
    "request_status": "Pending",
    "responsible_agency": "Department of Public Works",
    "final_address": "7920 Pompano St",
    "address_councildis": "E",
    "status": "Assigned to Contractor",
    "contractor": "Legacy Professional Services",
    "rowid": "1034948",
    "final_x": "3700124.51837",
    "final_y": "561565.625183",
    "longitude": "-90.0081639740403",
    "latitude": "30.037531361232844",
    "geocoded_column": {
      "latitude": "30.037531361232844",
      "longitude": "-90.0081639740403"
    }
  },
  {
    "service_request": "2023-1034946",
    "request_type": "Roads/Drainage",
    "request_reason": "Pothole",
    "date_created": "2023-09-13T16:10:14.000",
    "date_modified": "2023-09-13T16:10:14.000",
    "request_status": "Pending",
    "responsible_agency": "Department of Public Works",
    "final_address": "1423 General Pershing St",
    "address_councildis": "B",
    "status": "Pending",
    "rowid": "1034946",
    "final_x": "3671330.69185",
    "final_y": "520571.244024",
    "longitude": "-90.1005533659415",
    "latitude": "29.925695010510914",
    "geocoded_column": {
      "latitude": "29.925695010510914",
      "longitude": "-90.1005533659415"
    }
  },
  {
    "service_request": "2023-1034945",
    "request_type": "Trash/Recycling",
    "request_reason": "MIssed Recycling Pick-Up",
    "date_created": "2023-09-13T16:02:54.000",
    "date_modified": "2023-09-13T16:02:55.000",
    "request_status": "Pending",
    "responsible_agency": "Department of Sanitation",
    "final_address": "3005 Constance St",
    "address_councildis": "B",
    "status": "Assigned to Contractor",
    "contractor": "Richards Disposal",
    "rowid": "1034945",
    "final_x": "3676478.81313",
    "final_y": "520060.79884",
    "longitude": "-90.08431985624402",
    "latitude": "29.92413815050092",
    "geocoded_column": {
      "latitude": "29.92413815050092",
      "longitude": "-90.08431985624402"
    }
  },
  {
    "service_request": "2023-1034944",
    "request_type": "Trash/Recycling",
    "request_reason": "Order Recycling Cart",
    "date_created": "2023-09-13T16:00:52.000",
    "date_modified": "2023-09-13T16:00:53.000",
    "request_status": "Pending",
    "responsible_agency": "Department of Sanitation",
    "final_address": "1437 Pauger St",
    "address_councildis": "C",
    "status": "Pending",
    "rowid": "1034944",
    "final_x": "3684011.79426",
    "final_y": "534908.55335",
    "longitude": "-90.06002008982207",
    "latitude": "29.96473653927347",
    "geocoded_column": {
      "latitude": "29.96473653927347",
      "longitude": "-90.06002008982207"
    }
  },
  {
    "service_request": "2023-1034943",
    "request_type": "Trash/Recycling",
    "request_reason": "Request a Large Item Pick Up",
    "date_created": "2023-09-13T16:00:10.000",
    "date_modified": "2023-09-13T16:00:11.000",
    "request_status": "Pending",
    "responsible_agency": "Department of Sanitation",
    "final_address": "2502 Jasmine St",
    "address_councildis": "D",
    "status": "Assigned to Contractor",
    "contractor": "IV Waste",
    "rowid": "1034943",
    "final_x": "3686307.14607",
    "final_y": "547988.293074",
    "longitude": "-90.0523097607821",
    "latitude": "30.000630859396882",
    "geocoded_column": {
      "latitude": "30.000630859396882",
      "longitude": "-90.0523097607821"
    }
  },
  {
    "service_request": "2023-1034942",
    "request_type": "Roads/Drainage",
    "request_reason": "Pothole",
    "date_created": "2023-09-13T15:59:55.000",
    "date_modified": "2023-09-13T15:59:55.000",
    "request_status": "Pending",
    "responsible_agency": "Department of Public Works",
    "final_address": "1315 Peniston St",
    "address_councildis": "B",
    "status": "Pending",
    "rowid": "1034942",
    "final_x": "3673101.31451",
    "final_y": "520423.11276",
    "longitude": "-90.09496908964098",
    "latitude": "29.925235197927364",
    "geocoded_column": {
      "latitude": "29.925235197927364",
      "longitude": "-90.09496908964098"
    }
  },
  {
    "service_request": "2023-1034941",
    "request_type": "Property Maintenance",
    "request_reason": "Property Maintenance",
    "date_created": "2023-09-13T15:59:06.000",
    "date_modified": "2023-09-13T15:59:07.000",
    "request_status": "Pending",
    "responsible_agency": "Department of Code Enforcement",
    "final_address": "8321 Lomond Rd",
    "address_councildis": "E",
    "status": "Pending",
    "rowid": "1034941",
    "final_x": "3703156.15761",
    "final_y": "561882.427359",
    "longitude": "-89.9985716825372",
    "latitude": "30.03830568988394",
    "geocoded_column": {
      "latitude": "30.03830568988394",
      "longitude": "-89.9985716825372"
    }
  },
  {
    "service_request": "2023-1034940",
    "request_type": "Trash/Recycling",
    "request_reason": "Request a Large Item Pick Up",
    "date_created": "2023-09-13T15:57:33.000",
    "date_modified": "2023-09-13T15:57:33.000",
    "request_status": "Pending",
    "responsible_agency": "Department of Sanitation",
    "final_address": "266 West Robert E Lee Blvd",
    "address_councildis": "A",
    "status": "Assigned to Contractor",
    "contractor": "IV Waste",
    "rowid": "1034940",
    "final_x": "3665660.4473",
    "final_y": "554838.996184",
    "longitude": "-90.1173046898688",
    "latitude": "30.020086435543554",
    "geocoded_column": {
      "latitude": "30.020086435543554",
      "longitude": "-90.1173046898688"
    }
  },
  {
    "service_request": "2023-1034939",
    "request_type": "Abandoned Vehicles",
    "request_reason": "Abandoned/Junk Vehicles",
    "date_created": "2023-09-13T15:56:37.000",
    "date_modified": "2023-09-13T15:59:26.000",
    "request_status": "Pending",
    "responsible_agency": "Department of Public Works",
    "final_address": "GARFIELD ST & JOSEPH ST",
    "address_councildis": "A",
    "status": "Pending",
    "rowid": "1034939",
    "final_x": "3666626.5",
    "final_y": "521192.68",
    "longitude": "-90.1153822796441",
    "latitude": "29.927542089156262",
    "geocoded_column": {
      "latitude": "29.927542089156262",
      "longitude": "-90.1153822796441"
    }
  },
  {
    "service_request": "2023-1034938",
    "request_type": "Traffic Signals/Signs/Striping/Streetlights",
    "request_reason": "Street Light Outage/Malfunction",
    "date_created": "2023-09-13T15:55:05.000",
    "date_modified": "2023-09-13T15:55:06.000",
    "request_status": "Pending",
    "responsible_agency": "Department of Public Works",
    "final_address": "3551 Rue Nichole",
    "address_councildis": "C",
    "status": "Assigned to Contractor",
    "contractor": "Legacy Professional Services",
    "rowid": "1034938",
    "final_x": "3703940.79722",
    "final_y": "517496.61599",
    "longitude": "-89.99772704473686",
    "latitude": "29.916235863341143",
    "geocoded_column": {
      "latitude": "29.916235863341143",
      "longitude": "-89.99772704473686"
    }
  },
  {
    "service_request": "2023-1034937",
    "request_type": "Trash/Recycling",
    "request_reason": "Order Trash Cart",
    "date_created": "2023-09-13T15:54:10.000",
    "date_modified": "2023-09-13T15:54:11.000",
    "request_status": "Pending",
    "responsible_agency": "Department of Sanitation",
    "final_address": "2524 Chippewa St",
    "address_councildis": "B",
    "status": "Assigned to Contractor",
    "contractor": "Richards Disposal",
    "rowid": "1034937",
    "final_x": "3678481.20002",
    "final_y": "519937.18892",
    "longitude": "-90.07800329900324",
    "latitude": "29.92373809479093",
    "geocoded_column": {
      "latitude": "29.92373809479093",
      "longitude": "-90.07800329900324"
    }
  },
  {
    "service_request": "2023-1034936",
    "request_type": "Roads/Drainage",
    "request_reason": "Catch Basin - Clogged",
    "date_created": "2023-09-13T15:52:19.000",
    "date_modified": "2023-09-13T15:53:03.000",
    "request_status": "Pending",
    "responsible_agency": "Department of Public Works",
    "final_address": "5714 Pauline Dr",
    "address_councildis": "D",
    "status": "Pending",
    "rowid": "1034936",
    "final_x": "3691742.9599",
    "final_y": "555103.240601",
    "longitude": "-90.03488301671459",
    "latitude": "30.0200261134467",
    "geocoded_column": {
      "latitude": "30.0200261134467",
      "longitude": "-90.03488301671459"
    }
  },
  {
    "service_request": "2023-1034935",
    "request_type": "Roads/Drainage",
    "request_reason": "Pothole",
    "date_created": "2023-09-13T15:52:17.000",
    "date_modified": "2023-09-13T15:52:17.000",
    "request_status": "Pending",
    "responsible_agency": "Department of Public Works",
    "final_address": "1312 Milan St",
    "address_councildis": "B",
    "status": "Pending",
    "rowid": "1034935",
    "final_x": "3671625.82823",
    "final_y": "520286.919608",
    "longitude": "-90.09963137110304",
    "latitude": "29.92490447494246",
    "geocoded_column": {
      "latitude": "29.92490447494246",
      "longitude": "-90.09963137110304"
    }
  },
  {
    "service_request": "2023-1034934",
    "request_type": "Trash/Recycling",
    "request_reason": "Repair Trash Cart",
    "date_created": "2023-09-13T15:50:18.000",
    "date_modified": "2023-09-13T15:50:19.000",
    "request_status": "Pending",
    "responsible_agency": "Department of Sanitation",
    "final_address": "4553 Stemway Dr",
    "address_councildis": "D",
    "status": "Assigned to Contractor",
    "contractor": "Waste Pro",
    "rowid": "1034934",
    "final_x": "3697067.83523",
    "final_y": "553326.377367",
    "longitude": "-90.01812263316906",
    "latitude": "30.014973420943075",
    "geocoded_column": {
      "latitude": "30.014973420943075",
      "longitude": "-90.01812263316906"
    }
  },
  {
    "service_request": "2023-1034933",
    "request_type": "Trash/Recycling",
    "request_reason": "Missed Trash Pick-Up",
    "date_created": "2023-09-13T15:50:09.000",
    "date_modified": "2023-09-13T15:50:10.000",
    "request_status": "Pending",
    "responsible_agency": "Department of Sanitation",
    "final_address": "6384 Catina St",
    "address_councildis": "A",
    "status": "Assigned to Contractor",
    "contractor": "IV Waste",
    "rowid": "1034933",
    "final_x": "3666883.21319",
    "final_y": "550265.085588",
    "longitude": "-90.11359496248902",
    "latitude": "30.007474048212554",
    "geocoded_column": {
      "latitude": "30.007474048212554",
      "longitude": "-90.11359496248902"
    }
  },
  {
    "service_request": "2023-1034932",
    "request_type": "Trash/Recycling",
    "request_reason": "Request a Large Item Pick Up",
    "date_created": "2023-09-13T15:48:54.000",
    "date_modified": "2023-09-13T15:48:55.000",
    "request_status": "Pending",
    "responsible_agency": "Department of Sanitation",
    "final_address": "7336 Prytania St",
    "address_councildis": "A",
    "status": "Assigned to Contractor",
    "contractor": "Richards Disposal",
    "rowid": "1034932",
    "final_x": "3661271.52544",
    "final_y": "522984.157883",
    "longitude": "-90.13222743522626",
    "latitude": "29.932623517172274",
    "geocoded_column": {
      "latitude": "29.932623517172274",
      "longitude": "-90.13222743522626"
    }
  },
  {
    "service_request": "2023-1034931",
    "request_type": "Trash/Recycling",
    "request_reason": "Order Recycling Cart",
    "date_created": "2023-09-13T15:46:54.000",
    "date_modified": "2023-09-13T15:46:55.000",
    "request_status": "Pending",
    "responsible_agency": "Department of Sanitation",
    "final_address": "73 Flamingo St",
    "address_councildis": "D",
    "status": "Pending",
    "rowid": "1034931",
    "final_x": "3674398.76724",
    "final_y": "555701.472281",
    "longitude": "-90.08966473344391",
    "latitude": "30.0222000493346",
    "geocoded_column": {
      "latitude": "30.0222000493346",
      "longitude": "-90.08966473344391"
    }
  },
  {
    "service_request": "2023-1034930",
    "request_type": "Property Maintenance",
    "request_reason": "Property Maintenance",
    "date_created": "2023-09-13T15:45:34.000",
    "date_modified": "2023-09-13T15:45:34.000",
    "request_status": "Pending",
    "responsible_agency": "Department of Code Enforcement",
    "final_address": "1439 St Maurice Ave",
    "address_councildis": "E",
    "status": "Pending",
    "rowid": "1034930",
    "final_x": "3700422.40631",
    "final_y": "534532.673221",
    "longitude": "-90.0082105546344",
    "latitude": "29.963191365088317",
    "geocoded_column": {
      "latitude": "29.963191365088317",
      "longitude": "-90.0082105546344"
    }
  },
  {
    "service_request": "2023-1034929",
    "request_type": "Trash/Recycling",
    "request_reason": "Repair Trash Cart",
    "date_created": "2023-09-13T15:44:10.000",
    "date_modified": "2023-09-13T15:44:11.000",
    "request_status": "Pending",
    "responsible_agency": "Department of Sanitation",
    "final_address": "2231 Calhoun St",
    "address_councildis": "A",
    "status": "Assigned to Contractor",
    "contractor": "Richards Disposal",
    "rowid": "1034929",
    "final_x": "3665942.54541",
    "final_y": "525328.612157",
    "longitude": "-90.11740281789183",
    "latitude": "29.93893455969094",
    "geocoded_column": {
      "latitude": "29.93893455969094",
      "longitude": "-90.11740281789183"
    }
  },
  {
    "service_request": "2023-1034928",
    "request_type": "Trash/Recycling",
    "request_reason": "MIssed Recycling Pick-Up",
    "date_created": "2023-09-13T15:43:20.000",
    "date_modified": "2023-09-13T15:43:21.000",
    "request_status": "Pending",
    "responsible_agency": "Department of Sanitation",
    "final_address": "4764 Sherwood Dr",
    "address_councildis": "E",
    "status": "Assigned to Contractor",
    "contractor": "Waste Pro",
    "rowid": "1034928",
    "final_x": "3717909.96588",
    "final_y": "557156.445595",
    "longitude": "-89.95212638120326",
    "latitude": "30.0248303291882",
    "geocoded_column": {
      "latitude": "30.0248303291882",
      "longitude": "-89.95212638120326"
    }
  },
  {
    "service_request": "2023-1034927",
    "request_type": "Roads/Drainage",
    "request_reason": "Pothole",
    "date_created": "2023-09-13T15:42:20.000",
    "date_modified": "2023-09-13T15:42:20.000",
    "request_status": "Pending",
    "responsible_agency": "Department of Public Works",
    "final_address": "1421 Constantinople St",
    "address_councildis": "B",
    "status": "Pending",
    "rowid": "1034927",
    "final_x": "3672433.24257",
    "final_y": "520667.657465",
    "longitude": "-90.09706965638372",
    "latitude": "29.925927453713577",
    "geocoded_column": {
      "latitude": "29.925927453713577",
      "longitude": "-90.09706965638372"
    }
  },
  {
    "service_request": "2023-1034926",
    "request_type": "Trash/Recycling",
    "request_reason": "Replace Trash Cart",
    "date_created": "2023-09-13T15:38:20.000",
    "date_modified": "2023-09-13T15:38:21.000",
    "request_status": "Pending",
    "responsible_agency": "Department of Sanitation",
    "final_address": "6126 Magnolia St",
    "address_councildis": "A",
    "status": "Assigned to Contractor",
    "contractor": "Richards Disposal",
    "rowid": "1034926",
    "final_x": "3666366.23329",
    "final_y": "525140.968189",
    "longitude": "-90.11607147440816",
    "latitude": "29.938406229435397",
    "geocoded_column": {
      "latitude": "29.938406229435397",
      "longitude": "-90.11607147440816"
    }
  },
  {
    "service_request": "2023-1034925",
    "request_type": "Trash/Recycling",
    "request_reason": "Repair Trash Cart",
    "date_created": "2023-09-13T15:36:19.000",
    "date_modified": "2023-09-13T15:36:20.000",
    "request_status": "Pending",
    "responsible_agency": "Department of Sanitation",
    "final_address": "2621 Fats Domino Ave",
    "address_councildis": "E",
    "status": "Assigned to Contractor",
    "contractor": "Waste Pro",
    "rowid": "1034925",
    "final_x": "3699695.32874",
    "final_y": "539553.356234",
    "longitude": "-90.01032350474644",
    "latitude": "29.977019534260414",
    "geocoded_column": {
      "latitude": "29.977019534260414",
      "longitude": "-90.01032350474644"
    }
  },
  {
    "service_request": "2023-1034924",
    "request_type": "Roads/Drainage",
    "request_reason": "Catch Basin - Clogged",
    "date_created": "2023-09-13T15:32:19.000",
    "date_modified": "2023-09-13T15:32:19.000",
    "request_status": "Pending",
    "responsible_agency": "Department of Public Works",
    "final_address": "5911 Colbert St",
    "address_councildis": "A",
    "status": "Pending",
    "rowid": "1034924",
    "final_x": "3667414.57428",
    "final_y": "546858.318609",
    "longitude": "-90.11203095303645",
    "latitude": "29.998091056134907",
    "geocoded_column": {
      "latitude": "29.998091056134907",
      "longitude": "-90.11203095303645"
    }
  },
  {
    "service_request": "2023-1034923",
    "request_type": "Traffic Signals/Signs/Striping/Streetlights",
    "request_reason": "Street Light Outage/Malfunction",
    "date_created": "2023-09-13T15:30:47.000",
    "date_modified": "2023-09-13T15:30:48.000",
    "request_status": "Pending",
    "responsible_agency": "Department of Public Works",
    "final_address": "3551 Rue Nichole",
    "address_councildis": "C",
    "status": "Assigned to Contractor",
    "contractor": "Legacy Professional Services",
    "rowid": "1034923",
    "final_x": "3703940.79722",
    "final_y": "517496.61599",
    "longitude": "-89.99772704473686",
    "latitude": "29.916235863341143",
    "geocoded_column": {
      "latitude": "29.916235863341143",
      "longitude": "-89.99772704473686"
    }
  },
  {
    "service_request": "2023-1034922",
    "request_type": "Roads/Drainage",
    "request_reason": "Street Subsidence (Sinking)",
    "date_created": "2023-09-13T15:29:41.000",
    "date_modified": "2023-09-13T15:29:41.000",
    "request_status": "Pending",
    "responsible_agency": "Department of Public Works",
    "final_address": "600 BLK Harrison Ave",
    "address_councildis": "A",
    "status": "Pending",
    "rowid": "1034922",
    "final_x": "3668506.39294",
    "final_y": "549248.510871",
    "longitude": "-90.10850118853503",
    "latitude": "30.004631212383213",
    "geocoded_column": {
      "latitude": "30.004631212383213",
      "longitude": "-90.10850118853503"
    }
  },
  {
    "service_request": "2023-1034921",
    "request_type": "Roads/Drainage",
    "request_reason": "Catch Basin - Clogged",
    "date_created": "2023-09-13T15:24:44.000",
    "date_modified": "2023-09-13T15:24:44.000",
    "request_status": "Pending",
    "responsible_agency": "Department of Public Works",
    "final_address": "5911 Colbert St",
    "address_councildis": "A",
    "status": "Pending",
    "rowid": "1034921",
    "final_x": "3667414.57428",
    "final_y": "546858.318609",
    "longitude": "-90.11203095303645",
    "latitude": "29.998091056134907",
    "geocoded_column": {
      "latitude": "29.998091056134907",
      "longitude": "-90.11203095303645"
    }
  },
  {
    "service_request": "2023-1034920",
    "request_type": "Trash/Recycling",
    "request_reason": "Repair Recycling Cart",
    "date_created": "2023-09-13T15:22:18.000",
    "date_modified": "2023-09-13T15:22:18.000",
    "request_status": "Pending",
    "responsible_agency": "Department of Sanitation",
    "final_address": "4107 Stephen Girard Ave",
    "address_councildis": "D",
    "status": "Pending",
    "rowid": "1034920",
    "final_x": "3689610.29929",
    "final_y": "549780.840276",
    "longitude": "-90.04181107889143",
    "latitude": "30.005457756020128",
    "geocoded_column": {
      "latitude": "30.005457756020128",
      "longitude": "-90.04181107889143"
    }
  },
  {
    "service_request": "2023-1034919",
    "request_type": "Roads/Drainage",
    "request_reason": "Catch Basin - Clogged",
    "date_created": "2023-09-13T15:21:36.000",
    "date_modified": "2023-09-13T15:21:36.000",
    "request_status": "Pending",
    "responsible_agency": "Department of Public Works",
    "final_address": "4531 Bienville Ave",
    "address_councildis": "A",
    "status": "Pending",
    "rowid": "1034919",
    "final_x": "3669996.61287",
    "final_y": "540233.744331",
    "longitude": "-90.10409880115414",
    "latitude": "29.979799822908003",
    "geocoded_column": {
      "latitude": "29.979799822908003",
      "longitude": "-90.10409880115414"
    }
  },
  {
    "service_request": "2023-1034918",
    "request_type": "Roads/Drainage",
    "request_reason": "Pothole",
    "date_created": "2023-09-13T15:20:46.000",
    "date_modified": "2023-09-13T15:20:46.000",
    "request_status": "Pending",
    "responsible_agency": "Department of Public Works",
    "final_address": "4216 Chestnut St",
    "address_councildis": "B",
    "status": "Pending",
    "rowid": "1034918",
    "final_x": "3671574.31393",
    "final_y": "519539.203703",
    "longitude": "-90.09981939416457",
    "latitude": "29.922850019854593",
    "geocoded_column": {
      "latitude": "29.922850019854593",
      "longitude": "-90.09981939416457"
    }
  },
  {
    "service_request": "2023-1034917",
    "request_type": "Trash/Recycling",
    "request_reason": "Order Trash Cart",
    "date_created": "2023-09-13T15:18:19.000",
    "date_modified": "2023-09-13T15:18:19.000",
    "request_status": "Pending",
    "responsible_agency": "Department of Sanitation",
    "final_address": "1319 S Genois St",
    "address_councildis": "B",
    "status": "Assigned to Contractor",
    "contractor": "Richards Disposal",
    "rowid": "1034917",
    "final_x": "3669220.56481",
    "final_y": "532294.627523",
    "longitude": "-90.10681829025368",
    "latitude": "29.957992773738315",
    "geocoded_column": {
      "latitude": "29.957992773738315",
      "longitude": "-90.10681829025368"
    }
  },
  {
    "service_request": "2023-1034914",
    "request_type": "Abandoned Vehicles",
    "request_reason": "Abandoned/Junk Vehicles",
    "date_created": "2023-09-13T15:14:57.000",
    "date_modified": "2023-09-13T15:14:57.000",
    "request_status": "Pending",
    "responsible_agency": "Department of Public Works",
    "final_address": "8607 Green St",
    "address_councildis": "A",
    "status": "Pending",
    "rowid": "1034914",
    "final_x": "3661798.88186",
    "final_y": "530945.33293",
    "longitude": "-90.13029873358617",
    "latitude": "29.9544990023652",
    "geocoded_column": {
      "latitude": "29.9544990023652",
      "longitude": "-90.13029873358617"
    }
  },
  {
    "service_request": "2023-1034913",
    "request_type": "Roads/Drainage",
    "request_reason": "Damaged Sidewalk",
    "date_created": "2023-09-13T15:14:23.000",
    "date_modified": "2023-09-13T15:14:23.000",
    "request_status": "Pending",
    "responsible_agency": "Department of Public Works",
    "final_address": "4662 Tulip St",
    "address_councildis": "E",
    "status": "Pending",
    "rowid": "1034913",
    "final_x": "3702036.31857",
    "final_y": "553910.919383",
    "longitude": "-90.00240325560208",
    "latitude": "30.016422944250582",
    "geocoded_column": {
      "latitude": "30.016422944250582",
      "longitude": "-90.00240325560208"
    }
  },
  {
    "service_request": "2023-1034912",
    "request_type": "Trash/Recycling",
    "request_reason": "Order Trash Cart",
    "date_created": "2023-09-13T15:11:41.000",
    "date_modified": "2023-09-13T15:11:42.000",
    "request_status": "Pending",
    "responsible_agency": "Department of Sanitation",
    "final_address": "1931 Annunciation St Unit E",
    "address_councildis": "B",
    "status": "Assigned to Contractor",
    "contractor": "Richards Disposal",
    "rowid": "1034912",
    "final_x": "3680225.94427",
    "final_y": "521974.831738",
    "longitude": "-90.07242499911698",
    "latitude": "29.929288271447906",
    "geocoded_column": {
      "latitude": "29.929288271447906",
      "longitude": "-90.07242499911698"
    }
  },
  {
    "service_request": "2023-1034910",
    "request_type": "Parks & Parkways",
    "request_reason": "Request Tree Service (Right of Way/Public Property)",
    "date_created": "2023-09-13T15:10:12.000",
    "date_modified": "2023-09-13T15:15:50.000",
    "case_close_date": "2023-09-13T10:15:50.000",
    "request_status": "Closed",
    "responsible_agency": "Department of Parks & Parkway",
    "final_address": "2830 Banks St",
    "address_councildis": "B",
    "status": "Duplicate Request",
    "rowid": "1034910",
    "final_x": "3673902.3899",
    "final_y": "534613.198022",
    "longitude": "-90.0919550607097",
    "latitude": "29.96422943738853",
    "geocoded_column": {
      "latitude": "29.96422943738853",
      "longitude": "-90.0919550607097"
    }
  },
  {
    "service_request": "2023-1034909",
    "request_type": "Trash/Recycling",
    "request_reason": "Request a Large Item Pick Up",
    "date_created": "2023-09-13T15:05:35.000",
    "date_modified": "2023-09-13T15:05:36.000",
    "request_status": "Pending",
    "responsible_agency": "Department of Sanitation",
    "final_address": "195 Pinewood Ct",
    "address_councildis": "C",
    "status": "Assigned to Contractor",
    "contractor": "Richards Disposal",
    "rowid": "1034909",
    "final_x": "3696079.84266",
    "final_y": "523630.312251",
    "longitude": "-90.02231770581209",
    "latitude": "29.933351048891375",
    "geocoded_column": {
      "latitude": "29.933351048891375",
      "longitude": "-90.02231770581209"
    }
  },
  {
    "service_request": "2023-1034908",
    "request_type": "Trash/Recycling",
    "request_reason": "Request a Large Item Pick Up",
    "date_created": "2023-09-13T15:03:37.000",
    "date_modified": "2023-09-13T15:03:38.000",
    "request_status": "Pending",
    "responsible_agency": "Department of Sanitation",
    "final_address": "4919 Virgilian St",
    "address_councildis": "D",
    "status": "Assigned to Contractor",
    "contractor": "Waste Pro",
    "rowid": "1034908",
    "final_x": "3697471.43722",
    "final_y": "554689.511128",
    "longitude": "-90.0167979663185",
    "latitude": "30.01870877964808",
    "geocoded_column": {
      "latitude": "30.01870877964808",
      "longitude": "-90.0167979663185"
    }
  },
  {
    "service_request": "2023-1034907",
    "request_type": "Traffic Signals/Signs/Striping/Streetlights",
    "request_reason": "Traffic Sign Missing/Damaged",
    "date_created": "2023-09-13T15:01:35.000",
    "date_modified": "2023-09-13T15:01:35.000",
    "request_status": "Pending",
    "responsible_agency": "Department of Public Works",
    "final_address": "BACCICH ST & ODIN ST",
    "address_councildis": "D",
    "status": "Pending",
    "rowid": "1034907",
    "final_x": "3687647.0",
    "final_y": "553360.48",
    "longitude": "-90.04788669314595",
    "latitude": "30.01536115398426",
    "geocoded_column": {
      "latitude": "30.01536115398426",
      "longitude": "-90.04788669314595"
    }
  },
  {
    "service_request": "2023-1034906",
    "request_type": "Traffic Signals/Signs/Striping/Streetlights",
    "request_reason": "Traffic Sign Missing/Damaged",
    "date_created": "2023-09-13T15:00:43.000",
    "date_modified": "2023-09-13T15:00:43.000",
    "request_status": "Pending",
    "responsible_agency": "Department of Public Works",
    "final_address": "MITHRA ST & PEOPLES AVE",
    "address_councildis": "D",
    "status": "Pending",
    "rowid": "1034906",
    "final_x": "3687986.3",
    "final_y": "553014.78",
    "longitude": "-90.0468269290903",
    "latitude": "30.014400135915416",
    "geocoded_column": {
      "latitude": "30.014400135915416",
      "longitude": "-90.0468269290903"
    }
  },
  {
    "service_request": "2023-1034905",
    "request_type": "Property Maintenance",
    "request_reason": "Property Maintenance",
    "date_created": "2023-09-13T14:58:14.000",
    "date_modified": "2023-09-13T14:58:14.000",
    "request_status": "Pending",
    "responsible_agency": "Department of Code Enforcement",
    "final_address": "4600 Spain St",
    "address_councildis": "D",
    "status": "Pending",
    "rowid": "1034905",
    "final_x": "3684972.12661",
    "final_y": "549551.836051",
    "longitude": "-90.05647213026674",
    "latitude": "30.00497100947022",
    "geocoded_column": {
      "latitude": "30.00497100947022",
      "longitude": "-90.05647213026674"
    }
  },
  {
    "service_request": "2023-1034904",
    "request_type": "Traffic Signals/Signs/Striping/Streetlights",
    "request_reason": "Street Light Outage/Malfunction",
    "date_created": "2023-09-13T14:53:14.000",
    "date_modified": "2023-09-13T14:53:15.000",
    "request_status": "Pending",
    "responsible_agency": "Department of Public Works",
    "final_address": "2320 St Roch Ave",
    "address_councildis": "D",
    "status": "Assigned to Contractor",
    "contractor": "Legacy Professional Services",
    "rowid": "1034904",
    "final_x": "3686042.21634",
    "final_y": "541025.520715",
    "longitude": "-90.0533923911711",
    "latitude": "29.98149386308377",
    "geocoded_column": {
      "latitude": "29.98149386308377",
      "longitude": "-90.0533923911711"
    }
  },
  {
    "service_request": "2023-1034903",
    "request_type": "Trash/Recycling",
    "request_reason": "Order Trash Cart",
    "date_created": "2023-09-13T14:49:43.000",
    "date_modified": "2023-09-13T14:50:02.000",
    "request_status": "Pending",
    "responsible_agency": "Department of Sanitation",
    "final_address": "927 Race St",
    "address_councildis": "B",
    "status": "Assigned to Contractor",
    "contractor": "Richards Disposal",
    "rowid": "1034903",
    "final_x": "3680766.64655",
    "final_y": "523749.893691",
    "longitude": "-90.07065635606416",
    "latitude": "29.93415273512598",
    "geocoded_column": {
      "latitude": "29.93415273512598",
      "longitude": "-90.07065635606416"
    }
  },
  {
    "service_request": "2023-1034902",
    "request_type": "Trash/Recycling",
    "request_reason": "Request a Large Item Pick Up",
    "date_created": "2023-09-13T14:49:27.000",
    "date_modified": "2023-09-13T14:49:28.000",
    "request_status": "Pending",
    "responsible_agency": "Department of Sanitation",
    "final_address": "2849 Danneel St",
    "address_councildis": "B",
    "status": "Assigned to Contractor",
    "contractor": "Richards Disposal",
    "rowid": "1034902",
    "final_x": "3674772.02363",
    "final_y": "523533.872251",
    "longitude": "-90.08958859695528",
    "latitude": "29.93373902495986",
    "geocoded_column": {
      "latitude": "29.93373902495986",
      "longitude": "-90.08958859695528"
    }
  },
  {
    "service_request": "2023-1034901",
    "request_type": "Trash/Recycling",
    "request_reason": "Request a Large Item Pick Up",
    "date_created": "2023-09-13T14:47:48.000",
    "date_modified": "2023-09-13T14:47:48.000",
    "request_status": "Pending",
    "responsible_agency": "Department of Sanitation",
    "final_address": "2518 OReilly St",
    "address_councildis": "D",
    "status": "Assigned to Contractor",
    "contractor": "IV Waste",
    "rowid": "1034901",
    "final_x": "3680291.10043",
    "final_y": "541049.14638",
    "longitude": "-90.07155624880262",
    "latitude": "29.981734214633082",
    "geocoded_column": {
      "latitude": "29.981734214633082",
      "longitude": "-90.07155624880262"
    }
  },
  {
    "service_request": "2023-1034900",
    "request_type": "Trash/Recycling",
    "request_reason": "MIssed Recycling Pick-Up",
    "date_created": "2023-09-13T14:44:31.000",
    "date_modified": "2023-09-13T14:44:31.000",
    "request_status": "Pending",
    "responsible_agency": "Department of Sanitation",
    "final_address": "4967 Redwood St",
    "address_councildis": "E",
    "status": "Assigned to Contractor",
    "contractor": "Waste Pro",
    "rowid": "1034900",
    "final_x": "3712420.0437",
    "final_y": "557588.482523",
    "longitude": "-89.96945719977252",
    "latitude": "30.026199076699175",
    "geocoded_column": {
      "latitude": "30.026199076699175",
      "longitude": "-89.96945719977252"
    }
  },
  {
    "service_request": "2023-1034899",
    "request_type": "Trash/Recycling",
    "request_reason": "Request a Large Item Pick Up",
    "date_created": "2023-09-13T14:40:33.000",
    "date_modified": "2023-09-13T14:40:34.000",
    "request_status": "Pending",
    "responsible_agency": "Department of Sanitation",
    "final_address": "2447 Royal St",
    "address_councildis": "C",
    "status": "Assigned to Contractor",
    "contractor": "IV Waste",
    "rowid": "1034899",
    "final_x": "3686312.55574",
    "final_y": "534990.365318",
    "longitude": "-90.05275156917806",
    "latitude": "29.96489099227737",
    "geocoded_column": {
      "latitude": "29.96489099227737",
      "longitude": "-90.05275156917806"
    }
  },
  {
    "service_request": "2023-1034898",
    "request_type": "Property Maintenance",
    "request_reason": "Property Maintenance",
    "date_created": "2023-09-13T14:38:45.000",
    "date_modified": "2023-09-13T14:38:46.000",
    "request_status": "Pending",
    "responsible_agency": "Department of Code Enforcement",
    "final_address": "2305 Abundance St",
    "address_councildis": "D",
    "status": "Pending",
    "rowid": "1034898",
    "final_x": "3685246.21052",
    "final_y": "543785.489678",
    "longitude": "-90.05580935055347",
    "latitude": "29.989107225505535",
    "geocoded_column": {
      "latitude": "29.989107225505535",
      "longitude": "-90.05580935055347"
    }
  },
  {
    "service_request": "2023-1034897",
    "request_type": "Trash/Recycling",
    "request_reason": "Order Recycling Cart",
    "date_created": "2023-09-13T14:35:09.000",
    "date_modified": "2023-09-13T14:35:09.000",
    "request_status": "Pending",
    "responsible_agency": "Department of Sanitation",
    "final_address": "95 Versailles Blvd",
    "address_councildis": "B",
    "status": "Pending",
    "rowid": "1034897",
    "final_x": "3668122.58516",
    "final_y": "530981.349058",
    "longitude": "-90.11032967518172",
    "latitude": "29.954413959885347",
    "geocoded_column": {
      "latitude": "29.954413959885347",
      "longitude": "-90.11032967518172"
    }
  },
  {
    "service_request": "2023-1034896",
    "request_type": "Trash/Recycling",
    "request_reason": "Order Trash Cart",
    "date_created": "2023-09-13T14:34:26.000",
    "date_modified": "2023-09-13T14:34:27.000",
    "request_status": "Pending",
    "responsible_agency": "Department of Sanitation",
    "final_address": "95 Versailles Blvd",
    "address_councildis": "B",
    "status": "Assigned to Contractor",
    "contractor": "Richards Disposal",
    "rowid": "1034896",
    "final_x": "3668122.58516",
    "final_y": "530981.349058",
    "longitude": "-90.11032967518172",
    "latitude": "29.954413959885347",
    "geocoded_column": {
      "latitude": "29.954413959885347",
      "longitude": "-90.11032967518172"
    }
  },
  {
    "service_request": "2023-1034895",
    "request_type": "Traffic Signals/Signs/Striping/Streetlights",
    "request_reason": "Street Light Outage/Malfunction",
    "date_created": "2023-09-13T14:33:46.000",
    "date_modified": "2023-09-13T14:33:47.000",
    "request_status": "Pending",
    "responsible_agency": "Department of Public Works",
    "final_address": "53 Oriole St",
    "address_councildis": "D",
    "status": "Assigned to Contractor",
    "contractor": "Legacy Professional Services",
    "rowid": "1034895",
    "final_x": "3675334.92065",
    "final_y": "556670.709594",
    "longitude": "-90.08667339729742",
    "latitude": "30.02483712940376",
    "geocoded_column": {
      "latitude": "30.02483712940376",
      "longitude": "-90.08667339729742"
    }
  },
  {
    "service_request": "2023-1034893",
    "request_type": "Trash/Recycling",
    "request_reason": "Return Recycling Cart",
    "date_created": "2023-09-13T14:32:16.000",
    "date_modified": "2023-09-13T14:32:17.000",
    "request_status": "Pending",
    "responsible_agency": "Department of Sanitation",
    "final_address": "2733 St Philip St",
    "address_councildis": "A",
    "status": "Pending",
    "rowid": "1034893",
    "final_x": "3677160.54798",
    "final_y": "538081.826441",
    "longitude": "-90.08154639970938",
    "latitude": "29.973669523633454",
    "geocoded_column": {
      "latitude": "29.973669523633454",
      "longitude": "-90.08154639970938"
    }
  },
  {
    "service_request": "2023-1034892",
    "request_type": "Trash/Recycling",
    "request_reason": "Order Trash Cart",
    "date_created": "2023-09-13T14:31:37.000",
    "date_modified": "2023-09-13T14:31:38.000",
    "request_status": "Pending",
    "responsible_agency": "Department of Sanitation",
    "final_address": "2733 St Philip St",
    "address_councildis": "A",
    "status": "Assigned to Contractor",
    "contractor": "Richards Disposal",
    "rowid": "1034892",
    "final_x": "3677160.54798",
    "final_y": "538081.826441",
    "longitude": "-90.08154639970938",
    "latitude": "29.973669523633454",
    "geocoded_column": {
      "latitude": "29.973669523633454",
      "longitude": "-90.08154639970938"
    }
  },
  {
    "service_request": "2023-1034891",
    "request_type": "Traffic Signals/Signs/Striping/Streetlights",
    "request_reason": "Street Light Outage/Malfunction",
    "date_created": "2023-09-13T14:25:29.000",
    "date_modified": "2023-09-13T14:25:30.000",
    "request_status": "Pending",
    "responsible_agency": "Department of Public Works",
    "final_address": "2828 Danbury Dr",
    "address_councildis": "C",
    "status": "Assigned to Contractor",
    "contractor": "Legacy Professional Services",
    "rowid": "1034891",
    "final_x": "3703676.75454",
    "final_y": "520227.193656",
    "longitude": "-89.99846005587756",
    "latitude": "29.92375246975277",
    "geocoded_column": {
      "latitude": "29.92375246975277",
      "longitude": "-89.99846005587756"
    }
  },
  {
    "service_request": "2023-1034890",
    "request_type": "Roads/Drainage",
    "request_reason": "Damaged Sidewalk",
    "date_created": "2023-09-13T14:24:13.000",
    "date_modified": "2023-09-13T14:24:13.000",
    "request_status": "Pending",
    "responsible_agency": "Department of Public Works",
    "final_address": "1541 Cambronne St",
    "address_councildis": "A",
    "status": "Pending",
    "rowid": "1034890",
    "final_x": "3662118.78317",
    "final_y": "530087.459777",
    "longitude": "-90.12931706904968",
    "latitude": "29.952130888630446",
    "geocoded_column": {
      "latitude": "29.952130888630446",
      "longitude": "-90.12931706904968"
    }
  },
  {
    "service_request": "2023-1034889",
    "request_type": "Roads/Drainage",
    "request_reason": "Pothole",
    "date_created": "2023-09-13T14:23:13.000",
    "date_modified": "2023-09-13T14:23:36.000",
    "case_close_date": "2023-09-13T09:23:36.000",
    "request_status": "Closed",
    "responsible_agency": "Department of Public Works",
    "final_address": "2400 BLK Tupelo St",
    "address_councildis": "E",
    "status": "Resolved",
    "rowid": "1034889",
    "final_x": "3701388.2294",
    "final_y": "538148.488451",
    "longitude": "-90.0050282534369",
    "latitude": "29.973102804161606",
    "geocoded_column": {
      "latitude": "29.973102804161606",
      "longitude": "-90.0050282534369"
    }
  },
  {
    "service_request": "2023-1034888",
    "request_type": "Roads/Drainage",
    "request_reason": "Catch Basin - Clogged",
    "date_created": "2023-09-13T14:23:11.000",
    "date_modified": "2023-09-13T23:42:19.000",
    "case_close_date": "2023-09-13T18:42:19.000",
    "request_status": "Closed",
    "responsible_agency": "Department of Public Works",
    "final_address": "4620 Murano Rd",
    "address_councildis": "E",
    "status": "Duplicate Request",
    "rowid": "1034888",
    "final_x": "3761397.57789",
    "final_y": "574136.063402",
    "longitude": "-89.81400504073864",
    "latitude": "30.070003559211635",
    "geocoded_column": {
      "latitude": "30.070003559211635",
      "longitude": "-89.81400504073864"
    }
  },
  {
    "service_request": "2023-1034887",
    "request_type": "Roads/Drainage",
    "request_reason": "Pothole",
    "date_created": "2023-09-13T14:21:31.000",
    "date_modified": "2023-09-13T14:22:00.000",
    "case_close_date": "2023-09-13T09:22:00.000",
    "request_status": "Closed",
    "responsible_agency": "Department of Public Works",
    "final_address": "2644 Florida Ave",
    "address_councildis": "D",
    "status": "Resolved",
    "rowid": "1034887",
    "final_x": "3686897.91574",
    "final_y": "542337.865677",
    "longitude": "-90.0506433025541",
    "latitude": "29.98507603625224",
    "geocoded_column": {
      "latitude": "29.98507603625224",
      "longitude": "-90.0506433025541"
    }
  },
  {
    "service_request": "2023-1034886",
    "request_type": "Parks & Parkways",
    "request_reason": "Request Grass Cutting Service (City Owned Property)",
    "date_created": "2023-09-13T14:21:01.000",
    "date_modified": "2023-09-13T15:36:16.000",
    "request_status": "Pending",
    "responsible_agency": "Department of Parks & Parkway",
    "final_address": "ROBERT E LEE BLVD & PAINTERS ST",
    "address_councildis": "D",
    "status": "Pending",
    "rowid": "1034886",
    "final_x": "3686000.0",
    "final_y": "555893.28",
    "longitude": "-90.05300101939818",
    "latitude": "30.022376120995638",
    "geocoded_column": {
      "latitude": "30.022376120995638",
      "longitude": "-90.05300101939818"
    }
  },
  {
    "service_request": "2023-1034885",
    "request_type": "Roads/Drainage",
    "request_reason": "Pothole",
    "date_created": "2023-09-13T14:19:14.000",
    "date_modified": "2023-09-13T14:19:34.000",
    "case_close_date": "2023-09-13T09:19:34.000",
    "request_status": "Closed",
    "responsible_agency": "Department of Public Works",
    "final_address": "1326 Deslonde St",
    "address_councildis": "E",
    "status": "Resolved",
    "rowid": "1034885",
    "final_x": "3695570.15946",
    "final_y": "535387.00999",
    "longitude": "-90.02350246698197",
    "latitude": "29.96569389161283",
    "geocoded_column": {
      "latitude": "29.96569389161283",
      "longitude": "-90.02350246698197"
    }
  },
  {
    "service_request": "2023-1034883",
    "request_type": "Roads/Drainage",
    "request_reason": "Pothole",
    "date_created": "2023-09-13T14:17:41.000",
    "date_modified": "2023-09-13T14:18:06.000",
    "case_close_date": "2023-09-13T09:18:06.000",
    "request_status": "Closed",
    "responsible_agency": "Department of Public Works",
    "final_address": "1607 Alabo St",
    "address_councildis": "E",
    "status": "Resolved",
    "rowid": "1034883",
    "final_x": "3699492.11824",
    "final_y": "535505.338182",
    "longitude": "-90.01111283377227",
    "latitude": "29.965895394735124",
    "geocoded_column": {
      "latitude": "29.965895394735124",
      "longitude": "-90.01111283377227"
    }
  },
  {
    "service_request": "2023-1034882",
    "request_type": "Roads/Drainage",
    "request_reason": "Pothole",
    "date_created": "2023-09-13T14:16:55.000",
    "date_modified": "2023-09-13T14:17:15.000",
    "case_close_date": "2023-09-13T09:17:15.000",
    "request_status": "Closed",
    "responsible_agency": "Department of Public Works",
    "final_address": "1438 Alabo St",
    "address_councildis": "E",
    "status": "Resolved",
    "rowid": "1034882",
    "final_x": "3699237.09488",
    "final_y": "534983.651078",
    "longitude": "-90.01193718342252",
    "latitude": "29.964469031162583",
    "geocoded_column": {
      "latitude": "29.964469031162583",
      "longitude": "-90.01193718342252"
    }
  },
  {
    "service_request": "2023-1034880",
    "request_type": "Roads/Drainage",
    "request_reason": "Pothole",
    "date_created": "2023-09-13T14:14:40.000",
    "date_modified": "2023-09-13T14:15:23.000",
    "case_close_date": "2023-09-13T09:15:23.000",
    "request_status": "Closed",
    "responsible_agency": "Department of Public Works",
    "final_address": "1500 Alabo St",
    "address_councildis": "E",
    "status": "Resolved",
    "rowid": "1034880",
    "final_x": "3699263.31127",
    "final_y": "535068.454982",
    "longitude": "-90.01185130603103",
    "latitude": "29.964701380226288",
    "geocoded_column": {
      "latitude": "29.964701380226288",
      "longitude": "-90.01185130603103"
    }
  },
  {
    "service_request": "2023-1034878",
    "request_type": "Property Maintenance",
    "request_reason": "Property Maintenance",
    "date_created": "2023-09-13T14:10:16.000",
    "date_modified": "2023-09-13T14:11:37.000",
    "request_status": "Pending",
    "responsible_agency": "Department of Code Enforcement",
    "final_address": "1939 Almonaster Ave",
    "address_councildis": "D",
    "status": "Pending",
    "rowid": "1034878",
    "final_x": "3687993.76873",
    "final_y": "539759.763274",
    "longitude": "-90.04727337294287",
    "latitude": "29.97795339304244",
    "geocoded_column": {
      "latitude": "29.97795339304244",
      "longitude": "-90.04727337294287"
    }
  },
  {
    "service_request": "2023-1034877",
    "request_type": "Trash/Recycling",
    "request_reason": "Request a Large Item Pick Up",
    "date_created": "2023-09-13T14:08:38.000",
    "date_modified": "2023-09-13T14:08:39.000",
    "request_status": "Pending",
    "responsible_agency": "Department of Sanitation",
    "final_address": "4639 Rosemont Pl",
    "address_councildis": "E",
    "status": "Assigned to Contractor",
    "contractor": "Waste Pro",
    "rowid": "1034877",
    "final_x": "3702855.50532",
    "final_y": "554375.587096",
    "longitude": "-89.99979791136259",
    "latitude": "30.01767441416985",
    "geocoded_column": {
      "latitude": "30.01767441416985",
      "longitude": "-89.99979791136259"
    }
  },
  {
    "service_request": "2023-1034876",
    "request_type": "Trash/Recycling",
    "request_reason": "Missed Trash Pick-Up",
    "date_created": "2023-09-13T14:06:57.000",
    "date_modified": "2023-09-13T15:33:52.000",
    "case_close_date": "2023-09-13T10:33:52.000",
    "request_status": "Closed",
    "responsible_agency": "Department of Sanitation",
    "final_address": "1927 General Taylor St",
    "address_councildis": "B",
    "status": "Resolved",
    "contractor": "Richards Disposal",
    "contractor_action": "Completed",
    "rowid": "1034876",
    "final_x": "3672375.75367",
    "final_y": "522335.645178",
    "longitude": "-90.09719432936642",
    "latitude": "29.930515589212547",
    "geocoded_column": {
      "latitude": "29.930515589212547",
      "longitude": "-90.09719432936642"
    }
  },
  {
    "service_request": "2023-1034875",
    "request_type": "Tax and Revenue",
    "request_reason": "Business Renewal",
    "date_created": "2023-09-13T14:04:27.000",
    "date_modified": "2023-09-13T14:04:27.000",
    "request_status": "Pending",
    "responsible_agency": "Bureau of Revenue",
    "status": "Pending",
    "rowid": "1034875",
    "longitude": "0.0",
    "latitude": "0.0",
    "geocoded_column": {
      "latitude": "0.0",
      "longitude": "0.0"
    }
  },
  {
    "service_request": "2023-1034874",
    "request_type": "Trash/Recycling",
    "request_reason": "Order Recycling Cart",
    "date_created": "2023-09-13T14:04:22.000",
    "date_modified": "2023-09-13T15:17:01.000",
    "request_status": "Pending",
    "responsible_agency": "Department of Sanitation",
    "final_address": "New Orleans,LA",
    "address_councildis": "C",
    "rowid": "1034874",
    "final_x": "3684646.05442",
    "final_y": "536608.310919",
    "longitude": "-90.05795739721242",
    "latitude": "29.969390888717662",
    "geocoded_column": {
      "latitude": "29.969390888717662",
      "longitude": "-90.05795739721242"
    }
  },
  {
    "service_request": "2023-1034873",
    "request_type": "Parks & Parkways",
    "request_reason": "Request Tree Service (Right of Way/Public Property)",
    "date_created": "2023-09-13T14:04:15.000",
    "date_modified": "2023-09-13T14:04:15.000",
    "request_status": "Pending",
    "responsible_agency": "Department of Parks & Parkway",
    "final_address": "1721 Nashville Ave",
    "address_councildis": "A",
    "status": "Pending",
    "rowid": "1034873",
    "final_x": "3666512.55802",
    "final_y": "522764.596346",
    "longitude": "-90.11568923685391",
    "latitude": "29.93186769024428",
    "geocoded_column": {
      "latitude": "29.93186769024428",
      "longitude": "-90.11568923685391"
    }
  },
  {
    "service_request": "2023-1034872",
    "request_type": "Trash/Recycling",
    "request_reason": "Repair Trash Cart",
    "date_created": "2023-09-13T14:03:56.000",
    "date_modified": "2023-09-13T14:03:57.000",
    "request_status": "Pending",
    "responsible_agency": "Department of Sanitation",
    "final_address": "32 Kings Canyon Dr",
    "address_councildis": "C",
    "status": "Assigned to Contractor",
    "contractor": "Richards Disposal",
    "rowid": "1034872",
    "final_x": "3700007.87204",
    "final_y": "515844.496948",
    "longitude": "-90.01020105846797",
    "latitude": "29.911818563780045",
    "geocoded_column": {
      "latitude": "29.911818563780045",
      "longitude": "-90.01020105846797"
    }
  },
  {
    "service_request": "2023-1034871",
    "request_type": "Trash/Recycling",
    "request_reason": "Missed Trash Pick-Up",
    "date_created": "2023-09-13T14:03:36.000",
    "date_modified": "2023-09-13T15:37:22.000",
    "case_close_date": "2023-09-13T10:37:22.000",
    "request_status": "Closed",
    "responsible_agency": "Department of Sanitation",
    "final_address": "2401 General Taylor St",
    "address_councildis": "B",
    "status": "Resolved",
    "contractor": "Richards Disposal",
    "contractor_action": "Completed",
    "rowid": "1034871",
    "final_x": "3672013.76167",
    "final_y": "523878.05286",
    "longitude": "-90.09828460380507",
    "latitude": "29.93476744563084",
    "geocoded_column": {
      "latitude": "29.93476744563084",
      "longitude": "-90.09828460380507"
    }
  },