[
  {
    "service_request": "2026-1255189",
    "request_type": "Trash/Recycling",
    "request_reason": "Replace Trash Cart",
    "date_created": "2026-01-28T23:12:13.000",
    "date_modified": "2026-01-28T23:12:14.000",
    "request_status": "Pending",
    "responsible_agency": "Department of Sanitation",
    "final_address": "1730 Allen St",
    "address_councildis": "D",
    "status": "Assigned to Contractor",
    "contractor": "IV Waste",
    "rowid": "1255189",
    "final_x": "3682548.38863",
    "final_y": "538579.196361",
    "longitude": "-90.06451306364718",
    "latitude": "29.974874173178637",
    "geocoded_column": {
      "latitude": "29.974874173178637",
      "longitude": "-90.06451306364718"
    }
  },
  {
    "service_request": "2026-1255188",
    "request_type": "General Services",
    "request_reason": "General Service Request",
    "date_created": "2026-01-28T23:04:27.000",
    "date_modified": "2026-01-28T23:04:29.000",
    "request_status": "Pending",
    "responsible_agency": "Orleans Parish Communication District",
    "final_address": "1410 Broadway St",
    "address_councildis": "A",
    "status": "Pending",
    "rowid": "1255188",
    "final_x": "3664573.72749",
    "final_y": "527204.184319",
    "longitude": "-90.12166173751046",
    "latitude": "29.944131652350386",
    "geocoded_column": {
      "latitude": "29.944131652350386",
      "longitude": "-90.12166173751046"
    }
  },
  {
    "service_request": "2026-1255187",
    "request_type": "Trash/Recycling",
    "request_reason": "Damaged Caused By Contractor",
    "date_created": "2026-01-28T21:57:06.000",
    "date_modified": "2026-01-28T21:57:08.000",
    "request_status": "Pending",
    "responsible_agency": "Department of Sanitation",
    "final_address": "5910 Kensington Blvd",
    "address_councildis": "E",
    "status": "Assigned to Contractor",
    "contractor": "Waste Pro",
    "rowid": "1255187",
    "final_x": "3712999.69438",
    "final_y": "561356.262878",
    "longitude": "-89.9674836769525",
    "latitude": "30.036539989284595",
    "geocoded_column": {
      "latitude": "30.036539989284595",
      "longitude": "-89.9674836769525"
    }
  },
  {
    "service_request": "2026-1255186",
    "request_type": "Streetlights",
    "request_reason": "Streetlight Outage/Malfunction",
    "date_created": "2026-01-28T21:51:49.000",
    "date_modified": "2026-01-28T21:51:51.000",
    "request_status": "Pending",
    "responsible_agency": "Department of Public Works",
    "final_address": "5419 Paris Ave",
    "address_councildis": "D",
    "status": "Pending",
    "rowid": "1255186",
    "final_x": "3679250.22978",
    "final_y": "552415.08079",
    "longitude": "-90.07444940173463",
    "latitude": "30.013017985442477",
    "geocoded_column": {
      "latitude": "30.013017985442477",
      "longitude": "-90.07444940173463"
    }
  },
  {
    "service_request": "2026-1255185",
    "request_type": "Street and Traffic Signs",
    "request_reason": "Additional Signage Request",
    "date_created": "2026-01-28T21:32:36.000",
    "date_modified": "2026-01-28T21:32:38.000",
    "request_status": "Pending",
    "responsible_agency": "Department of Public Works",
    "final_address": "1722 S Rampart St",
    "address_councildis": "B",
    "status": "Pending",
    "rowid": "1255185",
    "final_x": "3677367.86811",
    "final_y": "525739.622781",
    "longitude": "-90.0813175500295",
    "latitude": "29.939726382994245",
    "geocoded_column": {
      "latitude": "29.939726382994245",
      "longitude": "-90.0813175500295"
    }
  },
  {
    "service_request": "2026-1255184",
    "request_type": "Trash/Recycling",
    "request_reason": "Request a Large Item Pick Up",
    "date_created": "2026-01-28T21:21:06.000",
    "date_modified": "2026-01-28T21:21:09.000",
    "request_status": "Pending",
    "responsible_agency": "Department of Sanitation",
    "final_address": "2823 St Philip St",
    "address_councildis": "A",
    "status": "Assigned to Contractor",
    "contractor": "IV Waste",
    "rowid": "1255184",
    "final_x": "3676826.2196",
    "final_y": "538337.575305",
    "longitude": "-90.08259346484347",
    "latitude": "29.974382784067203",
    "geocoded_column": {
      "latitude": "29.974382784067203",
      "longitude": "-90.08259346484347"
    }
  },
  {
    "service_request": "2026-1255183",
    "request_type": "Trash/Recycling",
    "request_reason": "Request a Large Item Pick Up",
    "date_created": "2026-01-28T21:01:02.000",
    "date_modified": "2026-01-28T21:01:05.000",
    "request_status": "Pending",
    "responsible_agency": "Department of Sanitation",
    "final_address": "244 West Robert E Lee Blvd",
    "address_councildis": "A",
    "status": "Assigned to Contractor",
    "contractor": "IV Waste",
    "rowid": "1255183",
    "final_x": "3665827.08122",
    "final_y": "554854.992792",
    "longitude": "-90.11677764044373",
    "latitude": "30.020125557028265",
    "geocoded_column": {
      "latitude": "30.020125557028265",
      "longitude": "-90.11677764044373"
    }
  },
  {
    "service_request": "2026-1255182",
    "request_type": "General Services",
    "request_reason": "General Service Request",
    "date_created": "2026-01-28T20:49:21.000",
    "date_modified": "2026-01-28T20:49:23.000",
    "request_status": "Pending",
    "responsible_agency": "Orleans Parish Communication District",
    "final_address": "10740 Queens Blvd APT",
    "status": "Pending",
    "rowid": "1255182",
    "longitude": "0.0",
    "latitude": "0.0",
    "geocoded_column": {
      "latitude": "0.0",
      "longitude": "0.0"
    }
  },
  {
    "service_request": "2026-1255181",
    "request_type": "Trash/Recycling",
    "request_reason": "Request a Large Item Pick Up",
    "date_created": "2026-01-28T20:43:37.000",
    "date_modified": "2026-01-28T20:43:38.000",
    "request_status": "Pending",
    "responsible_agency": "Department of Sanitation",
    "final_address": "3811 Dauphine St",
    "address_councildis": "C",
    "status": "Assigned to Contractor",
    "contractor": "IV Waste",
    "rowid": "1255181",
    "final_x": "3691039.12579",
    "final_y": "534307.949125",
    "longitude": "-90.03784977656446",
    "latitude": "29.962868493183244",
    "geocoded_column": {
      "latitude": "29.962868493183244",
      "longitude": "-90.03784977656446"
    }
  },
  {
    "service_request": "2026-1255180",
    "request_type": "General Services",
    "request_reason": "General Service Request",
    "date_created": "2026-01-28T20:24:24.000",
    "date_modified": "2026-01-28T20:24:27.000",
    "request_status": "Pending",
    "responsible_agency": "Orleans Parish Communication District",
    "final_address": "1427 Casa Calvo St",
    "address_councildis": "C",
    "status": "Pending",
    "rowid": "1255180",
    "final_x": "3692008.18614",
    "final_y": "525974.846205",
    "longitude": "-90.0350877679499",
    "latitude": "29.939925185782894",
    "geocoded_column": {
      "latitude": "29.939925185782894",
      "longitude": "-90.0350877679499"
    }
  },
  {
    "service_request": "2026-1255179",
    "request_type": "Street and Traffic Signs",
    "request_reason": "Street Name Sign Damaged or Missing",
    "date_created": "2026-01-28T20:03:07.000",
    "date_modified": "2026-01-28T20:03:09.000",
    "request_status": "Pending",
    "responsible_agency": "Department of Public Works",
    "final_address": "1339 Harrison Ave",
    "address_councildis": "D",
    "status": "Pending",
    "rowid": "1255179",
    "final_x": "3677659.09698",
    "final_y": "547659.712594",
    "longitude": "-90.07964091195626",
    "latitude": "29.999990389044903",
    "geocoded_column": {
      "latitude": "29.999990389044903",
      "longitude": "-90.07964091195626"
    }
  },
  {
    "service_request": "2026-1255178",
    "request_type": "Trash/Recycling",
    "request_reason": "Replace Trash Cart",
    "date_created": "2026-01-28T20:00:00.000",
    "date_modified": "2026-01-28T20:00:04.000",
    "request_status": "Pending",
    "responsible_agency": "Department of Sanitation",
    "final_address": "1915 Pauger St",
    "address_councildis": "C",
    "status": "Assigned to Contractor",
    "contractor": "IV Waste",
    "rowid": "1255178",
    "final_x": "3683864.9126",
    "final_y": "536727.391943",
    "longitude": "-90.06042012404919",
    "latitude": "29.969742203993516",
    "geocoded_column": {
      "latitude": "29.969742203993516",
      "longitude": "-90.06042012404919"
    }
  },
  {
    "service_request": "2026-1255177",
    "request_type": "Trash/Recycling",
    "request_reason": "Request a Large Item Pick Up",
    "date_created": "2026-01-28T19:52:09.000",
    "date_modified": "2026-01-28T19:52:11.000",
    "request_status": "Pending",
    "responsible_agency": "Department of Sanitation",
    "final_address": "2823 St Philip St",
    "address_councildis": "A",
    "status": "Assigned to Contractor",
    "contractor": "IV Waste",
    "rowid": "1255177",
    "final_x": "3676826.2196",
    "final_y": "538337.575305",
    "longitude": "-90.08259346484347",
    "latitude": "29.974382784067203",
    "geocoded_column": {
      "latitude": "29.974382784067203",
      "longitude": "-90.08259346484347"
    }
  },
  {
    "service_request": "2026-1255176",
    "request_type": "Property Maintenance",
    "request_reason": "Property Maintenance",
    "date_created": "2026-01-28T19:30:56.000",
    "date_modified": "2026-01-28T19:30:58.000",
    "request_status": "Pending",
    "responsible_agency": "Department of Code Enforcement",
    "final_address": "2627 N Miro St",
    "address_councildis": "D",
    "status": "Pending",
    "rowid": "1255176",
    "final_x": "3687877.77455",
    "final_y": "540644.514763",
    "longitude": "-90.04760836737982",
    "latitude": "29.980389725861155",
    "geocoded_column": {
      "latitude": "29.980389725861155",
      "longitude": "-90.04760836737982"
    }
  },
  {
    "service_request": "2026-1255175",
    "request_type": "Roads and Streets",
    "request_reason": "Pothole",
    "date_created": "2026-01-28T19:25:41.000",
    "date_modified": "2026-01-28T19:25:43.000",
    "request_status": "Pending",
    "responsible_agency": "Department of Public Works",
    "final_address": "2401 Nashville Ave",
    "address_councildis": "A",
    "status": "Pending",
    "rowid": "1255175",
    "final_x": "3667135.09684",
    "final_y": "524889.891708",
    "longitude": "-90.11365252468843",
    "latitude": "29.93769336825969",
    "geocoded_column": {
      "latitude": "29.93769336825969",
      "longitude": "-90.11365252468843"
    }
  },
  {
    "service_request": "2026-1255174",
    "request_type": "Safety & Permits",
    "request_reason": "Zoning Enforcement",
    "date_created": "2026-01-28T19:19:36.000",
    "date_modified": "2026-01-28T19:19:37.000",
    "request_status": "Pending",
    "responsible_agency": "Safety and Permits",
    "final_address": "1327 Harrison Ave",
    "address_councildis": "D",
    "status": "Pending",
    "rowid": "1255174",
    "final_x": "3677459.2196",
    "final_y": "547597.02069",
    "longitude": "-90.08027450039017",
    "latitude": "29.999824020181784",
    "geocoded_column": {
      "latitude": "29.999824020181784",
      "longitude": "-90.08027450039017"
    }
  },
  {
    "service_request": "2026-1255173",
    "request_type": "Streetlights",
    "request_reason": "Streetlight Outage/Malfunction",
    "date_created": "2026-01-28T19:05:42.000",
    "date_modified": "2026-01-28T19:05:44.000",
    "request_status": "Pending",
    "responsible_agency": "Department of Public Works",
    "final_address": "7400 BLK Panola St",
    "address_councildis": "A",
    "status": "Pending",
    "rowid": "1255173",
    "final_x": "3665317.5896",
    "final_y": "529591.108584",
    "longitude": "-90.11923329516378",
    "latitude": "29.950673273887915",
    "geocoded_column": {
      "latitude": "29.950673273887915",
      "longitude": "-90.11923329516378"
    }
  },
  {
    "service_request": "2026-1255172",
    "request_type": "Street and Traffic Signs",
    "request_reason": "Stop Sign Missing or Damaged",
    "date_created": "2026-01-28T19:01:00.000",
    "date_modified": "2026-01-28T19:01:04.000",
    "request_status": "Pending",
    "responsible_agency": "Department of Public Works",
    "final_address": "3900 Howard Ave",
    "address_councildis": "B",
    "status": "Pending",
    "rowid": "1255172",
    "final_x": "3672977.87003",
    "final_y": "532203.503043",
    "longitude": "-90.09495686412134",
    "latitude": "29.957631089681772",
    "geocoded_column": {
      "latitude": "29.957631089681772",
      "longitude": "-90.09495686412134"
    }
  },
  {
    "service_request": "2026-1255171",
    "request_type": "Trash/Recycling",
    "request_reason": "Order Recycling Cart",
    "date_created": "2026-01-28T18:49:27.000",
    "date_modified": "2026-01-28T18:49:28.000",
    "request_status": "Pending",
    "responsible_agency": "Department of Sanitation",
    "final_address": "1005 Josephine St",
    "address_councildis": "B",
    "status": "Pending",
    "rowid": "1255171",
    "final_x": "3679402.01423",
    "final_y": "522070.515066",
    "longitude": "-90.07502267325984",
    "latitude": "29.929576274017826",
    "geocoded_column": {
      "latitude": "29.929576274017826",
      "longitude": "-90.07502267325984"
    }
  },
  {
    "service_request": "2026-1255170",
    "request_type": "Trash/Recycling",
    "request_reason": "Illegal Dumping",
    "date_created": "2026-01-28T18:49:20.000",
    "date_modified": "2026-01-28T18:49:22.000",
    "request_status": "Pending",
    "responsible_agency": "Department of Sanitation",
    "final_address": "2919 Lafitte Ave",
    "address_councildis": "A",
    "status": "Pending",
    "rowid": "1255170",
    "final_x": "3675454.88225",
    "final_y": "537059.045256",
    "longitude": "-90.08696840045114",
    "latitude": "29.970908349918094",
    "geocoded_column": {
      "latitude": "29.970908349918094",
      "longitude": "-90.08696840045114"
    }
  },
  {
    "service_request": "2026-1255169",
    "request_type": "Trash/Recycling",
    "request_reason": "Replace Recycling Cart",
    "date_created": "2026-01-28T18:45:07.000",
    "date_modified": "2026-01-28T18:45:10.000",
    "request_status": "Pending",
    "responsible_agency": "Department of Sanitation",
    "final_address": "1016 Peniston St",
    "address_councildis": "B",
    "status": "Pending",
    "rowid": "1255169",
    "final_x": "3673223.40136",
    "final_y": "519553.843255",
    "longitude": "-90.09461336383293",
    "latitude": "29.922841356843385",
    "geocoded_column": {
      "latitude": "29.922841356843385",
      "longitude": "-90.09461336383293"
    }
  },
  {
    "service_request": "2026-1255168",
    "request_type": "Trash/Recycling",
    "request_reason": "Replace Trash Cart",
    "date_created": "2026-01-28T18:43:18.000",
    "date_modified": "2026-01-28T18:43:19.000",
    "request_status": "Pending",
    "responsible_agency": "Department of Sanitation",
    "final_address": "1016 Peniston St",
    "address_councildis": "B",
    "status": "Assigned to Contractor",
    "contractor": "IV Waste",
    "rowid": "1255168",
    "final_x": "3673223.40136",
    "final_y": "519553.843255",
    "longitude": "-90.09461336383293",
    "latitude": "29.922841356843385",
    "geocoded_column": {
      "latitude": "29.922841356843385",
      "longitude": "-90.09461336383293"
    }
  },
  {
    "service_request": "2026-1255167",
    "request_type": "Roads and Streets",
    "request_reason": "Sidewalk Damaged or Missing",
    "date_created": "2026-01-28T18:41:56.000",
    "date_modified": "2026-01-28T18:41:58.000",
    "request_status": "Pending",
    "responsible_agency": "Department of Public Works",
    "final_address": "1731 Short St",
    "address_councildis": "A",
    "status": "Pending",
    "rowid": "1255167",
    "final_x": "3663738.08858",
    "final_y": "529471.914689",
    "longitude": "-90.12422454384213",
    "latitude": "29.95039145292138",
    "geocoded_column": {
      "latitude": "29.95039145292138",
      "longitude": "-90.12422454384213"
    }
  },
  {
    "service_request": "2026-1255166",
    "request_type": "Roads and Streets",
    "request_reason": "Sidewalk Damaged or Missing",
    "date_created": "2026-01-28T18:38:14.000",
    "date_modified": "2026-01-28T18:38:18.000",
    "request_status": "Pending",
    "responsible_agency": "Department of Public Works",
    "final_address": "SYCAMORE ST & FERN ST",
    "address_councildis": "A",
    "status": "Pending",
    "rowid": "1255166",
    "final_x": "3664900.9",
    "final_y": "530445.78",
    "longitude": "-90.12052042940522",
    "latitude": "29.953035476840334",
    "geocoded_column": {
      "latitude": "29.953035476840334",
      "longitude": "-90.12052042940522"
    }
  },
  {
    "service_request": "2026-1255165",
    "request_type": "Trash/Recycling",
    "request_reason": "Request a Large Item Pick Up",
    "date_created": "2026-01-28T18:34:40.000",
    "date_modified": "2026-01-28T18:34:41.000",
    "request_status": "Pending",
    "responsible_agency": "Department of Sanitation",
    "final_address": "434 Short St",
    "address_councildis": "A",
    "status": "Assigned to Contractor",
    "contractor": "IV Waste",
    "rowid": "1255165",
    "final_x": "3660568.13504",
    "final_y": "526227.803006",
    "longitude": "-90.13434084275373",
    "latitude": "29.94156277416159",
    "geocoded_column": {
      "latitude": "29.94156277416159",
      "longitude": "-90.13434084275373"
    }
  },
  {
    "service_request": "2026-1255164",
    "request_type": "Roads and Streets",
    "request_reason": "Pothole",
    "date_created": "2026-01-28T18:34:29.000",
    "date_modified": "2026-01-28T18:34:30.000",
    "request_status": "Pending",
    "responsible_agency": "Department of Public Works",
    "final_address": "9900 BLK Hammond St",
    "address_councildis": "E",
    "status": "Pending",
    "rowid": "1255164",
    "final_x": "3712082.46622",
    "final_y": "556325.977687",
    "longitude": "-89.97057133838518",
    "latitude": "30.02273873001683",
    "geocoded_column": {
      "latitude": "30.02273873001683",
      "longitude": "-89.97057133838518"
    }
  },
  {
    "service_request": "2026-1255163",
    "request_type": "Roads and Streets",
    "request_reason": "Sidewalk Damaged or Missing",
    "date_created": "2026-01-28T18:34:24.000",
    "date_modified": "2026-01-28T18:34:25.000",
    "request_status": "Pending",
    "responsible_agency": "Department of Public Works",
    "final_address": "1532 Short St",
    "address_councildis": "A",
    "status": "Pending",
    "rowid": "1255163",
    "final_x": "3663150.27597",
    "final_y": "529064.069056",
    "longitude": "-90.12609412599583",
    "latitude": "29.94928705098415",
    "geocoded_column": {
      "latitude": "29.94928705098415",
      "longitude": "-90.12609412599583"
    }
  },
  {
    "service_request": "2026-1255162",
    "request_type": "Street and Traffic Signs",
    "request_reason": "Stop Sign Missing or Damaged",
    "date_created": "2026-01-28T18:26:43.000",
    "date_modified": "2026-01-28T18:26:44.000",
    "request_status": "Pending",
    "responsible_agency": "Department of Public Works",
    "final_address": "405 Delaronde St",
    "address_councildis": "C",
    "status": "Pending",
    "rowid": "1255162",
    "final_x": "3686648.77346",
    "final_y": "531002.116738",
    "longitude": "-90.0518306748774",
    "latitude": "29.953914348090272",
    "geocoded_column": {
      "latitude": "29.953914348090272",
      "longitude": "-90.0518306748774"
    }
  },
  {
    "service_request": "2026-1255161",
    "request_type": "Street and Traffic Signs",
    "request_reason": "Street Name Sign Damaged or Missing",
    "date_created": "2026-01-28T18:26:12.000",
    "date_modified": "2026-01-28T18:26:14.000",
    "request_status": "Pending",
    "responsible_agency": "Department of Public Works",
    "final_address": "9300 BLK Grant St",
    "address_councildis": "E",
    "status": "Pending",
    "rowid": "1255161",
    "final_x": "3710090.02696",
    "final_y": "554861.753909",
    "longitude": "-89.97692169325428",
    "latitude": "30.01877769223746",
    "geocoded_column": {
      "latitude": "30.01877769223746",
      "longitude": "-89.97692169325428"
    }
  },
  {
    "service_request": "2026-1255160",
    "request_type": "Trash/Recycling",
    "request_reason": "Order Trash Cart",
    "date_created": "2026-01-28T18:24:26.000",
    "date_modified": "2026-01-28T18:24:27.000",
    "request_status": "Pending",
    "responsible_agency": "Department of Sanitation",
    "final_address": "8023 Devine Ave",
    "address_councildis": "E",
    "status": "Assigned to Contractor",
    "contractor": "Waste Pro",
    "rowid": "1255160",
    "final_x": "3705068.9466",
    "final_y": "564277.553825",
    "longitude": "-89.99243823956664",
    "latitude": "30.044829935640895",
    "geocoded_column": {
      "latitude": "30.044829935640895",
      "longitude": "-89.99243823956664"
    }
  },
  {
    "service_request": "2026-1255159",
    "request_type": "Streetlights",
    "request_reason": "Streetlight Outage/Malfunction",
    "date_created": "2026-01-28T18:22:52.000",
    "date_modified": "2026-01-28T18:22:54.000",
    "request_status": "Pending",
    "responsible_agency": "Department of Public Works",
    "final_address": "5619 Marshal Foch St",
    "address_councildis": "A",
    "status": "Pending",
    "rowid": "1255159",
    "final_x": "3669654.93729",
    "final_y": "544448.547343",
    "longitude": "-90.10503525491626",
    "latitude": "29.99139916718876",
    "geocoded_column": {
      "latitude": "29.99139916718876",
      "longitude": "-90.10503525491626"
    }
  },
  {
    "service_request": "2026-1255158",
    "request_type": "Street and Traffic Signs",
    "request_reason": "Street Name Sign Damaged or Missing",
    "date_created": "2026-01-28T18:20:14.000",
    "date_modified": "2026-01-28T18:20:16.000",
    "request_status": "Pending",
    "responsible_agency": "Department of Public Works",
    "final_address": "9200 BLK Grant St",
    "address_councildis": "E",
    "status": "Pending",
    "rowid": "1255158",
    "final_x": "3709609.84682",
    "final_y": "554801.984344",
    "longitude": "-89.97844110984585",
    "latitude": "30.018628969980565",
    "geocoded_column": {
      "latitude": "30.018628969980565",
      "longitude": "-89.97844110984585"
    }
  },
  {
    "service_request": "2026-1255157",
    "request_type": "Roads and Streets",
    "request_reason": "Pothole",
    "date_created": "2026-01-28T18:16:39.000",
    "date_modified": "2026-01-28T18:16:41.000",
    "request_status": "Pending",
    "responsible_agency": "Department of Public Works",
    "final_address": "8200 Curran Rd",
    "address_councildis": "E",
    "status": "Pending",
    "rowid": "1255157",
    "final_x": "3702740.36202",
    "final_y": "561802.035039",
    "longitude": "-89.9998886525784",
    "latitude": "30.03809795375354",
    "geocoded_column": {
      "latitude": "30.03809795375354",
      "longitude": "-89.9998886525784"
    }
  },
  {
    "service_request": "2026-1255156",
    "request_type": "Property Maintenance",
    "request_reason": "Property Maintenance",
    "date_created": "2026-01-28T18:11:13.000",
    "date_modified": "2026-01-28T18:11:14.000",
    "request_status": "Pending",
    "responsible_agency": "Department of Code Enforcement",
    "final_address": "1568 N Rocheblave St",
    "address_councildis": "D",
    "status": "Pending",
    "rowid": "1255156",
    "final_x": "3679875.85563",
    "final_y": "539373.957706",
    "longitude": "-90.07292598750266",
    "latitude": "29.977140593822085",
    "geocoded_column": {
      "latitude": "29.977140593822085",
      "longitude": "-90.07292598750266"
    }
  },
  {
    "service_request": "2026-1255155",
    "request_type": "Trash/Recycling",
    "request_reason": "Replace Trash Cart",
    "date_created": "2026-01-28T18:03:26.000",
    "date_modified": "2026-01-28T18:03:28.000",
    "request_status": "Pending",
    "responsible_agency": "Department of Sanitation",
    "final_address": "1225 S Genois St",
    "address_councildis": "B",
    "status": "Assigned to Contractor",
    "contractor": "IV Waste",
    "rowid": "1255155",
    "final_x": "3669324.81127",
    "final_y": "532639.90298",
    "longitude": "-90.10647743455085",
    "latitude": "29.958939098584075",
    "geocoded_column": {
      "latitude": "29.958939098584075",
      "longitude": "-90.10647743455085"
    }
  },
  {
    "service_request": "2026-1255154",
    "request_type": "Trash/Recycling",
    "request_reason": "Repair Trash Cart",
    "date_created": "2026-01-28T17:56:17.000",
    "date_modified": "2026-01-28T17:56:20.000",
    "request_status": "Pending",
    "responsible_agency": "Department of Sanitation",
    "final_address": "1619 Bordeaux St",
    "address_councildis": "B",
    "status": "Assigned to Contractor",
    "contractor": "IV Waste",
    "rowid": "1255154",
    "final_x": "3669405.16577",
    "final_y": "520886.673593",
    "longitude": "-90.10662102669747",
    "latitude": "29.926619163947947",
    "geocoded_column": {
      "latitude": "29.926619163947947",
      "longitude": "-90.10662102669747"
    }
  },
  {
    "service_request": "2026-1255153",
    "request_type": "Traffic Signals",
    "request_reason": "Traffic Signal Malfunctioning or Damaged",
    "date_created": "2026-01-28T17:53:32.000",
    "date_modified": "2026-01-28T17:53:33.000",
    "request_status": "Pending",
    "responsible_agency": "Department of Public Works",
    "final_address": "WASHINGTON AVE & LA SALLE ST",
    "address_councildis": "B",
    "status": "Pending",
    "rowid": "1255153",
    "final_x": "3674356.8",
    "final_y": "524905.18",
    "longitude": "-90.09085249702441",
    "latitude": "29.937522060901216",
    "geocoded_column": {
      "latitude": "29.937522060901216",
      "longitude": "-90.09085249702441"
    }
  },
  {
    "service_request": "2026-1255152",
    "request_type": "Abandoned Vehicles",
    "request_reason": "Abandoned/Junk Vehicles",
    "date_created": "2026-01-28T17:52:38.000",
    "date_modified": "2026-01-28T17:52:40.000",
    "request_status": "Pending",
    "responsible_agency": "Department of Public Works",
    "final_address": "2600 BLK Urquhart St",
    "address_councildis": "C",
    "status": "Pending",
    "rowid": "1255152",
    "final_x": "3687455.16049",
    "final_y": "537157.116418",
    "longitude": "-90.04906661346064",
    "latitude": "29.970813640188766",
    "geocoded_column": {
      "latitude": "29.970813640188766",
      "longitude": "-90.04906661346064"
    }
  },
  {
    "service_request": "2026-1255151",
    "request_type": "Abandoned Vehicles",
    "request_reason": "Abandoned/Junk Vehicles",
    "date_created": "2026-01-28T17:40:27.000",
    "date_modified": "2026-01-28T17:40:28.000",
    "request_status": "Pending",
    "responsible_agency": "Department of Public Works",
    "final_address": "3412 Cleveland Ave",
    "address_councildis": "B",
    "status": "Pending",
    "rowid": "1255151",
    "final_x": "3672739.93614",
    "final_y": "536515.467783",
    "longitude": "-90.09556110769219",
    "latitude": "29.96949461698868",
    "geocoded_column": {
      "latitude": "29.96949461698868",
      "longitude": "-90.09556110769219"
    }
  },
  {
    "service_request": "2026-1255150",
    "request_type": "Property Maintenance",
    "request_reason": "Property Maintenance",
    "date_created": "2026-01-28T17:39:41.000",
    "date_modified": "2026-01-28T17:39:42.000",
    "request_status": "Pending",
    "responsible_agency": "Department of Code Enforcement",
    "final_address": "3618 Clematis St",
    "address_councildis": "D",
    "status": "Pending",
    "rowid": "1255150",
    "final_x": "3686273.66633",
    "final_y": "546154.716752",
    "longitude": "-90.05248027433014",
    "latitude": "29.99559021410322",
    "geocoded_column": {
      "latitude": "29.99559021410322",
      "longitude": "-90.05248027433014"
    }
  },
  {
    "service_request": "2026-1255149",
    "request_type": "Abandoned Vehicles",
    "request_reason": "Abandoned/Junk Vehicles",
    "date_created": "2026-01-28T17:39:00.000",
    "date_modified": "2026-01-28T17:39:01.000",
    "request_status": "Pending",
    "responsible_agency": "Department of Public Works",
    "final_address": "721 Burdette St",
    "address_councildis": "A",
    "status": "Pending",
    "rowid": "1255149",
    "final_x": "3661777.30176",
    "final_y": "526443.457918",
    "longitude": "-90.13051609575066",
    "latitude": "29.94212091083317",
    "geocoded_column": {
      "latitude": "29.94212091083317",
      "longitude": "-90.13051609575066"
    }
  },
  {
    "service_request": "2026-1255148",
    "request_type": "Trash/Recycling",
    "request_reason": "Missed Trash Pick-Up",
    "date_created": "2026-01-28T17:38:37.000",
    "date_modified": "2026-01-28T17:38:40.000",
    "request_status": "Pending",
    "responsible_agency": "Department of Sanitation",
    "final_address": "10139 Pressburg St",
    "address_councildis": "E",
    "status": "Assigned to Contractor",
    "contractor": "Waste Pro",
    "rowid": "1255148",
    "final_x": "3713020.53547",
    "final_y": "557247.154075",
    "longitude": "-89.96757259450844",
    "latitude": "30.02524089169316",
    "geocoded_column": {
      "latitude": "30.02524089169316",
      "longitude": "-89.96757259450844"
    }
  },
  {
    "service_request": "2026-1255147",
    "request_type": "Abandoned Vehicles",
    "request_reason": "Abandoned/Junk Vehicles",
    "date_created": "2026-01-28T17:35:02.000",
    "date_modified": "2026-01-28T17:35:04.000",
    "request_status": "Pending",
    "responsible_agency": "Department of Public Works",
    "final_address": "1435 Euterpe St",
    "address_councildis": "B",
    "status": "Pending",
    "rowid": "1255147",
    "final_x": "3679484.85288",
    "final_y": "524670.224508",
    "longitude": "-90.07467101783345",
    "latitude": "29.936722117927204",
    "geocoded_column": {
      "latitude": "29.936722117927204",
      "longitude": "-90.07467101783345"
    }
  },
  {
    "service_request": "2026-1255146",
    "request_type": "Streetlights",
    "request_reason": "New Streetlight Request",
    "date_created": "2026-01-28T17:31:33.000",
    "date_modified": "2026-01-28T17:31:36.000",
    "request_status": "Pending",
    "responsible_agency": "Department of Public Works",
    "final_address": "1800 Camp St",
    "address_councildis": "B",
    "status": "Pending",
    "rowid": "1255146",
    "final_x": "3679608.84373",
    "final_y": "523264.242619",
    "longitude": "-90.07432834431492",
    "latitude": "29.93285238573915",
    "geocoded_column": {
      "latitude": "29.93285238573915",
      "longitude": "-90.07432834431492"
    }
  },
  {
    "service_request": "2026-1255145",
    "request_type": "Trash/Recycling",
    "request_reason": "Request a Large Item Pick Up",
    "date_created": "2026-01-28T17:20:43.000",
    "date_modified": "2026-01-28T17:20:45.000",
    "request_status": "Pending",
    "responsible_agency": "Department of Sanitation",
    "final_address": "2727 Chestnut St",
    "address_councildis": "B",
    "status": "Assigned to Contractor",
    "contractor": "IV Waste",
    "rowid": "1255145",
    "final_x": "3676701.61985",
    "final_y": "521546.909305",
    "longitude": "-90.08356536719207",
    "latitude": "29.928217792480396",
    "geocoded_column": {
      "latitude": "29.928217792480396",
      "longitude": "-90.08356536719207"
    }
  },
  {
    "service_request": "2026-1255144",
    "request_type": "Trash/Recycling",
    "request_reason": "Request a Large Item Pick Up",
    "date_created": "2026-01-28T17:18:44.000",
    "date_modified": "2026-01-28T17:18:46.000",
    "request_status": "Pending",
    "responsible_agency": "Department of Sanitation",
    "final_address": "2320 Amelia St",
    "address_councildis": "B",
    "status": "Assigned to Contractor",
    "contractor": "IV Waste",
    "rowid": "1255144",
    "final_x": "3672458.01383",
    "final_y": "523763.308795",
    "longitude": "-90.09688601282674",
    "latitude": "29.934438762624687",
    "geocoded_column": {
      "latitude": "29.934438762624687",
      "longitude": "-90.09688601282674"
    }
  },
  {
    "service_request": "2026-1255143",
    "request_type": "Abandoned Vehicles",
    "request_reason": "Abandoned/Junk Vehicles",
    "date_created": "2026-01-28T17:17:12.000",
    "date_modified": "2026-01-28T17:17:13.000",
    "request_status": "Pending",
    "responsible_agency": "Department of Public Works",
    "final_address": "841 Bartholomew St",
    "address_councildis": "C",
    "status": "Pending",
    "rowid": "1255143",
    "final_x": "3691625.60585",
    "final_y": "534458.669445",
    "longitude": "-90.03599236512186",
    "latitude": "29.9632646759747",
    "geocoded_column": {
      "latitude": "29.9632646759747",
      "longitude": "-90.03599236512186"
    }
  },
  {
    "service_request": "2026-1255142",
    "request_type": "Abandoned Vehicles",
    "request_reason": "Abandoned/Junk Vehicles",
    "date_created": "2026-01-28T17:10:18.000",
    "date_modified": "2026-01-28T17:10:20.000",
    "request_status": "Pending",
    "responsible_agency": "Department of Public Works",
    "final_address": "1124 Philip St",
    "address_councildis": "B",
    "status": "Pending",
    "rowid": "1255142",
    "final_x": "3678381.32456",
    "final_y": "521980.96409",
    "longitude": "-90.078247904111",
    "latitude": "29.929360819048195",
    "geocoded_column": {
      "latitude": "29.929360819048195",
      "longitude": "-90.078247904111"
    }
  },
  {
    "service_request": "2026-1255141",
    "request_type": "Abandoned Vehicles",
    "request_reason": "Abandoned/Junk Vehicles",
    "date_created": "2026-01-28T17:04:23.000",
    "date_modified": "2026-01-28T17:04:24.000",
    "request_status": "Pending",
    "responsible_agency": "Department of Public Works",
    "final_address": "6900 BLK Bundy Rd",
    "address_councildis": "E",
    "status": "Pending",
    "rowid": "1255141",
    "final_x": "3707182.6125",
    "final_y": "560647.806642",
    "longitude": "-89.98589302240734",
    "latitude": "30.03478138997219",
    "geocoded_column": {
      "latitude": "30.03478138997219",
      "longitude": "-89.98589302240734"
    }
  },
  {
    "service_request": "2026-1255140",
    "request_type": "Trash/Recycling",
    "request_reason": "Order Recycling Cart",
    "date_created": "2026-01-28T17:00:53.000",
    "date_modified": "2026-01-28T17:00:55.000",
    "request_status": "Pending",
    "responsible_agency": "Department of Sanitation",
    "final_address": "2021 Joseph St",
    "address_councildis": "A",
    "status": "Pending",
    "rowid": "1255140",
    "final_x": "3667238.00685",
    "final_y": "523606.287547",
    "longitude": "-90.11337077458992",
    "latitude": "29.934160855162613",
    "geocoded_column": {
      "latitude": "29.934160855162613",
      "longitude": "-90.11337077458992"
    }
  },
  {
    "service_request": "2026-1255139",
    "request_type": "Trash/Recycling",
    "request_reason": "Request a Large Item Pick Up",
    "date_created": "2026-01-28T16:57:48.000",
    "date_modified": "2026-01-28T16:57:49.000",
    "request_status": "Pending",
    "responsible_agency": "Department of Sanitation",
    "final_address": "4550 Lancelot Dr",
    "address_councildis": "E",
    "status": "Assigned to Contractor",
    "contractor": "Waste Pro",
    "rowid": "1255139",
    "final_x": "3707487.37598",
    "final_y": "554300.435096",
    "longitude": "-89.98516593684333",
    "latitude": "30.017318740461292",
    "geocoded_column": {
      "latitude": "30.017318740461292",
      "longitude": "-89.98516593684333"
    }
  },
  {
    "service_request": "2026-1255138",
    "request_type": "Trash/Recycling",
    "request_reason": "Illegal Dumping",
    "date_created": "2026-01-28T16:56:17.000",
    "date_modified": "2026-01-28T16:56:18.000",
    "request_status": "Pending",
    "responsible_agency": "Department of Sanitation",
    "final_address": "2500 BLK Saint Peter St",
    "address_councildis": "D",
    "status": "Pending",
    "rowid": "1255138",
    "final_x": "3677285.97938",
    "final_y": "536387.848272",
    "longitude": "-90.08120872205177",
    "latitude": "29.96900789416249",
    "geocoded_column": {
      "latitude": "29.96900789416249",
      "longitude": "-90.08120872205177"
    }
  },
  {
    "service_request": "2026-1255137",
    "request_type": "Trash/Recycling",
    "request_reason": "Request a Large Item Pick Up",
    "date_created": "2026-01-28T16:56:04.000",
    "date_modified": "2026-01-28T16:56:07.000",
    "request_status": "Pending",
    "responsible_agency": "Department of Sanitation",
    "final_address": "8643 Chase St",
    "address_councildis": "E",
    "status": "Assigned to Contractor",
    "contractor": "Waste Pro",
    "rowid": "1255137",
    "final_x": "3703816.81604",
    "final_y": "563576.663456",
    "longitude": "-89.99642137423083",
    "latitude": "30.042942994435744",
    "geocoded_column": {
      "latitude": "30.042942994435744",
      "longitude": "-89.99642137423083"
    }
  },
  {
    "service_request": "2026-1255136",
    "request_type": "Abandoned Vehicles",
    "request_reason": "Abandoned/Junk Vehicles",
    "date_created": "2026-01-28T16:54:38.000",
    "date_modified": "2026-01-28T16:54:40.000",
    "request_status": "Pending",
    "responsible_agency": "Department of Public Works",
    "final_address": "2320 Amelia St",
    "address_councildis": "B",
    "status": "Pending",
    "rowid": "1255136",
    "final_x": "3672458.01383",
    "final_y": "523763.308795",
    "longitude": "-90.09688601282674",
    "latitude": "29.934438762624687",
    "geocoded_column": {
      "latitude": "29.934438762624687",
      "longitude": "-90.09688601282674"
    }
  },
  {
    "service_request": "2026-1255135",
    "request_type": "Parks & Parkways",
    "request_reason": "Request Tree Service (Right of Way/Public Property)",
    "date_created": "2026-01-28T16:54:36.000",
    "date_modified": "2026-01-28T16:54:37.000",
    "request_status": "Pending",
    "responsible_agency": "Department of Parks & Parkway",
    "final_address": "10200 Hammond St",
    "address_councildis": "E",
    "status": "Pending",
    "rowid": "1255135",
    "final_x": "3713177.3765",
    "final_y": "556358.959898",
    "longitude": "-89.96711046936413",
    "latitude": "30.022793567288254",
    "geocoded_column": {
      "latitude": "30.022793567288254",
      "longitude": "-89.96711046936413"
    }
  },
  {
    "service_request": "2026-1255134",
    "request_type": "Trash/Recycling",
    "request_reason": "Order Trash Cart",
    "date_created": "2026-01-28T16:53:06.000",
    "date_modified": "2026-01-28T16:53:08.000",
    "request_status": "Pending",
    "responsible_agency": "Department of Sanitation",
    "final_address": "2628 Clover St",
    "address_councildis": "D",
    "status": "Assigned to Contractor",
    "contractor": "IV Waste",
    "rowid": "1255134",
    "final_x": "3687388.54511",
    "final_y": "546625.796305",
    "longitude": "-90.04894180216657",
    "latitude": "29.9968511987509",
    "geocoded_column": {
      "latitude": "29.9968511987509",
      "longitude": "-90.04894180216657"
    }
  },
  {
    "service_request": "2026-1255133",
    "request_type": "Street and Traffic Signs",
    "request_reason": "Street Name Sign Damaged or Missing",
    "date_created": "2026-01-28T16:51:35.000",
    "date_modified": "2026-01-28T16:51:37.000",
    "request_status": "Pending",
    "responsible_agency": "Department of Public Works",
    "final_address": "5701 Crowder Blvd",
    "address_councildis": "E",
    "status": "Pending",
    "rowid": "1255133",
    "final_x": "3705377.62999",
    "final_y": "558023.320475",
    "longitude": "-89.99169410197185",
    "latitude": "30.02762331816234",
    "geocoded_column": {
      "latitude": "30.02762331816234",
      "longitude": "-89.99169410197185"
    }
  },
  {
    "service_request": "2026-1255132",
    "request_type": "Trash/Recycling",
    "request_reason": "Replace Trash Cart",
    "date_created": "2026-01-28T16:41:52.000",
    "date_modified": "2026-01-28T16:41:54.000",
    "request_status": "Pending",
    "responsible_agency": "Department of Sanitation",
    "final_address": "1126 N White St",
    "address_councildis": "A",
    "status": "Assigned to Contractor",
    "contractor": "IV Waste",
    "rowid": "1255132",
    "final_x": "538982.59361",
    "final_y": "538982.59361",
    "longitude": "-99.97750697959813",
    "latitude": "29.697579185609595",
    "geocoded_column": {
      "latitude": "29.697579185609595",
      "longitude": "-99.97750697959813"
    }
  },
  {
    "service_request": "2026-1255131",
    "request_type": "Trash/Recycling",
    "request_reason": "Replace Recycling Cart",
    "date_created": "2026-01-28T16:40:46.000",
    "date_modified": "2026-01-28T16:40:47.000",
    "request_status": "Pending",
    "responsible_agency": "Department of Sanitation",
    "final_address": "1126 N White St",
    "address_councildis": "A",
    "status": "Pending",
    "rowid": "1255131",
    "final_x": "538982.59361",
    "final_y": "538982.59361",
    "longitude": "-99.97750697959813",
    "latitude": "29.697579185609595",
    "geocoded_column": {
      "latitude": "29.697579185609595",
      "longitude": "-99.97750697959813"
    }
  },
  {
    "service_request": "2026-1255130",
    "request_type": "Trash/Recycling",
    "request_reason": "Replace Trash Cart",
    "date_created": "2026-01-28T16:39:38.000",
    "date_modified": "2026-01-28T16:39:39.000",
    "request_status": "Pending",
    "responsible_agency": "Department of Sanitation",
    "final_address": "1124 N White St",
    "address_councildis": "A",
    "status": "Assigned to Contractor",
    "contractor": "IV Waste",
    "rowid": "1255130",
    "final_x": "538972.766282",
    "final_y": "538972.766282",
    "longitude": "-99.97753551181194",
    "latitude": "29.697550201631344",
    "geocoded_column": {
      "latitude": "29.697550201631344",
      "longitude": "-99.97753551181194"
    }
  },
  {
    "service_request": "2026-1255129",
    "request_type": "Trash/Recycling",
    "request_reason": "Replace Recycling Cart",
    "date_created": "2026-01-28T16:37:54.000",
    "date_modified": "2026-01-28T16:37:55.000",
    "request_status": "Pending",
    "responsible_agency": "Department of Sanitation",
    "final_address": "1124 N White St",
    "address_councildis": "A",
    "status": "Pending",
    "rowid": "1255129",
    "final_x": "538972.766282",
    "final_y": "538972.766282",
    "longitude": "-99.97753551181194",
    "latitude": "29.697550201631344",
    "geocoded_column": {
      "latitude": "29.697550201631344",
      "longitude": "-99.97753551181194"
    }
  },
  {
    "service_request": "2026-1255128",
    "request_type": "Trash/Recycling",
    "request_reason": "Order Trash Cart",
    "date_created": "2026-01-28T16:35:04.000",
    "date_modified": "2026-01-28T16:35:06.000",
    "request_status": "Pending",
    "responsible_agency": "Department of Sanitation",
    "final_address": "1502 N Derbigny St",
    "address_councildis": "D",
    "status": "Assigned to Contractor",
    "contractor": "IV Waste",
    "rowid": "1255128",
    "final_x": "3681496.54664",
    "final_y": "537444.485768",
    "longitude": "-90.06787462283393",
    "latitude": "29.971786095932877",
    "geocoded_column": {
      "latitude": "29.971786095932877",
      "longitude": "-90.06787462283393"
    }
  },
  {
    "service_request": "2026-1255127",
    "request_type": "Trash/Recycling",
    "request_reason": "Missed Trash Pick-Up",
    "date_created": "2026-01-28T16:34:44.000",
    "date_modified": "2026-01-28T16:34:45.000",
    "request_status": "Pending",
    "responsible_agency": "Department of Sanitation",
    "final_address": "4719 Perelli Dr",
    "address_councildis": "E",
    "status": "Assigned to Contractor",
    "contractor": "Waste Pro",
    "rowid": "1255127",
    "final_x": "3711805.79461",
    "final_y": "555927.520473",
    "longitude": "-89.97146051178105",
    "latitude": "30.021652173932445",
    "geocoded_column": {
      "latitude": "30.021652173932445",
      "longitude": "-89.97146051178105"
    }
  },
  {
    "service_request": "2026-1255126",
    "request_type": "Safety & Permits",
    "request_reason": "Construction permit",
    "date_created": "2026-01-28T16:31:07.000",
    "date_modified": "2026-01-28T16:31:08.000",
    "request_status": "Pending",
    "responsible_agency": "Safety and Permits",
    "final_address": "3504 Louisiana Avenue Prkwy",
    "address_councildis": "B",
    "status": "Pending",
    "rowid": "1255126",
    "final_x": "3671563.0347",
    "final_y": "527833.617919",
    "longitude": "-90.09957308657556",
    "latitude": "29.945657314216625",
    "geocoded_column": {
      "latitude": "29.945657314216625",
      "longitude": "-90.09957308657556"
    }
  },
  {
    "service_request": "2026-1255125",
    "request_type": "Trash/Recycling",
    "request_reason": "Request a Large Item Pick Up",
    "date_created": "2026-01-28T16:31:06.000",
    "date_modified": "2026-01-28T16:31:08.000",
    "request_status": "Pending",
    "responsible_agency": "Department of Sanitation",
    "final_address": "3285 Elmwood Park Dr",
    "address_councildis": "C",
    "status": "Assigned to Contractor",
    "contractor": "Richards Disposal",
    "rowid": "1255125",
    "final_x": "3695268.92234",
    "final_y": "517967.612406",
    "longitude": "-90.0250818256429",
    "latitude": "29.917806034977218",
    "geocoded_column": {
      "latitude": "29.917806034977218",
      "longitude": "-90.0250818256429"
    }
  },
  {
    "service_request": "2026-1255124",
    "request_type": "Trash/Recycling",
    "request_reason": "Request a Large Item Pick Up",
    "date_created": "2026-01-28T16:21:36.000",
    "date_modified": "2026-01-28T17:01:22.000",
    "request_status": "Pending",
    "responsible_agency": "Department of Sanitation",
    "final_address": "700 Delery St",
    "address_councildis": "E",
    "status": "Assigned to Contractor",
    "contractor": "Waste Pro",
    "rowid": "1255124",
    "final_x": "3699839.12778",
    "final_y": "531563.399043",
    "longitude": "-90.01016074585192",
    "latitude": "29.955045453328218",
    "geocoded_column": {
      "latitude": "29.955045453328218",
      "longitude": "-90.01016074585192"
    }
  },
  {
    "service_request": "2026-1255123",
    "request_type": "Trash/Recycling",
    "request_reason": "Order Trash Cart",
    "date_created": "2026-01-28T16:18:32.000",
    "date_modified": "2026-01-28T16:18:33.000",
    "request_status": "Pending",
    "responsible_agency": "Department of Sanitation",
    "final_address": "2321 Hendee St",
    "address_councildis": "C",
    "status": "Assigned to Contractor",
    "contractor": "Richards Disposal",
    "rowid": "1255123",
    "final_x": "3689304.13852",
    "final_y": "522955.471931",
    "longitude": "-90.043732104204",
    "latitude": "29.931706892691295",
    "geocoded_column": {
      "latitude": "29.931706892691295",
      "longitude": "-90.043732104204"
    }
  },
  {
    "service_request": "2026-1255122",
    "request_type": "Trash/Recycling",
    "request_reason": "Request a Large Item Pick Up",
    "date_created": "2026-01-28T16:17:22.000",
    "date_modified": "2026-01-28T16:17:24.000",
    "request_status": "Pending",
    "responsible_agency": "Department of Sanitation",
    "final_address": "329 Lowerline St",
    "address_councildis": "A",
    "status": "Assigned to Contractor",
    "contractor": "IV Waste",
    "rowid": "1255122",
    "final_x": "3661536.41658",
    "final_y": "523552.803195",
    "longitude": "-90.13137236076453",
    "latitude": "29.93417947531416",
    "geocoded_column": {
      "latitude": "29.93417947531416",
      "longitude": "-90.13137236076453"
    }
  },
  {
    "service_request": "2026-1255121",
    "request_type": "Trash/Recycling",
    "request_reason": "Return Trash Cart",
    "date_created": "2026-01-28T16:07:03.000",
    "date_modified": "2026-01-28T16:07:05.000",
    "request_status": "Pending",
    "responsible_agency": "Department of Sanitation",
    "final_address": "927 Hagan St",
    "address_councildis": "A",
    "status": "Assigned to Contractor",
    "contractor": "IV Waste",
    "rowid": "1255121",
    "final_x": "3675235.92597",
    "final_y": "539276.03681",
    "longitude": "-90.08758377285675",
    "latitude": "29.977010867387833",
    "geocoded_column": {
      "latitude": "29.977010867387833",
      "longitude": "-90.08758377285675"
    }
  },
  {
    "service_request": "2026-1255120",
    "request_type": "Roads and Streets",
    "request_reason": "Street Subsidence (Sinking)",
    "date_created": "2026-01-28T16:02:18.000",
    "date_modified": "2026-01-28T16:03:03.000",
    "request_status": "Pending",
    "responsible_agency": "Sewerage & Water Board",
    "final_address": "5500 BLK S Saratoga St",
    "address_councildis": "A",
    "status": "Pending",
    "rowid": "1255120",
    "final_x": "3667126.20836",
    "final_y": "522718.923182",
    "longitude": "-90.11375353639379",
    "latitude": "29.931724158569153",
    "geocoded_column": {
      "latitude": "29.931724158569153",
      "longitude": "-90.11375353639379"
    }
  },
  {
    "service_request": "2026-1255119",
    "request_type": "Trash/Recycling",
    "request_reason": "Repair Trash Cart",
    "date_created": "2026-01-28T16:01:48.000",
    "date_modified": "2026-01-28T16:01:50.000",
    "request_status": "Pending",
    "responsible_agency": "Department of Sanitation",
    "final_address": "13513 St Marie Dr",
    "address_councildis": "E",
    "status": "Assigned to Contractor",
    "contractor": "Waste Pro",
    "rowid": "1255119",
    "final_x": "3724006.63679",
    "final_y": "569033.871014",
    "longitude": "-89.93240332593814",
    "latitude": "30.057284871593595",
    "geocoded_column": {
      "latitude": "30.057284871593595",
      "longitude": "-89.93240332593814"
    }
  },
  {
    "service_request": "2026-1255118",
    "request_type": "Trash/Recycling",
    "request_reason": "Request a Large Item Pick Up",
    "date_created": "2026-01-28T16:00:16.000",
    "date_modified": "2026-01-28T16:00:22.000",
    "request_status": "Pending",
    "responsible_agency": "Department of Sanitation",
    "final_address": "13640 Explorers Ave",
    "address_councildis": "E",
    "status": "Assigned to Contractor",
    "contractor": "Waste Pro",
    "rowid": "1255118",
    "final_x": "3726150.23072",
    "final_y": "569030.044326",
    "longitude": "-89.92562796790553",
    "latitude": "30.057202113722532",
    "geocoded_column": {
      "latitude": "30.057202113722532",
      "longitude": "-89.92562796790553"
    }
  },
  {
    "service_request": "2026-1255117",
    "request_type": "Trash/Recycling",
    "request_reason": "Replace Trash Cart",
    "date_created": "2026-01-28T15:49:52.000",
    "date_modified": "2026-01-28T16:09:11.000",
    "case_close_date": "2026-01-28T10:09:10.000",
    "request_status": "Closed",
    "responsible_agency": "Department of Sanitation",
    "final_address": "33 Fontainebleau Dr",
    "address_councildis": "A",
    "status": "Assigned to Contractor",
    "contractor": "Waste Pro",
    "contractor_action": "Completed",
    "rowid": "1255117",
    "final_x": "3666054.53556",
    "final_y": "531541.818499",
    "longitude": "-90.11684099722855",
    "latitude": "29.95601559976161",
    "geocoded_column": {
      "latitude": "29.95601559976161",
      "longitude": "-90.11684099722855"
    }
  },
  {
    "service_request": "2026-1255116",
    "request_type": "Traffic Signals",
    "request_reason": "Traffic Signal Malfunctioning or Damaged",
    "date_created": "2026-01-28T15:39:28.000",
    "date_modified": "2026-01-28T15:39:30.000",
    "request_status": "Pending",
    "responsible_agency": "Department of Public Works",
    "final_address": "CAFFIN AVE & N CLAIBORNE AVE",
    "address_councildis": "E",
    "status": "Pending",
    "rowid": "1255116",
    "final_x": "3698477.72",
    "final_y": "535508.32",
    "longitude": "-90.01431614442957",
    "latitude": "29.9659357406144",
    "geocoded_column": {
      "latitude": "29.9659357406144",
      "longitude": "-90.01431614442957"
    }
  },
  {
    "service_request": "2026-1255115",
    "request_type": "Property Maintenance",
    "request_reason": "Property Maintenance",
    "date_created": "2026-01-28T15:38:22.000",
    "date_modified": "2026-01-28T15:38:24.000",
    "request_status": "Pending",
    "responsible_agency": "Department of Code Enforcement",
    "final_address": "ROYAL ST & LAMANCHE ST",
    "address_councildis": "E",
    "status": "Pending",
    "rowid": "1255115",
    "final_x": "3697957.9",
    "final_y": "532185.68",
    "longitude": "-90.01607833570404",
    "latitude": "29.956816104740792",
    "geocoded_column": {
      "latitude": "29.956816104740792",
      "longitude": "-90.01607833570404"
    }
  },
  {
    "service_request": "2026-1255114",
    "request_type": "Trash/Recycling",
    "request_reason": "Illegal Dumping",
    "date_created": "2026-01-28T15:37:47.000",
    "date_modified": "2026-01-28T15:37:48.000",
    "request_status": "Pending",
    "responsible_agency": "Department of Sanitation",
    "final_address": "5204 N Claiborne Ave",
    "address_councildis": "E",
    "status": "Pending",
    "rowid": "1255114",
    "final_x": "3697067.03927",
    "final_y": "535767.540295",
    "longitude": "-90.01876161608159",
    "latitude": "29.966693079780125",
    "geocoded_column": {
      "latitude": "29.966693079780125",
      "longitude": "-90.01876161608159"
    }
  },
  {
    "service_request": "2026-1255113",
    "request_type": "General Services",
    "request_reason": "General Service Request",
    "date_created": "2026-01-28T15:37:10.000",
    "date_modified": "2026-01-28T15:49:55.000",
    "case_close_date": "2026-01-28T09:49:55.000",
    "request_status": "Closed",
    "responsible_agency": "Orleans Parish Communication District",
    "final_address": "121 S Genois St",
    "address_councildis": "B",
    "status": "Referred to External Agency",
    "rowid": "1255113",
    "final_x": "3672416.89627",
    "final_y": "537028.742856",
    "longitude": "-90.09656380046604",
    "latitude": "29.97091554150588",
    "geocoded_column": {
      "latitude": "29.97091554150588",
      "longitude": "-90.09656380046604"
    }
  },
  {
    "service_request": "2026-1255112",
    "request_type": "Trash/Recycling",
    "request_reason": "Request a Large Item Pick Up",
    "date_created": "2026-01-28T15:32:46.000",
    "date_modified": "2026-01-28T15:33:48.000",
    "request_status": "Pending",
    "responsible_agency": "Department of Sanitation",
    "final_address": "932 John Churchill Chase St",
    "address_councildis": "B",
    "status": "Pending",
    "contractor": "IV Waste",
    "rowid": "1255112",
    "final_x": "3681313.50799",
    "final_y": "526141.084478",
    "longitude": "-90.06884662934627",
    "latitude": "29.94071113412204",
    "geocoded_column": {
      "latitude": "29.94071113412204",
      "longitude": "-90.06884662934627"
    }
  },
  {
    "service_request": "2026-1255111",
    "request_type": "Trash/Recycling",
    "request_reason": "Illegal Dumping",
    "date_created": "2026-01-28T15:32:28.000",
    "date_modified": "2026-01-28T15:35:09.000",
    "request_status": "Pending",
    "responsible_agency": "Department of Sanitation",
    "final_address": "MOSS ST & FLORIDA AVE",
    "address_councildis": "D",
    "status": "Pending",
    "rowid": "1255111",
    "final_x": "3675644.0",
    "final_y": "544639.28",
    "longitude": "-90.08611056705851",
    "latitude": "29.991745727113432",
    "geocoded_column": {
      "latitude": "29.991745727113432",
      "longitude": "-90.08611056705851"
    }
  },
  {
    "service_request": "2026-1255110",
    "request_type": "Street and Traffic Signs",
    "request_reason": "Stop Sign Missing or Damaged",
    "date_created": "2026-01-28T15:30:20.000",
    "date_modified": "2026-01-28T15:30:22.000",
    "request_status": "Pending",
    "responsible_agency": "Department of Public Works",
    "final_address": "400 BLK Delaronde St",
    "address_councildis": "C",
    "status": "Pending",
    "rowid": "1255110",
    "final_x": "3686690.53833",
    "final_y": "531088.127572",
    "longitude": "-90.05169576111547",
    "latitude": "29.954149563968386",
    "geocoded_column": {
      "latitude": "29.954149563968386",
      "longitude": "-90.05169576111547"
    }
  },
  {
    "service_request": "2026-1255109",
    "request_type": "Trash/Recycling",
    "request_reason": "Repair Trash Cart",
    "date_created": "2026-01-28T15:29:12.000",
    "date_modified": "2026-01-28T15:29:13.000",
    "request_status": "Pending",
    "responsible_agency": "Department of Sanitation",
    "final_address": "253 Broadway St",
    "address_councildis": "A",
    "status": "Assigned to Contractor",
    "contractor": "IV Waste",
    "rowid": "1255109",
    "final_x": "3661390.67853",
    "final_y": "522270.95289",
    "longitude": "-90.13187488510022",
    "latitude": "29.930658992348494",
    "geocoded_column": {
      "latitude": "29.930658992348494",
      "longitude": "-90.13187488510022"
    }
  },
  {
    "service_request": "2026-1255108",
    "request_type": "Trash/Recycling",
    "request_reason": "Request a Large Item Pick Up",
    "date_created": "2026-01-28T15:28:29.000",
    "date_modified": "2026-01-28T15:28:31.000",
    "request_status": "Pending",
    "responsible_agency": "Department of Sanitation",
    "final_address": "1813 Casa Calvo St",
    "address_councildis": "C",
    "status": "Assigned to Contractor",
    "contractor": "Richards Disposal",
    "rowid": "1255108",
    "final_x": "3691921.81155",
    "final_y": "524550.612604",
    "longitude": "-90.03541139726767",
    "latitude": "29.93601172013058",
    "geocoded_column": {
      "latitude": "29.93601172013058",
      "longitude": "-90.03541139726767"
    }
  },
  {
    "service_request": "2026-1255107",
    "request_type": "Abandoned Vehicles",
    "request_reason": "Abandoned/Junk Vehicles",
    "date_created": "2026-01-28T15:23:40.000",
    "date_modified": "2026-01-28T15:23:42.000",
    "request_status": "Pending",
    "responsible_agency": "Department of Public Works",
    "final_address": "48 Camellia Trce",
    "address_councildis": "C",
    "status": "Pending",
    "rowid": "1255107",
    "final_x": "3697280.38935",
    "final_y": "523407.615867",
    "longitude": "-90.01853574090163",
    "latitude": "29.932700886248647",
    "geocoded_column": {
      "latitude": "29.932700886248647",
      "longitude": "-90.01853574090163"
    }
  },
  {
    "service_request": "2026-1255106",
    "request_type": "Trash/Recycling",
    "request_reason": "Order Trash Cart",
    "date_created": "2026-01-28T15:13:25.000",
    "date_modified": "2026-01-28T15:13:28.000",
    "request_status": "Pending",
    "responsible_agency": "Department of Sanitation",
    "final_address": "2530 S Miro St",
    "address_councildis": "B",
    "status": "Assigned to Contractor",
    "contractor": "IV Waste",
    "rowid": "1255106",
    "final_x": "3672626.87252",
    "final_y": "528768.478656",
    "longitude": "-90.09618232555557",
    "latitude": "29.94819633477876",
    "geocoded_column": {
      "latitude": "29.94819633477876",
      "longitude": "-90.09618232555557"
    }
  },
  {
    "service_request": "2026-1255105",
    "request_type": "Trash/Recycling",
    "request_reason": "Request a Large Item Pick Up",
    "date_created": "2026-01-28T15:10:02.000",
    "date_modified": "2026-01-28T15:10:04.000",
    "request_status": "Pending",
    "responsible_agency": "Department of Sanitation",
    "final_address": "1904 Dumaine St",
    "address_councildis": "D",
    "status": "Assigned to Contractor",
    "contractor": "IV Waste",
    "rowid": "1255105",
    "final_x": "3679561.62427",
    "final_y": "535630.264966",
    "longitude": "-90.0740483763298",
    "latitude": "29.966856226703136",
    "geocoded_column": {
      "latitude": "29.966856226703136",
      "longitude": "-90.0740483763298"
    }
  },
  {
    "service_request": "2026-1255104",
    "request_type": "Trash/Recycling",
    "request_reason": "Request a Large Item Pick Up",
    "date_created": "2026-01-28T15:06:46.000",
    "date_modified": "2026-01-28T15:06:48.000",
    "request_status": "Pending",
    "responsible_agency": "Department of Sanitation",
    "final_address": "1510 Camp St",
    "address_councildis": "B",
    "status": "Assigned to Contractor",
    "contractor": "IV Waste",
    "rowid": "1255104",
    "final_x": "3679822.49531",
    "final_y": "523830.065019",
    "longitude": "-90.07363422519695",
    "latitude": "29.934401754262023",
    "geocoded_column": {
      "latitude": "29.934401754262023",
      "longitude": "-90.07363422519695"
    }
  },
  {
    "service_request": "2026-1255103",
    "request_type": "Road Striping",
    "request_reason": "Lane Striping or other Pavement Markings",
    "date_created": "2026-01-28T15:05:44.000",
    "date_modified": "2026-01-28T15:05:46.000",
    "request_status": "Pending",
    "responsible_agency": "Department of Public Works",
    "final_address": "5522 Laurel St",
    "address_councildis": "A",
    "status": "Pending",
    "rowid": "1255103",
    "final_x": "3666018.50432",
    "final_y": "517832.442998",
    "longitude": "-90.11741414304983",
    "latitude": "29.918320249730442",
    "geocoded_column": {
      "latitude": "29.918320249730442",
      "longitude": "-90.11741414304983"
    }
  },
  {
    "service_request": "2026-1255102",
    "request_type": "Trash/Recycling",
    "request_reason": "Request a Large Item Pick Up",
    "date_created": "2026-01-28T15:01:19.000",
    "date_modified": "2026-01-28T15:01:29.000",
    "request_status": "Pending",
    "responsible_agency": "Department of Sanitation",
    "final_address": "7660 Rochon Ave",
    "address_councildis": "E",
    "status": "Assigned to Contractor",
    "contractor": "Waste Pro",
    "rowid": "1255102",
    "final_x": "3718447.08914",
    "final_y": "571826.48964",
    "longitude": "-89.94986950412404",
    "latitude": "30.065149133821258",
    "geocoded_column": {
      "latitude": "30.065149133821258",
      "longitude": "-89.94986950412404"
    }
  },
  {
    "service_request": "2026-1255101",
    "request_type": "Trash/Recycling",
    "request_reason": "Request a Large Item Pick Up",
    "date_created": "2026-01-28T14:57:28.000",
    "date_modified": "2026-01-28T14:57:31.000",
    "request_status": "Pending",
    "responsible_agency": "Department of Sanitation",
    "final_address": "2015 Burgundy St",
    "address_councildis": "C",
    "status": "Assigned to Contractor",
    "contractor": "IV Waste",
    "rowid": "1255101",
    "final_x": "3684431.43407",
    "final_y": "535562.512838",
    "longitude": "-90.0586719244774",
    "latitude": "29.96652187295593",
    "geocoded_column": {
      "latitude": "29.96652187295593",
      "longitude": "-90.0586719244774"
    }
  },
  {
    "service_request": "2026-1255100",
    "request_type": "Trash/Recycling",
    "request_reason": "Request a Large Item Pick Up",
    "date_created": "2026-01-28T14:53:14.000",
    "date_modified": "2026-01-28T14:53:16.000",
    "request_status": "Pending",
    "responsible_agency": "Department of Sanitation",
    "final_address": "4320 Orleans Ave",
    "address_councildis": "A",
    "status": "Assigned to Contractor",
    "contractor": "IV Waste",
    "rowid": "1255100",
    "final_x": "3671506.67495",
    "final_y": "540886.892363",
    "longitude": "-90.09930717958817",
    "latitude": "29.98155112760181",
    "geocoded_column": {
      "latitude": "29.98155112760181",
      "longitude": "-90.09930717958817"
    }
  },
  {
    "service_request": "2026-1255099",
    "request_type": "Roads and Streets",
    "request_reason": "Street Subsidence (Sinking)",
    "date_created": "2026-01-28T14:52:42.000",
    "date_modified": "2026-01-28T14:52:44.000",
    "request_status": "Pending",
    "responsible_agency": "Sewerage & Water Board",
    "final_address": "MARTIN LUTHER KING JR BLVD & S GALVEZ ST",
    "address_councildis": "B",
    "status": "Pending",
    "rowid": "1255099",
    "final_x": "3673629.4",
    "final_y": "529094.68",
    "longitude": "-90.09300578218549",
    "latitude": "29.94906347988848",
    "geocoded_column": {
      "latitude": "29.94906347988848",
      "longitude": "-90.09300578218549"
    }
  },
  {
    "service_request": "2026-1255098",
    "request_type": "Trash/Recycling",
    "request_reason": "Request a Large Item Pick Up",
    "date_created": "2026-01-28T14:46:33.000",
    "date_modified": "2026-01-28T14:46:35.000",
    "request_status": "Pending",
    "responsible_agency": "Department of Sanitation",
    "final_address": "2038 Burdette St",
    "address_councildis": "A",
    "status": "Assigned to Contractor",
    "contractor": "IV Waste",
    "rowid": "1255098",
    "final_x": "3664875.56365",
    "final_y": "529950.391873",
    "longitude": "-90.1206169859957",
    "latitude": "29.95167405748589",
    "geocoded_column": {
      "latitude": "29.95167405748589",
      "longitude": "-90.1206169859957"
    }
  },
  {
    "service_request": "2026-1255097",
    "request_type": "Trash/Recycling",
    "request_reason": "Request a Large Item Pick Up",
    "date_created": "2026-01-28T14:46:00.000",
    "date_modified": "2026-01-28T14:46:01.000",
    "request_status": "Pending",
    "responsible_agency": "Department of Sanitation",
    "final_address": "2324 George Nick Connor Dr",
    "address_councildis": "D",
    "status": "Assigned to Contractor",
    "contractor": "IV Waste",
    "rowid": "1255097",
    "final_x": "3681172.22152",
    "final_y": "540650.053899",
    "longitude": "-90.06878716671181",
    "latitude": "29.980610140999396",
    "geocoded_column": {
      "latitude": "29.980610140999396",
      "longitude": "-90.06878716671181"
    }
  },
  {
    "service_request": "2026-1255096",
    "request_type": "Trash/Recycling",
    "request_reason": "Request a Large Item Pick Up",
    "date_created": "2026-01-28T14:45:57.000",
    "date_modified": "2026-01-28T14:45:59.000",
    "request_status": "Pending",
    "responsible_agency": "Department of Sanitation",
    "final_address": "936 Aline St",
    "address_councildis": "B",
    "status": "Assigned to Contractor",
    "contractor": "IV Waste",
    "rowid": "1255096",
    "final_x": "3674560.40206",
    "final_y": "518971.316535",
    "longitude": "-90.09041291812844",
    "latitude": "29.92119978448902",
    "geocoded_column": {
      "latitude": "29.92119978448902",
      "longitude": "-90.09041291812844"
    }
  },
  {
    "service_request": "2026-1255095",
    "request_type": "Trash/Recycling",
    "request_reason": "Request a Large Item Pick Up",
    "date_created": "2026-01-28T14:38:46.000",
    "date_modified": "2026-01-28T14:38:48.000",
    "request_status": "Pending",
    "responsible_agency": "Department of Sanitation",
    "final_address": "4482 Lafaye St",
    "address_councildis": "D",
    "status": "Assigned to Contractor",
    "contractor": "IV Waste",
    "rowid": "1255095",
    "final_x": "3687462.50428",
    "final_y": "549605.755283",
    "longitude": "-90.048602623827",
    "latitude": "30.00504272627762",
    "geocoded_column": {
      "latitude": "30.00504272627762",
      "longitude": "-90.048602623827"
    }
  },
  {
    "service_request": "2026-1255094",
    "request_type": "Trash/Recycling",
    "request_reason": "Request a Large Item Pick Up",
    "date_created": "2026-01-28T14:22:34.000",
    "date_modified": "2026-01-28T14:22:35.000",
    "request_status": "Pending",
    "responsible_agency": "Department of Sanitation",
    "final_address": "2505 Athis St",
    "address_councildis": "D",
    "status": "Assigned to Contractor",
    "contractor": "IV Waste",
    "rowid": "1255094",
    "final_x": "3685819.59689",
    "final_y": "554438.13596",
    "longitude": "-90.05362239912705",
    "latitude": "30.018380553771816",
    "geocoded_column": {
      "latitude": "30.018380553771816",
      "longitude": "-90.05362239912705"
    }
  },
  {
    "service_request": "2026-1255093",
    "request_type": "Trash/Recycling",
    "request_reason": "Request a Large Item Pick Up",
    "date_created": "2026-01-28T14:21:42.000",
    "date_modified": "2026-01-28T14:21:43.000",
    "request_status": "Pending",
    "responsible_agency": "Department of Sanitation",
    "final_address": "2200 BLK Saint Ann St",
    "address_councildis": "D",
    "status": "Assigned to Contractor",
    "contractor": "IV Waste",
    "rowid": "1255093",
    "final_x": "3678430.97906",
    "final_y": "536071.17174",
    "longitude": "-90.07760369489134",
    "latitude": "29.96810268831551",
    "geocoded_column": {
      "latitude": "29.96810268831551",
      "longitude": "-90.07760369489134"
    }
  },
  {
    "service_request": "2026-1255092",
    "request_type": "Trash/Recycling",
    "request_reason": "Request a Large Item Pick Up",
    "date_created": "2026-01-28T14:19:51.000",
    "date_modified": "2026-01-28T14:44:05.000",
    "request_status": "Pending",
    "responsible_agency": "Department of Sanitation",
    "final_address": "3132 Octavia St",
    "address_councildis": "A",
    "status": "Assigned to Contractor",
    "contractor": "IV Waste",
    "rowid": "1255092",
    "final_x": "3668245.47105",
    "final_y": "527259.993983",
    "longitude": "-90.11006709457824",
    "latitude": "29.944177838844947",
    "geocoded_column": {
      "latitude": "29.944177838844947",
      "longitude": "-90.11006709457824"
    }
  },
  {
    "service_request": "2026-1255091",
    "request_type": "Parks & Parkways",
    "request_reason": "Request Tree Service (Right of Way/Public Property)",
    "date_created": "2026-01-28T14:19:18.000",
    "date_modified": "2026-01-28T14:19:19.000",
    "request_status": "Pending",
    "responsible_agency": "Department of Parks & Parkway",
    "final_address": "2929 St Anthony Ave",
    "address_councildis": "D",
    "status": "Pending",
    "rowid": "1255091",
    "final_x": "3683023.2886",
    "final_y": "543410.32315",
    "longitude": "-90.0628440337822",
    "latitude": "29.988143609832953",
    "geocoded_column": {
      "latitude": "29.988143609832953",
      "longitude": "-90.0628440337822"
    }
  },
  {
    "service_request": "2026-1255090",
    "request_type": "Trash/Recycling",
    "request_reason": "Order Trash Cart",
    "date_created": "2026-01-28T14:13:28.000",
    "date_modified": "2026-01-28T14:13:29.000",
    "request_status": "Pending",
    "responsible_agency": "Department of Sanitation",
    "final_address": "818 Amelia St",
    "address_councildis": "B",
    "status": "Assigned to Contractor",
    "contractor": "IV Waste",
    "rowid": "1255090",
    "final_x": "3673822.68692",
    "final_y": "518332.873782",
    "longitude": "-90.09276337928745",
    "latitude": "29.91946625384761",
    "geocoded_column": {
      "latitude": "29.91946625384761",
      "longitude": "-90.09276337928745"
    }
  },
  {
    "service_request": "2026-1255089",
    "request_type": "Property Maintenance",
    "request_reason": "Property Maintenance",
    "date_created": "2026-01-28T14:12:01.000",
    "date_modified": "2026-01-28T14:12:03.000",
    "request_status": "Pending",
    "responsible_agency": "Department of Code Enforcement",
    "final_address": "1906 Magazine St",
    "address_councildis": "B",
    "status": "Pending",
    "rowid": "1255089",
    "final_x": "3679728.28987",
    "final_y": "522728.293498",
    "longitude": "-90.07396985782103",
    "latitude": "29.931375092629494",
    "geocoded_column": {
      "latitude": "29.931375092629494",
      "longitude": "-90.07396985782103"
    }
  },
  {
    "service_request": "2026-1255088",
    "request_type": "Trash/Recycling",
    "request_reason": "Missed Trash Pick-Up",
    "date_created": "2026-01-28T14:07:11.000",
    "date_modified": "2026-01-28T15:48:17.000",
    "case_close_date": "2026-01-28T09:48:14.000",
    "request_status": "Closed",
    "responsible_agency": "Department of Sanitation",
    "final_address": "236 20Th St",
    "address_councildis": "A",
    "status": "Invalid Request",
    "contractor": "IV Waste",
    "contractor_action": "Invalid Request",
    "rowid": "1255088",
    "final_x": "3665524.3968",
    "final_y": "548957.158611",
    "longitude": "-90.11793169851042",
    "latitude": "30.003917404173627",
    "geocoded_column": {
      "latitude": "30.003917404173627",
      "longitude": "-90.11793169851042"
    }
  },
  {
    "service_request": "2026-1255087",
    "request_type": "Abandoned Vehicles",
    "request_reason": "Abandoned/Junk Vehicles",
    "date_created": "2026-01-28T14:05:53.000",
    "date_modified": "2026-01-28T14:05:54.000",
    "request_status": "Pending",
    "responsible_agency": "Department of Public Works",
    "final_address": "FELICITY ST & MARKET ST",
    "address_councildis": "B",
    "status": "Pending",
    "rowid": "1255087",
    "final_x": "3680406.5",
    "final_y": "522642.68",
    "longitude": "-90.07183180824093",
    "latitude": "29.93111917012682",
    "geocoded_column": {
      "latitude": "29.93111917012682",
      "longitude": "-90.07183180824093"
    }
  },
  {
    "service_request": "2026-1255086",
    "request_type": "Trash/Recycling",
    "request_reason": "Return Trash Cart",
    "date_created": "2026-01-28T14:05:51.000",
    "date_modified": "2026-01-28T15:15:43.000",
    "request_status": "Pending",
    "responsible_agency": "Department of Sanitation",
    "final_address": "236 20Th St",
    "address_councildis": "A",
    "status": "Assigned to Contractor",
    "contractor": "IV Waste",
    "rowid": "1255086",
    "final_x": "3665524.3968",
    "final_y": "548957.158611",
    "longitude": "-90.11793169851042",
    "latitude": "30.003917404173627",
    "geocoded_column": {
      "latitude": "30.003917404173627",
      "longitude": "-90.11793169851042"
    }
  },
  {
    "service_request": "2026-1255085",
    "request_type": "Trash/Recycling",
    "request_reason": "Request a Large Item Pick Up",
    "date_created": "2026-01-28T14:01:50.000",
    "date_modified": "2026-01-28T14:01:52.000",
    "request_status": "Pending",
    "responsible_agency": "Department of Sanitation",
    "final_address": "2411 Broadway St",
    "address_councildis": "A",
    "status": "Assigned to Contractor",
    "contractor": "IV Waste",
    "rowid": "1255085",
    "final_x": "3666711.45876",
    "final_y": "530176.727361",
    "longitude": "-90.11481249086152",
    "latitude": "29.952242851399365",
    "geocoded_column": {
      "latitude": "29.952242851399365",
      "longitude": "-90.11481249086152"
    }
  },
  {
    "service_request": "2026-1255084",
    "request_type": "Trash/Recycling",
    "request_reason": "Repair Trash Cart",
    "date_created": "2026-01-28T14:00:36.000",
    "date_modified": "2026-01-28T14:00:37.000",
    "request_status": "Pending",
    "responsible_agency": "Department of Sanitation",
    "final_address": "251 28Th St",
    "address_councildis": "A",
    "status": "Assigned to Contractor",
    "contractor": "IV Waste",
    "rowid": "1255084",
    "final_x": "3665506.91508",
    "final_y": "550269.122708",
    "longitude": "-90.11794296348414",
    "latitude": "30.007525361010526",
    "geocoded_column": {
      "latitude": "30.007525361010526",
      "longitude": "-90.11794296348414"
    }
  },
  {
    "service_request": "2026-1255083",
    "request_type": "Trash/Recycling",
    "request_reason": "Request a Large Item Pick Up",
    "date_created": "2026-01-28T13:58:34.000",
    "date_modified": "2026-01-28T13:58:37.000",
    "request_status": "Pending",
    "responsible_agency": "Department of Sanitation",
    "final_address": "5441 Urquhart St",
    "address_councildis": "E",
    "status": "Assigned to Contractor",
    "contractor": "Waste Pro",
    "rowid": "1255083",
    "final_x": "3697705.59242",
    "final_y": "534643.904646",
    "longitude": "-90.01678585117743",
    "latitude": "29.963583323530717",
    "geocoded_column": {
      "latitude": "29.963583323530717",
      "longitude": "-90.01678585117743"
    }
  },
  {
    "service_request": "2026-1255082",
    "request_type": "Trash/Recycling",
    "request_reason": "Request a Large Item Pick Up",
    "date_created": "2026-01-28T13:55:12.000",
    "date_modified": "2026-01-28T15:12:44.000",
    "request_status": "Pending",
    "responsible_agency": "Department of Sanitation",
    "final_address": "2643 George Nick Connor Dr",
    "address_councildis": "D",
    "status": "Assigned to Contractor",
    "contractor": "IV Waste",
    "rowid": "1255082",
    "final_x": "3681145.72802",
    "final_y": "542074.866764",
    "longitude": "-90.06882118216105",
    "latitude": "29.984528682370012",
    "geocoded_column": {
      "latitude": "29.984528682370012",
      "longitude": "-90.06882118216105"
    }
  },
  {
    "service_request": "2026-1255081",
    "request_type": "Streetlights",
    "request_reason": "Streetlight Outage/Malfunction",
    "date_created": "2026-01-28T13:46:12.000",
    "date_modified": "2026-01-28T13:46:14.000",
    "request_status": "Pending",
    "responsible_agency": "Department of Public Works",
    "final_address": "NAPOLEON AVE & S PRIEUR ST",
    "address_councildis": "B",
    "status": "Pending",
    "rowid": "1255081",
    "final_x": "3670292.3",
    "final_y": "526903.48",
    "longitude": "-90.10361674159685",
    "latitude": "29.943137298659714",
    "geocoded_column": {
      "latitude": "29.943137298659714",
      "longitude": "-90.10361674159685"
    }
  },
  {
    "service_request": "2026-1255080",
    "request_type": "Trash/Recycling",
    "request_reason": "Request a Large Item Pick Up",
    "date_created": "2026-01-28T13:44:39.000",
    "date_modified": "2026-01-28T13:44:41.000",
    "request_status": "Pending",
    "responsible_agency": "Department of Sanitation",
    "final_address": "422 26Th St",
    "address_councildis": "A",
    "status": "Assigned to Contractor",
    "contractor": "IV Waste",
    "rowid": "1255080",
    "final_x": "3664644.35354",
    "final_y": "549900.933012",
    "longitude": "-90.12068036522834",
    "latitude": "30.006538095563954",
    "geocoded_column": {
      "latitude": "30.006538095563954",
      "longitude": "-90.12068036522834"
    }
  },
  {
    "service_request": "2026-1255079",
    "request_type": "Trash/Recycling",
    "request_reason": "Order Recycling Cart",
    "date_created": "2026-01-28T13:42:50.000",
    "date_modified": "2026-01-28T13:42:52.000",
    "request_status": "Pending",
    "responsible_agency": "Department of Sanitation",
    "final_address": "2319 Cadiz St",
    "address_councildis": "B",
    "status": "Pending",
    "rowid": "1255079",
    "final_x": "3669878.66266",
    "final_y": "523437.489723",
    "longitude": "-90.10504000574942",
    "latitude": "29.933619144892845",
    "geocoded_column": {
      "latitude": "29.933619144892845",
      "longitude": "-90.10504000574942"
    }
  },
  {
    "service_request": "2026-1255078",
    "request_type": "Trash/Recycling",
    "request_reason": "Return Trash Cart",
    "date_created": "2026-01-28T13:39:49.000",
    "date_modified": "2026-01-28T15:15:19.000",
    "request_status": "Pending",
    "responsible_agency": "Department of Sanitation",
    "final_address": "2911 General Pershing St",
    "address_councildis": "B",
    "status": "Assigned to Contractor",
    "contractor": "IV Waste",
    "rowid": "1255078",
    "final_x": "3670838.77844",
    "final_y": "525611.867133",
    "longitude": "-90.10193519319607",
    "latitude": "29.939569645373318",
    "geocoded_column": {
      "latitude": "29.939569645373318",
      "longitude": "-90.10193519319607"
    }
  },
  {
    "service_request": "2026-1255077",
    "request_type": "Trash/Recycling",
    "request_reason": "Request a Large Item Pick Up",
    "date_created": "2026-01-28T13:37:31.000",
    "date_modified": "2026-01-28T13:37:34.000",
    "request_status": "Pending",
    "responsible_agency": "Department of Sanitation",
    "final_address": "3026 Constance St",
    "address_councildis": "B",
    "status": "Assigned to Contractor",
    "contractor": "IV Waste",
    "rowid": "1255077",
    "final_x": "3676393.68411",
    "final_y": "519905.80364",
    "longitude": "-90.08459391085",
    "latitude": "29.92371451505227",
    "geocoded_column": {
      "latitude": "29.92371451505227",
      "longitude": "-90.08459391085"
    }
  },
  {
    "service_request": "2026-1255076",
    "request_type": "Trash/Recycling",
    "request_reason": "Request a Large Item Pick Up",
    "date_created": "2026-01-28T13:36:08.000",
    "date_modified": "2026-01-28T13:36:10.000",
    "request_status": "Pending",
    "responsible_agency": "Department of Sanitation",
    "final_address": "2421 Kerlerec St",
    "address_councildis": "D",
    "status": "Assigned to Contractor",
    "contractor": "IV Waste",
    "rowid": "1255076",
    "final_x": "3679145.6685",
    "final_y": "538767.159625",
    "longitude": "-90.07525319766822",
    "latitude": "29.975494173494894",
    "geocoded_column": {
      "latitude": "29.975494173494894",
      "longitude": "-90.07525319766822"
    }
  },
  {
    "service_request": "2026-1255075",
    "request_type": "Trash/Recycling",
    "request_reason": "Repair Trash Cart",
    "date_created": "2026-01-28T13:32:54.000",
    "date_modified": "2026-01-28T13:49:23.000",
    "request_status": "Pending",
    "responsible_agency": "Department of Sanitation",
    "final_address": "6500 Fleur-De-Lis Dr",
    "address_councildis": "A",
    "status": "Assigned to Contractor",
    "contractor": "IV Waste",
    "rowid": "1255075",
    "final_x": "3665242.58106",
    "final_y": "551238.852437",
    "longitude": "-90.11874559929593",
    "latitude": "30.01019948765514",
    "geocoded_column": {
      "latitude": "30.01019948765514",
      "longitude": "-90.11874559929593"
    }
  },
  {
    "service_request": "2026-1255074",
    "request_type": "Trash/Recycling",
    "request_reason": "Request a Large Item Pick Up",
    "date_created": "2026-01-28T13:32:21.000",
    "date_modified": "2026-01-28T13:32:34.000",
    "request_status": "Pending",
    "responsible_agency": "Department of Sanitation",
    "final_address": "1937 Tennessee St",
    "address_councildis": "E",
    "status": "Assigned to Contractor",
    "contractor": "Waste Pro",
    "rowid": "1255074",
    "final_x": "3696647.98231",
    "final_y": "537600.208072",
    "longitude": "-90.02001865397881",
    "latitude": "29.97174547400557",
    "geocoded_column": {
      "latitude": "29.97174547400557",
      "longitude": "-90.02001865397881"
    }
  },
  {
    "service_request": "2026-1255073",
    "request_type": "Trash/Recycling",
    "request_reason": "Repair Trash Cart",
    "date_created": "2026-01-28T13:31:47.000",
    "date_modified": "2026-01-28T13:48:55.000",
    "request_status": "Pending",
    "responsible_agency": "Department of Sanitation",
    "final_address": "2012 Robert St",
    "address_councildis": "B",
    "status": "Assigned to Contractor",
    "contractor": "IV Waste",
    "rowid": "1255073",
    "final_x": "3668739.16154",
    "final_y": "522972.223227",
    "longitude": "-90.10865306147312",
    "latitude": "29.932373349014735",
    "geocoded_column": {
      "latitude": "29.932373349014735",
      "longitude": "-90.10865306147312"
    }
  },
  {
    "service_request": "2026-1255072",
    "request_type": "Trash/Recycling",
    "request_reason": "Request a Large Item Pick Up",
    "date_created": "2026-01-28T13:27:15.000",
    "date_modified": "2026-01-28T13:27:17.000",
    "request_status": "Pending",
    "responsible_agency": "Department of Sanitation",
    "final_address": "2426 Lamanche St",
    "address_councildis": "E",
    "status": "Assigned to Contractor",
    "contractor": "Waste Pro",
    "rowid": "1255072",
    "final_x": "3699688.10903",
    "final_y": "538746.007113",
    "longitude": "-90.01037574681142",
    "latitude": "29.97479984617333",
    "geocoded_column": {
      "latitude": "29.97479984617333",
      "longitude": "-90.01037574681142"
    }
  },
  {
    "service_request": "2026-1255071",
    "request_type": "Safety & Permits",
    "request_reason": "Zoning Enforcement",
    "date_created": "2026-01-28T13:26:26.000",
    "date_modified": "2026-01-28T13:26:28.000",
    "request_status": "Pending",
    "responsible_agency": "Safety and Permits",
    "final_address": "2023 Baronne St",
    "address_councildis": "B",
    "status": "Pending",
    "rowid": "1255071",
    "final_x": "3677415.00667",
    "final_y": "524817.884924",
    "longitude": "-90.08120052691078",
    "latitude": "29.937190491049872",
    "geocoded_column": {
      "latitude": "29.937190491049872",
      "longitude": "-90.08120052691078"
    }
  },
  {
    "service_request": "2026-1255070",
    "request_type": "Trash/Recycling",
    "request_reason": "Illegal Dumping",
    "date_created": "2026-01-28T13:22:15.000",
    "date_modified": "2026-01-28T13:22:16.000",
    "request_status": "Pending",
    "responsible_agency": "Department of Sanitation",
    "final_address": "2203 Lamanche St",
    "address_councildis": "E",
    "status": "Pending",
    "rowid": "1255070",
    "final_x": "3699520.36522",
    "final_y": "537846.100361",
    "longitude": "-90.01093832098398",
    "latitude": "29.972330752235948",
    "geocoded_column": {
      "latitude": "29.972330752235948",
      "longitude": "-90.01093832098398"
    }
  },
  {
    "service_request": "2026-1255069",
    "request_type": "Trash/Recycling",
    "request_reason": "Request a Large Item Pick Up",
    "date_created": "2026-01-28T13:20:58.000",
    "date_modified": "2026-01-28T13:21:00.000",
    "request_status": "Pending",
    "responsible_agency": "Department of Sanitation",
    "final_address": "5930 Beechcraft St",
    "address_councildis": "D",
    "status": "Assigned to Contractor",
    "contractor": "Waste Pro",
    "rowid": "1255069",
    "final_x": "3696409.66378",
    "final_y": "553266.699287",
    "longitude": "-90.02020429073559",
    "latitude": "30.014830084566565",
    "geocoded_column": {
      "latitude": "30.014830084566565",
      "longitude": "-90.02020429073559"
    }
  },
  {
    "service_request": "2026-1255068",
    "request_type": "Trash/Recycling",
    "request_reason": "Request a Large Item Pick Up",
    "date_created": "2026-01-28T13:20:46.000",
    "date_modified": "2026-01-28T13:20:49.000",
    "request_status": "Pending",
    "responsible_agency": "Department of Sanitation",
    "final_address": "3112 Magazine St",
    "address_councildis": "B",
    "status": "Assigned to Contractor",
    "contractor": "IV Waste",
    "rowid": "1255068",
    "final_x": "3676046.68673",
    "final_y": "520104.561016",
    "longitude": "-90.08568242432946",
    "latitude": "29.92427142722834",
    "geocoded_column": {
      "latitude": "29.92427142722834",
      "longitude": "-90.08568242432946"
    }
  },
  {
    "service_request": "2026-1255067",
    "request_type": "Trash/Recycling",
    "request_reason": "Request a Large Item Pick Up",
    "date_created": "2026-01-28T13:19:47.000",
    "date_modified": "2026-01-28T13:19:49.000",
    "request_status": "Pending",
    "responsible_agency": "Department of Sanitation",
    "final_address": "2508 Audubon St",
    "address_councildis": "A",
    "status": "Assigned to Contractor",
    "contractor": "IV Waste",
    "rowid": "1255067",
    "final_x": "3667065.84839",
    "final_y": "530329.102978",
    "longitude": "-90.11368836722885",
    "latitude": "29.95265146727542",
    "geocoded_column": {
      "latitude": "29.95265146727542",
      "longitude": "-90.11368836722885"
    }
  },
  {
    "service_request": "2026-1255066",
    "request_type": "Roads and Streets",
    "request_reason": "Street Subsidence (Sinking)",
    "date_created": "2026-01-28T13:17:26.000",
    "date_modified": "2026-01-28T13:17:28.000",
    "request_status": "Pending",
    "responsible_agency": "Sewerage & Water Board",
    "final_address": "5048 Westlake Dr",
    "address_councildis": "E",
    "status": "Pending",
    "rowid": "1255066",
    "final_x": "3699525.29693",
    "final_y": "556001.006617",
    "longitude": "-90.01026069939067",
    "latitude": "30.022249845997166",
    "geocoded_column": {
      "latitude": "30.022249845997166",
      "longitude": "-90.01026069939067"
    }
  },
  {
    "service_request": "2026-1255065",
    "request_type": "Trash/Recycling",
    "request_reason": "Illegal Dumping",
    "date_created": "2026-01-28T13:17:19.000",
    "date_modified": "2026-01-28T13:17:21.000",
    "request_status": "Pending",
    "responsible_agency": "Department of Sanitation",
    "final_address": "2018 Shalett St",
    "address_councildis": "C",
    "status": "Pending",
    "rowid": "1255065",
    "final_x": "3694255.69603",
    "final_y": "523034.714683",
    "longitude": "-90.02809781765497",
    "latitude": "29.931770621170113",
    "geocoded_column": {
      "latitude": "29.931770621170113",
      "longitude": "-90.02809781765497"
    }
  },
  {
    "service_request": "2026-1255064",
    "request_type": "Trash/Recycling",
    "request_reason": "Request a Large Item Pick Up",
    "date_created": "2026-01-28T13:16:56.000",
    "date_modified": "2026-01-28T13:16:59.000",
    "request_status": "Pending",
    "responsible_agency": "Department of Sanitation",
    "final_address": "1645 N Dorgenois St",
    "address_councildis": "D",
    "status": "Assigned to Contractor",
    "contractor": "IV Waste",
    "rowid": "1255064",
    "final_x": "3679762.19605",
    "final_y": "540145.090187",
    "longitude": "-90.07325817839562",
    "latitude": "29.979264378142734",
    "geocoded_column": {
      "latitude": "29.979264378142734",
      "longitude": "-90.07325817839562"
    }
  },
  {
    "service_request": "2026-1255063",
    "request_type": "Trash/Recycling",
    "request_reason": "Illegal Dumping",
    "date_created": "2026-01-28T13:14:16.000",
    "date_modified": "2026-01-28T13:14:19.000",
    "request_status": "Pending",
    "responsible_agency": "Department of Sanitation",
    "final_address": "3757 Apache St",
    "address_councildis": "D",
    "status": "Pending",
    "rowid": "1255063",
    "final_x": "3688841.83382",
    "final_y": "547202.500177",
    "longitude": "-90.04433045693352",
    "latitude": "29.99839205336343",
    "geocoded_column": {
      "latitude": "29.99839205336343",
      "longitude": "-90.04433045693352"
    }
  },
  {
    "service_request": "2026-1255062",
    "request_type": "Streetlights",
    "request_reason": "Streetlight Outage/Malfunction",
    "date_created": "2026-01-28T13:13:28.000",
    "date_modified": "2026-01-28T13:13:29.000",
    "request_status": "Pending",
    "responsible_agency": "Department of Public Works",
    "final_address": "6600 Harbourview Dr",
    "address_councildis": "E",
    "status": "Pending",
    "rowid": "1255062",
    "final_x": "3699055.88125",
    "final_y": "555932.524185",
    "longitude": "-90.01174642384804",
    "latitude": "30.022076440689467",
    "geocoded_column": {
      "latitude": "30.022076440689467",
      "longitude": "-90.01174642384804"
    }
  },
  {
    "service_request": "2026-1255061",
    "request_type": "Trash/Recycling",
    "request_reason": "Replace Trash Cart",
    "date_created": "2026-01-28T13:11:28.000",
    "date_modified": "2026-01-28T13:11:30.000",
    "request_status": "Pending",
    "responsible_agency": "Department of Sanitation",
    "final_address": "7200 Farwood Dr",
    "address_councildis": "E",
    "status": "Assigned to Contractor",
    "contractor": "Waste Pro",
    "rowid": "1255061",
    "final_x": "3701017.8458",
    "final_y": "556696.840218",
    "longitude": "-90.00551916658465",
    "latitude": "30.024115649625013",
    "geocoded_column": {
      "latitude": "30.024115649625013",
      "longitude": "-90.00551916658465"
    }
  },
  {
    "service_request": "2026-1255060",
    "request_type": "Trash/Recycling",
    "request_reason": "Request a Large Item Pick Up",
    "date_created": "2026-01-28T13:09:01.000",
    "date_modified": "2026-01-28T13:09:02.000",
    "request_status": "Pending",
    "responsible_agency": "Department of Sanitation",
    "final_address": "7040 Camberley Dr",
    "address_councildis": "E",
    "status": "Assigned to Contractor",
    "contractor": "Waste Pro",
    "rowid": "1255060",
    "final_x": "3713400.64754",
    "final_y": "564598.672545",
    "longitude": "-89.96609433097215",
    "latitude": "30.045442162468046",
    "geocoded_column": {
      "latitude": "30.045442162468046",
      "longitude": "-89.96609433097215"
    }
  },
  {
    "service_request": "2026-1255059",
    "request_type": "Parks & Parkways",
    "request_reason": "Request Tree Service (Right of Way/Public Property)",
    "date_created": "2026-01-28T13:08:25.000",
    "date_modified": "2026-01-28T13:17:16.000",
    "request_status": "Pending",
    "responsible_agency": "Department of Parks & Parkway",
    "final_address": "TOURO ST & ST DENIS ST",
    "address_councildis": "D",
    "status": "Pending",
    "rowid": "1255059",
    "final_x": "3683436.2",
    "final_y": "546186.28",
    "longitude": "-90.06144245412601",
    "latitude": "29.99576390988248",
    "geocoded_column": {
      "latitude": "29.99576390988248",
      "longitude": "-90.06144245412601"
    }
  },
  {
    "service_request": "2026-1255058",
    "request_type": "Trash/Recycling",
    "request_reason": "Request a Large Item Pick Up",
    "date_created": "2026-01-28T13:04:27.000",
    "date_modified": "2026-01-28T13:04:29.000",
    "request_status": "Pending",
    "responsible_agency": "Department of Sanitation",
    "final_address": "7724 Keats St",
    "address_councildis": "E",
    "status": "Assigned to Contractor",
    "contractor": "Waste Pro",
    "rowid": "1255058",
    "final_x": "3696115.17232",
    "final_y": "559391.576861",
    "longitude": "-90.02091308776107",
    "latitude": "30.03168045007433",
    "geocoded_column": {
      "latitude": "30.03168045007433",
      "longitude": "-90.02091308776107"
    }
  },
  {
    "service_request": "2026-1255057",
    "request_type": "Trash/Recycling",
    "request_reason": "Repair Trash Cart",
    "date_created": "2026-01-28T13:01:18.000",
    "date_modified": "2026-01-28T13:48:30.000",
    "request_status": "Pending",
    "responsible_agency": "Department of Sanitation",
    "final_address": "41 Versailles Blvd",
    "address_councildis": "A",
    "status": "Assigned to Contractor",
    "contractor": "IV Waste",
    "rowid": "1255057",
    "final_x": "3667489.18746",
    "final_y": "529623.905537",
    "longitude": "-90.1123753750515",
    "latitude": "29.95070000730623",
    "geocoded_column": {
      "latitude": "29.95070000730623",
      "longitude": "-90.1123753750515"
    }
  },
  {
    "service_request": "2026-1255056",
    "request_type": "Trash/Recycling",
    "request_reason": "Repair Trash Cart",
    "date_created": "2026-01-28T12:59:09.000",
    "date_modified": "2026-01-28T13:48:11.000",
    "request_status": "Pending",
    "responsible_agency": "Department of Sanitation",
    "final_address": "2826 Eagle St",
    "address_councildis": "A",
    "status": "Assigned to Contractor",
    "contractor": "IV Waste",
    "rowid": "1255056",
    "final_x": "3664126.31117",
    "final_y": "534485.560837",
    "longitude": "-90.12283149552843",
    "latitude": "29.96416607768551",
    "geocoded_column": {
      "latitude": "29.96416607768551",
      "longitude": "-90.12283149552843"
    }
  },
  {
    "service_request": "2026-1255055",
    "request_type": "Trash/Recycling",
    "request_reason": "Request a Large Item Pick Up",
    "date_created": "2026-01-28T12:59:04.000",
    "date_modified": "2026-01-28T13:00:33.000",
    "request_status": "Pending",
    "responsible_agency": "Department of Sanitation",
    "final_address": "4742 Sandalwood St",
    "address_councildis": "E",
    "status": "Assigned to Contractor",
    "contractor": "Waste Pro",
    "rowid": "1255055",
    "final_x": "3712154.43198",
    "final_y": "556141.808922",
    "longitude": "-89.97035086764139",
    "latitude": "30.022229984754258",
    "geocoded_column": {
      "latitude": "30.022229984754258",
      "longitude": "-89.97035086764139"
    }
  },
  {
    "service_request": "2026-1255054",
    "request_type": "Abandoned Vehicles",
    "request_reason": "Abandoned/Junk Vehicles",
    "date_created": "2026-01-28T12:49:28.000",
    "date_modified": "2026-01-28T12:49:30.000",
    "request_status": "Pending",
    "responsible_agency": "Department of Public Works",
    "final_address": "4312 DHemecourt St",
    "address_councildis": "A",
    "status": "Pending",
    "rowid": "1255054",
    "final_x": "3668945.13639",
    "final_y": "537438.020232",
    "longitude": "-90.10751426803756",
    "latitude": "29.972143497443337",
    "geocoded_column": {
      "latitude": "29.972143497443337",
      "longitude": "-90.10751426803756"
    }
  },
  {
    "service_request": "2026-1255053",
    "request_type": "Trash/Recycling",
    "request_reason": "Order Recycling Cart",
    "date_created": "2026-01-28T12:48:35.000",
    "date_modified": "2026-01-28T12:48:36.000",
    "request_status": "Pending",
    "responsible_agency": "Department of Sanitation",
    "final_address": "2601 Calhoun St",
    "address_councildis": "A",
    "status": "Pending",
    "rowid": "1255053",
    "final_x": "3666374.15777",
    "final_y": "526372.882942",
    "longitude": "-90.11600513664193",
    "latitude": "29.941793368244124",
    "geocoded_column": {
      "latitude": "29.941793368244124",
      "longitude": "-90.11600513664193"
    }
  },
  {
    "service_request": "2026-1255052",
    "request_type": "Trash/Recycling",
    "request_reason": "Replace Trash Cart",
    "date_created": "2026-01-28T12:47:58.000",
    "date_modified": "2026-01-28T13:37:40.000",
    "request_status": "Pending",
    "responsible_agency": "Department of Sanitation",
    "final_address": "2513 Desire St",
    "address_councildis": "D",
    "status": "Assigned to Contractor",
    "contractor": "IV Waste",
    "rowid": "1255052",
    "final_x": "3691559.3599",
    "final_y": "541096.02254",
    "longitude": "-90.0359642437405",
    "latitude": "29.981517108148783",
    "geocoded_column": {
      "latitude": "29.981517108148783",
      "longitude": "-90.0359642437405"
    }
  },
  {
    "service_request": "2026-1255051",
    "request_type": "Trash/Recycling",
    "request_reason": "Order Second Trash Cart",
    "date_created": "2026-01-28T12:47:49.000",
    "date_modified": "2026-01-28T12:47:51.000",
    "request_status": "Pending",
    "responsible_agency": "Department of Sanitation",
    "final_address": "2601 Calhoun St",
    "address_councildis": "A",
    "status": "Assigned to Contractor",
    "contractor": "IV Waste",
    "rowid": "1255051",
    "final_x": "3666374.15777",
    "final_y": "526372.882942",
    "longitude": "-90.11600513664193",
    "latitude": "29.941793368244124",
    "geocoded_column": {
      "latitude": "29.941793368244124",
      "longitude": "-90.11600513664193"
    }
  },