[
  {
    "service_request": "2022-857179",
    "request_type": "Health Related Questions",
    "request_reason": "Noise Ordinance Complaint",
    "date_created": "2022-01-28T02:09:27.000",
    "date_modified": "2022-01-28T02:09:27.000",
    "request_status": "Pending",
    "responsible_agency": "Health Department",
    "final_address": "1651 N Tonti St",
    "address_councildis": "D",
    "status": "Pending",
    "rowid": "857179",
    "final_x": "3680495.17685",
    "final_y": "539768.599818",
    "longitude": "-90.07095623890136",
    "latitude": "29.97820697632108",
    "geocoded_column": {
      "latitude": "29.97820697632108",
      "longitude": "-90.07095623890136"
    }
  },
  {
    "service_request": "2022-857178",
    "request_type": "COVID-19",
    "request_reason": "COVID-19 Business Non-Compliance",
    "date_created": "2022-01-28T01:21:29.000",
    "date_modified": "2022-01-28T01:21:30.000",
    "request_status": "Pending",
    "responsible_agency": "Safety and Permits",
    "final_address": "718 St Peter St",
    "address_councildis": "C",
    "status": "Pending",
    "rowid": "857178",
    "final_x": "3682364.44316",
    "final_y": "532519.320068",
    "longitude": "-90.06530580417049",
    "latitude": "29.958217198020957",
    "geocoded_column": {
      "latitude": "29.958217198020957",
      "longitude": "-90.06530580417049"
    }
  },
  {
    "service_request": "2022-857177",
    "request_type": "Trash/Recycling",
    "request_reason": "Order Recycling Cart",
    "date_created": "2022-01-27T23:27:03.000",
    "date_modified": "2022-01-27T23:27:03.000",
    "request_status": "Pending",
    "responsible_agency": "Department of Sanitation",
    "final_address": "127 S Scott St",
    "address_councildis": "A",
    "status": "Pending",
    "rowid": "857177",
    "final_x": "3671561.16539",
    "final_y": "537612.932936",
    "longitude": "-90.0992464438393",
    "latitude": "29.972547236382884",
    "geocoded_column": {
      "latitude": "29.972547236382884",
      "longitude": "-90.0992464438393"
    }
  },
  {
    "service_request": "2022-857176",
    "request_type": "Traffic Signals/Signs/Striping/Streetlights",
    "request_reason": "Street Light Outage/Malfunction",
    "date_created": "2022-01-27T22:58:21.000",
    "date_modified": "2022-01-27T22:58:22.000",
    "request_status": "Pending",
    "responsible_agency": "Department of Public Works",
    "final_address": "1701 St Thomas St",
    "address_councildis": "B",
    "status": "Pending",
    "contractor": "Royal Engineering",
    "rowid": "857176",
    "final_x": "3681317.88616",
    "final_y": "522003.649722",
    "longitude": "-90.06897694345304",
    "latitude": "29.929334426274345",
    "geocoded_column": {
      "latitude": "29.929334426274345",
      "longitude": "-90.06897694345304"
    }
  },
  {
    "service_request": "2022-857175",
    "request_type": "Property Maintenance",
    "request_reason": "Property Maintenance",
    "date_created": "2022-01-27T22:52:50.000",
    "date_modified": "2022-01-27T22:52:50.000",
    "request_status": "Pending",
    "responsible_agency": "Department of Code Enforcement",
    "final_address": "232 28Th St",
    "address_councildis": "A",
    "status": "Pending",
    "rowid": "857175",
    "final_x": "3665528.8752",
    "final_y": "550170.05538",
    "longitude": "-90.11787690485842",
    "latitude": "30.007252319739372",
    "geocoded_column": {
      "latitude": "30.007252319739372",
      "longitude": "-90.11787690485842"
    }
  },
  {
    "service_request": "2022-857174",
    "request_type": "Traffic Signals/Signs/Striping/Streetlights",
    "request_reason": "Street Light Outage/Malfunction",
    "date_created": "2022-01-27T22:14:39.000",
    "date_modified": "2022-01-27T22:14:40.000",
    "request_status": "Pending",
    "responsible_agency": "Department of Public Works",
    "final_address": "8900 Gervais St",
    "address_councildis": "E",
    "status": "Pending",
    "contractor": "Royal Engineering",
    "rowid": "857174",
    "final_x": "3704886.71159",
    "final_y": "563170.789792",
    "longitude": "-89.99305509746382",
    "latitude": "30.041792635487102",
    "geocoded_column": {
      "latitude": "30.041792635487102",
      "longitude": "-89.99305509746382"
    }
  },
  {
    "service_request": "2022-857173",
    "request_type": "Health Related Questions",
    "request_reason": "Noise Ordinance Complaint",
    "date_created": "2022-01-27T21:37:05.000",
    "date_modified": "2022-01-27T21:37:05.000",
    "request_status": "Pending",
    "responsible_agency": "Health Department",
    "final_address": "711 Bourbon St, New Orleans, Louisiana, 70116",
    "address_councildis": "C",
    "status": "Pending",
    "rowid": "857173",
    "final_x": "3682299.38447",
    "final_y": "532765.705988",
    "longitude": "-90.06550263299877",
    "latitude": "29.95889665479323",
    "geocoded_column": {
      "latitude": "29.95889665479323",
      "longitude": "-90.06550263299877"
    }
  },
  {
    "service_request": "2022-857172",
    "request_type": "Property Maintenance",
    "request_reason": "Property Maintenance",
    "date_created": "2022-01-27T21:24:06.000",
    "date_modified": "2022-01-27T21:24:06.000",
    "request_status": "Pending",
    "responsible_agency": "Department of Code Enforcement",
    "final_address": "317 N Johnson St",
    "address_councildis": "B",
    "status": "Pending",
    "rowid": "857172",
    "final_x": "3677769.56757",
    "final_y": "534486.568453",
    "longitude": "-90.0797472069718",
    "latitude": "29.963765482199058",
    "geocoded_column": {
      "latitude": "29.963765482199058",
      "longitude": "-90.0797472069718"
    }
  },
  {
    "service_request": "2022-857171",
    "request_type": "Abandoned Vehicles",
    "request_reason": "Abandoned/Junk Vehicles",
    "date_created": "2022-01-27T20:49:44.000",
    "date_modified": "2022-01-27T20:49:44.000",
    "request_status": "Pending",
    "responsible_agency": "Department of Public Works",
    "final_address": "6245 Curie St",
    "address_councildis": "D",
    "status": "Pending",
    "rowid": "857171",
    "final_x": "3682513.61973",
    "final_y": "556243.545498",
    "longitude": "-90.06400486423345",
    "latitude": "30.02344587599323",
    "geocoded_column": {
      "latitude": "30.02344587599323",
      "longitude": "-90.06400486423345"
    }
  },
  {
    "service_request": "2022-857170",
    "request_type": "Abandoned Vehicles",
    "request_reason": "Abandoned/Junk Vehicles",
    "date_created": "2022-01-27T20:28:29.000",
    "date_modified": "2022-01-27T20:28:29.000",
    "request_status": "Pending",
    "responsible_agency": "Department of Public Works",
    "final_address": "4725 Crowder Blvd",
    "address_councildis": "E",
    "status": "Pending",
    "rowid": "857170",
    "final_x": "3706558.65041",
    "final_y": "555623.069017",
    "longitude": "-89.98805124686034",
    "latitude": "30.02098548502369",
    "geocoded_column": {
      "latitude": "30.02098548502369",
      "longitude": "-89.98805124686034"
    }
  },
  {
    "service_request": "2022-857169",
    "request_type": "Trash/Recycling",
    "request_reason": "Order Recycling Cart",
    "date_created": "2022-01-27T19:49:03.000",
    "date_modified": "2022-01-27T19:49:03.000",
    "request_status": "Pending",
    "responsible_agency": "Department of Sanitation",
    "final_address": "533 Wagner St",
    "address_councildis": "C",
    "status": "Pending",
    "rowid": "857169",
    "final_x": "3690526.81283",
    "final_y": "529487.430657",
    "longitude": "-90.03963945844967",
    "latitude": "29.949629656803896",
    "geocoded_column": {
      "latitude": "29.949629656803896",
      "longitude": "-90.03963945844967"
    }
  },
  {
    "service_request": "2022-857168",
    "request_type": "Trash/Recycling",
    "request_reason": "Repair Trash Cart",
    "date_created": "2022-01-27T19:47:03.000",
    "date_modified": "2022-01-27T19:47:04.000",
    "request_status": "Pending",
    "responsible_agency": "Department of Sanitation",
    "final_address": "533 Wagner St",
    "address_councildis": "C",
    "status": "Assigned to Contractor",
    "contractor": "Richards Disposal",
    "rowid": "857168",
    "final_x": "3690526.81283",
    "final_y": "529487.430657",
    "longitude": "-90.03963945844967",
    "latitude": "29.949629656803896",
    "geocoded_column": {
      "latitude": "29.949629656803896",
      "longitude": "-90.03963945844967"
    }
  },
  {
    "service_request": "2022-857167",
    "request_type": "COVID-19",
    "request_reason": "COVID-19 Business Non-Compliance",
    "date_created": "2022-01-27T19:34:56.000",
    "date_modified": "2022-01-27T19:34:58.000",
    "request_status": "Pending",
    "responsible_agency": "Safety and Permits",
    "final_address": "3016 S Carrollton Ave",
    "address_councildis": "A",
    "status": "Pending",
    "rowid": "857167",
    "final_x": "3666405.92231",
    "final_y": "533298.800132",
    "longitude": "-90.11567247747831",
    "latitude": "29.9608364608981",
    "geocoded_column": {
      "latitude": "29.9608364608981",
      "longitude": "-90.11567247747831"
    }
  },
  {
    "service_request": "2022-857165",
    "request_type": "Abandoned Vehicles",
    "request_reason": "Vehicle Blocking Your Driveway",
    "date_created": "2022-01-27T19:24:05.000",
    "date_modified": "2022-01-27T19:24:05.000",
    "request_status": "Pending",
    "responsible_agency": "Department of Public Works",
    "final_address": "334 Olivier St",
    "address_councildis": "C",
    "status": "Pending",
    "rowid": "857165",
    "final_x": "3687314.33442",
    "final_y": "530471.203714",
    "longitude": "-90.04974789083758",
    "latitude": "29.952434035256577",
    "geocoded_column": {
      "latitude": "29.952434035256577",
      "longitude": "-90.04974789083758"
    }
  },
  {
    "service_request": "2022-857164",
    "request_type": "Traffic Signals/Signs/Striping/Streetlights",
    "request_reason": "Street Light Outage/Malfunction",
    "date_created": "2022-01-27T19:23:45.000",
    "date_modified": "2022-01-27T19:23:46.000",
    "request_status": "Pending",
    "responsible_agency": "Department of Public Works",
    "final_address": "2727 Marais St",
    "address_councildis": "C",
    "status": "Pending",
    "contractor": "Royal Engineering",
    "rowid": "857164",
    "final_x": "3687747.55203",
    "final_y": "536714.664775",
    "longitude": "-90.04815887923765",
    "latitude": "29.969588038801692",
    "geocoded_column": {
      "latitude": "29.969588038801692",
      "longitude": "-90.04815887923765"
    }
  },
  {
    "service_request": "2022-857163",
    "request_type": "Trash/Recycling",
    "request_reason": "Request a Large Item Pick Up",
    "date_created": "2022-01-27T19:20:53.000",
    "date_modified": "2022-01-27T19:20:54.000",
    "request_status": "Pending",
    "responsible_agency": "Department of Sanitation",
    "final_address": "1524 Saint Mary St, New Orleans, Louisiana, 70130",
    "status": "Assigned to Contractor",
    "rowid": "857163",
    "longitude": "0.0",
    "latitude": "0.0",
    "geocoded_column": {
      "latitude": "0.0",
      "longitude": "0.0"
    }
  },
  {
    "service_request": "2022-857162",
    "request_type": "Trash/Recycling",
    "request_reason": "Missed Trash Pick-Up",
    "date_created": "2022-01-27T18:47:45.000",
    "date_modified": "2022-01-27T18:47:45.000",
    "request_status": "Pending",
    "responsible_agency": "Department of Sanitation",
    "final_address": "1422 Urania St",
    "address_councildis": "B",
    "status": "Assigned to Contractor",
    "contractor": "Richards Disposal",
    "rowid": "857162",
    "final_x": "3679170.02408",
    "final_y": "524012.449404",
    "longitude": "-90.07568773937474",
    "latitude": "29.93492295866107",
    "geocoded_column": {
      "latitude": "29.93492295866107",
      "longitude": "-90.07568773937474"
    }
  },
  {
    "service_request": "2022-857161",
    "request_type": "Trash/Recycling",
    "request_reason": "Illegal Dumping",
    "date_created": "2022-01-27T18:19:57.000",
    "date_modified": "2022-01-27T18:19:57.000",
    "request_status": "Pending",
    "responsible_agency": "Department of Sanitation",
    "final_address": "4858 Tchoupitoulas St",
    "address_councildis": "B",
    "status": "Pending",
    "rowid": "857161",
    "final_x": "3669210.32142",
    "final_y": "517208.856437",
    "longitude": "-90.10736031678353",
    "latitude": "29.916512064887815",
    "geocoded_column": {
      "latitude": "29.916512064887815",
      "longitude": "-90.10736031678353"
    }
  },
  {
    "service_request": "2022-857160",
    "request_type": "Traffic Signals/Signs/Striping/Streetlights",
    "request_reason": "Street Light Knocked Down/Leaning",
    "date_created": "2022-01-27T18:17:42.000",
    "date_modified": "2022-01-27T18:17:43.000",
    "request_status": "Pending",
    "responsible_agency": "Department of Public Works",
    "final_address": "323 Octavia St",
    "address_councildis": "A",
    "status": "Pending",
    "contractor": "Royal Engineering",
    "rowid": "857160",
    "final_x": "3666148.10612",
    "final_y": "517362.634869",
    "longitude": "-90.11702079942097",
    "latitude": "29.917024642016106",
    "geocoded_column": {
      "latitude": "29.917024642016106",
      "longitude": "-90.11702079942097"
    }
  },
  {
    "service_request": "2022-857159",
    "request_type": "Traffic Signals/Signs/Striping/Streetlights",
    "request_reason": "Traffic Signal Malfunctioning/Damaged",
    "date_created": "2022-01-27T18:09:12.000",
    "date_modified": "2022-01-27T18:09:12.000",
    "request_status": "Pending",
    "responsible_agency": "Department of Public Works",
    "final_address": "N RAMPART ST & TOULOUSE ST",
    "address_councildis": "C",
    "status": "Pending",
    "rowid": "857159",
    "final_x": "3681165.9",
    "final_y": "533028.78",
    "longitude": "-90.06907272289246",
    "latitude": "29.959654455258974",
    "geocoded_column": {
      "latitude": "29.959654455258974",
      "longitude": "-90.06907272289246"
    }
  },
  {
    "service_request": "2022-857158",
    "request_type": "Trash/Recycling",
    "request_reason": "Missed Trash Pick-Up",
    "date_created": "2022-01-27T18:06:10.000",
    "date_modified": "2022-01-27T18:06:11.000",
    "request_status": "Pending",
    "responsible_agency": "Department of Sanitation",
    "final_address": "7809 Cohn St",
    "address_councildis": "A",
    "status": "Assigned to Contractor",
    "contractor": "Richards Disposal",
    "rowid": "857158",
    "final_x": "3664419.81492",
    "final_y": "529524.518401",
    "longitude": "-90.12207024240811",
    "latitude": "29.950516298276018",
    "geocoded_column": {
      "latitude": "29.950516298276018",
      "longitude": "-90.12207024240811"
    }
  },
  {
    "service_request": "2022-857157",
    "request_type": "Trash/Recycling",
    "request_reason": "Replace Trash Cart",
    "date_created": "2022-01-27T18:04:44.000",
    "date_modified": "2022-01-27T18:04:45.000",
    "request_status": "Pending",
    "responsible_agency": "Department of Sanitation",
    "final_address": "230 Decatur St",
    "address_councildis": "C",
    "status": "Assigned to Contractor",
    "contractor": "Empire Services",
    "rowid": "857157",
    "final_x": "3682256.06159",
    "final_y": "530750.38541",
    "longitude": "-90.06570983800063",
    "latitude": "29.95335652631167",
    "geocoded_column": {
      "latitude": "29.95335652631167",
      "longitude": "-90.06570983800063"
    }
  },
  {
    "service_request": "2022-857156",
    "request_type": "Trash/Recycling",
    "request_reason": "Replace Trash Cart",
    "date_created": "2022-01-27T17:57:50.000",
    "date_modified": "2022-01-27T17:57:51.000",
    "request_status": "Pending",
    "responsible_agency": "Department of Sanitation",
    "final_address": "332 Millaudon St",
    "address_councildis": "A",
    "status": "Assigned to Contractor",
    "contractor": "Richards Disposal",
    "rowid": "857156",
    "final_x": "3661581.48211",
    "final_y": "524339.537596",
    "longitude": "-90.13120403261557",
    "latitude": "29.936341446973596",
    "geocoded_column": {
      "latitude": "29.936341446973596",
      "longitude": "-90.13120403261557"
    }
  },
  {
    "service_request": "2022-857155",
    "request_type": "Trash/Recycling",
    "request_reason": "Request a Large Item Pick Up",
    "date_created": "2022-01-27T17:57:28.000",
    "date_modified": "2022-01-27T17:57:29.000",
    "request_status": "Pending",
    "responsible_agency": "Department of Sanitation",
    "final_address": "4006 DHemecourt St",
    "address_councildis": "A",
    "status": "Assigned to Contractor",
    "contractor": "Richards Disposal",
    "rowid": "857155",
    "final_x": "3670145.84679",
    "final_y": "536532.667975",
    "longitude": "-90.10375289624308",
    "latitude": "29.96961870814481",
    "geocoded_column": {
      "latitude": "29.96961870814481",
      "longitude": "-90.10375289624308"
    }
  },
  {
    "service_request": "2022-857154",
    "request_type": "Roads/Drainage",
    "request_reason": "Catch Basin - Clogged",
    "date_created": "2022-01-27T17:55:25.000",
    "date_modified": "2022-01-27T17:55:25.000",
    "request_status": "Pending",
    "responsible_agency": "Department of Public Works",
    "final_address": "900 BLK Eighth St",
    "address_councildis": "B",
    "status": "Pending",
    "rowid": "857154",
    "final_x": "3676420.30329",
    "final_y": "519747.080372",
    "longitude": "-90.08451534434955",
    "latitude": "29.92327727963951",
    "geocoded_column": {
      "latitude": "29.92327727963951",
      "longitude": "-90.08451534434955"
    }
  },
  {
    "service_request": "2022-857153",
    "request_type": "Trash/Recycling",
    "request_reason": "Missed Trash Pick-Up",
    "date_created": "2022-01-27T17:40:44.000",
    "date_modified": "2022-01-27T17:40:45.000",
    "request_status": "Pending",
    "responsible_agency": "Department of Sanitation",
    "final_address": "3717 Willow St",
    "address_councildis": "B",
    "status": "Assigned to Contractor",
    "contractor": "Richards Disposal",
    "rowid": "857153",
    "final_x": "3671834.70983",
    "final_y": "525659.911229",
    "longitude": "-90.09878926110075",
    "latitude": "29.93967228383594",
    "geocoded_column": {
      "latitude": "29.93967228383594",
      "longitude": "-90.09878926110075"
    }
  },
  {
    "service_request": "2022-857152",
    "request_type": "Trash/Recycling",
    "request_reason": "Replace Recycling Cart",
    "date_created": "2022-01-27T17:32:23.000",
    "date_modified": "2022-01-27T17:32:23.000",
    "request_status": "Pending",
    "responsible_agency": "Department of Sanitation",
    "final_address": "3109 Dumaine St",
    "address_councildis": "A",
    "status": "Pending",
    "rowid": "857152",
    "final_x": "3675646.42062",
    "final_y": "538710.444745",
    "longitude": "-90.08630673833885",
    "latitude": "29.975443405097938",
    "geocoded_column": {
      "latitude": "29.975443405097938",
      "longitude": "-90.08630673833885"
    }
  },
  {
    "service_request": "2022-857151",
    "request_type": "Trash/Recycling",
    "request_reason": "Replace Trash Cart",
    "date_created": "2022-01-27T17:30:24.000",
    "date_modified": "2022-01-27T17:30:25.000",
    "request_status": "Pending",
    "responsible_agency": "Department of Sanitation",
    "final_address": "3109 Dumaine St",
    "address_councildis": "A",
    "status": "Assigned to Contractor",
    "contractor": "Richards Disposal",
    "rowid": "857151",
    "final_x": "3675646.42062",
    "final_y": "538710.444745",
    "longitude": "-90.08630673833885",
    "latitude": "29.975443405097938",
    "geocoded_column": {
      "latitude": "29.975443405097938",
      "longitude": "-90.08630673833885"
    }
  },
  {
    "service_request": "2022-857150",
    "request_type": "Trash/Recycling",
    "request_reason": "Missed Trash Pick-Up",
    "date_created": "2022-01-27T17:30:19.000",
    "date_modified": "2022-01-27T17:30:20.000",
    "request_status": "Pending",
    "responsible_agency": "Department of Sanitation",
    "final_address": "2412 State St",
    "address_councildis": "A",
    "status": "Assigned to Contractor",
    "contractor": "Richards Disposal",
    "rowid": "857150",
    "final_x": "3666681.97108",
    "final_y": "525576.753661",
    "longitude": "-90.11506002724458",
    "latitude": "29.939595273049484",
    "geocoded_column": {
      "latitude": "29.939595273049484",
      "longitude": "-90.11506002724458"
    }
  },
  {
    "service_request": "2022-857149",
    "request_type": "Trash/Recycling",
    "request_reason": "MIssed Recycling Pick-Up",
    "date_created": "2022-01-27T17:28:27.000",
    "date_modified": "2022-01-27T17:28:28.000",
    "request_status": "Pending",
    "responsible_agency": "Department of Sanitation",
    "final_address": "5826 Clara St",
    "address_councildis": "A",
    "status": "Assigned to Contractor",
    "contractor": "Richards Disposal",
    "rowid": "857149",
    "final_x": "3666914.57978",
    "final_y": "525225.735933",
    "longitude": "-90.11433743670578",
    "latitude": "29.938623284611396",
    "geocoded_column": {
      "latitude": "29.938623284611396",
      "longitude": "-90.11433743670578"
    }
  },
  {
    "service_request": "2022-857148",
    "request_type": "Trash/Recycling",
    "request_reason": "Replace Trash Cart",
    "date_created": "2022-01-27T17:27:11.000",
    "date_modified": "2022-01-27T17:27:12.000",
    "request_status": "Pending",
    "responsible_agency": "Department of Sanitation",
    "final_address": "2310 Third St",
    "address_councildis": "B",
    "status": "Assigned to Contractor",
    "contractor": "Richards Disposal",
    "rowid": "857148",
    "final_x": "3674974.24629",
    "final_y": "525021.367549",
    "longitude": "-90.0888991888343",
    "latitude": "29.937823114584432",
    "geocoded_column": {
      "latitude": "29.937823114584432",
      "longitude": "-90.0888991888343"
    }
  },
  {
    "service_request": "2022-857147",
    "request_type": "Trash/Recycling",
    "request_reason": "Replace Trash Cart",
    "date_created": "2022-01-27T17:26:13.000",
    "date_modified": "2022-01-27T17:26:13.000",
    "request_status": "Pending",
    "responsible_agency": "Department of Sanitation",
    "final_address": "2308 Third St",
    "address_councildis": "B",
    "status": "Assigned to Contractor",
    "contractor": "Richards Disposal",
    "rowid": "857147",
    "final_x": "3674982.28558",
    "final_y": "525009.310525",
    "longitude": "-90.08887422152522",
    "latitude": "29.937789721634402",
    "geocoded_column": {
      "latitude": "29.937789721634402",
      "longitude": "-90.08887422152522"
    }
  },
  {
    "service_request": "2022-857146",
    "request_type": "Abandoned Vehicles",
    "request_reason": "Abandoned/Junk Vehicles",
    "date_created": "2022-01-27T17:24:45.000",
    "date_modified": "2022-01-27T17:25:51.000",
    "request_status": "Pending",
    "responsible_agency": "Department of Public Works",
    "final_address": "2801 Dryades St",
    "address_councildis": "B",
    "status": "Pending",
    "rowid": "857146",
    "final_x": "3675253.25621",
    "final_y": "523434.747131",
    "longitude": "-90.08807276801495",
    "latitude": "29.933452091463728",
    "geocoded_column": {
      "latitude": "29.933452091463728",
      "longitude": "-90.08807276801495"
    }
  },
  {
    "service_request": "2022-857145",
    "request_type": "Traffic Signals/Signs/Striping/Streetlights",
    "request_reason": "Street Light Outage/Malfunction",
    "date_created": "2022-01-27T17:22:53.000",
    "date_modified": "2022-01-27T17:22:54.000",
    "request_status": "Pending",
    "responsible_agency": "Department of Public Works",
    "final_address": "MORRISON RD & WRIGHT RD",
    "address_councildis": "E",
    "status": "Pending",
    "contractor": "Royal Engineering",
    "rowid": "857145",
    "final_x": "3711407.5",
    "final_y": "565075.08",
    "longitude": "-89.97237570338713",
    "latitude": "30.04681733326063",
    "geocoded_column": {
      "latitude": "30.04681733326063",
      "longitude": "-89.97237570338713"
    }
  },
  {
    "service_request": "2022-857144",
    "request_type": "Traffic Signals/Signs/Striping/Streetlights",
    "request_reason": "Street Light Outage/Malfunction",
    "date_created": "2022-01-27T17:21:51.000",
    "date_modified": "2022-01-27T17:21:52.000",
    "request_status": "Pending",
    "responsible_agency": "Department of Public Works",
    "final_address": "MORRISON RD & READ BLVD",
    "address_councildis": "E",
    "status": "Pending",
    "contractor": "Royal Engineering",
    "rowid": "857144",
    "final_x": "3708986.9",
    "final_y": "563787.08",
    "longitude": "-89.9800740921111",
    "latitude": "30.043354679575092",
    "geocoded_column": {
      "latitude": "30.043354679575092",
      "longitude": "-89.9800740921111"
    }
  },
  {
    "service_request": "2022-857143",
    "request_type": "Trash/Recycling",
    "request_reason": "Order Trash Cart",
    "date_created": "2022-01-27T17:20:10.000",
    "date_modified": "2022-01-27T17:20:11.000",
    "request_status": "Pending",
    "responsible_agency": "Department of Sanitation",
    "final_address": "3236 Coliseum St",
    "address_councildis": "B",
    "status": "Assigned to Contractor",
    "contractor": "Richards Disposal",
    "rowid": "857143",
    "final_x": "3675020.67912",
    "final_y": "520737.369017",
    "longitude": "-90.0888994832778",
    "latitude": "29.926042123862423",
    "geocoded_column": {
      "latitude": "29.926042123862423",
      "longitude": "-90.0888994832778"
    }
  },
  {
    "service_request": "2022-857142",
    "request_type": "Trash/Recycling",
    "request_reason": "Order Recycling Cart",
    "date_created": "2022-01-27T17:15:54.000",
    "date_modified": "2022-01-27T17:15:54.000",
    "request_status": "Pending",
    "responsible_agency": "Department of Sanitation",
    "final_address": "1724 Fern St",
    "address_councildis": "A",
    "status": "Pending",
    "rowid": "857142",
    "final_x": "3663832.31117",
    "final_y": "529335.267649",
    "longitude": "-90.12393159063596",
    "latitude": "29.95001298344587",
    "geocoded_column": {
      "latitude": "29.95001298344587",
      "longitude": "-90.12393159063596"
    }
  },
  {
    "service_request": "2022-857141",
    "request_type": "Trash/Recycling",
    "request_reason": "Order Recycling Cart",
    "date_created": "2022-01-27T17:14:50.000",
    "date_modified": "2022-01-27T17:14:50.000",
    "request_status": "Pending",
    "responsible_agency": "Department of Sanitation",
    "final_address": "2524 Upperline St",
    "address_councildis": "B",
    "status": "Pending",
    "rowid": "857141",
    "final_x": "3669094.79655",
    "final_y": "524123.458812",
    "longitude": "-90.10749146996356",
    "latitude": "29.935528421126083",
    "geocoded_column": {
      "latitude": "29.935528421126083",
      "longitude": "-90.10749146996356"
    }
  },
  {
    "service_request": "2022-857140",
    "request_type": "Trash/Recycling",
    "request_reason": "Missed Trash Pick-Up",
    "date_created": "2022-01-27T16:59:21.000",
    "date_modified": "2022-01-27T16:59:21.000",
    "request_status": "Pending",
    "responsible_agency": "Department of Sanitation",
    "final_address": "2610 Lowerline St",
    "address_councildis": "A",
    "status": "Assigned to Contractor",
    "contractor": "Richards Disposal",
    "rowid": "857140",
    "final_x": "3666554.79956",
    "final_y": "531267.441026",
    "longitude": "-90.11527053947395",
    "latitude": "29.955246538159813",
    "geocoded_column": {
      "latitude": "29.955246538159813",
      "longitude": "-90.11527053947395"
    }
  },
  {
    "service_request": "2022-857139",
    "request_type": "Trash/Recycling",
    "request_reason": "Repair Trash Cart",
    "date_created": "2022-01-27T16:58:13.000",
    "date_modified": "2022-01-27T16:58:14.000",
    "request_status": "Pending",
    "responsible_agency": "Department of Sanitation",
    "final_address": "428 Vallette St",
    "address_councildis": "C",
    "status": "Assigned to Contractor",
    "contractor": "Richards Disposal",
    "rowid": "857139",
    "final_x": "3687578.02562",
    "final_y": "530126.186753",
    "longitude": "-90.04892748811378",
    "latitude": "29.95147723203497",
    "geocoded_column": {
      "latitude": "29.95147723203497",
      "longitude": "-90.04892748811378"
    }
  },
  {
    "service_request": "2022-857138",
    "request_type": "Safety & Permits",
    "request_reason": "Licenses & Permits",
    "date_created": "2022-01-27T16:56:12.000",
    "date_modified": "2022-01-27T16:59:02.000",
    "request_status": "Pending",
    "responsible_agency": "Safety and Permits",
    "final_address": "New Orleans,LA",
    "address_councildis": "B",
    "rowid": "857138",
    "final_x": "3673858.15764",
    "final_y": "535604.035846",
    "longitude": "-90.09206084686781",
    "latitude": "29.96695522540006",
    "geocoded_column": {
      "latitude": "29.96695522540006",
      "longitude": "-90.09206084686781"
    }
  },
  {
    "service_request": "2022-857137",
    "request_type": "Abandoned Vehicles",
    "request_reason": "Abandoned/Junk Vehicles",
    "date_created": "2022-01-27T16:54:57.000",
    "date_modified": "2022-01-27T16:54:58.000",
    "request_status": "Pending",
    "responsible_agency": "Department of Public Works",
    "final_address": "9000 BLK Hammond St",
    "address_councildis": "E",
    "status": "Pending",
    "rowid": "857137",
    "final_x": "3708712.32302",
    "final_y": "556016.109868",
    "longitude": "-89.98123166721793",
    "latitude": "30.021996493036845",
    "geocoded_column": {
      "latitude": "30.021996493036845",
      "longitude": "-89.98123166721793"
    }
  },
  {
    "service_request": "2022-857136",
    "request_type": "Safety & Permits",
    "request_reason": "Licenses & Permits",
    "date_created": "2022-01-27T16:52:13.000",
    "date_modified": "2022-01-27T16:52:13.000",
    "request_status": "Pending",
    "responsible_agency": "Safety and Permits",
    "final_address": "3024 Cleveland Ave",
    "address_councildis": "B",
    "status": "Pending",
    "rowid": "857136",
    "final_x": "3673858.15764",
    "final_y": "535604.035846",
    "longitude": "-90.09206084686781",
    "latitude": "29.96695522540006",
    "geocoded_column": {
      "latitude": "29.96695522540006",
      "longitude": "-90.09206084686781"
    }
  },
  {
    "service_request": "2022-857135",
    "request_type": "Traffic Signals/Signs/Striping/Streetlights",
    "request_reason": "Street Light Outage/Malfunction",
    "date_created": "2022-01-27T16:47:38.000",
    "date_modified": "2022-01-27T16:48:26.000",
    "request_status": "Pending",
    "responsible_agency": "Department of Public Works",
    "final_address": "13955 Dwyer Blvd",
    "address_councildis": "E",
    "status": "Pending",
    "contractor": "Royal Engineering",
    "rowid": "857135",
    "final_x": "3728117.91219",
    "final_y": "562886.102752",
    "longitude": "-89.91964809300944",
    "latitude": "30.04024223886261",
    "geocoded_column": {
      "latitude": "30.04024223886261",
      "longitude": "-89.91964809300944"
    }
  },
  {
    "service_request": "2022-857134",
    "request_type": "Roads/Drainage",
    "request_reason": "Man hole cover issue",
    "date_created": "2022-01-27T16:46:08.000",
    "date_modified": "2022-01-27T16:46:08.000",
    "request_status": "Pending",
    "responsible_agency": "Department of Public Works",
    "final_address": "ST BERNARD AVE & ROUSSELIN DR",
    "address_councildis": "D",
    "status": "Pending",
    "rowid": "857134",
    "final_x": "3680368.9",
    "final_y": "541303.98",
    "longitude": "-90.0713016562382",
    "latitude": "29.98243256235351",
    "geocoded_column": {
      "latitude": "29.98243256235351",
      "longitude": "-90.0713016562382"
    }
  },
  {
    "service_request": "2022-857133",
    "request_type": "Trash/Recycling",
    "request_reason": "Illegal Dumping",
    "date_created": "2022-01-27T16:41:54.000",
    "date_modified": "2022-01-27T16:41:54.000",
    "request_status": "Pending",
    "responsible_agency": "Department of Sanitation",
    "final_address": "4858 Tchoupitoulas St",
    "address_councildis": "B",
    "status": "Pending",
    "rowid": "857133",
    "final_x": "3669210.32142",
    "final_y": "517208.856437",
    "longitude": "-90.10736031678353",
    "latitude": "29.916512064887815",
    "geocoded_column": {
      "latitude": "29.916512064887815",
      "longitude": "-90.10736031678353"
    }
  },
  {
    "service_request": "2022-857132",
    "request_type": "Abandoned Vehicles",
    "request_reason": "Abandoned/Junk Vehicles",
    "date_created": "2022-01-27T16:34:04.000",
    "date_modified": "2022-01-27T16:56:59.000",
    "request_status": "Pending",
    "responsible_agency": "Department of Public Works",
    "final_address": "1635 N Roman St, New Orleans, Louisiana, 70116",
    "address_councildis": "D",
    "rowid": "857132",
    "final_x": "3681744.47976",
    "final_y": "538464.394057",
    "longitude": "-90.06705601627536",
    "latitude": "29.974582959320816",
    "geocoded_column": {
      "latitude": "29.974582959320816",
      "longitude": "-90.06705601627536"
    }
  },
  {
    "service_request": "2022-857131",
    "request_type": "Property Maintenance",
    "request_reason": "Property Maintenance",
    "date_created": "2022-01-27T16:31:54.000",
    "date_modified": "2022-01-27T16:31:54.000",
    "request_status": "Pending",
    "responsible_agency": "Department of Code Enforcement",
    "final_address": "1874 N Roman St",
    "address_councildis": "D",
    "status": "Pending",
    "rowid": "857131",
    "final_x": "3683540.45295",
    "final_y": "538746.979081",
    "longitude": "-90.06137399524636",
    "latitude": "29.97530527385337",
    "geocoded_column": {
      "latitude": "29.97530527385337",
      "longitude": "-90.06137399524636"
    }
  },
  {
    "service_request": "2022-857130",
    "request_type": "Roads/Drainage",
    "request_reason": "Pothole",
    "date_created": "2022-01-27T16:30:49.000",
    "date_modified": "2022-01-27T16:30:49.000",
    "request_status": "Pending",
    "responsible_agency": "Department of Public Works",
    "final_address": "714 Union St",
    "address_councildis": "B",
    "status": "Pending",
    "rowid": "857130",
    "final_x": "3680641.27579",
    "final_y": "529855.791809",
    "longitude": "-90.07083976176212",
    "latitude": "29.950945716928082",
    "geocoded_column": {
      "latitude": "29.950945716928082",
      "longitude": "-90.07083976176212"
    }
  },
  {
    "service_request": "2022-857129",
    "request_type": "Trash/Recycling",
    "request_reason": "Repair Trash Cart",
    "date_created": "2022-01-27T16:28:01.000",
    "date_modified": "2022-01-27T16:28:02.000",
    "request_status": "Pending",
    "responsible_agency": "Department of Sanitation",
    "final_address": "2513 Congress St",
    "address_councildis": "D",
    "status": "Assigned to Contractor",
    "contractor": "Metro Disposal",
    "rowid": "857129",
    "final_x": "3692100.13923",
    "final_y": "540945.871371",
    "longitude": "-90.03426159542407",
    "latitude": "29.981087399225988",
    "geocoded_column": {
      "latitude": "29.981087399225988",
      "longitude": "-90.03426159542407"
    }
  },
  {
    "service_request": "2022-857128",
    "request_type": "Trash/Recycling",
    "request_reason": "Order Trash Cart",
    "date_created": "2022-01-27T16:21:03.000",
    "date_modified": "2022-01-27T16:21:04.000",
    "request_status": "Pending",
    "responsible_agency": "Department of Sanitation",
    "final_address": "2626 S Galvez St",
    "address_councildis": "B",
    "status": "Assigned to Contractor",
    "contractor": "Richards Disposal",
    "rowid": "857128",
    "final_x": "3672578.02817",
    "final_y": "528294.699264",
    "longitude": "-90.09635269646552",
    "latitude": "29.94689504716589",
    "geocoded_column": {
      "latitude": "29.94689504716589",
      "longitude": "-90.09635269646552"
    }
  },
  {
    "service_request": "2022-857127",
    "request_type": "Trash/Recycling",
    "request_reason": "Repair Trash Cart",
    "date_created": "2022-01-27T16:12:07.000",
    "date_modified": "2022-01-27T16:12:08.000",
    "request_status": "Pending",
    "responsible_agency": "Department of Sanitation",
    "final_address": "2401 Somerset Dr",
    "address_councildis": "C",
    "status": "Assigned to Contractor",
    "contractor": "Richards Disposal",
    "rowid": "857127",
    "final_x": "3702846.21482",
    "final_y": "522210.981114",
    "longitude": "-90.00100893576455",
    "latitude": "29.929233776035055",
    "geocoded_column": {
      "latitude": "29.929233776035055",
      "longitude": "-90.00100893576455"
    }
  },
  {
    "service_request": "2022-857126",
    "request_type": "Property Maintenance",
    "request_reason": "Property Maintenance",
    "date_created": "2022-01-27T16:10:48.000",
    "date_modified": "2022-01-27T16:10:48.000",
    "request_status": "Pending",
    "responsible_agency": "Department of Code Enforcement",
    "final_address": "4905 Dauphine St",
    "address_councildis": "E",
    "status": "Pending",
    "rowid": "857126",
    "final_x": "3695157.36419",
    "final_y": "533310.25274",
    "longitude": "-90.02488094293956",
    "latitude": "29.959996511850015",
    "geocoded_column": {
      "latitude": "29.959996511850015",
      "longitude": "-90.02488094293956"
    }
  },
  {
    "service_request": "2022-857124",
    "request_type": "Roads/Drainage",
    "request_reason": "Street Flooding / Drainage",
    "date_created": "2022-01-27T16:07:10.000",
    "date_modified": "2022-01-27T16:07:10.000",
    "request_status": "Pending",
    "responsible_agency": "Department of Public Works",
    "final_address": "4140 Canal St",
    "address_councildis": "A",
    "status": "Pending",
    "rowid": "857124",
    "final_x": "3670688.34036",
    "final_y": "538417.467337",
    "longitude": "-90.10197568402062",
    "latitude": "29.974785253813693",
    "geocoded_column": {
      "latitude": "29.974785253813693",
      "longitude": "-90.10197568402062"
    }
  },
  {
    "service_request": "2022-857123",
    "request_type": "Traffic Signals/Signs/Striping/Streetlights",
    "request_reason": "Street Name Sign Damaged or Missing",
    "date_created": "2022-01-27T16:04:33.000",
    "date_modified": "2022-01-27T16:04:33.000",
    "request_status": "Pending",
    "responsible_agency": "Department of Public Works",
    "final_address": "8036 Sandpiper Dr",
    "address_councildis": "E",
    "status": "Pending",
    "rowid": "857123",
    "final_x": "3715016.14789",
    "final_y": "570783.957287",
    "longitude": "-89.96075445187027",
    "latitude": "30.062396056784475",
    "geocoded_column": {
      "latitude": "30.062396056784475",
      "longitude": "-89.96075445187027"
    }
  },
  {
    "service_request": "2022-857122",
    "request_type": "Property Maintenance",
    "request_reason": "Property Maintenance",
    "date_created": "2022-01-27T15:58:46.000",
    "date_modified": "2022-01-27T15:58:46.000",
    "request_status": "Pending",
    "responsible_agency": "Department of Code Enforcement",
    "final_address": "1323 Pauline St",
    "address_councildis": "D",
    "status": "Pending",
    "rowid": "857122",
    "final_x": "3691476.92784",
    "final_y": "536365.857543",
    "longitude": "-90.03639370281782",
    "latitude": "29.968513400562685",
    "geocoded_column": {
      "latitude": "29.968513400562685",
      "longitude": "-90.03639370281782"
    }
  },
  {
    "service_request": "2022-857121",
    "request_type": "Trash/Recycling",
    "request_reason": "Illegal Dumping",
    "date_created": "2022-01-27T15:53:28.000",
    "date_modified": "2022-01-27T15:53:28.000",
    "request_status": "Pending",
    "responsible_agency": "Department of Sanitation",
    "final_address": "6600 BLK Ransom St",
    "address_councildis": "E",
    "status": "Pending",
    "rowid": "857121",
    "final_x": "3699119.6785",
    "final_y": "553033.232632",
    "longitude": "-90.01165051060582",
    "latitude": "30.014102466694546",
    "geocoded_column": {
      "latitude": "30.014102466694546",
      "longitude": "-90.01165051060582"
    }
  },
  {
    "service_request": "2022-857120",
    "request_type": "Roads/Drainage",
    "request_reason": "Leaking Hydrant",
    "date_created": "2022-01-27T15:48:59.000",
    "date_modified": "2022-01-27T15:48:59.000",
    "request_status": "Pending",
    "responsible_agency": "Department of Public Works",
    "final_address": "EARHART BLVD & SHORT ST",
    "address_councildis": "B",
    "status": "Pending",
    "rowid": "857120",
    "final_x": "3666913.4",
    "final_y": "533146.28",
    "longitude": "-90.11407507893983",
    "latitude": "29.96040224241298",
    "geocoded_column": {
      "latitude": "29.96040224241298",
      "longitude": "-90.11407507893983"
    }
  },
  {
    "service_request": "2022-857119",
    "request_type": "Trash/Recycling",
    "request_reason": "Repair Trash Cart",
    "date_created": "2022-01-27T15:44:49.000",
    "date_modified": "2022-01-27T15:44:49.000",
    "request_status": "Pending",
    "responsible_agency": "Department of Sanitation",
    "final_address": "948 Euterpe St",
    "address_councildis": "B",
    "status": "Assigned to Contractor",
    "contractor": "Richards Disposal",
    "rowid": "857119",
    "final_x": "3680702.08674",
    "final_y": "524064.41862",
    "longitude": "-90.0708492287838",
    "latitude": "29.93501953073521",
    "geocoded_column": {
      "latitude": "29.93501953073521",
      "longitude": "-90.0708492287838"
    }
  },
  {
    "service_request": "2022-857118",
    "request_type": "Property Maintenance",
    "request_reason": "Property Maintenance",
    "date_created": "2022-01-27T15:43:23.000",
    "date_modified": "2022-01-27T15:43:23.000",
    "request_status": "Pending",
    "responsible_agency": "Department of Code Enforcement",
    "final_address": "1314 Tennessee St",
    "address_councildis": "E",
    "status": "Pending",
    "rowid": "857118",
    "final_x": "3695836.31293",
    "final_y": "535219.995078",
    "longitude": "-90.02266800153346",
    "latitude": "29.96522629155609",
    "geocoded_column": {
      "latitude": "29.96522629155609",
      "longitude": "-90.02266800153346"
    }
  },
  {
    "service_request": "2022-857117",
    "request_type": "Trash/Recycling",
    "request_reason": "Repair Trash Cart",
    "date_created": "2022-01-27T15:42:45.000",
    "date_modified": "2022-01-27T15:42:46.000",
    "request_status": "Pending",
    "responsible_agency": "Department of Sanitation",
    "final_address": "6616 Canal Blvd",
    "address_councildis": "A",
    "status": "Assigned to Contractor",
    "contractor": "Metro Disposal",
    "rowid": "857117",
    "final_x": "3668704.24206",
    "final_y": "551584.825365",
    "longitude": "-90.10779720017183",
    "latitude": "30.01104944345436",
    "geocoded_column": {
      "latitude": "30.01104944345436",
      "longitude": "-90.10779720017183"
    }
  },
  {
    "service_request": "2022-857116",
    "request_type": "Abandoned Vehicles",
    "request_reason": "Abandoned/Junk Vehicles",
    "date_created": "2022-01-27T15:41:10.000",
    "date_modified": "2022-01-27T15:41:10.000",
    "request_status": "Pending",
    "responsible_agency": "Department of Public Works",
    "final_address": "1315 Tennessee St",
    "address_councildis": "E",
    "status": "Pending",
    "rowid": "857116",
    "final_x": "3696010.54896",
    "final_y": "535166.749574",
    "longitude": "-90.02211970023887",
    "latitude": "29.96507440414179",
    "geocoded_column": {
      "latitude": "29.96507440414179",
      "longitude": "-90.02211970023887"
    }
  },
  {
    "service_request": "2022-857115",
    "request_type": "Trash/Recycling",
    "request_reason": "Request a Large Item Pick Up",
    "date_created": "2022-01-27T15:39:36.000",
    "date_modified": "2022-01-27T15:39:36.000",
    "request_status": "Pending",
    "responsible_agency": "Department of Sanitation",
    "final_address": "1330 Cambronne St",
    "address_councildis": "A",
    "status": "Assigned to Contractor",
    "contractor": "Richards Disposal",
    "rowid": "857115",
    "final_x": "3661539.34042",
    "final_y": "529575.977857",
    "longitude": "-90.13116363265652",
    "latitude": "29.95074120662714",
    "geocoded_column": {
      "latitude": "29.95074120662714",
      "longitude": "-90.13116363265652"
    }
  },
  {
    "service_request": "2022-857114",
    "request_type": "Trash/Recycling",
    "request_reason": "Request a Large Item Pick Up",
    "date_created": "2022-01-27T15:35:38.000",
    "date_modified": "2022-01-27T15:35:39.000",
    "request_status": "Pending",
    "responsible_agency": "Department of Sanitation",
    "final_address": "1805 Second St",
    "address_councildis": "B",
    "status": "Assigned to Contractor",
    "contractor": "Richards Disposal",
    "rowid": "857114",
    "final_x": "3676285.44078",
    "final_y": "523724.287227",
    "longitude": "-90.08480425795253",
    "latitude": "29.934217347538617",
    "geocoded_column": {
      "latitude": "29.934217347538617",
      "longitude": "-90.08480425795253"
    }
  },
  {
    "service_request": "2022-857113",
    "request_type": "Trash/Recycling",
    "request_reason": "Order Trash Cart",
    "date_created": "2022-01-27T15:34:40.000",
    "date_modified": "2022-01-27T15:34:41.000",
    "request_status": "Pending",
    "responsible_agency": "Department of Sanitation",
    "final_address": "1221 Lamanche St, New Orleans, Louisiana, 70117",
    "address_councildis": "E",
    "status": "Assigned to Contractor",
    "contractor": "Metro Disposal",
    "rowid": "857113",
    "final_x": "3698603.01879",
    "final_y": "534257.784069",
    "longitude": "-90.01396592904581",
    "latitude": "29.96249324675746",
    "geocoded_column": {
      "latitude": "29.96249324675746",
      "longitude": "-90.01396592904581"
    }
  },
  {
    "service_request": "2022-857112",
    "request_type": "Traffic Signals/Signs/Striping/Streetlights",
    "request_reason": "Street Light Outage/Malfunction",
    "date_created": "2022-01-27T15:33:22.000",
    "date_modified": "2022-01-27T15:33:22.000",
    "request_status": "Pending",
    "responsible_agency": "Department of Public Works",
    "final_address": "7812 Lucerne St",
    "address_councildis": "E",
    "status": "Pending",
    "contractor": "Royal Engineering",
    "rowid": "857112",
    "final_x": "3710314.41592",
    "final_y": "566551.473955",
    "longitude": "-89.9757751133436",
    "latitude": "30.05091247367522",
    "geocoded_column": {
      "latitude": "30.05091247367522",
      "longitude": "-89.9757751133436"
    }
  },
  {
    "service_request": "2022-857111",
    "request_type": "Traffic Signals/Signs/Striping/Streetlights",
    "request_reason": "Street Light Outage/Malfunction",
    "date_created": "2022-01-27T15:33:03.000",
    "date_modified": "2022-01-27T15:33:03.000",
    "request_status": "Pending",
    "responsible_agency": "Department of Public Works",
    "final_address": "7812 Lucerne St",
    "address_councildis": "E",
    "status": "Pending",
    "contractor": "Royal Engineering",
    "rowid": "857111",
    "final_x": "3710314.41592",
    "final_y": "566551.473955",
    "longitude": "-89.9757751133436",
    "latitude": "30.05091247367522",
    "geocoded_column": {
      "latitude": "30.05091247367522",
      "longitude": "-89.9757751133436"
    }
  },
  {
    "service_request": "2022-857110",
    "request_type": "Traffic Signals/Signs/Striping/Streetlights",
    "request_reason": "Street Light Outage/Malfunction",
    "date_created": "2022-01-27T15:32:46.000",
    "date_modified": "2022-01-27T15:32:47.000",
    "request_status": "Pending",
    "responsible_agency": "Department of Public Works",
    "final_address": "7812 Lucerne St",
    "address_councildis": "E",
    "status": "Pending",
    "contractor": "Royal Engineering",
    "rowid": "857110",
    "final_x": "3710314.41592",
    "final_y": "566551.473955",
    "longitude": "-89.9757751133436",
    "latitude": "30.05091247367522",
    "geocoded_column": {
      "latitude": "30.05091247367522",
      "longitude": "-89.9757751133436"
    }
  },
  {
    "service_request": "2022-857107",
    "request_type": "Traffic Signals/Signs/Striping/Streetlights",
    "request_reason": "Street Name Sign Damaged or Missing",
    "date_created": "2022-01-27T15:25:11.000",
    "date_modified": "2022-01-27T15:25:11.000",
    "request_status": "Pending",
    "responsible_agency": "Department of Public Works",
    "final_address": "CHARLOTTE DR & ROBERT E LEE BLVD",
    "address_councildis": "D",
    "status": "Pending",
    "rowid": "857107",
    "final_x": "3679815.1",
    "final_y": "555399.88",
    "longitude": "-90.07256095408415",
    "latitude": "30.021208023839005",
    "geocoded_column": {
      "latitude": "30.021208023839005",
      "longitude": "-90.07256095408415"
    }
  },
  {
    "service_request": "2022-857106",
    "request_type": "Traffic Signals/Signs/Striping/Streetlights",
    "request_reason": "Traffic Sign Missing/Damaged",
    "date_created": "2022-01-27T15:22:37.000",
    "date_modified": "2022-01-27T15:22:37.000",
    "request_status": "Pending",
    "responsible_agency": "Department of Public Works",
    "final_address": "600 BLK Fulton St",
    "address_councildis": "B",
    "status": "Pending",
    "rowid": "857106",
    "final_x": "3682404.72341",
    "final_y": "528285.084294",
    "longitude": "-90.06532657112825",
    "latitude": "29.946573257868845",
    "geocoded_column": {
      "latitude": "29.946573257868845",
      "longitude": "-90.06532657112825"
    }
  },
  {
    "service_request": "2022-857105",
    "request_type": "Parks & Parkways",
    "request_reason": "Request Tree Service (Right of Way/Public Property)",
    "date_created": "2022-01-27T15:21:34.000",
    "date_modified": "2022-01-27T15:21:34.000",
    "request_status": "Pending",
    "responsible_agency": "Department of Parks & Parkway",
    "final_address": "2501 Terpsichore St",
    "address_councildis": "B",
    "status": "Pending",
    "rowid": "857105",
    "final_x": "3675968.95765",
    "final_y": "527243.366847",
    "longitude": "-90.08568241829099",
    "latitude": "29.9439031394928",
    "geocoded_column": {
      "latitude": "29.9439031394928",
      "longitude": "-90.08568241829099"
    }
  },
  {
    "service_request": "2022-857104",
    "request_type": "Trash/Recycling",
    "request_reason": "Order Recycling Cart",
    "date_created": "2022-01-27T15:20:20.000",
    "date_modified": "2022-01-27T15:20:20.000",
    "request_status": "Pending",
    "responsible_agency": "Department of Sanitation",
    "final_address": "1202 Marengo St",
    "address_councildis": "B",
    "status": "Pending",
    "rowid": "857104",
    "final_x": "3671958.78644",
    "final_y": "519964.080248",
    "longitude": "-90.0985913105435",
    "latitude": "29.924006908430712",
    "geocoded_column": {
      "latitude": "29.924006908430712",
      "longitude": "-90.0985913105435"
    }
  },
  {
    "service_request": "2022-857103",
    "request_type": "Trash/Recycling",
    "request_reason": "Request a Large Item Pick Up",
    "date_created": "2022-01-27T15:18:35.000",
    "date_modified": "2022-01-27T15:18:36.000",
    "request_status": "Pending",
    "responsible_agency": "Department of Sanitation",
    "final_address": "1524 St Mary St",
    "address_councildis": "B",
    "status": "Assigned to Contractor",
    "contractor": "Richards Disposal",
    "rowid": "857103",
    "final_x": "3678520.29608",
    "final_y": "524047.648188",
    "longitude": "-90.07773770634712",
    "latitude": "29.935039336339152",
    "geocoded_column": {
      "latitude": "29.935039336339152",
      "longitude": "-90.07773770634712"
    }
  },
  {
    "service_request": "2022-857102",
    "request_type": "Trash/Recycling",
    "request_reason": "Request a Large Item Pick Up",
    "date_created": "2022-01-27T15:17:04.000",
    "date_modified": "2022-01-27T15:17:05.000",
    "request_status": "Pending",
    "responsible_agency": "Department of Sanitation",
    "final_address": "1536 St Mary St",
    "address_councildis": "B",
    "status": "Assigned to Contractor",
    "contractor": "Richards Disposal",
    "rowid": "857102",
    "final_x": "3678476.76475",
    "final_y": "524095.140732",
    "longitude": "-90.07787349169797",
    "latitude": "29.93517123676265",
    "geocoded_column": {
      "latitude": "29.93517123676265",
      "longitude": "-90.07787349169797"
    }
  },
  {
    "service_request": "2022-857101",
    "request_type": "Traffic Signals/Signs/Striping/Streetlights",
    "request_reason": "Street Light Outage/Malfunction",
    "date_created": "2022-01-27T15:15:56.000",
    "date_modified": "2022-01-27T15:15:56.000",
    "request_status": "Pending",
    "responsible_agency": "Department of Public Works",
    "final_address": "4501 Charlene Dr",
    "address_councildis": "E",
    "status": "Pending",
    "contractor": "Royal Engineering",
    "rowid": "857101",
    "final_x": "3708120.18763",
    "final_y": "554029.463256",
    "longitude": "-89.9831766132496",
    "latitude": "30.01655318527736",
    "geocoded_column": {
      "latitude": "30.01655318527736",
      "longitude": "-89.9831766132496"
    }
  },
  {
    "service_request": "2022-857100",
    "request_type": "COVID-19",
    "request_reason": "COVID-19 Business Non-Compliance",
    "date_created": "2022-01-27T15:03:03.000",
    "date_modified": "2022-01-27T15:03:05.000",
    "request_status": "Pending",
    "responsible_agency": "Safety and Permits",
    "final_address": "1413 N Claiborne Ave",
    "address_councildis": "D",
    "status": "Pending",
    "rowid": "857100",
    "final_x": "3681257.33045",
    "final_y": "536751.222728",
    "longitude": "-90.06865426932183",
    "latitude": "29.969887123764625",
    "geocoded_column": {
      "latitude": "29.969887123764625",
      "longitude": "-90.06865426932183"
    }
  },
  {
    "service_request": "2022-857099",
    "request_type": "COVID-19",
    "request_reason": "COVID-19 Business Non-Compliance",
    "date_created": "2022-01-27T15:02:15.000",
    "date_modified": "2022-01-27T15:02:18.000",
    "request_status": "Pending",
    "responsible_agency": "Safety and Permits",
    "final_address": "6227 S Claiborne Ave",
    "address_councildis": "A",
    "status": "Pending",
    "rowid": "857099",
    "final_x": "3667195.11898",
    "final_y": "528028.389951",
    "longitude": "-90.11335753385147",
    "latitude": "29.946321470180383",
    "geocoded_column": {
      "latitude": "29.946321470180383",
      "longitude": "-90.11335753385147"
    }
  },
  {
    "service_request": "2022-857098",
    "request_type": "Trash/Recycling",
    "request_reason": "Request a Large Item Pick Up",
    "date_created": "2022-01-27T14:55:18.000",
    "date_modified": "2022-01-27T14:55:18.000",
    "request_status": "Pending",
    "responsible_agency": "Department of Sanitation",
    "final_address": "245 Lowerline St",
    "address_councildis": "A",
    "status": "Assigned to Contractor",
    "contractor": "Richards Disposal",
    "rowid": "857098",
    "final_x": "3661228.63437",
    "final_y": "523088.451899",
    "longitude": "-90.13235938856441",
    "latitude": "29.932911529139652",
    "geocoded_column": {
      "latitude": "29.932911529139652",
      "longitude": "-90.13235938856441"
    }
  },
  {
    "service_request": "2022-857097",
    "request_type": "Trash/Recycling",
    "request_reason": "Request a Large Item Pick Up",
    "date_created": "2022-01-27T14:54:16.000",
    "date_modified": "2022-01-27T14:54:16.000",
    "request_status": "Pending",
    "responsible_agency": "Department of Sanitation",
    "final_address": "59 Marywood Ct",
    "address_councildis": "E",
    "status": "Assigned to Contractor",
    "contractor": "Metro Disposal",
    "rowid": "857097",
    "final_x": "3712125.1621",
    "final_y": "566849.197732",
    "longitude": "-89.97004082055595",
    "latitude": "30.05167198077853",
    "geocoded_column": {
      "latitude": "30.05167198077853",
      "longitude": "-89.97004082055595"
    }
  },
  {
    "service_request": "2022-857096",
    "request_type": "Trash/Recycling",
    "request_reason": "Order Trash Cart",
    "date_created": "2022-01-27T14:53:46.000",
    "date_modified": "2022-01-27T15:05:51.000",
    "request_status": "Pending",
    "responsible_agency": "Department of Sanitation",
    "final_address": "New Orleans,LA",
    "address_councildis": "C",
    "status": "Assigned to Contractor",
    "contractor": "Richards Disposal",
    "rowid": "857096",
    "final_x": "3704562.21738",
    "final_y": "516755.736565",
    "longitude": "-89.99579290816926",
    "latitude": "29.914178768447766",
    "geocoded_column": {
      "latitude": "29.914178768447766",
      "longitude": "-89.99579290816926"
    }
  },
  {
    "service_request": "2022-857094",
    "request_type": "Traffic Signals/Signs/Striping/Streetlights",
    "request_reason": "Traffic Sign Missing/Damaged",
    "date_created": "2022-01-27T14:49:29.000",
    "date_modified": "2022-01-27T14:57:36.000",
    "request_status": "Pending",
    "responsible_agency": "Department of Public Works",
    "final_address": "Franklin & St. Claude Avenues",
    "address_councildis": "C",
    "rowid": "857094",
    "final_x": "3687068.7",
    "final_y": "536547.68",
    "longitude": "-90.05030865196827",
    "latitude": "29.96914980739771",
    "geocoded_column": {
      "latitude": "29.96914980739771",
      "longitude": "-90.05030865196827"
    }
  },
  {
    "service_request": "2022-857093",
    "request_type": "Abandoned Vehicles",
    "request_reason": "Abandoned/Junk Vehicles",
    "date_created": "2022-01-27T14:47:54.000",
    "date_modified": "2022-01-27T14:47:54.000",
    "request_status": "Pending",
    "responsible_agency": "Department of Public Works",
    "final_address": "HICKORY ST & ADAMS ST",
    "address_councildis": "A",
    "status": "Pending",
    "rowid": "857093",
    "final_x": "3664470.4",
    "final_y": "528938.38",
    "longitude": "-90.1219300864036",
    "latitude": "29.9489031365215",
    "geocoded_column": {
      "latitude": "29.9489031365215",
      "longitude": "-90.1219300864036"
    }
  },
  {
    "service_request": "2022-857091",
    "request_type": "Roads/Drainage",
    "request_reason": "Street Flooding / Drainage",
    "date_created": "2022-01-27T14:43:31.000",
    "date_modified": "2022-01-27T14:43:31.000",
    "request_status": "Pending",
    "responsible_agency": "Department of Public Works",
    "final_address": "2635 Touro St",
    "address_councildis": "D",
    "status": "Pending",
    "rowid": "857091",
    "final_x": "3683818.5661",
    "final_y": "542060.549452",
    "longitude": "-90.06037938014198",
    "latitude": "29.984407938809696",
    "geocoded_column": {
      "latitude": "29.984407938809696",
      "longitude": "-90.06037938014198"
    }
  },
  {
    "service_request": "2022-857090",
    "request_type": "Parks & Parkways",
    "request_reason": "Request Tree Service (Right of Way/Public Property)",
    "date_created": "2022-01-27T14:43:20.000",
    "date_modified": "2022-01-27T14:43:20.000",
    "request_status": "Pending",
    "responsible_agency": "Department of Parks & Parkway",
    "final_address": "2121 Joliet St",
    "address_councildis": "A",
    "status": "Pending",
    "rowid": "857090",
    "final_x": "3663190.14298",
    "final_y": "531789.860035",
    "longitude": "-90.12587755412503",
    "latitude": "29.95678094026702",
    "geocoded_column": {
      "latitude": "29.95678094026702",
      "longitude": "-90.12587755412503"
    }
  },
  {
    "service_request": "2022-857089",
    "request_type": "Property Maintenance",
    "request_reason": "Property Maintenance",
    "date_created": "2022-01-27T14:32:38.000",
    "date_modified": "2022-01-27T14:32:38.000",
    "request_status": "Pending",
    "responsible_agency": "Department of Code Enforcement",
    "final_address": "420 S Galvez St Apt A",
    "address_councildis": "B",
    "status": "Pending",
    "rowid": "857089",
    "final_x": "3676106.29531",
    "final_y": "532600.791876",
    "longitude": "-90.08506453636086",
    "latitude": "29.958630161761455",
    "geocoded_column": {
      "latitude": "29.958630161761455",
      "longitude": "-90.08506453636086"
    }
  },
  {
    "service_request": "2022-857088",
    "request_type": "COVID-19",
    "request_reason": "COVID-19 Business Non-Compliance",
    "date_created": "2022-01-27T14:29:30.000",
    "date_modified": "2022-01-27T14:29:32.000",
    "request_status": "Pending",
    "responsible_agency": "Safety and Permits",
    "final_address": "859 Convention Center Blvd",
    "address_councildis": "B",
    "status": "Pending",
    "rowid": "857088",
    "final_x": "3682585.40232",
    "final_y": "527078.519806",
    "longitude": "-90.06479827852625",
    "latitude": "29.943250111926297",
    "geocoded_column": {
      "latitude": "29.943250111926297",
      "longitude": "-90.06479827852625"
    }
  },
  {
    "service_request": "2022-857087",
    "request_type": "COVID-19",
    "request_reason": "COVID-19 Business Non-Compliance",
    "date_created": "2022-01-27T14:27:46.000",
    "date_modified": "2022-01-27T14:27:47.000",
    "request_status": "Pending",
    "responsible_agency": "Safety and Permits",
    "final_address": "411 N Rampart St",
    "address_councildis": "C",
    "status": "Pending",
    "rowid": "857087",
    "final_x": "3680720.17365",
    "final_y": "532605.47418",
    "longitude": "-90.07049495610136",
    "latitude": "29.958504023160284",
    "geocoded_column": {
      "latitude": "29.958504023160284",
      "longitude": "-90.07049495610136"
    }
  },
  {
    "service_request": "2022-857086",
    "request_type": "Trash/Recycling",
    "request_reason": "Request a Large Item Pick Up",
    "date_created": "2022-01-27T14:19:27.000",
    "date_modified": "2022-01-27T14:19:27.000",
    "request_status": "Pending",
    "responsible_agency": "Department of Sanitation",
    "final_address": "7421 Eastmore Rd",
    "address_councildis": "E",
    "status": "Assigned to Contractor",
    "contractor": "Metro Disposal",
    "rowid": "857086",
    "final_x": "3700495.69828",
    "final_y": "559966.086493",
    "longitude": "-90.0070494744749",
    "latitude": "30.033121442941287",
    "geocoded_column": {
      "latitude": "30.033121442941287",
      "longitude": "-90.0070494744749"
    }
  },
  {
    "service_request": "2022-857085",
    "request_type": "Traffic Signals/Signs/Striping/Streetlights",
    "request_reason": "Traffic Sign Missing/Damaged",
    "date_created": "2022-01-27T14:15:52.000",
    "date_modified": "2022-01-27T14:15:52.000",
    "request_status": "Pending",
    "responsible_agency": "Department of Public Works",
    "final_address": "3502 Marigny St",
    "address_councildis": "D",
    "status": "Pending",
    "rowid": "857085",
    "final_x": "3684588.76201",
    "final_y": "545592.658",
    "longitude": "-90.05782248928351",
    "latitude": "29.994096433577",
    "geocoded_column": {
      "latitude": "29.994096433577",
      "longitude": "-90.05782248928351"
    }
  },
  {
    "service_request": "2022-857084",
    "request_type": "Traffic Signals/Signs/Striping/Streetlights",
    "request_reason": "Street Light Outage/Malfunction",
    "date_created": "2022-01-27T14:15:05.000",
    "date_modified": "2022-01-27T14:15:06.000",
    "request_status": "Pending",
    "responsible_agency": "Department of Public Works",
    "final_address": "6103 Bellaire Dr",
    "address_councildis": "A",
    "status": "Pending",
    "contractor": "Royal Engineering",
    "rowid": "857084",
    "final_x": "3664373.1961",
    "final_y": "548261.631698",
    "longitude": "-90.1215917931192",
    "latitude": "30.002038469919228",
    "geocoded_column": {
      "latitude": "30.002038469919228",
      "longitude": "-90.1215917931192"
    }
  },
  {
    "service_request": "2022-857083",
    "request_type": "Trash/Recycling",
    "request_reason": "Request a Large Item Pick Up",
    "date_created": "2022-01-27T14:14:50.000",
    "date_modified": "2022-01-27T14:14:51.000",
    "request_status": "Pending",
    "responsible_agency": "Department of Sanitation",
    "final_address": "728 Arabella St",
    "address_councildis": "A",
    "status": "Assigned to Contractor",
    "contractor": "Richards Disposal",
    "rowid": "857083",
    "final_x": "3665769.00276",
    "final_y": "518852.215671",
    "longitude": "-90.11816755262494",
    "latitude": "29.921131583094503",
    "geocoded_column": {
      "latitude": "29.921131583094503",
      "longitude": "-90.11816755262494"
    }
  },
  {
    "service_request": "2022-857082",
    "request_type": "Trash/Recycling",
    "request_reason": "Order Recycling Cart",
    "date_created": "2022-01-27T14:13:28.000",
    "date_modified": "2022-01-27T14:13:28.000",
    "request_status": "Pending",
    "responsible_agency": "Department of Sanitation",
    "final_address": "4617 St Anthony Ave",
    "address_councildis": "D",
    "status": "Pending",
    "rowid": "857082",
    "final_x": "3682521.95042",
    "final_y": "549596.169171",
    "longitude": "-90.06421118285787",
    "latitude": "30.005167756618555",
    "geocoded_column": {
      "latitude": "30.005167756618555",
      "longitude": "-90.06421118285787"
    }
  },
  {
    "service_request": "2022-857081",
    "request_type": "Property Maintenance",
    "request_reason": "Property Maintenance",
    "date_created": "2022-01-27T14:10:37.000",
    "date_modified": "2022-01-27T14:10:37.000",
    "request_status": "Pending",
    "responsible_agency": "Department of Code Enforcement",
    "final_address": "1937 Desire St",
    "address_councildis": "D",
    "status": "Pending",
    "rowid": "857081",
    "final_x": "3691045.05296",
    "final_y": "539038.487818",
    "longitude": "-90.03766214158559",
    "latitude": "29.97587562247728",
    "geocoded_column": {
      "latitude": "29.97587562247728",
      "longitude": "-90.03766214158559"
    }
  },
  {
    "service_request": "2022-857080",
    "request_type": "Property Maintenance",
    "request_reason": "Property Maintenance",
    "date_created": "2022-01-27T14:07:57.000",
    "date_modified": "2022-01-27T14:07:57.000",
    "request_status": "Pending",
    "responsible_agency": "Department of Code Enforcement",
    "final_address": "1558 Harrison Ave",
    "address_councildis": "D",
    "status": "Pending",
    "rowid": "857080",
    "final_x": "3679250.36559",
    "final_y": "547641.907986",
    "longitude": "-90.0746146353374",
    "latitude": "29.999893464118653",
    "geocoded_column": {
      "latitude": "29.999893464118653",
      "longitude": "-90.0746146353374"
    }
  },
  {
    "service_request": "2022-857079",
    "request_type": "Trash/Recycling",
    "request_reason": "Request a Large Item Pick Up",
    "date_created": "2022-01-27T14:06:38.000",
    "date_modified": "2022-01-27T14:06:39.000",
    "request_status": "Pending",
    "responsible_agency": "Department of Sanitation",
    "final_address": "1015 Ursulines Ave",
    "address_councildis": "C",
    "status": "Assigned to Contractor",
    "contractor": "Empire Services",
    "rowid": "857079",
    "final_x": "3682494.4982",
    "final_y": "534395.816133",
    "longitude": "-90.06482952855482",
    "latitude": "29.963372962468714",
    "geocoded_column": {
      "latitude": "29.963372962468714",
      "longitude": "-90.06482952855482"
    }
  },
  {
    "service_request": "2022-857078",
    "request_type": "Property Maintenance",
    "request_reason": "Property Maintenance",
    "date_created": "2022-01-27T14:06:32.000",
    "date_modified": "2022-01-27T14:06:33.000",
    "request_status": "Pending",
    "responsible_agency": "Department of Code Enforcement",
    "final_address": "13636 N Lemans St",
    "address_councildis": "E",
    "status": "Pending",
    "rowid": "857078",
    "final_x": "3726101.80934",
    "final_y": "563232.793376",
    "longitude": "-89.92600607784968",
    "latitude": "30.04126373351673",
    "geocoded_column": {
      "latitude": "30.04126373351673",
      "longitude": "-89.92600607784968"
    }
  },
  {
    "service_request": "2022-857077",
    "request_type": "Property Maintenance",
    "request_reason": "Property Maintenance",
    "date_created": "2022-01-27T14:02:52.000",
    "date_modified": "2022-01-27T14:02:52.000",
    "request_status": "Pending",
    "responsible_agency": "Department of Code Enforcement",
    "final_address": "1566 Harrison Ave",
    "address_councildis": "D",
    "status": "Pending",
    "rowid": "857077",
    "final_x": "3679300.9581",
    "final_y": "547645.537426",
    "longitude": "-90.07445468534324",
    "latitude": "29.99990191553791",
    "geocoded_column": {
      "latitude": "29.99990191553791",
      "longitude": "-90.07445468534324"
    }
  },
  {
    "service_request": "2022-857076",
    "request_type": "Trash/Recycling",
    "request_reason": "Repair Trash Cart",
    "date_created": "2022-01-27T14:02:12.000",
    "date_modified": "2022-01-27T14:02:13.000",
    "request_status": "Pending",
    "responsible_agency": "Department of Sanitation",
    "final_address": "1016 Valence St",
    "address_councildis": "B",
    "status": "Assigned to Contractor",
    "contractor": "Richards Disposal",
    "rowid": "857076",
    "final_x": "3669839.85274",
    "final_y": "519182.462583",
    "longitude": "-90.1053064909679",
    "latitude": "29.921920322232648",
    "geocoded_column": {
      "latitude": "29.921920322232648",
      "longitude": "-90.1053064909679"
    }
  },
  {
    "service_request": "2022-857075",
    "request_type": "Trash/Recycling",
    "request_reason": "Request a Large Item Pick Up",
    "date_created": "2022-01-27T13:57:27.000",
    "date_modified": "2022-01-27T13:57:28.000",
    "request_status": "Pending",
    "responsible_agency": "Department of Sanitation",
    "final_address": "1651 Jo Ann Pl",
    "address_councildis": "C",
    "status": "Assigned to Contractor",
    "contractor": "Richards Disposal",
    "rowid": "857075",
    "final_x": "3694911.61046",
    "final_y": "524976.674173",
    "longitude": "-90.02595723040714",
    "latitude": "29.937089783827307",
    "geocoded_column": {
      "latitude": "29.937089783827307",
      "longitude": "-90.02595723040714"
    }
  },
  {
    "service_request": "2022-857074",
    "request_type": "Trash/Recycling",
    "request_reason": "Request a Large Item Pick Up",
    "date_created": "2022-01-27T13:57:13.000",
    "date_modified": "2022-01-27T13:57:14.000",
    "request_status": "Pending",
    "responsible_agency": "Department of Sanitation",
    "final_address": "4801 Francis Dr",
    "address_councildis": "D",
    "status": "Assigned to Contractor",
    "contractor": "Metro Disposal",
    "rowid": "857074",
    "final_x": "3698285.9537",
    "final_y": "554613.36956",
    "longitude": "-90.01422717121498",
    "latitude": "30.018473661517216",
    "geocoded_column": {
      "latitude": "30.018473661517216",
      "longitude": "-90.01422717121498"
    }
  },
  {
    "service_request": "2022-857073",
    "request_type": "Traffic Signals/Signs/Striping/Streetlights",
    "request_reason": "Street Light Outage/Malfunction",
    "date_created": "2022-01-27T13:44:58.000",
    "date_modified": "2022-01-27T13:44:59.000",
    "request_status": "Pending",
    "responsible_agency": "Department of Public Works",
    "final_address": "101 Winthrop Pl",
    "address_councildis": "D",
    "status": "Pending",
    "contractor": "Royal Engineering",
    "rowid": "857073",
    "final_x": "3677750.12328",
    "final_y": "543775.868686",
    "longitude": "-90.07948761268956",
    "latitude": "29.989308445095325",
    "geocoded_column": {
      "latitude": "29.989308445095325",
      "longitude": "-90.07948761268956"
    }
  },
  {
    "service_request": "2022-857072",
    "request_type": "Trash/Recycling",
    "request_reason": "Missed Trash Pick-Up",
    "date_created": "2022-01-27T13:42:35.000",
    "date_modified": "2022-01-27T13:42:37.000",
    "request_status": "Pending",
    "responsible_agency": "Department of Sanitation",
    "final_address": "2415 Prytania St",
    "address_councildis": "B",
    "status": "Assigned to Contractor",
    "contractor": "Richards Disposal",
    "rowid": "857072",
    "final_x": "3677114.4381",
    "final_y": "522760.06713",
    "longitude": "-90.08222037605393",
    "latitude": "29.931541193985968",
    "geocoded_column": {
      "latitude": "29.931541193985968",
      "longitude": "-90.08222037605393"
    }
  },
  {
    "service_request": "2022-857071",
    "request_type": "Abandoned Vehicles",
    "request_reason": "Vehicle Blocking Your Driveway",
    "date_created": "2022-01-27T13:40:25.000",
    "date_modified": "2022-01-27T13:40:25.000",
    "request_status": "Pending",
    "responsible_agency": "Department of Public Works",
    "final_address": "201 S Cortez St, New Orleans, Louisiana, 70119",
    "address_councildis": "A",
    "status": "Pending",
    "rowid": "857071",
    "final_x": "3671766.13755",
    "final_y": "537254.50676",
    "longitude": "-90.09861130132687",
    "latitude": "29.971555613681915",
    "geocoded_column": {
      "latitude": "29.971555613681915",
      "longitude": "-90.09861130132687"
    }
  },
  {
    "service_request": "2022-857069",
    "request_type": "COVID-19",
    "request_reason": "COVID-19 Business Non-Compliance",
    "date_created": "2022-01-27T13:35:58.000",
    "date_modified": "2022-01-27T13:36:00.000",
    "request_status": "Pending",
    "responsible_agency": "Safety and Permits",
    "final_address": "1919 St Claude Ave",
    "address_councildis": "C",
    "status": "Pending",
    "rowid": "857069",
    "final_x": "3684049.72642",
    "final_y": "536256.034503",
    "longitude": "-90.0598530101838",
    "latitude": "29.968440487763626",
    "geocoded_column": {
      "latitude": "29.968440487763626",
      "longitude": "-90.0598530101838"
    }
  },
  {
    "service_request": "2022-857068",
    "request_type": "Trash/Recycling",
    "request_reason": "Repair Trash Cart",
    "date_created": "2022-01-27T13:31:31.000",
    "date_modified": "2022-01-27T13:31:33.000",
    "request_status": "Pending",
    "responsible_agency": "Department of Sanitation",
    "final_address": "3016 Wall Blvd",
    "address_councildis": "C",
    "status": "Assigned to Contractor",
    "contractor": "Richards Disposal",
    "rowid": "857068",
    "final_x": "3695242.47472",
    "final_y": "523963.241404",
    "longitude": "-90.02494921124725",
    "latitude": "29.934292807316627",
    "geocoded_column": {
      "latitude": "29.934292807316627",
      "longitude": "-90.02494921124725"
    }
  },
  {
    "service_request": "2022-857067",
    "request_type": "Trash/Recycling",
    "request_reason": "Request a Large Item Pick Up",
    "date_created": "2022-01-27T13:28:47.000",
    "date_modified": "2022-01-27T13:28:48.000",
    "request_status": "Pending",
    "responsible_agency": "Department of Sanitation",
    "final_address": "2612 Lepage St",
    "address_councildis": "A",
    "status": "Assigned to Contractor",
    "contractor": "Metro Disposal",
    "rowid": "857067",
    "final_x": "3678365.98466",
    "final_y": "539503.867914",
    "longitude": "-90.07769015565779",
    "latitude": "29.97754338291392",
    "geocoded_column": {
      "latitude": "29.97754338291392",
      "longitude": "-90.07769015565779"
    }
  },
  {
    "service_request": "2022-857066",
    "request_type": "Trash/Recycling",
    "request_reason": "Repair Trash Cart",
    "date_created": "2022-01-27T13:28:15.000",
    "date_modified": "2022-01-27T13:28:16.000",
    "request_status": "Pending",
    "responsible_agency": "Department of Sanitation",
    "final_address": "5809 St Charles Ave",
    "address_councildis": "A",
    "status": "Assigned to Contractor",
    "contractor": "Richards Disposal",
    "rowid": "857066",
    "final_x": "3665999.62432",
    "final_y": "522477.979002",
    "longitude": "-90.11731812209999",
    "latitude": "29.931094561390136",
    "geocoded_column": {
      "latitude": "29.931094561390136",
      "longitude": "-90.11731812209999"
    }
  },
  {
    "service_request": "2022-857065",
    "request_type": "Parks & Parkways",
    "request_reason": "Request Tree Service (Right of Way/Public Property)",
    "date_created": "2022-01-27T13:24:41.000",
    "date_modified": "2022-01-27T13:26:29.000",
    "request_status": "Pending",
    "responsible_agency": "Department of Parks & Parkway",
    "final_address": "5207 Magazine St",
    "address_councildis": "B",
    "status": "Pending",
    "rowid": "857065",
    "final_x": "3667980.50746",
    "final_y": "518668.089527",
    "longitude": "-90.11119299661271",
    "latitude": "29.920560620657483",
    "geocoded_column": {
      "latitude": "29.920560620657483",
      "longitude": "-90.11119299661271"
    }
  },
  {
    "service_request": "2022-857064",
    "request_type": "Abandoned Vehicles",
    "request_reason": "Abandoned/Junk Vehicles",
    "date_created": "2022-01-27T13:23:33.000",
    "date_modified": "2022-01-27T13:24:31.000",
    "request_status": "Pending",
    "responsible_agency": "Department of Public Works",
    "final_address": "2106 Behrman Ave",
    "address_councildis": "C",
    "status": "Pending",
    "rowid": "857064",
    "final_x": "3691585.34332",
    "final_y": "521896.764666",
    "longitude": "-90.03656844926756",
    "latitude": "29.928725013327814",
    "geocoded_column": {
      "latitude": "29.928725013327814",
      "longitude": "-90.03656844926756"
    }
  },
  {
    "service_request": "2022-857063",
    "request_type": "Roads/Drainage",
    "request_reason": "Street Subsidence (Sinking)",
    "date_created": "2022-01-27T13:23:06.000",
    "date_modified": "2022-01-27T13:23:06.000",
    "request_status": "Pending",
    "responsible_agency": "Department of Public Works",
    "final_address": "8640 Palm St",
    "address_councildis": "A",
    "status": "Pending",
    "rowid": "857063",
    "final_x": "3666153.73575",
    "final_y": "536064.776007",
    "longitude": "-90.11637607214071",
    "latitude": "29.968449348214993",
    "geocoded_column": {
      "latitude": "29.968449348214993",
      "longitude": "-90.11637607214071"
    }
  },
  {
    "service_request": "2022-857062",
    "request_type": "Roads/Drainage",
    "request_reason": "Street Subsidence (Sinking)",
    "date_created": "2022-01-27T13:20:22.000",
    "date_modified": "2022-01-27T13:20:22.000",
    "request_status": "Pending",
    "responsible_agency": "Department of Public Works",
    "final_address": "8640 Palm St",
    "address_councildis": "A",
    "status": "Pending",
    "rowid": "857062",
    "final_x": "3666153.73575",
    "final_y": "536064.776007",
    "longitude": "-90.11637607214071",
    "latitude": "29.968449348214993",
    "geocoded_column": {
      "latitude": "29.968449348214993",
      "longitude": "-90.11637607214071"
    }
  },
  {
    "service_request": "2022-857061",
    "request_type": "Trash/Recycling",
    "request_reason": "Request a Large Item Pick Up",
    "date_created": "2022-01-27T13:18:49.000",
    "date_modified": "2022-01-27T13:18:50.000",
    "request_status": "Pending",
    "responsible_agency": "Department of Sanitation",
    "final_address": "309 Wallace Dr",
    "address_councildis": "D",
    "status": "Assigned to Contractor",
    "contractor": "Metro Disposal",
    "rowid": "857061",
    "final_x": "3682323.06325",
    "final_y": "547890.474514",
    "longitude": "-90.06489916090287",
    "latitude": "30.00048376397373",
    "geocoded_column": {
      "latitude": "30.00048376397373",
      "longitude": "-90.06489916090287"
    }
  },
  {
    "service_request": "2022-857060",
    "request_type": "Trash/Recycling",
    "request_reason": "Illegal Dumping",
    "date_created": "2022-01-27T13:18:38.000",
    "date_modified": "2022-01-27T13:18:38.000",
    "request_status": "Pending",
    "responsible_agency": "Department of Sanitation",
    "final_address": "6603 Bellaire Dr",
    "address_councildis": "A",
    "status": "Pending",
    "rowid": "857060",
    "final_x": "3664593.10272",
    "final_y": "552008.28815",
    "longitude": "-90.12077182684548",
    "latitude": "30.012334081983514",
    "geocoded_column": {
      "latitude": "30.012334081983514",
      "longitude": "-90.12077182684548"
    }
  },
  {
    "service_request": "2022-857059",
    "request_type": "Trash/Recycling",
    "request_reason": "Request a Large Item Pick Up",
    "date_created": "2022-01-27T13:17:42.000",
    "date_modified": "2022-01-27T13:17:42.000",
    "request_status": "Pending",
    "responsible_agency": "Department of Sanitation",
    "final_address": "623 N Salcedo St",
    "address_councildis": "A",
    "status": "Assigned to Contractor",
    "contractor": "Richards Disposal",
    "rowid": "857059",
    "final_x": "3675270.20334",
    "final_y": "537711.187592",
    "longitude": "-90.08752924845766",
    "latitude": "29.972707041678074",
    "geocoded_column": {
      "latitude": "29.972707041678074",
      "longitude": "-90.08752924845766"
    }
  },
  {
    "service_request": "2022-857058",
    "request_type": "Trash/Recycling",
    "request_reason": "Order Recycling Cart",
    "date_created": "2022-01-27T13:15:09.000",
    "date_modified": "2022-01-27T13:15:09.000",
    "request_status": "Pending",
    "responsible_agency": "Department of Sanitation",
    "final_address": "2121 Bienville Ave",
    "address_councildis": "B",
    "status": "Pending",
    "rowid": "857058",
    "final_x": "3677621.84392",
    "final_y": "534438.497541",
    "longitude": "-90.08021536409973",
    "latitude": "29.963637746508063",
    "geocoded_column": {
      "latitude": "29.963637746508063",
      "longitude": "-90.08021536409973"
    }
  },
  {
    "service_request": "2022-857057",
    "request_type": "Parks & Parkways",
    "request_reason": "Request Tree Service (Right of Way/Public Property)",
    "date_created": "2022-01-27T13:14:35.000",
    "date_modified": "2022-01-27T13:14:35.000",
    "request_status": "Pending",
    "responsible_agency": "Department of Parks & Parkway",
    "final_address": "3121 Louisiana Avenue Prkwy",
    "address_councildis": "B",
    "status": "Pending",
    "rowid": "857057",
    "final_x": "3672113.4843",
    "final_y": "526762.861374",
    "longitude": "-90.0978715841379",
    "latitude": "29.942696775531143",
    "geocoded_column": {
      "latitude": "29.942696775531143",
      "longitude": "-90.0978715841379"
    }
  },
  {
    "service_request": "2022-857056",
    "request_type": "Trash/Recycling",
    "request_reason": "MIssed Recycling Pick-Up",
    "date_created": "2022-01-27T13:09:35.000",
    "date_modified": "2022-01-27T13:09:36.000",
    "request_status": "Pending",
    "responsible_agency": "Department of Sanitation",
    "final_address": "3005 Constance St",
    "address_councildis": "B",
    "status": "Assigned to Contractor",
    "contractor": "Richards Disposal",
    "rowid": "857056",
    "final_x": "3676478.81313",
    "final_y": "520060.79884",
    "longitude": "-90.08431985624402",
    "latitude": "29.92413815050092",
    "geocoded_column": {
      "latitude": "29.92413815050092",
      "longitude": "-90.08431985624402"
    }
  },
  {
    "service_request": "2022-857055",
    "request_type": "Trash/Recycling",
    "request_reason": "Replace Trash Cart",
    "date_created": "2022-01-27T13:05:43.000",
    "date_modified": "2022-01-27T13:05:43.000",
    "request_status": "Pending",
    "responsible_agency": "Department of Sanitation",
    "final_address": "5314 Wilton Dr",
    "address_councildis": "D",
    "status": "Assigned to Contractor",
    "contractor": "Metro Disposal",
    "rowid": "857055",
    "final_x": "3681840.04296",
    "final_y": "552520.25775",
    "longitude": "-90.06626331987006",
    "latitude": "30.013228693838304",
    "geocoded_column": {
      "latitude": "30.013228693838304",
      "longitude": "-90.06626331987006"
    }
  },
  {
    "service_request": "2022-857054",
    "request_type": "Trash/Recycling",
    "request_reason": "Replace Trash Cart",
    "date_created": "2022-01-27T13:04:54.000",
    "date_modified": "2022-01-27T13:04:55.000",
    "request_status": "Pending",
    "responsible_agency": "Department of Sanitation",
    "final_address": "5314 Wilton Dr",
    "address_councildis": "D",
    "status": "Assigned to Contractor",
    "contractor": "Metro Disposal",
    "rowid": "857054",
    "final_x": "3681840.04296",
    "final_y": "552520.25775",
    "longitude": "-90.06626331987006",
    "latitude": "30.013228693838304",
    "geocoded_column": {
      "latitude": "30.013228693838304",
      "longitude": "-90.06626331987006"
    }
  },
  {
    "service_request": "2022-857053",
    "request_type": "Trash/Recycling",
    "request_reason": "Illegal Dumping",
    "date_created": "2022-01-27T13:04:49.000",
    "date_modified": "2022-01-27T13:04:49.000",
    "request_status": "Pending",
    "responsible_agency": "Department of Code Enforcement",
    "final_address": "6601 Bellaire Dr",
    "address_councildis": "A",
    "status": "Pending",
    "rowid": "857053",
    "final_x": "3664591.7138",
    "final_y": "551988.84367",
    "longitude": "-90.12077686518003",
    "latitude": "30.012280656851015",
    "geocoded_column": {
      "latitude": "30.012280656851015",
      "longitude": "-90.12077686518003"
    }
  },
  {
    "service_request": "2022-857052",
    "request_type": "Traffic Signals/Signs/Striping/Streetlights",
    "request_reason": "Street Light Outage/Malfunction",
    "date_created": "2022-01-27T13:01:24.000",
    "date_modified": "2022-01-27T13:01:25.000",
    "request_status": "Pending",
    "responsible_agency": "Department of Public Works",
    "final_address": "CITY PARK AVE & ANSEMAN AVE & N ALEXANDER ST",
    "address_councildis": "A",
    "status": "Pending",
    "contractor": "Royal Engineering",
    "rowid": "857052",
    "final_x": "3671816.1",
    "final_y": "541670.78",
    "longitude": "-90.09830318337166",
    "latitude": "29.983697384142122",
    "geocoded_column": {
      "latitude": "29.983697384142122",
      "longitude": "-90.09830318337166"
    }
  },
  {
    "service_request": "2022-857051",
    "request_type": "Roads/Drainage",
    "request_reason": "Street Flooding / Drainage",
    "date_created": "2022-01-27T12:59:04.000",
    "date_modified": "2022-01-27T12:59:04.000",
    "request_status": "Pending",
    "responsible_agency": "Department of Public Works",
    "final_address": "Corner of City Park & Murat St.",
    "status": "Pending",
    "rowid": "857051",
    "longitude": "0.0",
    "latitude": "0.0",
    "geocoded_column": {
      "latitude": "0.0",
      "longitude": "0.0"
    }
  },
  {
    "service_request": "2022-857050",
    "request_type": "Abandoned Vehicles",
    "request_reason": "Abandoned/Junk Vehicles",
    "date_created": "2022-01-27T12:58:34.000",
    "date_modified": "2022-01-27T12:58:34.000",
    "request_status": "Pending",
    "responsible_agency": "Department of Public Works",
    "final_address": "1917 Old Prieur St",
    "address_councildis": "D",
    "status": "Pending",
    "rowid": "857050",
    "final_x": "3682284.00776",
    "final_y": "539741.177738",
    "longitude": "-90.06530743299999",
    "latitude": "29.978077264768288",
    "geocoded_column": {
      "latitude": "29.978077264768288",
      "longitude": "-90.06530743299999"
    }
  },
  {
    "service_request": "2022-857049",
    "request_type": "Abandoned Vehicles",
    "request_reason": "Abandoned/Junk Vehicles",
    "date_created": "2022-01-27T12:55:51.000",
    "date_modified": "2022-01-27T12:55:51.000",
    "request_status": "Pending",
    "responsible_agency": "Department of Public Works",
    "final_address": "2024 N Broad St",
    "address_councildis": "D",
    "status": "Pending",
    "rowid": "857049",
    "final_x": "3680641.28015",
    "final_y": "542049.520012",
    "longitude": "-90.07041539212298",
    "latitude": "29.98447428511806",
    "geocoded_column": {
      "latitude": "29.98447428511806",
      "longitude": "-90.07041539212298"
    }
  },
  {
    "service_request": "2022-857048",
    "request_type": "Roads/Drainage",
    "request_reason": "Culvert Issue",
    "date_created": "2022-01-27T12:54:53.000",
    "date_modified": "2022-01-27T13:56:14.000",
    "request_status": "Pending",
    "responsible_agency": "Department of Public Works",
    "final_address": "New Orleans,LA",
    "address_councildis": "A",
    "rowid": "857048",
    "final_x": "3671403.8",
    "final_y": "541670.68",
    "longitude": "-90.09960545276316",
    "latitude": "29.983709321989956",
    "geocoded_column": {
      "latitude": "29.983709321989956",
      "longitude": "-90.09960545276316"
    }
  },
  {
    "service_request": "2022-857047",
    "request_type": "Abandoned Vehicles",
    "request_reason": "Abandoned/Junk Vehicles",
    "date_created": "2022-01-27T12:53:03.000",
    "date_modified": "2022-01-27T12:55:30.000",
    "request_status": "Pending",
    "responsible_agency": "Department of Public Works",
    "final_address": "72 Fontainebleau Dr",
    "address_councildis": "A",
    "status": "Pending",
    "rowid": "857047",
    "final_x": "3666748.16039",
    "final_y": "530765.036738",
    "longitude": "-90.1146768470918",
    "latitude": "29.95385943714382",
    "geocoded_column": {
      "latitude": "29.95385943714382",
      "longitude": "-90.1146768470918"
    }
  },
  {
    "service_request": "2022-857046",
    "request_type": "Abandoned Vehicles",
    "request_reason": "Abandoned/Junk Vehicles",
    "date_created": "2022-01-27T12:51:26.000",
    "date_modified": "2022-01-27T12:51:26.000",
    "request_status": "Pending",
    "responsible_agency": "Department of Public Works",
    "final_address": "3133 General Meyer Ave",
    "address_councildis": "C",
    "status": "Pending",
    "rowid": "857046",
    "final_x": "3695713.54173",
    "final_y": "526273.20275",
    "longitude": "-90.02337870546731",
    "latitude": "29.94062960685906",
    "geocoded_column": {
      "latitude": "29.94062960685906",
      "longitude": "-90.02337870546731"
    }
  },
  {
    "service_request": "2022-857045",
    "request_type": "Abandoned Vehicles",
    "request_reason": "Abandoned/Junk Vehicles",
    "date_created": "2022-01-27T12:51:23.000",
    "date_modified": "2022-01-27T12:51:23.000",
    "request_status": "Pending",
    "responsible_agency": "Department of Public Works",
    "final_address": "1701 Franklin Ave",
    "address_councildis": "D",
    "status": "Pending",
    "rowid": "857045",
    "final_x": "3687749.08374",
    "final_y": "538755.962761",
    "longitude": "-90.04808173271113",
    "latitude": "29.97520084463036",
    "geocoded_column": {
      "latitude": "29.97520084463036",
      "longitude": "-90.04808173271113"
    }
  },
  {
    "service_request": "2022-857044",
    "request_type": "Roads/Drainage",
    "request_reason": "Catch Basin - Clogged",
    "date_created": "2022-01-27T12:51:19.000",
    "date_modified": "2022-01-27T12:51:19.000",
    "request_status": "Pending",
    "responsible_agency": "Department of Public Works",
    "final_address": "4130 Canal St",
    "address_councildis": "A",
    "status": "Pending",
    "rowid": "857044",
    "final_x": "3670780.98535",
    "final_y": "538399.754121",
    "longitude": "-90.1016836885314",
    "latitude": "29.974733810586464",
    "geocoded_column": {
      "latitude": "29.974733810586464",
      "longitude": "-90.1016836885314"
    }
  },
  {
    "service_request": "2022-857043",
    "request_type": "Abandoned Vehicles",
    "request_reason": "Abandoned/Junk Vehicles",
    "date_created": "2022-01-27T12:47:56.000",
    "date_modified": "2022-01-27T14:43:23.000",
    "request_status": "Pending",
    "responsible_agency": "Department of Public Works",
    "final_address": "1916 Franklin Ave",
    "address_councildis": "D",
    "status": "Inspected",
    "rowid": "857043",
    "final_x": "3687608.7727",
    "final_y": "539628.92161",
    "longitude": "-90.0484939560089",
    "latitude": "29.97760550052702",
    "geocoded_column": {
      "latitude": "29.97760550052702",
      "longitude": "-90.0484939560089"
    }
  },
  {
    "service_request": "2022-857041",
    "request_type": "Trash/Recycling",
    "request_reason": "Request a Large Item Pick Up",
    "date_created": "2022-01-27T12:46:36.000",
    "date_modified": "2022-01-27T12:46:37.000",
    "request_status": "Pending",
    "responsible_agency": "Department of Sanitation",
    "final_address": "1112 Dauphine St",
    "address_councildis": "C",
    "status": "Assigned to Contractor",
    "contractor": "Empire Services",
    "rowid": "857041",
    "final_x": "3682985.04309",
    "final_y": "534138.807877",
    "longitude": "-90.06328943971019",
    "latitude": "29.962651336611938",
    "geocoded_column": {
      "latitude": "29.962651336611938",
      "longitude": "-90.06328943971019"
    }
  },
  {
    "service_request": "2022-857040",
    "request_type": "Trash/Recycling",
    "request_reason": "Request a Large Item Pick Up",
    "date_created": "2022-01-27T12:43:57.000",
    "date_modified": "2022-01-27T12:43:58.000",
    "request_status": "Pending",
    "responsible_agency": "Department of Sanitation",
    "final_address": "4732 St Claude Ave",
    "address_councildis": "E",
    "status": "Assigned to Contractor",
    "contractor": "Metro Disposal",
    "rowid": "857040",
    "final_x": "3694923.81027",
    "final_y": "534435.078213",
    "longitude": "-90.02557791317464",
    "latitude": "29.963096716249932",
    "geocoded_column": {
      "latitude": "29.963096716249932",
      "longitude": "-90.02557791317464"
    }
  },
  {
    "service_request": "2022-857039",
    "request_type": "Abandoned Vehicles",
    "request_reason": "Abandoned/Junk Vehicles",
    "date_created": "2022-01-27T12:43:12.000",
    "date_modified": "2022-01-27T12:43:12.000",
    "request_status": "Pending",
    "responsible_agency": "Department of Public Works",
    "final_address": "1911 OReilly St",
    "address_councildis": "D",
    "status": "Pending",
    "rowid": "857039",
    "final_x": "3682154.70152",
    "final_y": "539700.333066",
    "longitude": "-90.06571725470575",
    "latitude": "29.977968890127208",
    "geocoded_column": {
      "latitude": "29.977968890127208",
      "longitude": "-90.06571725470575"
    }
  },
  {
    "service_request": "2022-857038",
    "request_type": "Abandoned Vehicles",
    "request_reason": "Abandoned/Junk Vehicles",
    "date_created": "2022-01-27T12:39:13.000",
    "date_modified": "2022-01-27T12:39:13.000",
    "request_status": "Pending",
    "responsible_agency": "Department of Public Works",
    "status": "Pending",
    "rowid": "857038",
    "longitude": "0.0",
    "latitude": "0.0",
    "geocoded_column": {
      "latitude": "0.0",
      "longitude": "0.0"
    }
  },
  {
    "service_request": "2022-857037",
    "request_type": "Trash/Recycling",
    "request_reason": "Missed Trash Pick-Up",
    "date_created": "2022-01-27T12:37:32.000",
    "date_modified": "2022-01-27T12:37:33.000",
    "request_status": "Pending",
    "responsible_agency": "Department of Sanitation",
    "final_address": "2805 Palmer Ave, New Orleans, Louisiana, 70118",
    "address_councildis": "A",
    "status": "Assigned to Contractor",
    "contractor": "Richards Disposal",
    "rowid": "857037",
    "final_x": "3666932.04858",
    "final_y": "526849.022782",
    "longitude": "-90.11422775983793",
    "latitude": "29.9430862903904",
    "geocoded_column": {
      "latitude": "29.9430862903904",
      "longitude": "-90.11422775983793"
    }
  },
  {
    "service_request": "2022-857036",
    "request_type": "Abandoned Vehicles",
    "request_reason": "Abandoned/Junk Vehicles",
    "date_created": "2022-01-27T12:35:43.000",
    "date_modified": "2022-01-27T12:35:43.000",
    "request_status": "Pending",
    "responsible_agency": "Department of Public Works",
    "final_address": "2519 N Galvez St",
    "address_councildis": "D",
    "status": "Pending",
    "rowid": "857036",
    "final_x": "3687119.85372",
    "final_y": "540217.366667",
    "longitude": "-90.05001730958524",
    "latitude": "29.979238582128815",
    "geocoded_column": {
      "latitude": "29.979238582128815",
      "longitude": "-90.05001730958524"
    }
  },
  {
    "service_request": "2022-857035",
    "request_type": "Trash/Recycling",
    "request_reason": "Missed Trash Pick-Up",
    "date_created": "2022-01-27T12:35:13.000",
    "date_modified": "2022-01-27T12:35:13.000",
    "request_status": "Pending",
    "responsible_agency": "Department of Sanitation",
    "final_address": "1616 Philip St",
    "address_councildis": "B",
    "status": "Assigned to Contractor",
    "contractor": "Richards Disposal",
    "rowid": "857035",
    "final_x": "3677014.04546",
    "final_y": "523484.195451",
    "longitude": "-90.08251234971773",
    "latitude": "29.93353532394311",
    "geocoded_column": {
      "latitude": "29.93353532394311",
      "longitude": "-90.08251234971773"
    }
  },
  {
    "service_request": "2022-857033",
    "request_type": "Property Maintenance",
    "request_reason": "Property Maintenance",
    "date_created": "2022-01-27T12:30:17.000",
    "date_modified": "2022-01-27T12:30:17.000",
    "request_status": "Pending",
    "responsible_agency": "Department of Code Enforcement",
    "final_address": "3522 S Tonti St",
    "address_councildis": "B",
    "status": "Pending",
    "rowid": "857033",
    "final_x": "3671051.10158",
    "final_y": "528181.675264",
    "longitude": "-90.1011776144792",
    "latitude": "29.94662950474904",
    "geocoded_column": {
      "latitude": "29.94662950474904",
      "longitude": "-90.1011776144792"
    }
  },
  {
    "service_request": "2022-857032",
    "request_type": "Trash/Recycling",
    "request_reason": "Repair Trash Cart",
    "date_created": "2022-01-27T12:30:00.000",
    "date_modified": "2022-01-27T12:30:01.000",
    "request_status": "Pending",
    "responsible_agency": "Department of Sanitation",
    "final_address": "1812 Kabel Dr",
    "address_councildis": "C",
    "status": "Assigned to Contractor",
    "contractor": "Richards Disposal",
    "rowid": "857032",
    "final_x": "3700782.42877",
    "final_y": "521142.639289",
    "longitude": "-90.00756289214928",
    "latitude": "29.926362026363236",
    "geocoded_column": {
      "latitude": "29.926362026363236",
      "longitude": "-90.00756289214928"
    }
  },
  {
    "service_request": "2022-857031",
    "request_type": "Property Maintenance",
    "request_reason": "Property Maintenance",
    "date_created": "2022-01-27T12:29:58.000",
    "date_modified": "2022-01-27T12:29:58.000",
    "request_status": "Pending",
    "responsible_agency": "Department of Code Enforcement",
    "final_address": "2631 Touro St",
    "address_councildis": "D",
    "status": "Pending",
    "rowid": "857031",
    "final_x": "3683819.81161",
    "final_y": "542038.2651",
    "longitude": "-90.06037622808368",
    "latitude": "29.984346626649373",
    "geocoded_column": {
      "latitude": "29.984346626649373",
      "longitude": "-90.06037622808368"
    }
  },