[
  {
    "service_request": "2024-1108691",
    "request_type": "Property Maintenance",
    "request_reason": "Property Maintenance",
    "date_created": "2024-07-01T21:25:07.000",
    "date_modified": "2024-07-01T21:25:07.000",
    "request_status": "Pending",
    "responsible_agency": "Department of Code Enforcement",
    "final_address": "5719 Marigny St",
    "address_councildis": "D",
    "status": "Pending",
    "rowid": "1108691",
    "final_x": "3684071.07644",
    "final_y": "554054.264728",
    "longitude": "-90.05916055753409",
    "latitude": "30.01737862775093",
    "geocoded_column": {
      "latitude": "30.01737862775093",
      "longitude": "-90.05916055753409"
    }
  },
  {
    "service_request": "2024-1108690",
    "request_type": "Traffic Signals/Signs/Striping/Streetlights",
    "request_reason": "Street Light Outage/Malfunction",
    "date_created": "2024-07-01T21:23:53.000",
    "date_modified": "2024-07-01T21:23:53.000",
    "request_status": "Pending",
    "responsible_agency": "Department of Public Works",
    "final_address": "3660 White Oak Ave",
    "address_councildis": "C",
    "status": "Assigned to Contractor",
    "contractor": "Legacy Professional Services",
    "rowid": "1108690",
    "final_x": "3703896.65118",
    "final_y": "514218.644723",
    "longitude": "-89.99798696345063",
    "latitude": "29.907223979450258",
    "geocoded_column": {
      "latitude": "29.907223979450258",
      "longitude": "-89.99798696345063"
    }
  },
  {
    "service_request": "2024-1108689",
    "request_type": "Traffic Signals/Signs/Striping/Streetlights",
    "request_reason": "Street Light Outage/Malfunction",
    "date_created": "2024-07-01T21:15:59.000",
    "date_modified": "2024-07-01T21:15:59.000",
    "request_status": "Pending",
    "responsible_agency": "Department of Public Works",
    "final_address": "827 N Lopez St",
    "address_councildis": "A",
    "status": "Assigned to Contractor",
    "contractor": "Legacy Professional Services",
    "rowid": "1108689",
    "final_x": "3675476.94088",
    "final_y": "538615.101641",
    "longitude": "-90.08684527761184",
    "latitude": "29.975186314697364",
    "geocoded_column": {
      "latitude": "29.975186314697364",
      "longitude": "-90.08684527761184"
    }
  },
  {
    "service_request": "2024-1108688",
    "request_type": "Trash/Recycling",
    "request_reason": "Replace Trash Cart",
    "date_created": "2024-07-01T21:06:48.000",
    "date_modified": "2024-07-01T21:06:49.000",
    "request_status": "Pending",
    "responsible_agency": "Department of Sanitation",
    "final_address": "102 W Hubbell Rd",
    "address_councildis": "C",
    "status": "Assigned to Contractor",
    "contractor": "Richards Disposal",
    "rowid": "1108688",
    "final_x": "3689150.48847",
    "final_y": "531212.172226",
    "longitude": "-90.04392384524596",
    "latitude": "29.954414758153444",
    "geocoded_column": {
      "latitude": "29.954414758153444",
      "longitude": "-90.04392384524596"
    }
  },
  {
    "service_request": "2024-1108687",
    "request_type": "Trash/Recycling",
    "request_reason": "Order Recycling Cart",
    "date_created": "2024-07-01T20:54:36.000",
    "date_modified": "2024-07-01T20:54:36.000",
    "request_status": "Pending",
    "responsible_agency": "Department of Sanitation",
    "final_address": "2120 Robin St",
    "address_councildis": "D",
    "status": "Pending",
    "rowid": "1108687",
    "final_x": "3683157.20341",
    "final_y": "551759.527125",
    "longitude": "-90.06212846362372",
    "latitude": "30.01109684648843",
    "geocoded_column": {
      "latitude": "30.01109684648843",
      "longitude": "-90.06212846362372"
    }
  },
  {
    "service_request": "2024-1108685",
    "request_type": "Trash/Recycling",
    "request_reason": "Order Recycling Cart",
    "date_created": "2024-07-01T20:46:07.000",
    "date_modified": "2024-07-01T20:46:07.000",
    "request_status": "Pending",
    "responsible_agency": "Department of Sanitation",
    "final_address": "3502 Cleveland Ave",
    "address_councildis": "B",
    "status": "Pending",
    "rowid": "1108685",
    "final_x": "3672551.17966",
    "final_y": "536644.011399",
    "longitude": "-90.09615283437647",
    "latitude": "29.96985367380935",
    "geocoded_column": {
      "latitude": "29.96985367380935",
      "longitude": "-90.09615283437647"
    }
  },
  {
    "service_request": "2024-1108684",
    "request_type": "Trash/Recycling",
    "request_reason": "Order Recycling Cart",
    "date_created": "2024-07-01T20:36:33.000",
    "date_modified": "2024-07-01T20:36:33.000",
    "request_status": "Pending",
    "responsible_agency": "Department of Sanitation",
    "final_address": "5755 E Louis Prima Dr",
    "address_councildis": "E",
    "status": "Pending",
    "rowid": "1108684",
    "final_x": "3716115.49029",
    "final_y": "562441.007711",
    "longitude": "-89.95759607641243",
    "latitude": "30.039420109232474",
    "geocoded_column": {
      "latitude": "30.039420109232474",
      "longitude": "-89.95759607641243"
    }
  },
  {
    "service_request": "2024-1108683",
    "request_type": "Trash/Recycling",
    "request_reason": "Order Recycling Cart",
    "date_created": "2024-07-01T20:33:53.000",
    "date_modified": "2024-07-01T20:33:53.000",
    "request_status": "Pending",
    "responsible_agency": "Department of Sanitation",
    "final_address": "3015 Frenchmen St",
    "address_councildis": "D",
    "status": "Pending",
    "rowid": "1108683",
    "final_x": "3684032.09199",
    "final_y": "543791.564878",
    "longitude": "-90.05964417238299",
    "latitude": "29.98916109486121",
    "geocoded_column": {
      "latitude": "29.98916109486121",
      "longitude": "-90.05964417238299"
    }
  },
  {
    "service_request": "2024-1108681",
    "request_type": "Roads/Drainage",
    "request_reason": "Street Flooding / Drainage",
    "date_created": "2024-07-01T20:30:08.000",
    "date_modified": "2024-07-01T20:30:08.000",
    "request_status": "Pending",
    "responsible_agency": "Department of Public Works",
    "final_address": "2721 Dreux Ave",
    "address_councildis": "D",
    "status": "Pending",
    "rowid": "1108681",
    "final_x": "3687502.32982",
    "final_y": "552337.165078",
    "longitude": "-90.04838003981193",
    "latitude": "30.012551876287432",
    "geocoded_column": {
      "latitude": "30.012551876287432",
      "longitude": "-90.04838003981193"
    }
  },
  {
    "service_request": "2024-1108680",
    "request_type": "Trash/Recycling",
    "request_reason": "Request a Large Item Pick Up",
    "date_created": "2024-07-01T20:28:14.000",
    "date_modified": "2024-07-01T20:28:15.000",
    "request_status": "Pending",
    "responsible_agency": "Department of Sanitation",
    "final_address": "3100 Frenchmen St",
    "address_councildis": "D",
    "status": "Assigned to Contractor",
    "contractor": "IV Waste",
    "rowid": "1108680",
    "final_x": "3683914.06799",
    "final_y": "544050.63547",
    "longitude": "-90.06000788116744",
    "latitude": "29.98987705392291",
    "geocoded_column": {
      "latitude": "29.98987705392291",
      "longitude": "-90.06000788116744"
    }
  },
  {
    "service_request": "2024-1108679",
    "request_type": "Abandoned Vehicles",
    "request_reason": "Abandoned/Junk Vehicles",
    "date_created": "2024-07-01T19:22:05.000",
    "date_modified": "2024-07-01T19:22:05.000",
    "request_status": "Pending",
    "responsible_agency": "Department of Public Works",
    "final_address": "1701 Simon Bolivar Ave",
    "address_councildis": "B",
    "status": "Pending",
    "rowid": "1108679",
    "final_x": "3676910.22754",
    "final_y": "526217.346942",
    "longitude": "-90.08274592565637",
    "latitude": "29.94105370867618",
    "geocoded_column": {
      "latitude": "29.94105370867618",
      "longitude": "-90.08274592565637"
    }
  },
  {
    "service_request": "2024-1108678",
    "request_type": "Roads/Drainage",
    "request_reason": "Pothole",
    "date_created": "2024-07-01T19:11:34.000",
    "date_modified": "2024-07-01T19:11:34.000",
    "request_status": "Pending",
    "responsible_agency": "Department of Public Works",
    "final_address": "801 Henry Clay Ave",
    "address_councildis": "A",
    "status": "Pending",
    "rowid": "1108678",
    "final_x": "3663886.70208",
    "final_y": "519665.014968",
    "longitude": "-90.12408208507878",
    "latitude": "29.92342128167053",
    "geocoded_column": {
      "latitude": "29.92342128167053",
      "longitude": "-90.12408208507878"
    }
  },
  {
    "service_request": "2024-1108677",
    "request_type": "Trash/Recycling",
    "request_reason": "Replace Trash Cart",
    "date_created": "2024-07-01T19:11:08.000",
    "date_modified": "2024-07-01T19:11:09.000",
    "request_status": "Pending",
    "responsible_agency": "Department of Sanitation",
    "final_address": "5029 Touro St",
    "address_councildis": "D",
    "status": "Assigned to Contractor",
    "contractor": "IV Waste",
    "rowid": "1108677",
    "final_x": "3683068.92392",
    "final_y": "551256.210453",
    "longitude": "-90.06242501098507",
    "latitude": "30.009715600845375",
    "geocoded_column": {
      "latitude": "30.009715600845375",
      "longitude": "-90.06242501098507"
    }
  },
  {
    "service_request": "2024-1108676",
    "request_type": "Trash/Recycling",
    "request_reason": "Illegal Dumping",
    "date_created": "2024-07-01T19:07:38.000",
    "date_modified": "2024-07-01T19:07:38.000",
    "request_status": "Pending",
    "responsible_agency": "Department of Sanitation",
    "final_address": "2710 S Galvez St",
    "address_councildis": "B",
    "status": "Pending",
    "rowid": "1108676",
    "final_x": "3672389.91003",
    "final_y": "528111.283135",
    "longitude": "-90.09695290455461",
    "latitude": "29.946396295720323",
    "geocoded_column": {
      "latitude": "29.946396295720323",
      "longitude": "-90.09695290455461"
    }
  },
  {
    "service_request": "2024-1108675",
    "request_type": "Trash/Recycling",
    "request_reason": "Illegal Dumping",
    "date_created": "2024-07-01T19:04:32.000",
    "date_modified": "2024-07-01T19:04:32.000",
    "request_status": "Pending",
    "responsible_agency": "Department of Sanitation",
    "final_address": "1934 Louisiana Ave",
    "address_councildis": "B",
    "status": "Pending",
    "rowid": "1108675",
    "final_x": "3673594.42292",
    "final_y": "522777.190714",
    "longitude": "-90.09333208284494",
    "latitude": "29.931693490216677",
    "geocoded_column": {
      "latitude": "29.931693490216677",
      "longitude": "-90.09333208284494"
    }
  },
  {
    "service_request": "2024-1108674",
    "request_type": "Trash/Recycling",
    "request_reason": "Request a Large Item Pick Up",
    "date_created": "2024-07-01T18:37:49.000",
    "date_modified": "2024-07-01T18:37:50.000",
    "request_status": "Pending",
    "responsible_agency": "Department of Sanitation",
    "final_address": "1817 Robert St",
    "address_councildis": "B",
    "status": "Assigned to Contractor",
    "contractor": "IV Waste",
    "rowid": "1108674",
    "final_x": "3668803.08084",
    "final_y": "522327.217914",
    "longitude": "-90.10847303994348",
    "latitude": "29.93059791193593",
    "geocoded_column": {
      "latitude": "29.93059791193593",
      "longitude": "-90.10847303994348"
    }
  },
  {
    "service_request": "2024-1108673",
    "request_type": "Trash/Recycling",
    "request_reason": "Request a Large Item Pick Up",
    "date_created": "2024-07-01T18:35:28.000",
    "date_modified": "2024-07-01T18:35:28.000",
    "request_status": "Pending",
    "responsible_agency": "Department of Sanitation",
    "final_address": "1118 North Dupre Street",
    "status": "Assigned to Contractor",
    "rowid": "1108673",
    "longitude": "0.0",
    "latitude": "0.0",
    "geocoded_column": {
      "latitude": "0.0",
      "longitude": "0.0"
    }
  },
  {
    "service_request": "2024-1108672",
    "request_type": "Trash/Recycling",
    "request_reason": "Request a Large Item Pick Up",
    "date_created": "2024-07-01T18:21:29.000",
    "date_modified": "2024-07-01T18:21:30.000",
    "request_status": "Pending",
    "responsible_agency": "Department of Sanitation",
    "final_address": "2453 Lark St",
    "address_councildis": "D",
    "status": "Assigned to Contractor",
    "contractor": "IV Waste",
    "rowid": "1108672",
    "final_x": "3685014.03881",
    "final_y": "558030.430491",
    "longitude": "-90.05604113643311",
    "latitude": "30.028282747769833",
    "geocoded_column": {
      "latitude": "30.028282747769833",
      "longitude": "-90.05604113643311"
    }
  },
  {
    "service_request": "2024-1108671",
    "request_type": "Trash/Recycling",
    "request_reason": "Repair Trash Cart",
    "date_created": "2024-07-01T18:20:18.000",
    "date_modified": "2024-07-01T18:20:19.000",
    "request_status": "Pending",
    "responsible_agency": "Department of Sanitation",
    "final_address": "1443 Filmore Ave",
    "address_councildis": "D",
    "status": "Assigned to Contractor",
    "contractor": "IV Waste",
    "rowid": "1108671",
    "final_x": "3677769.9933",
    "final_y": "551897.673302",
    "longitude": "-90.07914404630904",
    "latitude": "30.011639934165597",
    "geocoded_column": {
      "latitude": "30.011639934165597",
      "longitude": "-90.07914404630904"
    }
  },
  {
    "service_request": "2024-1108670",
    "request_type": "Trash/Recycling",
    "request_reason": "Request a Large Item Pick Up",
    "date_created": "2024-07-01T18:17:00.000",
    "date_modified": "2024-07-01T18:17:00.000",
    "request_status": "Pending",
    "responsible_agency": "Department of Sanitation",
    "final_address": "1443 Filmore Ave",
    "address_councildis": "D",
    "status": "Assigned to Contractor",
    "contractor": "IV Waste",
    "rowid": "1108670",
    "final_x": "3677769.9933",
    "final_y": "551897.673302",
    "longitude": "-90.07914404630904",
    "latitude": "30.011639934165597",
    "geocoded_column": {
      "latitude": "30.011639934165597",
      "longitude": "-90.07914404630904"
    }
  },
  {
    "service_request": "2024-1108669",
    "request_type": "Traffic Signals/Signs/Striping/Streetlights",
    "request_reason": "Request for Stop Sign",
    "date_created": "2024-07-01T18:09:11.000",
    "date_modified": "2024-07-01T18:09:11.000",
    "request_status": "Pending",
    "responsible_agency": "Department of Public Works",
    "final_address": "3100 Frenchmen St",
    "address_councildis": "D",
    "status": "Pending",
    "rowid": "1108669",
    "final_x": "3683914.06799",
    "final_y": "544050.63547",
    "longitude": "-90.06000788116744",
    "latitude": "29.98987705392291",
    "geocoded_column": {
      "latitude": "29.98987705392291",
      "longitude": "-90.06000788116744"
    }
  },
  {
    "service_request": "2024-1108668",
    "request_type": "Trash/Recycling",
    "request_reason": "Request a Large Item Pick Up",
    "date_created": "2024-07-01T17:59:15.000",
    "date_modified": "2024-07-01T17:59:15.000",
    "request_status": "Pending",
    "responsible_agency": "Department of Sanitation",
    "final_address": "4617 Eastern St",
    "address_councildis": "D",
    "status": "Assigned to Contractor",
    "contractor": "IV Waste",
    "rowid": "1108668",
    "final_x": "3688119.34915",
    "final_y": "549920.530196",
    "longitude": "-90.04651635178003",
    "latitude": "30.005887976005898",
    "geocoded_column": {
      "latitude": "30.005887976005898",
      "longitude": "-90.04651635178003"
    }
  },
  {
    "service_request": "2024-1108667",
    "request_type": "Trash/Recycling",
    "request_reason": "Order Trash Cart",
    "date_created": "2024-07-01T17:59:03.000",
    "date_modified": "2024-07-01T17:59:04.000",
    "request_status": "Pending",
    "responsible_agency": "Department of Sanitation",
    "final_address": "831 Navarre St",
    "address_councildis": "A",
    "status": "Assigned to Contractor",
    "contractor": "IV Waste",
    "rowid": "1108667",
    "final_x": "3668971.19566",
    "final_y": "543851.957646",
    "longitude": "-90.10721521364279",
    "latitude": "29.989778885713786",
    "geocoded_column": {
      "latitude": "29.989778885713786",
      "longitude": "-90.10721521364279"
    }
  },
  {
    "service_request": "2024-1108666",
    "request_type": "Roads/Drainage",
    "request_reason": "Street Flooding / Drainage",
    "date_created": "2024-07-01T17:58:33.000",
    "date_modified": "2024-07-01T17:58:33.000",
    "request_status": "Pending",
    "responsible_agency": "Department of Public Works",
    "final_address": "3015 Frenchmen St",
    "address_councildis": "D",
    "status": "Pending",
    "rowid": "1108666",
    "final_x": "3684032.09199",
    "final_y": "543791.564878",
    "longitude": "-90.05964417238299",
    "latitude": "29.98916109486121",
    "geocoded_column": {
      "latitude": "29.98916109486121",
      "longitude": "-90.05964417238299"
    }
  },
  {
    "service_request": "2024-1108665",
    "request_type": "Abandoned Vehicles",
    "request_reason": "Abandoned/Junk Vehicles",
    "date_created": "2024-07-01T17:56:31.000",
    "date_modified": "2024-07-01T17:56:31.000",
    "request_status": "Pending",
    "responsible_agency": "Department of Public Works",
    "final_address": "1929 N Rampart St",
    "address_councildis": "C",
    "status": "Pending",
    "rowid": "1108665",
    "final_x": "3684125.25013",
    "final_y": "535903.872775",
    "longitude": "-90.05962686541663",
    "latitude": "29.967469856719422",
    "geocoded_column": {
      "latitude": "29.967469856719422",
      "longitude": "-90.05962686541663"
    }
  },
  {
    "service_request": "2024-1108664",
    "request_type": "Mosquito, Termite & Rodent Control",
    "request_reason": "Property Maintenance",
    "date_created": "2024-07-01T17:54:13.000",
    "date_modified": "2024-07-01T17:54:13.000",
    "request_status": "Pending",
    "responsible_agency": "Department of Code Enforcement",
    "final_address": "3015 Frenchmen St",
    "address_councildis": "D",
    "status": "Pending",
    "rowid": "1108664",
    "final_x": "3684032.09199",
    "final_y": "543791.564878",
    "longitude": "-90.05964417238299",
    "latitude": "29.98916109486121",
    "geocoded_column": {
      "latitude": "29.98916109486121",
      "longitude": "-90.05964417238299"
    }
  },
  {
    "service_request": "2024-1108663",
    "request_type": "Roads/Drainage",
    "request_reason": "Pothole",
    "date_created": "2024-07-01T17:27:47.000",
    "date_modified": "2024-07-01T17:27:47.000",
    "request_status": "Pending",
    "responsible_agency": "Department of Public Works",
    "final_address": "11356 Pressburg St",
    "address_councildis": "E",
    "status": "Pending",
    "rowid": "1108663",
    "final_x": "3717382.57893",
    "final_y": "557517.345883",
    "longitude": "-89.95377908707084",
    "latitude": "30.02584013014994",
    "geocoded_column": {
      "latitude": "30.02584013014994",
      "longitude": "-89.95377908707084"
    }
  },
  {
    "service_request": "2024-1108662",
    "request_type": "Trash/Recycling",
    "request_reason": "Order Recycling Cart",
    "date_created": "2024-07-01T17:25:59.000",
    "date_modified": "2024-07-01T17:25:59.000",
    "request_status": "Pending",
    "responsible_agency": "Department of Sanitation",
    "final_address": "134 S Alexander St",
    "address_councildis": "A",
    "status": "Pending",
    "rowid": "1108662",
    "final_x": "3669816.0377",
    "final_y": "538873.865673",
    "longitude": "-90.10471518642146",
    "latitude": "29.976065941910335",
    "geocoded_column": {
      "latitude": "29.976065941910335",
      "longitude": "-90.10471518642146"
    }
  },
  {
    "service_request": "2024-1108661",
    "request_type": "Trash/Recycling",
    "request_reason": "Order Recycling Cart",
    "date_created": "2024-07-01T17:22:46.000",
    "date_modified": "2024-07-01T17:22:46.000",
    "request_status": "Pending",
    "responsible_agency": "Department of Sanitation",
    "final_address": "134 S Alexander St",
    "address_councildis": "A",
    "status": "Pending",
    "rowid": "1108661",
    "final_x": "3669816.0377",
    "final_y": "538873.865673",
    "longitude": "-90.10471518642146",
    "latitude": "29.976065941910335",
    "geocoded_column": {
      "latitude": "29.976065941910335",
      "longitude": "-90.10471518642146"
    }
  },
  {
    "service_request": "2024-1108660",
    "request_type": "Trash/Recycling",
    "request_reason": "Request a Large Item Pick Up",
    "date_created": "2024-07-01T17:21:19.000",
    "date_modified": "2024-07-01T17:21:50.000",
    "request_status": "Pending",
    "responsible_agency": "Department of Sanitation",
    "final_address": "3015 Frenchmen St",
    "address_councildis": "D",
    "status": "Assigned to Contractor",
    "contractor": "IV Waste",
    "rowid": "1108660",
    "final_x": "3684032.09199",
    "final_y": "543791.564878",
    "longitude": "-90.05964417238299",
    "latitude": "29.98916109486121",
    "geocoded_column": {
      "latitude": "29.98916109486121",
      "longitude": "-90.05964417238299"
    }
  },
  {
    "service_request": "2024-1108659",
    "request_type": "Trash/Recycling",
    "request_reason": "Request a Large Item Pick Up",
    "date_created": "2024-07-01T17:17:02.000",
    "date_modified": "2024-07-01T17:17:05.000",
    "request_status": "Pending",
    "responsible_agency": "Department of Sanitation",
    "final_address": "11356 Pressburg St",
    "address_councildis": "E",
    "status": "Assigned to Contractor",
    "contractor": "Waste Pro",
    "rowid": "1108659",
    "final_x": "3717382.57893",
    "final_y": "557517.345883",
    "longitude": "-89.95377908707084",
    "latitude": "30.02584013014994",
    "geocoded_column": {
      "latitude": "30.02584013014994",
      "longitude": "-89.95377908707084"
    }
  },
  {
    "service_request": "2024-1108658",
    "request_type": "Trash/Recycling",
    "request_reason": "Request a Large Item Pick Up",
    "date_created": "2024-07-01T17:13:45.000",
    "date_modified": "2024-07-01T17:13:45.000",
    "request_status": "Pending",
    "responsible_agency": "Department of Sanitation",
    "final_address": "1437 Congress St",
    "address_councildis": "D",
    "status": "Assigned to Contractor",
    "contractor": "IV Waste",
    "rowid": "1108658",
    "final_x": "3691098.33622",
    "final_y": "536921.7458",
    "longitude": "-90.03756945824573",
    "latitude": "29.970053674541553",
    "geocoded_column": {
      "latitude": "29.970053674541553",
      "longitude": "-90.03756945824573"
    }
  },
  {
    "service_request": "2024-1108657",
    "request_type": "Trash/Recycling",
    "request_reason": "Order Recycling Cart",
    "date_created": "2024-07-01T17:10:39.000",
    "date_modified": "2024-07-01T17:10:39.000",
    "request_status": "Pending",
    "responsible_agency": "Department of Sanitation",
    "final_address": "823 Spain St",
    "address_councildis": "C",
    "status": "Pending",
    "rowid": "1108657",
    "final_x": "3686235.78287",
    "final_y": "535511.94823",
    "longitude": "-90.05297560764959",
    "latitude": "29.966327523304802",
    "geocoded_column": {
      "latitude": "29.966327523304802",
      "longitude": "-90.05297560764959"
    }
  },
  {
    "service_request": "2024-1108656",
    "request_type": "Traffic Signals/Signs/Striping/Streetlights",
    "request_reason": "Street Light Outage/Malfunction",
    "date_created": "2024-07-01T16:55:35.000",
    "date_modified": "2024-07-01T16:55:36.000",
    "request_status": "Pending",
    "responsible_agency": "Department of Public Works",
    "final_address": "11400 Melvin Pl",
    "address_councildis": "E",
    "status": "Assigned to Contractor",
    "contractor": "Legacy Professional Services",
    "rowid": "1108656",
    "final_x": "3717650.42821",
    "final_y": "561446.760159",
    "longitude": "-89.95278313222342",
    "latitude": "30.036635569295655",
    "geocoded_column": {
      "latitude": "30.036635569295655",
      "longitude": "-89.95278313222342"
    }
  },
  {
    "service_request": "2024-1108655",
    "request_type": "Property Maintenance",
    "request_reason": "Property Maintenance",
    "date_created": "2024-07-01T16:55:03.000",
    "date_modified": "2024-07-01T16:55:03.000",
    "request_status": "Pending",
    "responsible_agency": "Department of Code Enforcement",
    "final_address": "5937 Vicksburg St",
    "address_councildis": "A",
    "status": "Pending",
    "rowid": "1108655",
    "final_x": "3668928.68097",
    "final_y": "546907.149713",
    "longitude": "-90.10724624250403",
    "latitude": "29.998180863463748",
    "geocoded_column": {
      "latitude": "29.998180863463748",
      "longitude": "-90.10724624250403"
    }
  },
  {
    "service_request": "2024-1108654",
    "request_type": "Traffic Signals/Signs/Striping/Streetlights",
    "request_reason": "Street Light Outage/Malfunction",
    "date_created": "2024-07-01T16:52:12.000",
    "date_modified": "2024-07-01T16:52:13.000",
    "request_status": "Pending",
    "responsible_agency": "Department of Public Works",
    "final_address": "DWYER BLVD & WILLOWBROOK DR",
    "address_councildis": "E",
    "status": "Assigned to Contractor",
    "contractor": "Legacy Professional Services",
    "rowid": "1108654",
    "final_x": "3728210.5",
    "final_y": "562768.98",
    "longitude": "-89.9193600577704",
    "latitude": "30.039917058786934",
    "geocoded_column": {
      "latitude": "30.039917058786934",
      "longitude": "-89.9193600577704"
    }
  },
  {
    "service_request": "2024-1108653",
    "request_type": "Trash/Recycling",
    "request_reason": "Repair Trash Cart",
    "date_created": "2024-07-01T16:51:52.000",
    "date_modified": "2024-07-01T16:51:53.000",
    "request_status": "Pending",
    "responsible_agency": "Department of Sanitation",
    "final_address": "3229 Loyola Ave",
    "address_councildis": "B",
    "status": "Assigned to Contractor",
    "contractor": "IV Waste",
    "rowid": "1108653",
    "final_x": "3673763.682",
    "final_y": "523725.129979",
    "longitude": "-90.09276535085031",
    "latitude": "29.93429497820429",
    "geocoded_column": {
      "latitude": "29.93429497820429",
      "longitude": "-90.09276535085031"
    }
  },
  {
    "service_request": "2024-1108651",
    "request_type": "Trash/Recycling",
    "request_reason": "Illegal Dumping",
    "date_created": "2024-07-01T16:49:28.000",
    "date_modified": "2024-07-01T16:49:28.000",
    "request_status": "Pending",
    "responsible_agency": "Department of Sanitation",
    "final_address": "ST MAURICE AVE & N ROBERTSON ST",
    "address_councildis": "E",
    "status": "Pending",
    "rowid": "1108651",
    "final_x": "3700404.9",
    "final_y": "534575.68",
    "longitude": "-90.00826426662573",
    "latitude": "29.963310174989452",
    "geocoded_column": {
      "latitude": "29.963310174989452",
      "longitude": "-90.00826426662573"
    }
  },
  {
    "service_request": "2024-1108650",
    "request_type": "Abandoned Vehicles",
    "request_reason": "Abandoned/Junk Vehicles",
    "date_created": "2024-07-01T16:48:47.000",
    "date_modified": "2024-07-01T16:48:48.000",
    "request_status": "Pending",
    "responsible_agency": "Department of Public Works",
    "final_address": "7700 BLK Pearl St",
    "address_councildis": "A",
    "status": "Pending",
    "rowid": "1108650",
    "final_x": "3661269.75518",
    "final_y": "525678.326056",
    "longitude": "-90.1321438626205",
    "latitude": "29.940031680938556",
    "geocoded_column": {
      "latitude": "29.940031680938556",
      "longitude": "-90.1321438626205"
    }
  },
  {
    "service_request": "2024-1108649",
    "request_type": "Parks & Parkways",
    "request_reason": "Request Tree Service (Right of Way/Public Property)",
    "date_created": "2024-07-01T16:43:42.000",
    "date_modified": "2024-07-01T16:43:43.000",
    "request_status": "Pending",
    "responsible_agency": "Department of Parks & Parkway",
    "final_address": "GENERAL MEYER AVE & WOODLAND DR & WOODLAND PL",
    "address_councildis": "C",
    "status": "Pending",
    "rowid": "1108649",
    "final_x": "3705605.3",
    "final_y": "521490.58",
    "longitude": "-89.99232571732016",
    "latitude": "29.92716442391466",
    "geocoded_column": {
      "latitude": "29.92716442391466",
      "longitude": "-89.99232571732016"
    }
  },
  {
    "service_request": "2024-1108648",
    "request_type": "Trash/Recycling",
    "request_reason": "Replace Trash Cart",
    "date_created": "2024-07-01T16:42:52.000",
    "date_modified": "2024-07-01T16:42:52.000",
    "request_status": "Pending",
    "responsible_agency": "Department of Sanitation",
    "final_address": "3334 Socrates St",
    "address_councildis": "C",
    "status": "Assigned to Contractor",
    "contractor": "Richards Disposal",
    "rowid": "1108648",
    "final_x": "3696619.9777",
    "final_y": "526273.39219",
    "longitude": "-90.02051694193688",
    "latitude": "29.94060160293302",
    "geocoded_column": {
      "latitude": "29.94060160293302",
      "longitude": "-90.02051694193688"
    }
  },
  {
    "service_request": "2024-1108647",
    "request_type": "Trash/Recycling",
    "request_reason": "Repair Trash Cart",
    "date_created": "2024-07-01T16:41:47.000",
    "date_modified": "2024-07-01T16:41:47.000",
    "request_status": "Pending",
    "responsible_agency": "Department of Sanitation",
    "final_address": "3336 Socrates St",
    "address_councildis": "C",
    "status": "Assigned to Contractor",
    "contractor": "Richards Disposal",
    "rowid": "1108647",
    "final_x": "3696640.12778",
    "final_y": "526271.953534",
    "longitude": "-90.02045337711982",
    "latitude": "29.94059701231305",
    "geocoded_column": {
      "latitude": "29.94059701231305",
      "longitude": "-90.02045337711982"
    }
  },
  {
    "service_request": "2024-1108646",
    "request_type": "Trash/Recycling",
    "request_reason": "Replace Trash Cart",
    "date_created": "2024-07-01T16:40:43.000",
    "date_modified": "2024-07-01T16:40:44.000",
    "request_status": "Pending",
    "responsible_agency": "Department of Sanitation",
    "final_address": "436 Fern St",
    "address_councildis": "A",
    "status": "Assigned to Contractor",
    "contractor": "IV Waste",
    "rowid": "1108646",
    "final_x": "3660808.54016",
    "final_y": "526018.582974",
    "longitude": "-90.13358874804561",
    "latitude": "29.940980566187044",
    "geocoded_column": {
      "latitude": "29.940980566187044",
      "longitude": "-90.13358874804561"
    }
  },
  {
    "service_request": "2024-1108645",
    "request_type": "Trash/Recycling",
    "request_reason": "Request a Large Item Pick Up",
    "date_created": "2024-07-01T16:39:53.000",
    "date_modified": "2024-07-01T16:39:53.000",
    "request_status": "Pending",
    "responsible_agency": "Department of Sanitation",
    "final_address": "5440 Grand Bayou Dr",
    "address_councildis": "E",
    "status": "Assigned to Contractor",
    "contractor": "Waste Pro",
    "rowid": "1108645",
    "final_x": "3725934.35929",
    "final_y": "563605.984865",
    "longitude": "-89.92652079138843",
    "latitude": "30.042295509262967",
    "geocoded_column": {
      "latitude": "30.042295509262967",
      "longitude": "-89.92652079138843"
    }
  },
  {
    "service_request": "2024-1108644",
    "request_type": "Trash/Recycling",
    "request_reason": "Replace Trash Cart",
    "date_created": "2024-07-01T16:39:48.000",
    "date_modified": "2024-07-01T16:39:48.000",
    "request_status": "Pending",
    "responsible_agency": "Department of Sanitation",
    "final_address": "434 Fern St",
    "address_councildis": "A",
    "status": "Assigned to Contractor",
    "contractor": "IV Waste",
    "rowid": "1108644",
    "final_x": "3660798.76",
    "final_y": "526008.187262",
    "longitude": "-90.13361996958913",
    "latitude": "29.940952262841503",
    "geocoded_column": {
      "latitude": "29.940952262841503",
      "longitude": "-90.13361996958913"
    }
  },
  {
    "service_request": "2024-1108643",
    "request_type": "Property Maintenance",
    "request_reason": "Property Maintenance",
    "date_created": "2024-07-01T16:36:42.000",
    "date_modified": "2024-07-01T16:36:42.000",
    "request_status": "Pending",
    "responsible_agency": "Department of Code Enforcement",
    "final_address": "4139 Gibson St",
    "address_councildis": "D",
    "status": "Pending",
    "rowid": "1108643",
    "final_x": "3678785.99842",
    "final_y": "547613.189458",
    "longitude": "-90.07608258790344",
    "latitude": "29.999828516464078",
    "geocoded_column": {
      "latitude": "29.999828516464078",
      "longitude": "-90.07608258790344"
    }
  },
  {
    "service_request": "2024-1108642",
    "request_type": "Trash/Recycling",
    "request_reason": "Repair Trash Cart",
    "date_created": "2024-07-01T16:34:22.000",
    "date_modified": "2024-07-01T16:34:23.000",
    "request_status": "Pending",
    "responsible_agency": "Department of Sanitation",
    "final_address": "5623 General Haig St",
    "address_councildis": "A",
    "status": "Assigned to Contractor",
    "contractor": "IV Waste",
    "rowid": "1108642",
    "final_x": "3670462.49723",
    "final_y": "544602.988495",
    "longitude": "-90.10247910660345",
    "latitude": "29.991799999443362",
    "geocoded_column": {
      "latitude": "29.991799999443362",
      "longitude": "-90.10247910660345"
    }
  },
  {
    "service_request": "2024-1108641",
    "request_type": "Trash/Recycling",
    "request_reason": "Request a Large Item Pick Up",
    "date_created": "2024-07-01T16:32:01.000",
    "date_modified": "2024-07-01T16:32:02.000",
    "request_status": "Pending",
    "responsible_agency": "Department of Sanitation",
    "final_address": "2135 Lamanche St",
    "address_councildis": "E",
    "status": "Assigned to Contractor",
    "contractor": "Waste Pro",
    "rowid": "1108641",
    "final_x": "3699472.43594",
    "final_y": "537680.903816",
    "longitude": "-90.0110957093178",
    "latitude": "29.97187804222866",
    "geocoded_column": {
      "latitude": "29.97187804222866",
      "longitude": "-90.0110957093178"
    }
  },
  {
    "service_request": "2024-1108640",
    "request_type": "Traffic Signals/Signs/Striping/Streetlights",
    "request_reason": "Street Light Outage/Malfunction",
    "date_created": "2024-07-01T16:30:57.000",
    "date_modified": "2024-07-01T16:31:19.000",
    "request_status": "Pending",
    "responsible_agency": "Department of Public Works",
    "final_address": "2301 Killdeer St",
    "address_councildis": "D",
    "contractor": "Legacy Professional Services",
    "rowid": "1108640",
    "final_x": "3684129.48514",
    "final_y": "557625.443163",
    "longitude": "-90.05885050700283",
    "latitude": "30.027196265476647",
    "geocoded_column": {
      "latitude": "30.027196265476647",
      "longitude": "-90.05885050700283"
    }
  },
  {
    "service_request": "2024-1108638",
    "request_type": "Trash/Recycling",
    "request_reason": "Repair Trash Cart",
    "date_created": "2024-07-01T16:29:11.000",
    "date_modified": "2024-07-01T16:29:12.000",
    "request_status": "Pending",
    "responsible_agency": "Department of Sanitation",
    "final_address": "211 Maumus Ave",
    "address_councildis": "C",
    "status": "Assigned to Contractor",
    "contractor": "Richards Disposal",
    "rowid": "1108638",
    "final_x": "3706371.37265",
    "final_y": "516690.922037",
    "longitude": "-89.9900850581463",
    "latitude": "29.91394235861062",
    "geocoded_column": {
      "latitude": "29.91394235861062",
      "longitude": "-89.9900850581463"
    }
  },
  {
    "service_request": "2024-1108637",
    "request_type": "Roads/Drainage",
    "request_reason": "Pothole",
    "date_created": "2024-07-01T16:28:43.000",
    "date_modified": "2024-07-01T16:28:43.000",
    "request_status": "Pending",
    "responsible_agency": "Department of Public Works",
    "final_address": "2531 N Claiborne Ave",
    "address_councildis": "D",
    "status": "Pending",
    "rowid": "1108637",
    "final_x": "3687337.88918",
    "final_y": "538381.171465",
    "longitude": "-90.0493936537559",
    "latitude": "29.974182975948104",
    "geocoded_column": {
      "latitude": "29.974182975948104",
      "longitude": "-90.0493936537559"
    }
  },
  {
    "service_request": "2024-1108636",
    "request_type": "Trash/Recycling",
    "request_reason": "Repair Recycling Cart",
    "date_created": "2024-07-01T16:28:27.000",
    "date_modified": "2024-07-01T16:28:27.000",
    "request_status": "Pending",
    "responsible_agency": "Department of Sanitation",
    "final_address": "3320 Coliseum St",
    "address_councildis": "B",
    "status": "Pending",
    "rowid": "1108636",
    "final_x": "3674839.14286",
    "final_y": "520640.625848",
    "longitude": "-90.0894758561736",
    "latitude": "29.92578153126973",
    "geocoded_column": {
      "latitude": "29.92578153126973",
      "longitude": "-90.0894758561736"
    }
  },
  {
    "service_request": "2024-1108635",
    "request_type": "Trash/Recycling",
    "request_reason": "Illegal Dumping",
    "date_created": "2024-07-01T16:26:40.000",
    "date_modified": "2024-07-01T16:26:41.000",
    "request_status": "Pending",
    "responsible_agency": "Department of Sanitation",
    "final_address": "2816 Jackson Ave",
    "address_councildis": "B",
    "status": "Pending",
    "rowid": "1108635",
    "final_x": "3674703.38152",
    "final_y": "527432.433919",
    "longitude": "-90.08967171425064",
    "latitude": "29.944460842155664",
    "geocoded_column": {
      "latitude": "29.944460842155664",
      "longitude": "-90.08967171425064"
    }
  },
  {
    "service_request": "2024-1108634",
    "request_type": "Trash/Recycling",
    "request_reason": "Request a Large Item Pick Up",
    "date_created": "2024-07-01T16:24:07.000",
    "date_modified": "2024-07-01T16:24:08.000",
    "request_status": "Pending",
    "responsible_agency": "Department of Sanitation",
    "final_address": "1223 Riviera Ave",
    "address_councildis": "D",
    "status": "Assigned to Contractor",
    "contractor": "IV Waste",
    "rowid": "1108634",
    "final_x": "3676942.95381",
    "final_y": "550872.805717",
    "longitude": "-90.08179237783992",
    "latitude": "30.008846779732632",
    "geocoded_column": {
      "latitude": "30.008846779732632",
      "longitude": "-90.08179237783992"
    }
  },
  {
    "service_request": "2024-1108633",
    "request_type": "Utility Poles",
    "request_reason": "Utility Pole Leaning",
    "date_created": "2024-07-01T16:21:49.000",
    "date_modified": "2024-07-01T16:21:54.000",
    "request_status": "Pending",
    "responsible_agency": "Utility Company Collective",
    "final_address": "3405 Royal St",
    "address_councildis": "C",
    "status": "Pending",
    "rowid": "1108633",
    "final_x": "3689881.11644",
    "final_y": "534240.459077",
    "longitude": "-90.04150901406362",
    "latitude": "29.962718867948315",
    "geocoded_column": {
      "latitude": "29.962718867948315",
      "longitude": "-90.04150901406362"
    }
  },
  {
    "service_request": "2024-1108632",
    "request_type": "Trash/Recycling",
    "request_reason": "Request a Large Item Pick Up",
    "date_created": "2024-07-01T16:18:34.000",
    "date_modified": "2024-07-01T16:18:35.000",
    "request_status": "Pending",
    "responsible_agency": "Department of Sanitation",
    "final_address": "1824 Bartholomew St",
    "address_councildis": "D",
    "status": "Assigned to Contractor",
    "contractor": "IV Waste",
    "rowid": "1108632",
    "final_x": "3692463.90333",
    "final_y": "538165.180681",
    "longitude": "-90.03321232135889",
    "latitude": "29.973430147493204",
    "geocoded_column": {
      "latitude": "29.973430147493204",
      "longitude": "-90.03321232135889"
    }
  },
  {
    "service_request": "2024-1108631",
    "request_type": "Property Maintenance",
    "request_reason": "Property Maintenance",
    "date_created": "2024-07-01T16:17:07.000",
    "date_modified": "2024-07-01T16:17:07.000",
    "request_status": "Pending",
    "responsible_agency": "Department of Code Enforcement",
    "final_address": "1237 Southlawn Blvd",
    "address_councildis": "C",
    "status": "Pending",
    "rowid": "1108631",
    "final_x": "3695129.90032",
    "final_y": "526989.710078",
    "longitude": "-90.02519552591491",
    "latitude": "29.942618088286032",
    "geocoded_column": {
      "latitude": "29.942618088286032",
      "longitude": "-90.02519552591491"
    }
  },
  {
    "service_request": "2024-1108630",
    "request_type": "Property Maintenance",
    "request_reason": "Property Maintenance",
    "date_created": "2024-07-01T16:14:02.000",
    "date_modified": "2024-07-01T16:14:03.000",
    "request_status": "Pending",
    "responsible_agency": "Department of Code Enforcement",
    "final_address": "1241 Southlawn Blvd",
    "address_councildis": "C",
    "status": "Pending",
    "rowid": "1108630",
    "final_x": "3695127.62672",
    "final_y": "526942.655166",
    "longitude": "-90.02520440020781",
    "latitude": "29.942488774919948",
    "geocoded_column": {
      "latitude": "29.942488774919948",
      "longitude": "-90.02520440020781"
    }
  },
  {
    "service_request": "2024-1108629",
    "request_type": "Trash/Recycling",
    "request_reason": "Replace Trash Cart",
    "date_created": "2024-07-01T16:13:05.000",
    "date_modified": "2024-07-01T16:13:06.000",
    "request_status": "Pending",
    "responsible_agency": "Department of Sanitation",
    "final_address": "1522 N Roman St Unit A",
    "address_councildis": "D",
    "status": "Assigned to Contractor",
    "contractor": "IV Waste",
    "rowid": "1108629",
    "final_x": "3681297.42466",
    "final_y": "537760.959624",
    "longitude": "-90.06849244786689",
    "latitude": "29.972662334952215",
    "geocoded_column": {
      "latitude": "29.972662334952215",
      "longitude": "-90.06849244786689"
    }
  },
  {
    "service_request": "2024-1108628",
    "request_type": "Abandoned Vehicles",
    "request_reason": "Abandoned/Junk Vehicles",
    "date_created": "2024-07-01T16:11:40.000",
    "date_modified": "2024-07-01T16:11:40.000",
    "request_status": "Pending",
    "responsible_agency": "Department of Public Works",
    "final_address": "10200 Almonaster Ave",
    "address_councildis": "E",
    "status": "Inspected",
    "rowid": "1108628",
    "final_x": "3713684.56383",
    "final_y": "551626.395989",
    "longitude": "-89.96568637555853",
    "latitude": "30.00976423388402",
    "geocoded_column": {
      "latitude": "30.00976423388402",
      "longitude": "-89.96568637555853"
    }
  },
  {
    "service_request": "2024-1108627",
    "request_type": "Trash/Recycling",
    "request_reason": "MIssed Recycling Pick-Up",
    "date_created": "2024-07-01T16:08:55.000",
    "date_modified": "2024-07-01T16:08:55.000",
    "request_status": "Pending",
    "responsible_agency": "Department of Sanitation",
    "final_address": "311 S Salcedo St",
    "address_councildis": "B",
    "status": "Assigned to Contractor",
    "contractor": "IV Waste",
    "rowid": "1108627",
    "final_x": "3673474.33288",
    "final_y": "535333.451462",
    "longitude": "-90.09328221616093",
    "latitude": "29.966222636739175",
    "geocoded_column": {
      "latitude": "29.966222636739175",
      "longitude": "-90.09328221616093"
    }
  },
  {
    "service_request": "2024-1108626",
    "request_type": "Healthy Homes",
    "request_reason": "Healthy Homes",
    "date_created": "2024-07-01T16:06:42.000",
    "date_modified": "2024-07-01T16:06:42.000",
    "request_status": "Pending",
    "responsible_agency": "Department of Code Enforcement",
    "final_address": "1010 Third St",
    "address_councildis": "B",
    "status": "Pending",
    "rowid": "1108626",
    "final_x": "3677668.79515",
    "final_y": "520919.043065",
    "longitude": "-90.08053387947106",
    "latitude": "29.92646232296865",
    "geocoded_column": {
      "latitude": "29.92646232296865",
      "longitude": "-90.08053387947106"
    }
  },
  {
    "service_request": "2024-1108625",
    "request_type": "Trash/Recycling",
    "request_reason": "Replace Trash Cart",
    "date_created": "2024-07-01T16:04:56.000",
    "date_modified": "2024-07-01T16:04:56.000",
    "request_status": "Pending",
    "responsible_agency": "Department of Sanitation",
    "final_address": "941 Verret St",
    "address_councildis": "C",
    "status": "Assigned to Contractor",
    "contractor": "Richards Disposal",
    "rowid": "1108625",
    "final_x": "3687155.38665",
    "final_y": "528014.678079",
    "longitude": "-90.05033662440367",
    "latitude": "29.94568432338038",
    "geocoded_column": {
      "latitude": "29.94568432338038",
      "longitude": "-90.05033662440367"
    }
  },
  {
    "service_request": "2024-1108624",
    "request_type": "Trash/Recycling",
    "request_reason": "Request a Large Item Pick Up",
    "date_created": "2024-07-01T15:58:16.000",
    "date_modified": "2024-07-01T15:58:17.000",
    "request_status": "Pending",
    "responsible_agency": "Department of Sanitation",
    "final_address": "828 Dublin St",
    "address_councildis": "A",
    "status": "Assigned to Contractor",
    "contractor": "IV Waste",
    "rowid": "1108624",
    "final_x": "3660895.24109",
    "final_y": "527786.112255",
    "longitude": "-90.13325657047953",
    "latitude": "29.945838213707756",
    "geocoded_column": {
      "latitude": "29.945838213707756",
      "longitude": "-90.13325657047953"
    }
  },
  {
    "service_request": "2024-1108623",
    "request_type": "Trash/Recycling",
    "request_reason": "Request a Large Item Pick Up",
    "date_created": "2024-07-01T15:57:38.000",
    "date_modified": "2024-07-01T15:57:39.000",
    "request_status": "Pending",
    "responsible_agency": "Department of Sanitation",
    "final_address": "12911 Chanelle Ct",
    "address_councildis": "E",
    "status": "Assigned to Contractor",
    "contractor": "Waste Pro",
    "rowid": "1108623",
    "final_x": "3716942.34687",
    "final_y": "567429.837924",
    "longitude": "-89.9547933154668",
    "latitude": "30.05311003222423",
    "geocoded_column": {
      "latitude": "30.05311003222423",
      "longitude": "-89.9547933154668"
    }
  },
  {
    "service_request": "2024-1108622",
    "request_type": "Trash/Recycling",
    "request_reason": "Request a Large Item Pick Up",
    "date_created": "2024-07-01T15:55:49.000",
    "date_modified": "2024-07-01T15:55:49.000",
    "request_status": "Pending",
    "responsible_agency": "Department of Sanitation",
    "final_address": "3023 Banks St",
    "address_councildis": "B",
    "status": "Assigned to Contractor",
    "contractor": "IV Waste",
    "rowid": "1108622",
    "final_x": "3673498.75355",
    "final_y": "535070.779142",
    "longitude": "-90.09321407371681",
    "latitude": "29.96549964952291",
    "geocoded_column": {
      "latitude": "29.96549964952291",
      "longitude": "-90.09321407371681"
    }
  },
  {
    "service_request": "2024-1108621",
    "request_type": "Abandoned Vehicles",
    "request_reason": "Abandoned/Junk Vehicles",
    "date_created": "2024-07-01T15:55:40.000",
    "date_modified": "2024-07-01T15:57:45.000",
    "request_status": "Pending",
    "responsible_agency": "Department of Public Works",
    "final_address": "7 S Oak Ridge Ct",
    "address_councildis": "E",
    "status": "Pending",
    "rowid": "1108621",
    "final_x": "3713411.77343",
    "final_y": "567497.65098",
    "longitude": "-89.96594983193944",
    "latitude": "30.053412809365476",
    "geocoded_column": {
      "latitude": "30.053412809365476",
      "longitude": "-89.96594983193944"
    }
  },
  {
    "service_request": "2024-1108620",
    "request_type": "Property Maintenance",
    "request_reason": "Property Maintenance",
    "date_created": "2024-07-01T15:55:22.000",
    "date_modified": "2024-07-01T15:55:23.000",
    "request_status": "Pending",
    "responsible_agency": "Department of Code Enforcement",
    "final_address": "BACCHUS DR & TULLIS DR",
    "address_councildis": "C",
    "status": "Pending",
    "rowid": "1108620",
    "final_x": "3710174.3",
    "final_y": "517322.78",
    "longitude": "-89.97805830907903",
    "latitude": "29.915556616687564",
    "geocoded_column": {
      "latitude": "29.915556616687564",
      "longitude": "-89.97805830907903"
    }
  },
  {
    "service_request": "2024-1108619",
    "request_type": "Property Maintenance",
    "request_reason": "Property Maintenance",
    "date_created": "2024-07-01T15:54:50.000",
    "date_modified": "2024-07-01T15:54:50.000",
    "request_status": "Pending",
    "responsible_agency": "Department of Code Enforcement",
    "final_address": "7 S Oak Ridge Ct",
    "address_councildis": "E",
    "status": "Pending",
    "rowid": "1108619",
    "final_x": "3713411.77343",
    "final_y": "567497.65098",
    "longitude": "-89.96594983193944",
    "latitude": "30.053412809365476",
    "geocoded_column": {
      "latitude": "30.053412809365476",
      "longitude": "-89.96594983193944"
    }
  },
  {
    "service_request": "2024-1108618",
    "request_type": "Trash/Recycling",
    "request_reason": "Request a Large Item Pick Up",
    "date_created": "2024-07-01T15:54:26.000",
    "date_modified": "2024-07-01T15:54:26.000",
    "request_status": "Pending",
    "responsible_agency": "Department of Sanitation",
    "final_address": "3322 Dumaine St",
    "address_councildis": "A",
    "status": "Assigned to Contractor",
    "contractor": "IV Waste",
    "rowid": "1108618",
    "final_x": "3674944.06453",
    "final_y": "539160.344714",
    "longitude": "-90.08850953567388",
    "latitude": "29.97670147538761",
    "geocoded_column": {
      "latitude": "29.97670147538761",
      "longitude": "-90.08850953567388"
    }
  },
  {
    "service_request": "2024-1108617",
    "request_type": "Property Maintenance",
    "request_reason": "Property Maintenance",
    "date_created": "2024-07-01T15:53:58.000",
    "date_modified": "2024-07-01T15:53:59.000",
    "request_status": "Pending",
    "responsible_agency": "Department of Code Enforcement",
    "final_address": "6012 N Tonti St",
    "address_councildis": "E",
    "status": "Pending",
    "rowid": "1108617",
    "final_x": "3700994.94762",
    "final_y": "537643.159112",
    "longitude": "-90.00628878947425",
    "latitude": "29.97172586163307",
    "geocoded_column": {
      "latitude": "29.97172586163307",
      "longitude": "-90.00628878947425"
    }
  },
  {
    "service_request": "2024-1108616",
    "request_type": "Property Maintenance",
    "request_reason": "Property Maintenance",
    "date_created": "2024-07-01T15:50:55.000",
    "date_modified": "2024-07-01T15:50:55.000",
    "request_status": "Pending",
    "responsible_agency": "Department of Code Enforcement",
    "final_address": "2241 Gordon St",
    "address_councildis": "E",
    "status": "Pending",
    "rowid": "1108616",
    "final_x": "3700894.97476",
    "final_y": "537643.219592",
    "longitude": "-90.00660451477385",
    "latitude": "29.971729211170317",
    "geocoded_column": {
      "latitude": "29.971729211170317",
      "longitude": "-90.00660451477385"
    }
  },
  {
    "service_request": "2024-1108615",
    "request_type": "Parks & Parkways",
    "request_reason": "Request Grass Cutting Service (City Owned Property)",
    "date_created": "2024-07-01T15:49:39.000",
    "date_modified": "2024-07-01T15:51:55.000",
    "request_status": "Pending",
    "responsible_agency": "Department of Parks & Parkway",
    "final_address": "2227 Gordon St",
    "address_councildis": "E",
    "rowid": "1108615",
    "final_x": "3700868.0762",
    "final_y": "537589.179336",
    "longitude": "-90.00669143995162",
    "latitude": "29.971581476376876",
    "geocoded_column": {
      "latitude": "29.971581476376876",
      "longitude": "-90.00669143995162"
    }
  },
  {
    "service_request": "2024-1108614",
    "request_type": "Trash/Recycling",
    "request_reason": "Return Recycling Cart",
    "date_created": "2024-07-01T15:47:52.000",
    "date_modified": "2024-07-01T15:47:53.000",
    "request_status": "Pending",
    "responsible_agency": "Department of Sanitation",
    "final_address": "4538 Orleans Ave",
    "address_councildis": "A",
    "status": "Pending",
    "rowid": "1108614",
    "final_x": "3670815.99182",
    "final_y": "541405.347276",
    "longitude": "-90.10147107867452",
    "latitude": "29.982997136842346",
    "geocoded_column": {
      "latitude": "29.982997136842346",
      "longitude": "-90.10147107867452"
    }
  },
  {
    "service_request": "2024-1108613",
    "request_type": "Trash/Recycling",
    "request_reason": "Order Recycling Cart",
    "date_created": "2024-07-01T15:46:30.000",
    "date_modified": "2024-07-01T15:46:30.000",
    "request_status": "Pending",
    "responsible_agency": "Department of Sanitation",
    "final_address": "5902 Lafaye St",
    "address_councildis": "D",
    "status": "Pending",
    "rowid": "1108613",
    "final_x": "3687113.79426",
    "final_y": "554920.5766",
    "longitude": "-90.0495161441482",
    "latitude": "30.01966728035756",
    "geocoded_column": {
      "latitude": "30.01966728035756",
      "longitude": "-90.0495161441482"
    }
  },
  {
    "service_request": "2024-1108612",
    "request_type": "Trash/Recycling",
    "request_reason": "Illegal Dumping",
    "date_created": "2024-07-01T15:44:43.000",
    "date_modified": "2024-07-01T15:44:43.000",
    "request_status": "Pending",
    "responsible_agency": "Department of Sanitation",
    "final_address": "10900 Roger Dr",
    "address_councildis": "E",
    "status": "Pending",
    "rowid": "1108612",
    "final_x": "3711926.30475",
    "final_y": "563227.913184",
    "longitude": "-89.9708054414871",
    "latitude": "30.041721415282215",
    "geocoded_column": {
      "latitude": "30.041721415282215",
      "longitude": "-89.9708054414871"
    }
  },
  {
    "service_request": "2024-1108611",
    "request_type": "Trash/Recycling",
    "request_reason": "Request a Large Item Pick Up",
    "date_created": "2024-07-01T15:44:10.000",
    "date_modified": "2024-07-01T15:44:11.000",
    "request_status": "Pending",
    "responsible_agency": "Department of Sanitation",
    "final_address": "4903 Arts St",
    "address_councildis": "D",
    "status": "Assigned to Contractor",
    "contractor": "IV Waste",
    "rowid": "1108611",
    "final_x": "3685942.67868",
    "final_y": "550913.600405",
    "longitude": "-90.05335790548243",
    "latitude": "30.008685592420683",
    "geocoded_column": {
      "latitude": "30.008685592420683",
      "longitude": "-90.05335790548243"
    }
  },
  {
    "service_request": "2024-1108610",
    "request_type": "Healthy Homes",
    "request_reason": "Healthy Homes",
    "date_created": "2024-07-01T15:41:52.000",
    "date_modified": "2024-07-01T15:41:52.000",
    "request_status": "Pending",
    "responsible_agency": "Department of Code Enforcement",
    "final_address": "4948 Venus St",
    "address_councildis": "D",
    "status": "Pending",
    "rowid": "1108610",
    "final_x": "3686385.86684",
    "final_y": "551264.195669",
    "longitude": "-90.05194534693656",
    "latitude": "30.009635981383745",
    "geocoded_column": {
      "latitude": "30.009635981383745",
      "longitude": "-90.05194534693656"
    }
  },
  {
    "service_request": "2024-1108609",
    "request_type": "Trash/Recycling",
    "request_reason": "Request a Large Item Pick Up",
    "date_created": "2024-07-01T15:39:56.000",
    "date_modified": "2024-07-01T15:39:57.000",
    "request_status": "Pending",
    "responsible_agency": "Department of Sanitation",
    "final_address": "1423 Pauline St",
    "address_councildis": "D",
    "status": "Assigned to Contractor",
    "contractor": "IV Waste",
    "rowid": "1108609",
    "final_x": "3691568.51977",
    "final_y": "536741.769735",
    "longitude": "-90.0360910117665",
    "latitude": "29.969544175557047",
    "geocoded_column": {
      "latitude": "29.969544175557047",
      "longitude": "-90.0360910117665"
    }
  },
  {
    "service_request": "2024-1108608",
    "request_type": "Trash/Recycling",
    "request_reason": "Repair Trash Cart",
    "date_created": "2024-07-01T15:34:52.000",
    "date_modified": "2024-07-01T15:34:52.000",
    "request_status": "Pending",
    "responsible_agency": "Department of Sanitation",
    "final_address": "1748 Holiday Dr",
    "address_councildis": "C",
    "status": "Assigned to Contractor",
    "contractor": "Richards Disposal",
    "rowid": "1108608",
    "final_x": "3699048.31805",
    "final_y": "524148.622012",
    "longitude": "-90.01292761111554",
    "latitude": "29.93468249831549",
    "geocoded_column": {
      "latitude": "29.93468249831549",
      "longitude": "-90.01292761111554"
    }
  },
  {
    "service_request": "2024-1108607",
    "request_type": "Parks & Parkways",
    "request_reason": "Request Tree Service (Right of Way/Public Property)",
    "date_created": "2024-07-01T15:33:36.000",
    "date_modified": "2024-07-01T15:33:37.000",
    "request_status": "Pending",
    "responsible_agency": "Department of Parks & Parkway",
    "final_address": "5141 Venus St",
    "address_councildis": "D",
    "status": "Pending",
    "rowid": "1108607",
    "final_x": "3686428.18223",
    "final_y": "551909.55471",
    "longitude": "-90.05178885405164",
    "latitude": "30.011409181577424",
    "geocoded_column": {
      "latitude": "30.011409181577424",
      "longitude": "-90.05178885405164"
    }
  },
  {
    "service_request": "2024-1108606",
    "request_type": "Trash/Recycling",
    "request_reason": "Request a Large Item Pick Up",
    "date_created": "2024-07-01T15:30:34.000",
    "date_modified": "2024-07-01T15:30:34.000",
    "request_status": "Pending",
    "responsible_agency": "Department of Sanitation",
    "final_address": "726 Upperline St",
    "address_councildis": "B",
    "status": "Assigned to Contractor",
    "contractor": "IV Waste",
    "rowid": "1108606",
    "final_x": "3668934.85633",
    "final_y": "518042.966326",
    "longitude": "-90.10820164955834",
    "latitude": "29.91881370570614",
    "geocoded_column": {
      "latitude": "29.91881370570614",
      "longitude": "-90.10820164955834"
    }
  },
  {
    "service_request": "2024-1108605",
    "request_type": "Roads/Drainage",
    "request_reason": "Street Subsidence (Sinking)",
    "date_created": "2024-07-01T15:30:19.000",
    "date_modified": "2024-07-01T15:30:19.000",
    "request_status": "Pending",
    "responsible_agency": "Department of Public Works",
    "final_address": "401 S Broad St",
    "address_councildis": "B",
    "status": "Pending",
    "rowid": "1108605",
    "final_x": "3674527.57908",
    "final_y": "534131.319749",
    "longitude": "-90.0899972749524",
    "latitude": "29.96288579553955",
    "geocoded_column": {
      "latitude": "29.96288579553955",
      "longitude": "-90.0899972749524"
    }
  },
  {
    "service_request": "2024-1108604",
    "request_type": "Trash/Recycling",
    "request_reason": "Request a Large Item Pick Up",
    "date_created": "2024-07-01T15:29:15.000",
    "date_modified": "2024-07-01T15:29:16.000",
    "request_status": "Pending",
    "responsible_agency": "Department of Sanitation",
    "final_address": "919 Arabella St",
    "address_councildis": "A",
    "status": "Assigned to Contractor",
    "contractor": "IV Waste",
    "rowid": "1108604",
    "final_x": "3665977.2921",
    "final_y": "519413.326647",
    "longitude": "-90.11749127987261",
    "latitude": "29.922668386674854",
    "geocoded_column": {
      "latitude": "29.922668386674854",
      "longitude": "-90.11749127987261"
    }
  },
  {
    "service_request": "2024-1108603",
    "request_type": "Property Maintenance",
    "request_reason": "Property Maintenance",
    "date_created": "2024-07-01T15:28:43.000",
    "date_modified": "2024-07-01T15:28:43.000",
    "request_status": "Pending",
    "responsible_agency": "Department of Code Enforcement",
    "final_address": "1545 Wakefield Pl",
    "address_councildis": "D",
    "status": "Pending",
    "rowid": "1108603",
    "final_x": "3678815.02818",
    "final_y": "549929.57634",
    "longitude": "-90.07591058008798",
    "latitude": "30.006196879893505",
    "geocoded_column": {
      "latitude": "30.006196879893505",
      "longitude": "-90.07591058008798"
    }
  },
  {
    "service_request": "2024-1108601",
    "request_type": "Trash/Recycling",
    "request_reason": "Request a Large Item Pick Up",
    "date_created": "2024-07-01T15:22:41.000",
    "date_modified": "2024-07-01T15:22:42.000",
    "request_status": "Pending",
    "responsible_agency": "Department of Sanitation",
    "final_address": "6468 Avenue A",
    "address_councildis": "A",
    "status": "Assigned to Contractor",
    "contractor": "IV Waste",
    "rowid": "1108601",
    "final_x": "3665921.5929",
    "final_y": "551216.572181",
    "longitude": "-90.11660108745215",
    "latitude": "30.010118416653516",
    "geocoded_column": {
      "latitude": "30.010118416653516",
      "longitude": "-90.11660108745215"
    }
  },
  {
    "service_request": "2024-1108600",
    "request_type": "Trash/Recycling",
    "request_reason": "Request a Large Item Pick Up",
    "date_created": "2024-07-01T15:20:59.000",
    "date_modified": "2024-07-01T15:21:00.000",
    "request_status": "Pending",
    "responsible_agency": "Department of Sanitation",
    "final_address": "11400 Curran Rd",
    "address_councildis": "E",
    "status": "Assigned to Contractor",
    "contractor": "Waste Pro",
    "rowid": "1108600",
    "final_x": "3711422.16146",
    "final_y": "566650.698403",
    "longitude": "-89.97227021459479",
    "latitude": "30.051149167532337",
    "geocoded_column": {
      "latitude": "30.051149167532337",
      "longitude": "-89.97227021459479"
    }
  },
  {
    "service_request": "2024-1108599",
    "request_type": "Trash/Recycling",
    "request_reason": "Order Recycling Cart",
    "date_created": "2024-07-01T15:19:29.000",
    "date_modified": "2024-07-01T15:19:29.000",
    "request_status": "Pending",
    "responsible_agency": "Department of Sanitation",
    "final_address": "2314 General Pershing St",
    "address_councildis": "B",
    "status": "Pending",
    "rowid": "1108599",
    "final_x": "3670943.21025",
    "final_y": "523464.897595",
    "longitude": "-90.10167834615302",
    "latitude": "29.933663086865657",
    "geocoded_column": {
      "latitude": "29.933663086865657",
      "longitude": "-90.10167834615302"
    }
  },
  {
    "service_request": "2024-1108598",
    "request_type": "Trash/Recycling",
    "request_reason": "Request a Large Item Pick Up",
    "date_created": "2024-07-01T15:18:40.000",
    "date_modified": "2024-07-01T15:18:40.000",
    "request_status": "Pending",
    "responsible_agency": "Department of Sanitation",
    "final_address": "47 Honeysuckle Ln",
    "address_councildis": "E",
    "status": "Assigned to Contractor",
    "contractor": "Waste Pro",
    "rowid": "1108598",
    "final_x": "3713198.22757",
    "final_y": "568195.634661",
    "longitude": "-89.96659847351799",
    "latitude": "30.055338984422793",
    "geocoded_column": {
      "latitude": "30.055338984422793",
      "longitude": "-89.96659847351799"
    }
  },
  {
    "service_request": "2024-1108597",
    "request_type": "Roads/Drainage",
    "request_reason": "Man hole cover issue",
    "date_created": "2024-07-01T15:17:26.000",
    "date_modified": "2024-07-01T15:17:26.000",
    "request_status": "Pending",
    "responsible_agency": "Department of Public Works",
    "final_address": "JEFFERSON AVE & CAMP ST",
    "address_councildis": "B",
    "status": "Pending",
    "rowid": "1108597",
    "final_x": "3666870.0",
    "final_y": "519152.18",
    "longitude": "-90.11468211356055",
    "latitude": "29.921924239228343",
    "geocoded_column": {
      "latitude": "29.921924239228343",
      "longitude": "-90.11468211356055"
    }
  },
  {
    "service_request": "2024-1108596",
    "request_type": "Traffic Signals/Signs/Striping/Streetlights",
    "request_reason": "Street Light Outage/Malfunction",
    "date_created": "2024-07-01T15:15:59.000",
    "date_modified": "2024-07-01T15:15:59.000",
    "request_status": "Pending",
    "responsible_agency": "Department of Public Works",
    "final_address": "BEHRMAN AVE & MARDI GRAS BLVD",
    "address_councildis": "C",
    "status": "Assigned to Contractor",
    "contractor": "Legacy Professional Services",
    "rowid": "1108596",
    "final_x": "3691880.9",
    "final_y": "522616.78",
    "longitude": "-90.03560969944105",
    "latitude": "29.930695611369778",
    "geocoded_column": {
      "latitude": "29.930695611369778",
      "longitude": "-90.03560969944105"
    }
  },
  {
    "service_request": "2024-1108595",
    "request_type": "Roads/Drainage",
    "request_reason": "Catch Basin - Clogged",
    "date_created": "2024-07-01T15:14:40.000",
    "date_modified": "2024-07-01T15:14:40.000",
    "request_status": "Pending",
    "responsible_agency": "Department of Public Works",
    "final_address": "4710 Plauche Cir",
    "address_councildis": "D",
    "status": "Pending",
    "rowid": "1108595",
    "final_x": "3692545.21635",
    "final_y": "551598.150869",
    "longitude": "-90.03247388371443",
    "latitude": "30.010363402048345",
    "geocoded_column": {
      "latitude": "30.010363402048345",
      "longitude": "-90.03247388371443"
    }
  },
  {
    "service_request": "2024-1108594",
    "request_type": "Trash/Recycling",
    "request_reason": "Illegal Dumping",
    "date_created": "2024-07-01T15:14:38.000",
    "date_modified": "2024-07-01T15:14:39.000",
    "request_status": "Pending",
    "responsible_agency": "Department of Sanitation",
    "final_address": "1665 Lafreniere St",
    "address_councildis": "D",
    "status": "Pending",
    "rowid": "1108594",
    "final_x": "3680272.75771",
    "final_y": "545235.127567",
    "longitude": "-90.07146858328046",
    "latitude": "29.993244750035196",
    "geocoded_column": {
      "latitude": "29.993244750035196",
      "longitude": "-90.07146858328046"
    }
  },
  {
    "service_request": "2024-1108593",
    "request_type": "Property Maintenance",
    "request_reason": "Property Maintenance",
    "date_created": "2024-07-01T15:12:32.000",
    "date_modified": "2024-07-01T15:13:36.000",
    "request_status": "Pending",
    "responsible_agency": "Department of Code Enforcement",
    "final_address": "1665 Lafreniere St",
    "address_councildis": "D",
    "status": "Pending",
    "rowid": "1108593",
    "final_x": "3680272.75771",
    "final_y": "545235.127567",
    "longitude": "-90.07146858328046",
    "latitude": "29.993244750035196",
    "geocoded_column": {
      "latitude": "29.993244750035196",
      "longitude": "-90.07146858328046"
    }
  },
  {
    "service_request": "2024-1108592",
    "request_type": "Trash/Recycling",
    "request_reason": "Request a Large Item Pick Up",
    "date_created": "2024-07-01T15:11:07.000",
    "date_modified": "2024-07-01T15:11:07.000",
    "request_status": "Closed",
    "responsible_agency": "Department of Sanitation",
    "final_address": "1665 Lafreniere St",
    "address_councildis": "D",
    "status": "Invalid Request",
    "rowid": "1108592",
    "final_x": "3680272.75771",
    "final_y": "545235.127567",
    "longitude": "-90.07146858328046",
    "latitude": "29.993244750035196",
    "geocoded_column": {
      "latitude": "29.993244750035196",
      "longitude": "-90.07146858328046"
    }
  },
  {
    "service_request": "2024-1108591",
    "request_type": "Trash/Recycling",
    "request_reason": "Return Trash Cart",
    "date_created": "2024-07-01T15:09:03.000",
    "date_modified": "2024-07-01T15:09:04.000",
    "request_status": "Pending",
    "responsible_agency": "Department of Sanitation",
    "final_address": "1101 Dante St",
    "address_councildis": "A",
    "status": "Assigned to Contractor",
    "contractor": "IV Waste",
    "rowid": "1108591",
    "final_x": "3661250.9392",
    "final_y": "528609.11136",
    "longitude": "-90.13210626574336",
    "latitude": "29.948090950174095",
    "geocoded_column": {
      "latitude": "29.948090950174095",
      "longitude": "-90.13210626574336"
    }
  },
  {
    "service_request": "2024-1108590",
    "request_type": "Roads/Drainage",
    "request_reason": "Street Subsidence (Sinking)",
    "date_created": "2024-07-01T15:06:59.000",
    "date_modified": "2024-07-01T15:06:59.000",
    "request_status": "Pending",
    "responsible_agency": "Department of Public Works",
    "final_address": "300 BLK S Clark St",
    "address_councildis": "B",
    "status": "Pending",
    "rowid": "1108590",
    "final_x": "3672262.07243",
    "final_y": "536206.880786",
    "longitude": "-90.09708075845153",
    "latitude": "29.968660291829607",
    "geocoded_column": {
      "latitude": "29.968660291829607",
      "longitude": "-90.09708075845153"
    }
  },
  {
    "service_request": "2024-1108589",
    "request_type": "Property Maintenance",
    "request_reason": "Property Maintenance",
    "date_created": "2024-07-01T15:06:39.000",
    "date_modified": "2024-07-01T15:06:39.000",
    "request_status": "Pending",
    "responsible_agency": "Department of Code Enforcement",
    "final_address": "4758 Citrus Dr",
    "address_councildis": "E",
    "status": "Pending",
    "rowid": "1108589",
    "final_x": "3710700.35064",
    "final_y": "555910.495001",
    "longitude": "-89.9749540243975",
    "latitude": "30.02164144047109",
    "geocoded_column": {
      "latitude": "30.02164144047109",
      "longitude": "-89.9749540243975"
    }
  },
  {
    "service_request": "2024-1108588",
    "request_type": "Utility Poles",
    "request_reason": "Utility Pole Leaning",
    "date_created": "2024-07-01T15:05:18.000",
    "date_modified": "2024-07-01T15:05:23.000",
    "request_status": "Pending",
    "responsible_agency": "Utility Company Collective",
    "final_address": "941 Navarre St",
    "address_councildis": "A",
    "status": "Pending",
    "rowid": "1108588",
    "final_x": "3669849.46202",
    "final_y": "543782.72315",
    "longitude": "-90.10444334937242",
    "latitude": "29.989562644199317",
    "geocoded_column": {
      "latitude": "29.989562644199317",
      "longitude": "-90.10444334937242"
    }
  },
  {
    "service_request": "2024-1108587",
    "request_type": "Traffic Signals/Signs/Striping/Streetlights",
    "request_reason": "Street Name Sign Damaged or Missing",
    "date_created": "2024-07-01T15:04:09.000",
    "date_modified": "2024-07-01T15:04:09.000",
    "request_status": "Pending",
    "responsible_agency": "Department of Public Works",
    "final_address": "4700 BLK Citrus Dr",
    "address_councildis": "E",
    "status": "Pending",
    "rowid": "1108587",
    "final_x": "3710779.88647",
    "final_y": "555822.772656",
    "longitude": "-89.97470600132725",
    "latitude": "30.02139764555112",
    "geocoded_column": {
      "latitude": "30.02139764555112",
      "longitude": "-89.97470600132725"
    }
  },
  {
    "service_request": "2024-1108586",
    "request_type": "Trash/Recycling",
    "request_reason": "Repair Trash Cart",
    "date_created": "2024-07-01T15:03:02.000",
    "date_modified": "2024-07-01T15:03:39.000",
    "request_status": "Pending",
    "responsible_agency": "Department of Sanitation",
    "final_address": "13190 Wales St",
    "address_councildis": "E",
    "contractor": "Waste Pro",
    "rowid": "1108586",
    "final_x": "3716399.82744",
    "final_y": "571009.647847",
    "longitude": "-89.95637208337995",
    "latitude": "30.06297096521088",
    "geocoded_column": {
      "latitude": "30.06297096521088",
      "longitude": "-89.95637208337995"
    }
  },
  {
    "service_request": "2024-1108585",
    "request_type": "Trash/Recycling",
    "request_reason": "Request a Large Item Pick Up",
    "date_created": "2024-07-01T15:02:36.000",
    "date_modified": "2024-07-01T15:02:36.000",
    "request_status": "Pending",
    "responsible_agency": "Department of Sanitation",
    "final_address": "7001 General Diaz St",
    "address_councildis": "A",
    "status": "Assigned to Contractor",
    "contractor": "IV Waste",
    "rowid": "1108585",
    "final_x": "3670174.20097",
    "final_y": "553985.455384",
    "longitude": "-90.10307156785514",
    "latitude": "30.01760701511324",
    "geocoded_column": {
      "latitude": "30.01760701511324",
      "longitude": "-90.10307156785514"
    }
  },
  {
    "service_request": "2024-1108584",
    "request_type": "Abandoned Vehicles",
    "request_reason": "Abandoned/Junk Vehicles",
    "date_created": "2024-07-01T15:01:39.000",
    "date_modified": "2024-07-01T15:01:39.000",
    "request_status": "Pending",
    "responsible_agency": "Department of Public Works",
    "final_address": "4700 BLK Citrus Dr",
    "address_councildis": "E",
    "status": "Pending",
    "rowid": "1108584",
    "final_x": "3710779.88647",
    "final_y": "555822.772656",
    "longitude": "-89.97470600132725",
    "latitude": "30.02139764555112",
    "geocoded_column": {
      "latitude": "30.02139764555112",
      "longitude": "-89.97470600132725"
    }
  },
  {
    "service_request": "2024-1108583",
    "request_type": "Property Maintenance",
    "request_reason": "Property Maintenance",
    "date_created": "2024-07-01T15:00:56.000",
    "date_modified": "2024-07-01T15:00:56.000",
    "request_status": "Pending",
    "responsible_agency": "Department of Code Enforcement",
    "final_address": "4417 Bienville Ave",
    "address_councildis": "A",
    "status": "Pending",
    "rowid": "1108583",
    "final_x": "3670392.78938",
    "final_y": "539987.117195",
    "longitude": "-90.10285587522638",
    "latitude": "29.979109989708068",
    "geocoded_column": {
      "latitude": "29.979109989708068",
      "longitude": "-90.10285587522638"
    }
  },
  {
    "service_request": "2024-1108582",
    "request_type": "Traffic Signals/Signs/Striping/Streetlights",
    "request_reason": "Street Name Sign Damaged or Missing",
    "date_created": "2024-07-01T14:58:19.000",
    "date_modified": "2024-07-01T14:58:19.000",
    "request_status": "Pending",
    "responsible_agency": "Department of Public Works",
    "final_address": "4700 BLK Citrus Dr",
    "address_councildis": "E",
    "status": "Pending",
    "rowid": "1108582",
    "final_x": "3710779.88647",
    "final_y": "555822.772656",
    "longitude": "-89.97470600132725",
    "latitude": "30.02139764555112",
    "geocoded_column": {
      "latitude": "30.02139764555112",
      "longitude": "-89.97470600132725"
    }
  },
  {
    "service_request": "2024-1108581",
    "request_type": "Trash/Recycling",
    "request_reason": "Request a Large Item Pick Up",
    "date_created": "2024-07-01T14:56:19.000",
    "date_modified": "2024-07-01T14:56:20.000",
    "request_status": "Pending",
    "responsible_agency": "Department of Sanitation",
    "final_address": "4235 Tchoupitoulas St Apt F",
    "address_councildis": "B",
    "status": "Assigned to Contractor",
    "contractor": "IV Waste",
    "rowid": "1108581",
    "final_x": "3671614.14695",
    "final_y": "517623.044918",
    "longitude": "-90.09975877356123",
    "latitude": "29.917580013237362",
    "geocoded_column": {
      "latitude": "29.917580013237362",
      "longitude": "-90.09975877356123"
    }
  },
  {
    "service_request": "2024-1108580",
    "request_type": "Trash/Recycling",
    "request_reason": "Request a Large Item Pick Up",
    "date_created": "2024-07-01T14:54:32.000",
    "date_modified": "2024-07-01T14:54:32.000",
    "request_status": "Pending",
    "responsible_agency": "Department of Sanitation",
    "final_address": "2053 Chippewa St",
    "address_councildis": "B",
    "status": "Assigned to Contractor",
    "contractor": "IV Waste",
    "rowid": "1108580",
    "final_x": "3680131.4141",
    "final_y": "521261.502649",
    "longitude": "-90.07274818635328",
    "latitude": "29.927329710260626",
    "geocoded_column": {
      "latitude": "29.927329710260626",
      "longitude": "-90.07274818635328"
    }
  },
  {
    "service_request": "2024-1108579",
    "request_type": "Trash/Recycling",
    "request_reason": "Return Trash Cart",
    "date_created": "2024-07-01T14:53:43.000",
    "date_modified": "2024-07-01T14:53:44.000",
    "request_status": "Pending",
    "responsible_agency": "Department of Sanitation",
    "final_address": "2458 N Miro St",
    "address_councildis": "D",
    "status": "Assigned to Contractor",
    "contractor": "IV Waste",
    "rowid": "1108579",
    "final_x": "3686714.2518",
    "final_y": "540485.456459",
    "longitude": "-90.05128888242021",
    "latitude": "29.979988218905337",
    "geocoded_column": {
      "latitude": "29.979988218905337",
      "longitude": "-90.05128888242021"
    }
  },
  {
    "service_request": "2024-1108578",
    "request_type": "Trash/Recycling",
    "request_reason": "Repair Trash Cart",
    "date_created": "2024-07-01T14:53:24.000",
    "date_modified": "2024-07-01T14:53:24.000",
    "request_status": "Pending",
    "responsible_agency": "Department of Sanitation",
    "final_address": "90 Dove St",
    "address_councildis": "D",
    "status": "Assigned to Contractor",
    "contractor": "IV Waste",
    "rowid": "1108578",
    "final_x": "3673417.43841",
    "final_y": "555582.339481",
    "longitude": "-90.09276956998909",
    "latitude": "30.021901727183486",
    "geocoded_column": {
      "latitude": "30.021901727183486",
      "longitude": "-90.09276956998909"
    }
  },
  {
    "service_request": "2024-1108577",
    "request_type": "Traffic Signals/Signs/Striping/Streetlights",
    "request_reason": "Street Light Outage/Malfunction",
    "date_created": "2024-07-01T14:50:58.000",
    "date_modified": "2024-07-01T14:51:41.000",
    "request_status": "Pending",
    "responsible_agency": "Department of Public Works",
    "final_address": "4851 Michoud Blvd",
    "address_councildis": "E",
    "status": "Assigned to Contractor",
    "contractor": "Legacy Professional Services",
    "rowid": "1108577",
    "final_x": "3725142.76723",
    "final_y": "560981.18819",
    "longitude": "-89.92912415125524",
    "latitude": "30.035105100268115",
    "geocoded_column": {
      "latitude": "30.035105100268115",
      "longitude": "-89.92912415125524"
    }
  },
  {
    "service_request": "2024-1108576",
    "request_type": "Roads/Drainage",
    "request_reason": "Catch Basin - Clogged",
    "date_created": "2024-07-01T14:49:18.000",
    "date_modified": "2024-07-01T14:49:18.000",
    "request_status": "Pending",
    "responsible_agency": "Department of Public Works",
    "final_address": "3637 Desaix Blvd",
    "address_councildis": "D",
    "status": "Pending",
    "rowid": "1108576",
    "final_x": "3675467.35681",
    "final_y": "543794.89915",
    "longitude": "-90.08669756441621",
    "latitude": "29.989429259283128",
    "geocoded_column": {
      "latitude": "29.989429259283128",
      "longitude": "-90.08669756441621"
    }
  },
  {
    "service_request": "2024-1108575",
    "request_type": "Traffic Signals/Signs/Striping/Streetlights",
    "request_reason": "Additional signage",
    "date_created": "2024-07-01T14:48:17.000",
    "date_modified": "2024-07-01T14:48:18.000",
    "request_status": "Pending",
    "responsible_agency": "Department of Public Works",
    "final_address": "VENDOME PL & MARTIN LUTHER KING JR BLVD & S NORMAN C FRANCIS PKWY",
    "address_councildis": "B",
    "status": "Pending",
    "rowid": "1108575",
    "final_x": "3669505.4",
    "final_y": "531596.08",
    "longitude": "-90.10594248626451",
    "latitude": "29.956063611907474",
    "geocoded_column": {
      "latitude": "29.956063611907474",
      "longitude": "-90.10594248626451"
    }
  },
  {
    "service_request": "2024-1108574",
    "request_type": "Roads/Drainage",
    "request_reason": "Pothole",
    "date_created": "2024-07-01T14:46:49.000",
    "date_modified": "2024-07-01T14:47:08.000",
    "case_close_date": "2024-07-01T09:47:08.000",
    "request_status": "Closed",
    "responsible_agency": "Department of Public Works",
    "final_address": "827 Toulouse St",
    "address_councildis": "C",
    "status": "Resolved",
    "rowid": "1108574",
    "final_x": "3681906.18293",
    "final_y": "532581.968004",
    "longitude": "-90.06675067652725",
    "latitude": "29.958403394828387",
    "geocoded_column": {
      "latitude": "29.958403394828387",
      "longitude": "-90.06675067652725"
    }
  },
  {
    "service_request": "2024-1108573",
    "request_type": "Trash/Recycling",
    "request_reason": "Missed Trash Pick-Up",
    "date_created": "2024-07-01T14:44:52.000",
    "date_modified": "2024-07-01T16:49:32.000",
    "case_close_date": "2024-07-01T11:49:32.000",
    "request_status": "Closed",
    "responsible_agency": "Department of Sanitation",
    "final_address": "2639 Dumaine St",
    "address_councildis": "D",
    "status": "Invalid Request",
    "contractor": "IV Waste",
    "contractor_action": "Invalid Request",
    "rowid": "1108573",
    "final_x": "3677365.14498",
    "final_y": "537409.568392",
    "longitude": "-90.08092344401624",
    "latitude": "29.971814896696646",
    "geocoded_column": {
      "latitude": "29.971814896696646",
      "longitude": "-90.08092344401624"
    }
  },
  {
    "service_request": "2024-1108572",
    "request_type": "Traffic Signals/Signs/Striping/Streetlights",
    "request_reason": "Street Name Sign Damaged or Missing",
    "date_created": "2024-07-01T14:44:30.000",
    "date_modified": "2024-07-01T14:44:31.000",
    "request_status": "Pending",
    "responsible_agency": "Department of Public Works",
    "final_address": "DART ST & VENDOME PL",
    "address_councildis": "B",
    "status": "Pending",
    "rowid": "1108572",
    "final_x": "3669266.5",
    "final_y": "531566.98",
    "longitude": "-90.10669783664129",
    "latitude": "29.955990630792872",
    "geocoded_column": {
      "latitude": "29.955990630792872",
      "longitude": "-90.10669783664129"
    }
  },
  {
    "service_request": "2024-1108571",
    "request_type": "Trash/Recycling",
    "request_reason": "Request a Large Item Pick Up",
    "date_created": "2024-07-01T14:42:15.000",
    "date_modified": "2024-07-01T14:42:15.000",
    "request_status": "Pending",
    "responsible_agency": "Department of Sanitation",
    "final_address": "5551 Rickert Dr",
    "address_councildis": "E",
    "status": "Assigned to Contractor",
    "contractor": "Waste Pro",
    "rowid": "1108571",
    "final_x": "3703191.32983",
    "final_y": "556411.421786",
    "longitude": "-89.99866192063784",
    "latitude": "30.02326142616753",
    "geocoded_column": {
      "latitude": "30.02326142616753",
      "longitude": "-89.99866192063784"
    }
  },
  {
    "service_request": "2024-1108570",
    "request_type": "Trash/Recycling",
    "request_reason": "Return Trash Cart",
    "date_created": "2024-07-01T14:41:50.000",
    "date_modified": "2024-07-01T14:41:50.000",
    "request_status": "Pending",
    "responsible_agency": "Department of Sanitation",
    "final_address": "1966 Mirabeau Ave",
    "address_councildis": "D",
    "status": "Assigned to Contractor",
    "contractor": "IV Waste",
    "rowid": "1108570",
    "final_x": "3682230.04021",
    "final_y": "550492.187988",
    "longitude": "-90.06510205765039",
    "latitude": "30.00764037236326",
    "geocoded_column": {
      "latitude": "30.00764037236326",
      "longitude": "-90.06510205765039"
    }
  },
  {
    "service_request": "2024-1108569",
    "request_type": "Trash/Recycling",
    "request_reason": "Request a Large Item Pick Up",
    "date_created": "2024-07-01T14:41:25.000",
    "date_modified": "2024-07-01T14:41:26.000",
    "request_status": "Pending",
    "responsible_agency": "Department of Sanitation",
    "final_address": "2629 Aubry St",
    "address_councildis": "D",
    "status": "Assigned to Contractor",
    "contractor": "IV Waste",
    "rowid": "1108569",
    "final_x": "3679569.93973",
    "final_y": "541230.658508",
    "longitude": "-90.07382771151954",
    "latitude": "29.982255125883736",
    "geocoded_column": {
      "latitude": "29.982255125883736",
      "longitude": "-90.07382771151954"
    }
  },
  {
    "service_request": "2024-1108568",
    "request_type": "Roads/Drainage",
    "request_reason": "Pothole",
    "date_created": "2024-07-01T14:41:18.000",
    "date_modified": "2024-07-01T14:41:35.000",
    "case_close_date": "2024-07-01T09:41:35.000",
    "request_status": "Closed",
    "responsible_agency": "Department of Public Works",
    "final_address": "517 Bienville St",
    "address_councildis": "C",
    "status": "Resolved",
    "rowid": "1108568",
    "final_x": "3682175.26236",
    "final_y": "530943.751554",
    "longitude": "-90.06595821389634",
    "latitude": "29.95389067525782",
    "geocoded_column": {
      "latitude": "29.95389067525782",
      "longitude": "-90.06595821389634"
    }
  },
  {
    "service_request": "2024-1108567",
    "request_type": "Abandoned Vehicles",
    "request_reason": "Abandoned/Junk Vehicles",
    "date_created": "2024-07-01T14:39:55.000",
    "date_modified": "2024-07-01T14:39:55.000",
    "request_status": "Pending",
    "responsible_agency": "Department of Public Works",
    "final_address": "808 N Robertson St",
    "address_councildis": "C",
    "status": "Pending",
    "rowid": "1108567",
    "final_x": "3680376.71797",
    "final_y": "534718.637702",
    "longitude": "-90.07150601516159",
    "latitude": "29.964324907144096",
    "geocoded_column": {
      "latitude": "29.964324907144096",
      "longitude": "-90.07150601516159"
    }
  },
  {
    "service_request": "2024-1108566",
    "request_type": "Abandoned Vehicles",
    "request_reason": "Abandoned/Junk Vehicles",
    "date_created": "2024-07-01T14:38:46.000",
    "date_modified": "2024-07-01T14:42:37.000",
    "request_status": "Pending",
    "responsible_agency": "Department of Public Works",
    "final_address": "2108 Bienville Ave",
    "address_councildis": "B",
    "status": "Pending",
    "rowid": "1108566",
    "final_x": "3677625.24168",
    "final_y": "534285.142021",
    "longitude": "-90.0802099305511",
    "latitude": "29.963215968629097",
    "geocoded_column": {
      "latitude": "29.963215968629097",
      "longitude": "-90.0802099305511"
    }
  },
  {
    "service_request": "2024-1108565",
    "request_type": "Trash/Recycling",
    "request_reason": "Illegal Dumping",
    "date_created": "2024-07-01T14:38:11.000",
    "date_modified": "2024-07-01T14:38:11.000",
    "request_status": "Pending",
    "responsible_agency": "Department of Sanitation",
    "final_address": "3404 Feliciana St",
    "address_councildis": "D",
    "status": "Pending",
    "rowid": "1108565",
    "final_x": "3690992.5199",
    "final_y": "545197.055375",
    "longitude": "-90.03760810774033",
    "latitude": "29.99281110842221",
    "geocoded_column": {
      "latitude": "29.99281110842221",
      "longitude": "-90.03760810774033"
    }
  },
  {
    "service_request": "2024-1108564",
    "request_type": "Trash/Recycling",
    "request_reason": "Request a Large Item Pick Up",
    "date_created": "2024-07-01T14:37:54.000",
    "date_modified": "2024-07-01T14:37:55.000",
    "request_status": "Pending",
    "responsible_agency": "Department of Sanitation",
    "final_address": "2432 Broadway St",
    "address_councildis": "A",
    "status": "Assigned to Contractor",
    "contractor": "IV Waste",
    "rowid": "1108564",
    "final_x": "3666694.30881",
    "final_y": "530359.17261",
    "longitude": "-90.1148605167177",
    "latitude": "29.95274501786478",
    "geocoded_column": {
      "latitude": "29.95274501786478",
      "longitude": "-90.1148605167177"
    }
  },
  {
    "service_request": "2024-1108563",
    "request_type": "Roads/Drainage",
    "request_reason": "Pothole",
    "date_created": "2024-07-01T14:37:47.000",
    "date_modified": "2024-07-01T14:37:47.000",
    "request_status": "Pending",
    "responsible_agency": "Department of Public Works",
    "final_address": "725 Iberville St",
    "address_councildis": "C",
    "status": "Pending",
    "rowid": "1108563",
    "final_x": "3681304.42556",
    "final_y": "531158.756418",
    "longitude": "-90.06870046414697",
    "latitude": "29.954508321971122",
    "geocoded_column": {
      "latitude": "29.954508321971122",
      "longitude": "-90.06870046414697"
    }
  },
  {
    "service_request": "2024-1108562",
    "request_type": "Trash/Recycling",
    "request_reason": "Request a Large Item Pick Up",
    "date_created": "2024-07-01T14:37:09.000",
    "date_modified": "2024-07-01T14:37:10.000",
    "request_status": "Pending",
    "responsible_agency": "Department of Sanitation",
    "final_address": "6001 Eastover Dr",
    "address_councildis": "E",
    "status": "Assigned to Contractor",
    "contractor": "Waste Pro",
    "rowid": "1108562",
    "final_x": "3718852.70764",
    "final_y": "565261.171426",
    "longitude": "-89.9488380760335",
    "latitude": "30.047083759291052",
    "geocoded_column": {
      "latitude": "30.047083759291052",
      "longitude": "-89.9488380760335"
    }
  },
  {
    "service_request": "2024-1108561",
    "request_type": "Trash/Recycling",
    "request_reason": "Illegal Dumping",
    "date_created": "2024-07-01T14:35:07.000",
    "date_modified": "2024-07-01T14:35:07.000",
    "request_status": "Pending",
    "responsible_agency": "Department of Sanitation",
    "final_address": "3404 Feliciana St",
    "address_councildis": "D",
    "status": "Pending",
    "rowid": "1108561",
    "final_x": "3690992.5199",
    "final_y": "545197.055375",
    "longitude": "-90.03760810774033",
    "latitude": "29.99281110842221",
    "geocoded_column": {
      "latitude": "29.99281110842221",
      "longitude": "-90.03760810774033"
    }
  },
  {
    "service_request": "2024-1108560",
    "request_type": "Abandoned Vehicles",
    "request_reason": "Abandoned/Junk Vehicles",
    "date_created": "2024-07-01T14:34:14.000",
    "date_modified": "2024-07-01T14:34:14.000",
    "request_status": "Pending",
    "responsible_agency": "Department of Public Works",
    "final_address": "1220 N Robertson St",
    "address_councildis": "C",
    "status": "Pending",
    "rowid": "1108560",
    "final_x": "3681385.26818",
    "final_y": "536022.487879",
    "longitude": "-90.06827563864783",
    "latitude": "29.96787947043839",
    "geocoded_column": {
      "latitude": "29.96787947043839",
      "longitude": "-90.06827563864783"
    }
  },
  {
    "service_request": "2024-1108559",
    "request_type": "Trash/Recycling",
    "request_reason": "Return Recycling Cart",
    "date_created": "2024-07-01T14:32:46.000",
    "date_modified": "2024-07-01T14:32:46.000",
    "request_status": "Pending",
    "responsible_agency": "Department of Sanitation",
    "final_address": "4627 Redwood St",
    "address_councildis": "E",
    "status": "Pending",
    "rowid": "1108559",
    "final_x": "3712636.29451",
    "final_y": "555460.639001",
    "longitude": "-89.96885394726952",
    "latitude": "30.020341266273025",
    "geocoded_column": {
      "latitude": "30.020341266273025",
      "longitude": "-89.96885394726952"
    }
  },
  {
    "service_request": "2024-1108558",
    "request_type": "Trash/Recycling",
    "request_reason": "Illegal Dumping",
    "date_created": "2024-07-01T14:32:40.000",
    "date_modified": "2024-07-01T14:32:40.000",
    "request_status": "Pending",
    "responsible_agency": "Department of Sanitation",
    "final_address": "310 N Rocheblave St",
    "address_councildis": "B",
    "status": "Pending",
    "rowid": "1108558",
    "final_x": "3676722.41019",
    "final_y": "535220.174854",
    "longitude": "-90.08302875076818",
    "latitude": "29.965814110531305",
    "geocoded_column": {
      "latitude": "29.965814110531305",
      "longitude": "-90.08302875076818"
    }
  },
  {
    "service_request": "2024-1108556",
    "request_type": "Trash/Recycling",
    "request_reason": "Illegal Dumping",
    "date_created": "2024-07-01T14:28:11.000",
    "date_modified": "2024-07-01T14:28:11.000",
    "request_status": "Pending",
    "responsible_agency": "Department of Sanitation",
    "final_address": "3404 Feliciana St",
    "address_councildis": "D",
    "status": "Pending",
    "rowid": "1108556",
    "final_x": "3690992.5199",
    "final_y": "545197.055375",
    "longitude": "-90.03760810774033",
    "latitude": "29.99281110842221",
    "geocoded_column": {
      "latitude": "29.99281110842221",
      "longitude": "-90.03760810774033"
    }
  },
  {
    "service_request": "2024-1108555",
    "request_type": "Trash/Recycling",
    "request_reason": "Repair Trash Cart",
    "date_created": "2024-07-01T14:25:40.000",
    "date_modified": "2024-07-01T14:25:41.000",
    "request_status": "Pending",
    "responsible_agency": "Department of Sanitation",
    "final_address": "58 English Turn Dr",
    "address_councildis": "C",
    "status": "Assigned to Contractor",
    "contractor": "Richards Disposal",
    "rowid": "1108555",
    "final_x": "3721570.56428",
    "final_y": "513680.654898",
    "longitude": "-89.94222745560734",
    "latitude": "29.905166522610354",
    "geocoded_column": {
      "latitude": "29.905166522610354",
      "longitude": "-89.94222745560734"
    }
  },
  {
    "service_request": "2024-1108554",
    "request_type": "Abandoned Vehicles",
    "request_reason": "Abandoned/Junk Vehicles",
    "date_created": "2024-07-01T14:25:36.000",
    "date_modified": "2024-07-01T14:25:36.000",
    "request_status": "Pending",
    "responsible_agency": "Department of Public Works",
    "final_address": "N CLAIBORNE AV OVERPASS & ST FERDINAND ST",
    "address_councildis": "D",
    "status": "Pending",
    "rowid": "1108554",
    "final_x": "3688196.41",
    "final_y": "538184.28",
    "longitude": "-90.0466892362908",
    "latitude": "29.973615114346856",
    "geocoded_column": {
      "latitude": "29.973615114346856",
      "longitude": "-90.0466892362908"
    }
  },
  {
    "service_request": "2024-1108553",
    "request_type": "Property Maintenance",
    "request_reason": "Property Maintenance",
    "date_created": "2024-07-01T14:23:26.000",
    "date_modified": "2024-07-01T14:23:26.000",
    "request_status": "Pending",
    "responsible_agency": "Department of Code Enforcement",
    "final_address": "4400 BLK Reynes St",
    "address_councildis": "E",
    "status": "Pending",
    "rowid": "1108553",
    "final_x": "3699304.3028",
    "final_y": "553321.318014",
    "longitude": "-90.01105669107123",
    "latitude": "30.014888735653283",
    "geocoded_column": {
      "latitude": "30.014888735653283",
      "longitude": "-90.01105669107123"
    }
  },
  {
    "service_request": "2024-1108552",
    "request_type": "Parks & Parkways",
    "request_reason": "Request Tree Service (Right of Way/Public Property)",
    "date_created": "2024-07-01T14:23:21.000",
    "date_modified": "2024-07-01T14:23:22.000",
    "request_status": "Pending",
    "responsible_agency": "Department of Parks & Parkway",
    "final_address": "7621 Trapier Ave",
    "address_councildis": "E",
    "status": "Pending",
    "rowid": "1108552",
    "final_x": "3706651.40574",
    "final_y": "563587.773793",
    "longitude": "-89.98746257530478",
    "latitude": "30.042882301616974",
    "geocoded_column": {
      "latitude": "30.042882301616974",
      "longitude": "-89.98746257530478"
    }
  },
  {
    "service_request": "2024-1108551",
    "request_type": "Abandoned Vehicles",
    "request_reason": "Abandoned/Junk Vehicles",
    "date_created": "2024-07-01T14:22:19.000",
    "date_modified": "2024-07-01T14:22:20.000",
    "request_status": "Pending",
    "responsible_agency": "Department of Public Works",
    "final_address": "1400 BLK Congress St",
    "address_councildis": "C",
    "status": "Pending",
    "rowid": "1108551",
    "final_x": "3691041.10246",
    "final_y": "536872.99133",
    "longitude": "-90.03775194848686",
    "latitude": "29.969921396465146",
    "geocoded_column": {
      "latitude": "29.969921396465146",
      "longitude": "-90.03775194848686"
    }
  },
  {
    "service_request": "2024-1108550",
    "request_type": "Trash/Recycling",
    "request_reason": "Request a Large Item Pick Up",
    "date_created": "2024-07-01T14:21:12.000",
    "date_modified": "2024-07-01T14:21:13.000",
    "request_status": "Pending",
    "responsible_agency": "Department of Sanitation",
    "final_address": "49 Marywood Ct",
    "address_councildis": "E",
    "status": "Assigned to Contractor",
    "contractor": "Waste Pro",
    "rowid": "1108550",
    "final_x": "3712138.86117",
    "final_y": "567044.05002",
    "longitude": "-89.96999019486908",
    "latitude": "30.052207297177024",
    "geocoded_column": {
      "latitude": "30.052207297177024",
      "longitude": "-89.96999019486908"
    }
  },
  {
    "service_request": "2024-1108549",
    "request_type": "Trash/Recycling",
    "request_reason": "Request a Large Item Pick Up",
    "date_created": "2024-07-01T14:20:30.000",
    "date_modified": "2024-07-01T14:20:30.000",
    "request_status": "Pending",
    "responsible_agency": "Department of Sanitation",
    "final_address": "3016 Marais St",
    "address_councildis": "C",
    "status": "Assigned to Contractor",
    "contractor": "IV Waste",
    "rowid": "1108549",
    "final_x": "3688655.09942",
    "final_y": "536422.033351",
    "longitude": "-90.04530316329189",
    "latitude": "29.96875538485169",
    "geocoded_column": {
      "latitude": "29.96875538485169",
      "longitude": "-90.04530316329189"
    }
  },
  {
    "service_request": "2024-1108548",
    "request_type": "Trash/Recycling",
    "request_reason": "Order Recycling Cart",
    "date_created": "2024-07-01T14:19:58.000",
    "date_modified": "2024-07-01T14:19:58.000",
    "request_status": "Pending",
    "responsible_agency": "Department of Sanitation",
    "final_address": "3509 Constance St",
    "address_councildis": "B",
    "status": "Pending",
    "rowid": "1108548",
    "final_x": "3674465.71547",
    "final_y": "519059.315511",
    "longitude": "-90.09070878963361",
    "latitude": "29.921444577276787",
    "geocoded_column": {
      "latitude": "29.921444577276787",
      "longitude": "-90.09070878963361"
    }
  },
  {
    "service_request": "2024-1108547",
    "request_type": "Trash/Recycling",
    "request_reason": "Illegal Dumping",
    "date_created": "2024-07-01T14:19:34.000",
    "date_modified": "2024-07-01T14:19:35.000",
    "request_status": "Pending",
    "responsible_agency": "Department of Sanitation",
    "final_address": "4400 BLK Reynes St",
    "address_councildis": "E",
    "status": "Pending",
    "rowid": "1108547",
    "final_x": "3699304.3028",
    "final_y": "553321.318014",
    "longitude": "-90.01105669107123",
    "latitude": "30.014888735653283",
    "geocoded_column": {
      "latitude": "30.014888735653283",
      "longitude": "-90.01105669107123"
    }
  },