[
  {
    "service_request": "2021-831107",
    "request_type": "Abandoned Vehicles",
    "request_reason": "Abandoned/Junk Vehicles",
    "date_created": "2021-10-08T00:45:58.000",
    "date_modified": "2021-10-08T00:45:58.000",
    "request_status": "Pending",
    "responsible_agency": "Department of Public Works",
    "final_address": "238 Morgan St",
    "address_councildis": "C",
    "status": "Pending",
    "rowid": "831107",
    "final_x": "3685971.90601",
    "final_y": "531123.49325",
    "longitude": "-90.05396366107105",
    "latitude": "29.95426888967819",
    "geocoded_column": {
      "latitude": "29.95426888967819",
      "longitude": "-90.05396366107105"
    }
  },
  {
    "service_request": "2021-831106",
    "request_type": "Traffic Signals/Signs/Striping/Streetlights",
    "request_reason": "Street Light Outage/Malfunction",
    "date_created": "2021-10-08T00:23:16.000",
    "date_modified": "2021-10-08T00:23:17.000",
    "request_status": "Pending",
    "responsible_agency": "Department of Public Works",
    "final_address": "1733 S Carrollton Ave",
    "address_councildis": "A",
    "status": "Pending",
    "contractor": "Royal Engineering",
    "rowid": "831106",
    "final_x": "3663463.63859",
    "final_y": "529735.311937",
    "longitude": "-90.12508234809263",
    "latitude": "29.95112367069683",
    "geocoded_column": {
      "latitude": "29.95112367069683",
      "longitude": "-90.12508234809263"
    }
  },
  {
    "service_request": "2021-831105",
    "request_type": "Traffic Signals/Signs/Striping/Streetlights",
    "request_reason": "Street Light Outage/Malfunction",
    "date_created": "2021-10-07T23:49:24.000",
    "date_modified": "2021-10-07T23:49:25.000",
    "request_status": "Pending",
    "responsible_agency": "Department of Public Works",
    "final_address": "1731 S Carrollton Ave",
    "address_councildis": "A",
    "status": "Pending",
    "contractor": "Royal Engineering",
    "rowid": "831105",
    "final_x": "3663441.05741",
    "final_y": "529738.397185",
    "longitude": "-90.12515354582045",
    "latitude": "29.951132808840708",
    "geocoded_column": {
      "latitude": "29.951132808840708",
      "longitude": "-90.12515354582045"
    }
  },
  {
    "service_request": "2021-831104",
    "request_type": "Roads/Drainage",
    "request_reason": "Unpermitted work in ROW",
    "date_created": "2021-10-07T23:21:22.000",
    "date_modified": "2021-10-07T23:21:22.000",
    "request_status": "Pending",
    "responsible_agency": "Department of Public Works",
    "final_address": "4059 Tulane Ave",
    "address_councildis": "A",
    "status": "Pending",
    "rowid": "831104",
    "final_x": "3669518.72916",
    "final_y": "536269.429511",
    "longitude": "-90.10574230033515",
    "latitude": "29.96891337933067",
    "geocoded_column": {
      "latitude": "29.96891337933067",
      "longitude": "-90.10574230033515"
    }
  },
  {
    "service_request": "2021-831103",
    "request_type": "Trash/Recycling",
    "request_reason": "Missed Trash Pick-Up",
    "date_created": "2021-10-07T23:06:03.000",
    "date_modified": "2021-10-07T23:06:04.000",
    "request_status": "Pending",
    "responsible_agency": "Department of Sanitation",
    "final_address": "3655 Clematis St",
    "address_councildis": "D",
    "status": "Assigned to Contractor",
    "contractor": "Metro Disposal",
    "rowid": "831103",
    "final_x": "3686210.31964",
    "final_y": "546482.552913",
    "longitude": "-90.05266880576302",
    "latitude": "29.996493592652453",
    "geocoded_column": {
      "latitude": "29.996493592652453",
      "longitude": "-90.05266880576302"
    }
  },
  {
    "service_request": "2021-831101",
    "request_type": "Trash/Recycling",
    "request_reason": "MIssed Recycling Pick-Up",
    "date_created": "2021-10-07T23:01:03.000",
    "date_modified": "2021-10-07T23:01:03.000",
    "request_status": "Pending",
    "responsible_agency": "Department of Sanitation",
    "final_address": "4718 Schindler Dr",
    "address_councildis": "E",
    "status": "Assigned to Contractor",
    "contractor": "Metro Disposal",
    "rowid": "831101",
    "final_x": "3714283.01407",
    "final_y": "556499.14537",
    "longitude": "-89.96361165190939",
    "latitude": "30.023142727586727",
    "geocoded_column": {
      "latitude": "30.023142727586727",
      "longitude": "-89.96361165190939"
    }
  },
  {
    "service_request": "2021-831100",
    "request_type": "Roads/Drainage",
    "request_reason": "Street Flooding / Drainage",
    "date_created": "2021-10-07T22:20:57.000",
    "date_modified": "2021-10-07T22:20:57.000",
    "request_status": "Pending",
    "responsible_agency": "Department of Public Works",
    "final_address": "1510 Monroe St",
    "address_councildis": "A",
    "status": "Pending",
    "rowid": "831100",
    "final_x": "3661141.01568",
    "final_y": "530692.42413",
    "longitude": "-90.13238439839716",
    "latitude": "29.95382256024502",
    "geocoded_column": {
      "latitude": "29.95382256024502",
      "longitude": "-90.13238439839716"
    }
  },
  {
    "service_request": "2021-831098",
    "request_type": "Roads/Drainage",
    "request_reason": "Alley Way",
    "date_created": "2021-10-07T22:15:29.000",
    "date_modified": "2021-10-07T22:15:29.000",
    "request_status": "Pending",
    "responsible_agency": "Department of Public Works",
    "final_address": "6018 Milne Blvd",
    "address_councildis": "A",
    "status": "Pending",
    "rowid": "831098",
    "final_x": "3666948.11693",
    "final_y": "547738.68597",
    "longitude": "-90.11347488447443",
    "latitude": "30.000525425274734",
    "geocoded_column": {
      "latitude": "30.000525425274734",
      "longitude": "-90.11347488447443"
    }
  },
  {
    "service_request": "2021-831097",
    "request_type": "Trash/Recycling",
    "request_reason": "Replace Trash Cart",
    "date_created": "2021-10-07T22:14:15.000",
    "date_modified": "2021-10-07T22:14:15.000",
    "request_status": "Pending",
    "responsible_agency": "Department of Sanitation",
    "final_address": "New Orleans,LA",
    "status": "Assigned to Contractor",
    "rowid": "831097",
    "longitude": "0.0",
    "latitude": "0.0",
    "geocoded_column": {
      "latitude": "0.0",
      "longitude": "0.0"
    }
  },
  {
    "service_request": "2021-831096",
    "request_type": "Trash/Recycling",
    "request_reason": "Replace Trash Cart",
    "date_created": "2021-10-07T22:12:21.000",
    "date_modified": "2021-10-07T22:12:21.000",
    "request_status": "Pending",
    "responsible_agency": "Department of Sanitation",
    "final_address": "6135 Catina St",
    "address_councildis": "A",
    "status": "Assigned to Contractor",
    "contractor": "Metro Disposal",
    "rowid": "831096",
    "final_x": "3666900.32833",
    "final_y": "548430.595666",
    "longitude": "-90.11360258490949",
    "latitude": "30.002429336636297",
    "geocoded_column": {
      "latitude": "30.002429336636297",
      "longitude": "-90.11360258490949"
    }
  },
  {
    "service_request": "2021-831095",
    "request_type": "Traffic Signals/Signs/Striping/Streetlights",
    "request_reason": "Street Light Outage/Malfunction",
    "date_created": "2021-10-07T22:04:14.000",
    "date_modified": "2021-10-07T22:04:15.000",
    "request_status": "Pending",
    "responsible_agency": "Department of Public Works",
    "final_address": "2100 Baronne St",
    "address_councildis": "B",
    "status": "Pending",
    "contractor": "Royal Engineering",
    "rowid": "831095",
    "final_x": "3677324.11816",
    "final_y": "524644.926396",
    "longitude": "-90.08149343316524",
    "latitude": "29.9367176425901",
    "geocoded_column": {
      "latitude": "29.9367176425901",
      "longitude": "-90.08149343316524"
    }
  },
  {
    "service_request": "2021-831093",
    "request_type": "Trash/Recycling",
    "request_reason": "Illegal Dumping",
    "date_created": "2021-10-07T21:55:53.000",
    "date_modified": "2021-10-07T21:55:53.000",
    "request_status": "Pending",
    "responsible_agency": "Department of Sanitation",
    "final_address": "4604 Tulip St",
    "address_councildis": "E",
    "status": "Pending",
    "rowid": "831093",
    "final_x": "3702077.57834",
    "final_y": "553494.679639",
    "longitude": "-90.00228817047763",
    "latitude": "30.015277125906906",
    "geocoded_column": {
      "latitude": "30.015277125906906",
      "longitude": "-90.00228817047763"
    }
  },
  {
    "service_request": "2021-831092",
    "request_type": "Trash/Recycling",
    "request_reason": "Missed Trash Pick-Up",
    "date_created": "2021-10-07T21:42:05.000",
    "date_modified": "2021-10-07T21:42:05.000",
    "request_status": "Pending",
    "responsible_agency": "Department of Sanitation",
    "final_address": "1662 Abundance St",
    "address_councildis": "D",
    "status": "Assigned to Contractor",
    "contractor": "Metro Disposal",
    "rowid": "831092",
    "final_x": "3680434.6525",
    "final_y": "543303.392334",
    "longitude": "-90.07102440727711",
    "latitude": "29.987928255139828",
    "geocoded_column": {
      "latitude": "29.987928255139828",
      "longitude": "-90.07102440727711"
    }
  },
  {
    "service_request": "2021-831091",
    "request_type": "Health Related Questions",
    "request_reason": "Noise Ordinance Complaint",
    "date_created": "2021-10-07T21:34:26.000",
    "date_modified": "2021-10-07T21:34:26.000",
    "request_status": "Pending",
    "responsible_agency": "Health Department",
    "final_address": "3600 Annunciation St",
    "address_councildis": "B",
    "status": "Pending",
    "rowid": "831091",
    "final_x": "3674445.15412",
    "final_y": "518188.517494",
    "longitude": "-90.09080349967799",
    "latitude": "29.919050774710865",
    "geocoded_column": {
      "latitude": "29.919050774710865",
      "longitude": "-90.09080349967799"
    }
  },
  {
    "service_request": "2021-831090",
    "request_type": "Health Related Questions",
    "request_reason": "Noise Ordinance Complaint",
    "date_created": "2021-10-07T21:32:37.000",
    "date_modified": "2021-10-07T21:32:37.000",
    "request_status": "Pending",
    "responsible_agency": "Health Department",
    "final_address": "3900 Annunciation St",
    "address_councildis": "B",
    "status": "Pending",
    "rowid": "831090",
    "final_x": "3673322.96475",
    "final_y": "517930.004214",
    "longitude": "-90.09435450549552",
    "latitude": "29.918373358267758",
    "geocoded_column": {
      "latitude": "29.918373358267758",
      "longitude": "-90.09435450549552"
    }
  },
  {
    "service_request": "2021-831089",
    "request_type": "Trash/Recycling",
    "request_reason": "Missed Trash Pick-Up",
    "date_created": "2021-10-07T21:19:58.000",
    "date_modified": "2021-10-07T21:19:59.000",
    "request_status": "Pending",
    "responsible_agency": "Department of Sanitation",
    "final_address": "5325 Wingate Dr",
    "address_councildis": "D",
    "status": "Assigned to Contractor",
    "contractor": "Metro Disposal",
    "rowid": "831089",
    "final_x": "3681460.78364",
    "final_y": "552797.68623",
    "longitude": "-90.06745189308931",
    "latitude": "30.01400304763723",
    "geocoded_column": {
      "latitude": "30.01400304763723",
      "longitude": "-90.06745189308931"
    }
  },
  {
    "service_request": "2021-831088",
    "request_type": "Traffic Signals/Signs/Striping/Streetlights",
    "request_reason": "Request for Stop Sign",
    "date_created": "2021-10-07T21:08:20.000",
    "date_modified": "2021-10-07T21:08:20.000",
    "request_status": "Pending",
    "responsible_agency": "Department of Public Works",
    "final_address": "2800 Perdido St",
    "address_councildis": "B",
    "status": "Pending",
    "rowid": "831088",
    "final_x": "3673045.13921",
    "final_y": "533174.644484",
    "longitude": "-90.09471129842385",
    "latitude": "29.960299405626934",
    "geocoded_column": {
      "latitude": "29.960299405626934",
      "longitude": "-90.09471129842385"
    }
  },
  {
    "service_request": "2021-831087",
    "request_type": "Traffic Signals/Signs/Striping/Streetlights",
    "request_reason": "Street Light Outage/Malfunction",
    "date_created": "2021-10-07T21:06:23.000",
    "date_modified": "2021-10-07T21:06:24.000",
    "request_status": "Pending",
    "responsible_agency": "Department of Public Works",
    "final_address": "10800 Dwyer Rd",
    "address_councildis": "E",
    "status": "Pending",
    "contractor": "Royal Engineering",
    "rowid": "831087",
    "final_x": "3715241.43653",
    "final_y": "558245.526812",
    "longitude": "-89.96051716827257",
    "latitude": "30.027913045607406",
    "geocoded_column": {
      "latitude": "30.027913045607406",
      "longitude": "-89.96051716827257"
    }
  },
  {
    "service_request": "2021-831086",
    "request_type": "Traffic Signals/Signs/Striping/Streetlights",
    "request_reason": "Street Light Outage/Malfunction",
    "date_created": "2021-10-07T20:58:18.000",
    "date_modified": "2021-10-07T20:58:19.000",
    "request_status": "Pending",
    "responsible_agency": "Department of Public Works",
    "final_address": "2917 St Claude Ave",
    "address_councildis": "C",
    "status": "Pending",
    "contractor": "Royal Engineering",
    "rowid": "831086",
    "final_x": "3688311.01756",
    "final_y": "536280.783111",
    "longitude": "-90.04639480131141",
    "latitude": "29.968377626738363",
    "geocoded_column": {
      "latitude": "29.968377626738363",
      "longitude": "-90.04639480131141"
    }
  },
  {
    "service_request": "2021-831085",
    "request_type": "Abandoned Vehicles",
    "request_reason": "Abandoned/Junk Vehicles",
    "date_created": "2021-10-07T20:51:10.000",
    "date_modified": "2021-10-07T20:51:10.000",
    "request_status": "Pending",
    "responsible_agency": "Department of Public Works",
    "final_address": "3601 Conti St",
    "address_councildis": "B",
    "status": "Pending",
    "rowid": "831085",
    "final_x": "3673355.81339",
    "final_y": "538436.863433",
    "longitude": "-90.09355045873869",
    "latitude": "29.974759496447952",
    "geocoded_column": {
      "latitude": "29.974759496447952",
      "longitude": "-90.09355045873869"
    }
  },
  {
    "service_request": "2021-831084",
    "request_type": "Trash/Recycling",
    "request_reason": "Request a Large Item Pick Up",
    "date_created": "2021-10-07T20:21:40.000",
    "date_modified": "2021-10-07T21:03:45.000",
    "request_status": "Pending",
    "responsible_agency": "Department of Sanitation",
    "final_address": "New Orleans,LA",
    "address_councildis": "C",
    "status": "Assigned to Contractor",
    "contractor": "Metro Disposal",
    "rowid": "831084",
    "final_x": "3690800.63638",
    "final_y": "534743.073414",
    "longitude": "-90.0385873669013",
    "latitude": "29.964072344558815",
    "geocoded_column": {
      "latitude": "29.964072344558815",
      "longitude": "-90.0385873669013"
    }
  },
  {
    "service_request": "2021-831082",
    "request_type": "Traffic Signals/Signs/Striping/Streetlights",
    "request_reason": "Street Light Outage/Malfunction",
    "date_created": "2021-10-07T20:07:06.000",
    "date_modified": "2021-10-07T20:07:06.000",
    "request_status": "Pending",
    "responsible_agency": "Department of Public Works",
    "final_address": "5828 Orleans Ave",
    "address_councildis": "A",
    "status": "Pending",
    "contractor": "Royal Engineering",
    "rowid": "831082",
    "final_x": "3670734.14337",
    "final_y": "546000.332176",
    "longitude": "-90.10157358268891",
    "latitude": "29.995634185564683",
    "geocoded_column": {
      "latitude": "29.995634185564683",
      "longitude": "-90.10157358268891"
    }
  },
  {
    "service_request": "2021-831081",
    "request_type": "Roads/Drainage",
    "request_reason": "Pothole",
    "date_created": "2021-10-07T20:00:05.000",
    "date_modified": "2021-10-07T20:00:05.000",
    "request_status": "Pending",
    "responsible_agency": "Department of Public Works",
    "final_address": "640 Pauline St",
    "address_councildis": "C",
    "status": "Pending",
    "rowid": "831081",
    "final_x": "3690808.12304",
    "final_y": "533928.846085",
    "longitude": "-90.03859277862686",
    "latitude": "29.96183327164464",
    "geocoded_column": {
      "latitude": "29.96183327164464",
      "longitude": "-90.03859277862686"
    }
  },
  {
    "service_request": "2021-831080",
    "request_type": "Traffic Signals/Signs/Striping/Streetlights",
    "request_reason": "Street Light Outage/Malfunction",
    "date_created": "2021-10-07T19:48:12.000",
    "date_modified": "2021-10-07T19:48:13.000",
    "request_status": "Pending",
    "responsible_agency": "Department of Public Works",
    "final_address": "640 Pauline St",
    "address_councildis": "C",
    "status": "Pending",
    "contractor": "Royal Engineering",
    "rowid": "831080",
    "final_x": "3690808.12304",
    "final_y": "533928.846085",
    "longitude": "-90.03859277862686",
    "latitude": "29.96183327164464",
    "geocoded_column": {
      "latitude": "29.96183327164464",
      "longitude": "-90.03859277862686"
    }
  },
  {
    "service_request": "2021-831079",
    "request_type": "Trash/Recycling",
    "request_reason": "Missed Trash Pick-Up",
    "date_created": "2021-10-07T19:45:13.000",
    "date_modified": "2021-10-07T19:45:14.000",
    "request_status": "Pending",
    "responsible_agency": "Department of Sanitation",
    "final_address": "1427 N Galvez St",
    "address_councildis": "D",
    "status": "Assigned to Contractor",
    "contractor": "Metro Disposal",
    "rowid": "831079",
    "final_x": "3679950.59055",
    "final_y": "537920.034761",
    "longitude": "-90.07274046871001",
    "latitude": "29.973140547393886",
    "geocoded_column": {
      "latitude": "29.973140547393886",
      "longitude": "-90.07274046871001"
    }
  },
  {
    "service_request": "2021-831077",
    "request_type": "Trash/Recycling",
    "request_reason": "Repair Trash Cart",
    "date_created": "2021-10-07T19:20:44.000",
    "date_modified": "2021-10-07T19:20:45.000",
    "request_status": "Pending",
    "responsible_agency": "Department of Sanitation",
    "final_address": "5939 Memphis St",
    "address_councildis": "A",
    "status": "Assigned to Contractor",
    "contractor": "Metro Disposal",
    "rowid": "831077",
    "final_x": "3669242.46068",
    "final_y": "546878.752465",
    "longitude": "-90.1062559729096",
    "latitude": "29.99809354505497",
    "geocoded_column": {
      "latitude": "29.99809354505497",
      "longitude": "-90.1062559729096"
    }
  },
  {
    "service_request": "2021-831076",
    "request_type": "Trash/Recycling",
    "request_reason": "Missed Trash Pick-Up",
    "date_created": "2021-10-07T19:18:07.000",
    "date_modified": "2021-10-07T19:18:08.000",
    "request_status": "Pending",
    "responsible_agency": "Department of Sanitation",
    "final_address": "6130 Warwick Ct",
    "address_councildis": "C",
    "status": "Assigned to Contractor",
    "contractor": "Richards Disposal",
    "rowid": "831076",
    "final_x": "3706601.7466",
    "final_y": "515948.20946",
    "longitude": "-89.98938542453703",
    "latitude": "29.91189272752692",
    "geocoded_column": {
      "latitude": "29.91189272752692",
      "longitude": "-89.98938542453703"
    }
  },
  {
    "service_request": "2021-831075",
    "request_type": "Parks & Parkways",
    "request_reason": "Tree Stump (removal, grind)",
    "date_created": "2021-10-07T19:12:48.000",
    "date_modified": "2021-10-07T19:12:48.000",
    "request_status": "Pending",
    "responsible_agency": "Department of Parks & Parkway",
    "final_address": "7106 Selma St",
    "address_councildis": "E",
    "status": "Pending",
    "rowid": "831075",
    "final_x": "3701358.37745",
    "final_y": "553832.323287",
    "longitude": "-90.0045481222766",
    "latitude": "30.016228469486713",
    "geocoded_column": {
      "latitude": "30.016228469486713",
      "longitude": "-90.0045481222766"
    }
  },
  {
    "service_request": "2021-831074",
    "request_type": "Trash/Recycling",
    "request_reason": "Missed Trash Pick-Up",
    "date_created": "2021-10-07T18:58:22.000",
    "date_modified": "2021-10-07T18:58:23.000",
    "request_status": "Pending",
    "responsible_agency": "Department of Sanitation",
    "final_address": "4351 San Remo St",
    "address_councildis": "E",
    "status": "Assigned to Contractor",
    "contractor": "Metro Disposal",
    "rowid": "831074",
    "final_x": "3760526.57974",
    "final_y": "573623.996714",
    "longitude": "-89.81677984866538",
    "latitude": "30.068627338119175",
    "geocoded_column": {
      "latitude": "30.068627338119175",
      "longitude": "-89.81677984866538"
    }
  },
  {
    "service_request": "2021-831073",
    "request_type": "Trash/Recycling",
    "request_reason": "Missed Trash Pick-Up",
    "date_created": "2021-10-07T18:36:47.000",
    "date_modified": "2021-10-07T18:36:47.000",
    "request_status": "Pending",
    "responsible_agency": "Department of Sanitation",
    "final_address": "6202 Wainwright Dr",
    "address_councildis": "D",
    "status": "Assigned to Contractor",
    "contractor": "Metro Disposal",
    "rowid": "831073",
    "final_x": "3681318.08885",
    "final_y": "555641.431385",
    "longitude": "-90.0678035028763",
    "latitude": "30.021826644151133",
    "geocoded_column": {
      "latitude": "30.021826644151133",
      "longitude": "-90.0678035028763"
    }
  },
  {
    "service_request": "2021-831072",
    "request_type": "Traffic Signals/Signs/Striping/Streetlights",
    "request_reason": "Request for Stop Sign",
    "date_created": "2021-10-07T18:33:51.000",
    "date_modified": "2021-10-07T18:33:51.000",
    "request_status": "Pending",
    "responsible_agency": "Department of Public Works",
    "final_address": "201 S Villere St",
    "address_councildis": "B",
    "status": "Pending",
    "rowid": "831072",
    "final_x": "3678630.72072",
    "final_y": "532030.345475",
    "longitude": "-90.07711280661715",
    "latitude": "29.9569857671572",
    "geocoded_column": {
      "latitude": "29.9569857671572",
      "longitude": "-90.07711280661715"
    }
  },
  {
    "service_request": "2021-831071",
    "request_type": "Traffic Signals/Signs/Striping/Streetlights",
    "request_reason": "Traffic Signal Malfunctioning/Damaged",
    "date_created": "2021-10-07T18:32:03.000",
    "date_modified": "2021-10-07T18:32:03.000",
    "request_status": "Pending",
    "responsible_agency": "Department of Public Works",
    "final_address": "1200 Poydras St",
    "address_councildis": "B",
    "status": "Pending",
    "rowid": "831071",
    "final_x": "3678906.30728",
    "final_y": "529701.251393",
    "longitude": "-90.0763232713192",
    "latitude": "29.950573231070752",
    "geocoded_column": {
      "latitude": "29.950573231070752",
      "longitude": "-90.0763232713192"
    }
  },
  {
    "service_request": "2021-831070",
    "request_type": "Roads/Drainage",
    "request_reason": "Catch Basin - Broken/Damage",
    "date_created": "2021-10-07T18:26:42.000",
    "date_modified": "2021-10-07T18:26:42.000",
    "request_status": "Pending",
    "responsible_agency": "Department of Public Works",
    "final_address": "450 Mandeville St",
    "address_councildis": "C",
    "status": "Pending",
    "rowid": "831070",
    "final_x": "3685780.39638",
    "final_y": "534056.104645",
    "longitude": "-90.05446502023045",
    "latitude": "29.962338441013145",
    "geocoded_column": {
      "latitude": "29.962338441013145",
      "longitude": "-90.05446502023045"
    }
  },
  {
    "service_request": "2021-831068",
    "request_type": "Trash/Recycling",
    "request_reason": "Missed Trash Pick-Up",
    "date_created": "2021-10-07T18:19:30.000",
    "date_modified": "2021-10-07T18:19:30.000",
    "request_status": "Pending",
    "responsible_agency": "Department of Sanitation",
    "final_address": "4149 Canal St",
    "address_councildis": "A",
    "status": "Assigned to Contractor",
    "contractor": "Richards Disposal",
    "rowid": "831068",
    "final_x": "3670862.14292",
    "final_y": "538708.126601",
    "longitude": "-90.10141690130942",
    "latitude": "29.97557933175855",
    "geocoded_column": {
      "latitude": "29.97557933175855",
      "longitude": "-90.10141690130942"
    }
  },
  {
    "service_request": "2021-831066",
    "request_type": "Trash/Recycling",
    "request_reason": "Replace Trash Cart",
    "date_created": "2021-10-07T18:06:22.000",
    "date_modified": "2021-10-07T18:06:23.000",
    "request_status": "Pending",
    "responsible_agency": "Department of Sanitation",
    "final_address": "2123 Ellen Park Pl",
    "address_councildis": "C",
    "status": "Assigned to Contractor",
    "contractor": "Richards Disposal",
    "rowid": "831066",
    "final_x": "3702856.31735",
    "final_y": "523030.373371",
    "longitude": "-90.00094696650501",
    "latitude": "29.93148649655183",
    "geocoded_column": {
      "latitude": "29.93148649655183",
      "longitude": "-90.00094696650501"
    }
  },
  {
    "service_request": "2021-831064",
    "request_type": "Trash/Recycling",
    "request_reason": "Missed Trash Pick-Up",
    "date_created": "2021-10-07T18:01:33.000",
    "date_modified": "2021-10-07T18:01:34.000",
    "request_status": "Pending",
    "responsible_agency": "Department of Sanitation",
    "final_address": "472 Walnut St",
    "address_councildis": "A",
    "status": "Assigned to Contractor",
    "contractor": "Richards Disposal",
    "rowid": "831064",
    "final_x": "3662695.07488",
    "final_y": "523363.608187",
    "longitude": "-90.12772078290557",
    "latitude": "29.933625778170747",
    "geocoded_column": {
      "latitude": "29.933625778170747",
      "longitude": "-90.12772078290557"
    }
  },
  {
    "service_request": "2021-831063",
    "request_type": "Trash/Recycling",
    "request_reason": "Order Recycling Cart",
    "date_created": "2021-10-07T18:00:26.000",
    "date_modified": "2021-10-07T18:00:26.000",
    "request_status": "Pending",
    "responsible_agency": "Department of Sanitation",
    "final_address": "472 Walnut St",
    "address_councildis": "A",
    "status": "Pending",
    "rowid": "831063",
    "final_x": "3662695.07488",
    "final_y": "523363.608187",
    "longitude": "-90.12772078290557",
    "latitude": "29.933625778170747",
    "geocoded_column": {
      "latitude": "29.933625778170747",
      "longitude": "-90.12772078290557"
    }
  },
  {
    "service_request": "2021-831062",
    "request_type": "Trash/Recycling",
    "request_reason": "MIssed Recycling Pick-Up",
    "date_created": "2021-10-07T17:59:37.000",
    "date_modified": "2021-10-07T17:59:38.000",
    "request_status": "Pending",
    "responsible_agency": "Department of Sanitation",
    "final_address": "4918 S Prieur St",
    "address_councildis": "B",
    "status": "Assigned to Contractor",
    "contractor": "Richards Disposal",
    "rowid": "831062",
    "final_x": "3669090.91943",
    "final_y": "526637.515006",
    "longitude": "-90.10741879456256",
    "latitude": "29.942441378548565",
    "geocoded_column": {
      "latitude": "29.942441378548565",
      "longitude": "-90.10741879456256"
    }
  },
  {
    "service_request": "2021-831061",
    "request_type": "Trash/Recycling",
    "request_reason": "Replace Trash Cart",
    "date_created": "2021-10-07T17:59:02.000",
    "date_modified": "2021-10-07T17:59:03.000",
    "request_status": "Pending",
    "responsible_agency": "Department of Sanitation",
    "final_address": "472 Walnut St",
    "address_councildis": "A",
    "status": "Assigned to Contractor",
    "contractor": "Richards Disposal",
    "rowid": "831061",
    "final_x": "3662695.07488",
    "final_y": "523363.608187",
    "longitude": "-90.12772078290557",
    "latitude": "29.933625778170747",
    "geocoded_column": {
      "latitude": "29.933625778170747",
      "longitude": "-90.12772078290557"
    }
  },
  {
    "service_request": "2021-831060",
    "request_type": "Trash/Recycling",
    "request_reason": "Missed Trash Pick-Up",
    "date_created": "2021-10-07T17:57:38.000",
    "date_modified": "2021-10-07T17:57:38.000",
    "request_status": "Pending",
    "responsible_agency": "Department of Sanitation",
    "final_address": "4515 Paris Ave",
    "address_councildis": "D",
    "status": "Assigned to Contractor",
    "contractor": "Metro Disposal",
    "rowid": "831060",
    "final_x": "3679513.47938",
    "final_y": "549166.464467",
    "longitude": "-90.07373050399403",
    "latitude": "30.004077501456866",
    "geocoded_column": {
      "latitude": "30.004077501456866",
      "longitude": "-90.07373050399403"
    }
  },
  {
    "service_request": "2021-831057",
    "request_type": "Traffic Signals/Signs/Striping/Streetlights",
    "request_reason": "Street Light Outage/Malfunction",
    "date_created": "2021-10-07T17:53:16.000",
    "date_modified": "2021-10-07T17:53:17.000",
    "request_status": "Pending",
    "responsible_agency": "Department of Public Works",
    "final_address": "4618 Herschel St",
    "address_councildis": "C",
    "status": "Pending",
    "contractor": "Royal Engineering",
    "rowid": "831057",
    "final_x": "3702059.22167",
    "final_y": "520876.690809",
    "longitude": "-90.00354218819567",
    "latitude": "29.925590077799242",
    "geocoded_column": {
      "latitude": "29.925590077799242",
      "longitude": "-90.00354218819567"
    }
  },
  {
    "service_request": "2021-831056",
    "request_type": "Trash/Recycling",
    "request_reason": "Repair Trash Cart",
    "date_created": "2021-10-07T17:51:12.000",
    "date_modified": "2021-10-07T17:51:12.000",
    "request_status": "Pending",
    "responsible_agency": "Department of Sanitation",
    "final_address": "3140 Laurel St",
    "address_councildis": "B",
    "status": "Assigned to Contractor",
    "contractor": "Richards Disposal",
    "rowid": "831056",
    "final_x": "3676219.84981",
    "final_y": "519362.989047",
    "longitude": "-90.0851613076406",
    "latitude": "29.922227158052625",
    "geocoded_column": {
      "latitude": "29.922227158052625",
      "longitude": "-90.0851613076406"
    }
  },
  {
    "service_request": "2021-831055",
    "request_type": "Traffic Signals/Signs/Striping/Streetlights",
    "request_reason": "Street Light Outage/Malfunction",
    "date_created": "2021-10-07T17:44:29.000",
    "date_modified": "2021-10-07T17:46:21.000",
    "request_status": "Pending",
    "responsible_agency": "Department of Public Works",
    "final_address": "5109 Douglass St",
    "address_councildis": "E",
    "status": "Pending",
    "contractor": "Royal Engineering",
    "rowid": "831055",
    "final_x": "3695761.46115",
    "final_y": "532077.773635",
    "longitude": "-90.02301785138967",
    "latitude": "29.95658864680391",
    "geocoded_column": {
      "latitude": "29.95658864680391",
      "longitude": "-90.02301785138967"
    }
  },
  {
    "service_request": "2021-831054",
    "request_type": "Trash/Recycling",
    "request_reason": "Order Trash Cart",
    "date_created": "2021-10-07T17:42:11.000",
    "date_modified": "2021-10-07T17:42:11.000",
    "request_status": "Pending",
    "responsible_agency": "Department of Sanitation",
    "final_address": "407 Baronne St, #B, New Orleans, Louisiana, 70112",
    "status": "Assigned to Contractor",
    "rowid": "831054",
    "longitude": "0.0",
    "latitude": "0.0",
    "geocoded_column": {
      "latitude": "0.0",
      "longitude": "0.0"
    }
  },
  {
    "service_request": "2021-831053",
    "request_type": "Trash/Recycling",
    "request_reason": "Missed Trash Pick-Up",
    "date_created": "2021-10-07T17:40:20.000",
    "date_modified": "2021-10-07T17:40:21.000",
    "request_status": "Pending",
    "responsible_agency": "Department of Sanitation",
    "final_address": "1458 N Rocheblave St",
    "address_councildis": "D",
    "status": "Assigned to Contractor",
    "contractor": "Metro Disposal",
    "rowid": "831053",
    "final_x": "3679431.46799",
    "final_y": "538722.554889",
    "longitude": "-90.07435211281206",
    "latitude": "29.975362894499785",
    "geocoded_column": {
      "latitude": "29.975362894499785",
      "longitude": "-90.07435211281206"
    }
  },
  {
    "service_request": "2021-831052",
    "request_type": "Roads/Drainage",
    "request_reason": "Leaking Hydrant",
    "date_created": "2021-10-07T17:38:43.000",
    "date_modified": "2021-10-07T17:38:43.000",
    "request_status": "Pending",
    "responsible_agency": "Department of Public Works",
    "final_address": "3539 Napoleon Ave, New Orleans, Louisiana, 70125",
    "address_councildis": "B",
    "status": "Pending",
    "rowid": "831052",
    "final_x": "3670253.2793",
    "final_y": "527778.369919",
    "longitude": "-90.10371029778794",
    "latitude": "29.945544112510948",
    "geocoded_column": {
      "latitude": "29.945544112510948",
      "longitude": "-90.10371029778794"
    }
  },
  {
    "service_request": "2021-831051",
    "request_type": "Traffic Signals/Signs/Striping/Streetlights",
    "request_reason": "Traffic Signal Malfunctioning/Damaged",
    "date_created": "2021-10-07T17:38:01.000",
    "date_modified": "2021-10-07T17:38:01.000",
    "request_status": "Pending",
    "responsible_agency": "Department of Public Works",
    "final_address": "1320 N Broad St",
    "address_councildis": "D",
    "status": "Pending",
    "rowid": "831051",
    "final_x": "3678196.39848",
    "final_y": "538820.420745",
    "longitude": "-90.07824940976504",
    "latitude": "29.975669247509128",
    "geocoded_column": {
      "latitude": "29.975669247509128",
      "longitude": "-90.07824940976504"
    }
  },
  {
    "service_request": "2021-831050",
    "request_type": "Trash/Recycling",
    "request_reason": "Order Recycling Cart",
    "date_created": "2021-10-07T17:35:48.000",
    "date_modified": "2021-10-07T17:35:48.000",
    "request_status": "Pending",
    "responsible_agency": "Department of Sanitation",
    "final_address": "5210 Pitt St",
    "address_councildis": "B",
    "status": "Pending",
    "rowid": "831050",
    "final_x": "3667985.14817",
    "final_y": "520348.8958",
    "longitude": "-90.11112175653221",
    "latitude": "29.92518217081234",
    "geocoded_column": {
      "latitude": "29.92518217081234",
      "longitude": "-90.11112175653221"
    }
  },
  {
    "service_request": "2021-831049",
    "request_type": "Trash/Recycling",
    "request_reason": "Missed Trash Pick-Up",
    "date_created": "2021-10-07T17:34:14.000",
    "date_modified": "2021-10-07T17:34:15.000",
    "request_status": "Pending",
    "responsible_agency": "Department of Sanitation",
    "final_address": "4741 St Anthony Ave",
    "address_councildis": "D",
    "status": "Assigned to Contractor",
    "contractor": "Metro Disposal",
    "rowid": "831049",
    "final_x": "3682479.86012",
    "final_y": "550147.297108",
    "longitude": "-90.06432487206015",
    "latitude": "30.006684441657036",
    "geocoded_column": {
      "latitude": "30.006684441657036",
      "longitude": "-90.06432487206015"
    }
  },
  {
    "service_request": "2021-831048",
    "request_type": "Trash/Recycling",
    "request_reason": "Missed Trash Pick-Up",
    "date_created": "2021-10-07T17:32:11.000",
    "date_modified": "2021-10-07T17:32:12.000",
    "request_status": "Pending",
    "responsible_agency": "Department of Sanitation",
    "final_address": "1410 Third St",
    "address_councildis": "B",
    "status": "Assigned to Contractor",
    "contractor": "Richards Disposal",
    "rowid": "831048",
    "final_x": "3676858.08853",
    "final_y": "522138.553466",
    "longitude": "-90.08305105084322",
    "latitude": "29.929839927888427",
    "geocoded_column": {
      "latitude": "29.929839927888427",
      "longitude": "-90.08305105084322"
    }
  },
  {
    "service_request": "2021-831047",
    "request_type": "Trash/Recycling",
    "request_reason": "Missed Trash Pick-Up",
    "date_created": "2021-10-07T17:30:38.000",
    "date_modified": "2021-10-07T17:30:39.000",
    "request_status": "Pending",
    "responsible_agency": "Department of Sanitation",
    "final_address": "5525 Vermillion Blvd",
    "address_councildis": "D",
    "status": "Assigned to Contractor",
    "contractor": "Metro Disposal",
    "rowid": "831047",
    "final_x": "3683346.54748",
    "final_y": "553230.048407",
    "longitude": "-90.06147868164584",
    "latitude": "30.015134467333745",
    "geocoded_column": {
      "latitude": "30.015134467333745",
      "longitude": "-90.06147868164584"
    }
  },
  {
    "service_request": "2021-831046",
    "request_type": "Trash/Recycling",
    "request_reason": "Missed Trash Pick-Up",
    "date_created": "2021-10-07T17:23:14.000",
    "date_modified": "2021-10-07T17:23:14.000",
    "request_status": "Pending",
    "responsible_agency": "Department of Sanitation",
    "final_address": "6245 Paris Ave, New Orleans, Louisiana, 70122",
    "address_councildis": "D",
    "status": "Assigned to Contractor",
    "contractor": "Metro Disposal",
    "rowid": "831046",
    "final_x": "3678892.28354",
    "final_y": "556234.70697",
    "longitude": "-90.0754478388618",
    "latitude": "30.023531380698778",
    "geocoded_column": {
      "latitude": "30.023531380698778",
      "longitude": "-90.0754478388618"
    }
  },
  {
    "service_request": "2021-831043",
    "request_type": "Traffic Signals/Signs/Striping/Streetlights",
    "request_reason": "Street Light Outage/Malfunction",
    "date_created": "2021-10-07T17:17:59.000",
    "date_modified": "2021-10-07T17:18:00.000",
    "request_status": "Pending",
    "responsible_agency": "Department of Public Works",
    "final_address": "8801 Belfast St",
    "address_councildis": "A",
    "status": "Pending",
    "contractor": "Royal Engineering",
    "rowid": "831043",
    "final_x": "3663759.67104",
    "final_y": "534079.999813",
    "longitude": "-90.1240028358639",
    "latitude": "29.96306156295618",
    "geocoded_column": {
      "latitude": "29.96306156295618",
      "longitude": "-90.1240028358639"
    }
  },
  {
    "service_request": "2021-831041",
    "request_type": "Trash/Recycling",
    "request_reason": "Missed Trash Pick-Up",
    "date_created": "2021-10-07T17:14:40.000",
    "date_modified": "2021-10-07T17:14:42.000",
    "request_status": "Pending",
    "responsible_agency": "Department of Sanitation",
    "final_address": "1200 St Anthony St",
    "address_councildis": "C",
    "status": "Assigned to Contractor",
    "contractor": "Metro Disposal",
    "rowid": "831041",
    "final_x": "3683483.62159",
    "final_y": "536209.838087",
    "longitude": "-90.06164241409651",
    "latitude": "29.96833075134123",
    "geocoded_column": {
      "latitude": "29.96833075134123",
      "longitude": "-90.06164241409651"
    }
  },
  {
    "service_request": "2021-831038",
    "request_type": "Trash/Recycling",
    "request_reason": "Missed Trash Pick-Up",
    "date_created": "2021-10-07T17:10:02.000",
    "date_modified": "2021-10-07T20:31:52.000",
    "request_status": "Pending",
    "responsible_agency": "Department of Sanitation",
    "final_address": "New Orleans,LA",
    "address_councildis": "B",
    "status": "Assigned to Contractor",
    "contractor": "Richards Disposal",
    "rowid": "831038",
    "final_x": "3676858.08853",
    "final_y": "522138.553466",
    "longitude": "-90.08305105084322",
    "latitude": "29.929839927888427",
    "geocoded_column": {
      "latitude": "29.929839927888427",
      "longitude": "-90.08305105084322"
    }
  },
  {
    "service_request": "2021-831037",
    "request_type": "Trash/Recycling",
    "request_reason": "Missed Trash Pick-Up",
    "date_created": "2021-10-07T17:09:25.000",
    "date_modified": "2021-10-07T17:09:26.000",
    "request_status": "Pending",
    "responsible_agency": "Department of Sanitation",
    "final_address": "1702 Gentilly Blvd",
    "address_councildis": "D",
    "status": "Assigned to Contractor",
    "contractor": "Metro Disposal",
    "rowid": "831037",
    "final_x": "3678651.27317",
    "final_y": "541504.60398",
    "longitude": "-90.07671981922536",
    "latitude": "29.983036114666387",
    "geocoded_column": {
      "latitude": "29.983036114666387",
      "longitude": "-90.07671981922536"
    }
  },
  {
    "service_request": "2021-831036",
    "request_type": "Abandoned Vehicles",
    "request_reason": "Abandoned/Junk Vehicles",
    "date_created": "2021-10-07T17:08:24.000",
    "date_modified": "2021-10-07T17:08:24.000",
    "request_status": "Pending",
    "responsible_agency": "Department of Public Works",
    "final_address": "9000 Bunker Hill Rd",
    "address_councildis": "E",
    "status": "Pending",
    "rowid": "831036",
    "final_x": "3706752.26865",
    "final_y": "560103.791389",
    "longitude": "-89.98727315769489",
    "latitude": "30.03329946984008",
    "geocoded_column": {
      "latitude": "30.03329946984008",
      "longitude": "-89.98727315769489"
    }
  },
  {
    "service_request": "2021-831035",
    "request_type": "Trash/Recycling",
    "request_reason": "Order Trash Cart",
    "date_created": "2021-10-07T17:00:56.000",
    "date_modified": "2021-10-07T17:00:56.000",
    "request_status": "Pending",
    "responsible_agency": "Department of Sanitation",
    "final_address": "2218 N Rampart St",
    "address_councildis": "C",
    "status": "Assigned to Contractor",
    "contractor": "Metro Disposal",
    "rowid": "831035",
    "final_x": "3685258.58069",
    "final_y": "535933.361223",
    "longitude": "-90.05604675470222",
    "latitude": "29.967516250862936",
    "geocoded_column": {
      "latitude": "29.967516250862936",
      "longitude": "-90.05604675470222"
    }
  },
  {
    "service_request": "2021-831034",
    "request_type": "Trash/Recycling",
    "request_reason": "Missed Trash Pick-Up",
    "date_created": "2021-10-07T16:59:20.000",
    "date_modified": "2021-10-07T16:59:21.000",
    "request_status": "Pending",
    "responsible_agency": "Department of Sanitation",
    "final_address": "2218 N Rampart St",
    "address_councildis": "C",
    "status": "Assigned to Contractor",
    "contractor": "Metro Disposal",
    "rowid": "831034",
    "final_x": "3685258.58069",
    "final_y": "535933.361223",
    "longitude": "-90.05604675470222",
    "latitude": "29.967516250862936",
    "geocoded_column": {
      "latitude": "29.967516250862936",
      "longitude": "-90.05604675470222"
    }
  },
  {
    "service_request": "2021-831033",
    "request_type": "Trash/Recycling",
    "request_reason": "Request a Large Item Pick Up",
    "date_created": "2021-10-07T16:56:40.000",
    "date_modified": "2021-10-07T16:56:40.000",
    "request_status": "Pending",
    "responsible_agency": "Department of Sanitation",
    "final_address": "438 Amethyst St",
    "address_councildis": "D",
    "status": "Assigned to Contractor",
    "contractor": "Metro Disposal",
    "rowid": "831033",
    "final_x": "3667841.49031",
    "final_y": "556608.668634",
    "longitude": "-90.11035357724484",
    "latitude": "30.024888581203882",
    "geocoded_column": {
      "latitude": "30.024888581203882",
      "longitude": "-90.11035357724484"
    }
  },
  {
    "service_request": "2021-831032",
    "request_type": "Property Maintenance",
    "request_reason": "Property Maintenance",
    "date_created": "2021-10-07T16:53:36.000",
    "date_modified": "2021-10-07T16:53:37.000",
    "request_status": "Pending",
    "responsible_agency": "Department of Code Enforcement",
    "final_address": "236 West Robert E Lee Blvd",
    "address_councildis": "A",
    "status": "Pending",
    "rowid": "831032",
    "final_x": "3665870.92532",
    "final_y": "554855.310744",
    "longitude": "-90.11663909562832",
    "latitude": "30.020125151255808",
    "geocoded_column": {
      "latitude": "30.020125151255808",
      "longitude": "-90.11663909562832"
    }
  },
  {
    "service_request": "2021-831031",
    "request_type": "Trash/Recycling",
    "request_reason": "Request a Large Item Pick Up",
    "date_created": "2021-10-07T16:53:31.000",
    "date_modified": "2021-10-07T16:53:31.000",
    "request_status": "Pending",
    "responsible_agency": "Department of Sanitation",
    "final_address": "2502 Jasmine St",
    "address_councildis": "D",
    "status": "Assigned to Contractor",
    "contractor": "Metro Disposal",
    "rowid": "831031",
    "final_x": "3686307.14607",
    "final_y": "547988.293074",
    "longitude": "-90.0523097607821",
    "latitude": "30.000630859396882",
    "geocoded_column": {
      "latitude": "30.000630859396882",
      "longitude": "-90.0523097607821"
    }
  },
  {
    "service_request": "2021-831030",
    "request_type": "Trash/Recycling",
    "request_reason": "Missed Trash Pick-Up",
    "date_created": "2021-10-07T16:53:30.000",
    "date_modified": "2021-10-07T16:53:31.000",
    "request_status": "Pending",
    "responsible_agency": "Department of Sanitation",
    "final_address": "1830 Elysian Fields Ave",
    "address_councildis": "D",
    "status": "Assigned to Contractor",
    "contractor": "Metro Disposal",
    "rowid": "831030",
    "final_x": "3684674.09807",
    "final_y": "539133.358602",
    "longitude": "-90.0577800631494",
    "latitude": "29.976333031478543",
    "geocoded_column": {
      "latitude": "29.976333031478543",
      "longitude": "-90.0577800631494"
    }
  },
  {
    "service_request": "2021-831029",
    "request_type": "Trash/Recycling",
    "request_reason": "Replace Trash Cart",
    "date_created": "2021-10-07T16:51:33.000",
    "date_modified": "2021-10-07T16:51:34.000",
    "request_status": "Pending",
    "responsible_agency": "Department of Sanitation",
    "final_address": "635 Webster St",
    "address_councildis": "A",
    "status": "Assigned to Contractor",
    "contractor": "Richards Disposal",
    "rowid": "831029",
    "final_x": "3664025.9913",
    "final_y": "519045.922231",
    "longitude": "-90.12366303030785",
    "latitude": "29.921714927493692",
    "geocoded_column": {
      "latitude": "29.921714927493692",
      "longitude": "-90.12366303030785"
    }
  },
  {
    "service_request": "2021-831027",
    "request_type": "Trash/Recycling",
    "request_reason": "Illegal Dumping",
    "date_created": "2021-10-07T16:50:11.000",
    "date_modified": "2021-10-07T16:50:11.000",
    "request_status": "Pending",
    "responsible_agency": "Department of Sanitation",
    "final_address": "2030 St Claude Ave",
    "address_councildis": "C",
    "status": "Pending",
    "rowid": "831027",
    "final_x": "3684497.24565",
    "final_y": "536192.891783",
    "longitude": "-90.05844194322374",
    "latitude": "29.96825318360731",
    "geocoded_column": {
      "latitude": "29.96825318360731",
      "longitude": "-90.05844194322374"
    }
  },
  {
    "service_request": "2021-831026",
    "request_type": "Trash/Recycling",
    "request_reason": "Missed Trash Pick-Up",
    "date_created": "2021-10-07T16:49:39.000",
    "date_modified": "2021-10-07T16:49:39.000",
    "request_status": "Pending",
    "responsible_agency": "Department of Sanitation",
    "final_address": "709 Lang St",
    "address_councildis": "C",
    "status": "Assigned to Contractor",
    "contractor": "Richards Disposal",
    "rowid": "831026",
    "final_x": "3701979.28458",
    "final_y": "519982.037496",
    "longitude": "-90.00382729152061",
    "latitude": "29.923132640577354",
    "geocoded_column": {
      "latitude": "29.923132640577354",
      "longitude": "-90.00382729152061"
    }
  },
  {
    "service_request": "2021-831023",
    "request_type": "Trash/Recycling",
    "request_reason": "MIssed Recycling Pick-Up",
    "date_created": "2021-10-07T16:47:43.000",
    "date_modified": "2021-10-07T16:47:43.000",
    "request_status": "Pending",
    "responsible_agency": "Department of Sanitation",
    "final_address": "2116 Oretha Castle Haley Blvd",
    "address_councildis": "B",
    "status": "Assigned to Contractor",
    "contractor": "Richards Disposal",
    "rowid": "831023",
    "final_x": "3677023.08584",
    "final_y": "524835.779004",
    "longitude": "-90.08243722889668",
    "latitude": "29.937251464273828",
    "geocoded_column": {
      "latitude": "29.937251464273828",
      "longitude": "-90.08243722889668"
    }
  },
  {
    "service_request": "2021-831021",
    "request_type": "Trash/Recycling",
    "request_reason": "Missed Trash Pick-Up",
    "date_created": "2021-10-07T16:39:56.000",
    "date_modified": "2021-10-07T16:39:56.000",
    "request_status": "Pending",
    "responsible_agency": "Department of Sanitation",
    "final_address": "6115 Cartier Ave, New Orleans, Louisiana, 70122",
    "address_councildis": "D",
    "status": "Assigned to Contractor",
    "contractor": "Metro Disposal",
    "rowid": "831021",
    "final_x": "3677689.38568",
    "final_y": "555011.084889",
    "longitude": "-90.07929106517385",
    "latitude": "30.02020311908375",
    "geocoded_column": {
      "latitude": "30.02020311908375",
      "longitude": "-90.07929106517385"
    }
  },
  {
    "service_request": "2021-831020",
    "request_type": "Abandoned Vehicles",
    "request_reason": "Abandoned/Junk Vehicles",
    "date_created": "2021-10-07T16:39:43.000",
    "date_modified": "2021-10-07T16:39:43.000",
    "request_status": "Pending",
    "responsible_agency": "Department of Public Works",
    "final_address": "1617 Foucher St",
    "address_councildis": "B",
    "status": "Pending",
    "rowid": "831020",
    "final_x": "3673500.12321",
    "final_y": "521436.794297",
    "longitude": "-90.09367555628937",
    "latitude": "29.928010638568235",
    "geocoded_column": {
      "latitude": "29.928010638568235",
      "longitude": "-90.09367555628937"
    }
  },
  {
    "service_request": "2021-831018",
    "request_type": "Traffic Signals/Signs/Striping/Streetlights",
    "request_reason": "Request for Traffic Calming due to Speeding",
    "date_created": "2021-10-07T16:34:11.000",
    "date_modified": "2021-10-07T16:34:11.000",
    "request_status": "Pending",
    "responsible_agency": "Department of Public Works",
    "final_address": "1621 Desire St",
    "address_councildis": "D",
    "status": "Pending",
    "rowid": "831018",
    "final_x": "3690731.25052",
    "final_y": "537736.067016",
    "longitude": "-90.03869969116676",
    "latitude": "29.972304179558513",
    "geocoded_column": {
      "latitude": "29.972304179558513",
      "longitude": "-90.03869969116676"
    }
  },
  {
    "service_request": "2021-831017",
    "request_type": "Trash/Recycling",
    "request_reason": "Missed Trash Pick-Up",
    "date_created": "2021-10-07T16:32:44.000",
    "date_modified": "2021-10-07T16:32:45.000",
    "request_status": "Pending",
    "responsible_agency": "Department of Sanitation",
    "final_address": "5200 Atlanta St",
    "address_councildis": "B",
    "status": "Assigned to Contractor",
    "contractor": "Richards Disposal",
    "rowid": "831017",
    "final_x": "3667983.80449",
    "final_y": "520661.062009",
    "longitude": "-90.11111548717626",
    "latitude": "29.92604056837358",
    "geocoded_column": {
      "latitude": "29.92604056837358",
      "longitude": "-90.11111548717626"
    }
  },
  {
    "service_request": "2021-831016",
    "request_type": "Trash/Recycling",
    "request_reason": "Order Recycling Cart",
    "date_created": "2021-10-07T16:32:09.000",
    "date_modified": "2021-10-07T16:36:09.000",
    "request_status": "Pending",
    "responsible_agency": "Department of Sanitation",
    "final_address": "New Orleans,LA",
    "address_councildis": "C",
    "rowid": "831016",
    "final_x": "3687069.96604",
    "final_y": "528662.431872",
    "longitude": "-90.05058342941258",
    "latitude": "29.947468055473387",
    "geocoded_column": {
      "latitude": "29.947468055473387",
      "longitude": "-90.05058342941258"
    }
  },
  {
    "service_request": "2021-831012",
    "request_type": "COVID-19",
    "request_reason": "COVID-19 Business Non-Compliance",
    "date_created": "2021-10-07T16:30:20.000",
    "date_modified": "2021-10-07T16:30:21.000",
    "request_status": "Pending",
    "responsible_agency": "Safety and Permits",
    "final_address": "541 Dumaine St",
    "address_councildis": "C",
    "status": "Pending",
    "rowid": "831012",
    "final_x": "3683357.14812",
    "final_y": "532804.13114",
    "longitude": "-90.06216114059237",
    "latitude": "29.958970087038086",
    "geocoded_column": {
      "latitude": "29.958970087038086",
      "longitude": "-90.06216114059237"
    }
  },
  {
    "service_request": "2021-831010",
    "request_type": "Trash/Recycling",
    "request_reason": "Missed Trash Pick-Up",
    "date_created": "2021-10-07T16:27:15.000",
    "date_modified": "2021-10-07T16:27:15.000",
    "request_status": "Pending",
    "responsible_agency": "Department of Sanitation",
    "final_address": "1616 Lakeshore Dr",
    "address_councildis": "D",
    "status": "Assigned to Contractor",
    "contractor": "Metro Disposal",
    "rowid": "831010",
    "final_x": "3677984.86613",
    "final_y": "557618.466075",
    "longitude": "-90.07826720021994",
    "latitude": "30.02736357236422",
    "geocoded_column": {
      "latitude": "30.02736357236422",
      "longitude": "-90.07826720021994"
    }
  },
  {
    "service_request": "2021-831009",
    "request_type": "Trash/Recycling",
    "request_reason": "Missed Trash Pick-Up",
    "date_created": "2021-10-07T16:24:50.000",
    "date_modified": "2021-10-07T16:24:51.000",
    "request_status": "Pending",
    "responsible_agency": "Department of Sanitation",
    "final_address": "3728 Clermont Dr",
    "address_councildis": "D",
    "status": "Assigned to Contractor",
    "contractor": "Metro Disposal",
    "rowid": "831009",
    "final_x": "3685504.28514",
    "final_y": "546212.555088",
    "longitude": "-90.05490863639476",
    "latitude": "29.99577287429585",
    "geocoded_column": {
      "latitude": "29.99577287429585",
      "longitude": "-90.05490863639476"
    }
  },
  {
    "service_request": "2021-831008",
    "request_type": "Trash/Recycling",
    "request_reason": "Missed Trash Pick-Up",
    "date_created": "2021-10-07T16:24:43.000",
    "date_modified": "2021-10-07T16:24:43.000",
    "request_status": "Pending",
    "responsible_agency": "Department of Sanitation",
    "final_address": "4133 Vincennes Pl",
    "address_councildis": "B",
    "status": "Assigned to Contractor",
    "contractor": "Richards Disposal",
    "rowid": "831008",
    "final_x": "3668690.06023",
    "final_y": "530771.10797",
    "longitude": "-90.10854490304123",
    "latitude": "29.953819199199952",
    "geocoded_column": {
      "latitude": "29.953819199199952",
      "longitude": "-90.10854490304123"
    }
  },
  {
    "service_request": "2021-831007",
    "request_type": "Roads/Drainage",
    "request_reason": "Street Flooding / Drainage",
    "date_created": "2021-10-07T16:24:25.000",
    "date_modified": "2021-10-07T16:24:25.000",
    "request_status": "Pending",
    "responsible_agency": "Department of Public Works",
    "final_address": "47 S Lark St",
    "address_councildis": "D",
    "status": "Pending",
    "rowid": "831007",
    "final_x": "3675338.82357",
    "final_y": "555997.446489",
    "longitude": "-90.08668421035736",
    "latitude": "30.022985782926906",
    "geocoded_column": {
      "latitude": "30.022985782926906",
      "longitude": "-90.08668421035736"
    }
  },
  {
    "service_request": "2021-831004",
    "request_type": "Trash/Recycling",
    "request_reason": "Request a Large Item Pick Up",
    "date_created": "2021-10-07T16:19:07.000",
    "date_modified": "2021-10-07T16:19:07.000",
    "request_status": "Pending",
    "responsible_agency": "Department of Sanitation",
    "final_address": "1541 N Roman St",
    "address_councildis": "D",
    "status": "Assigned to Contractor",
    "contractor": "Metro Disposal",
    "rowid": "831004",
    "final_x": "3681345.73871",
    "final_y": "537908.743945",
    "longitude": "-90.06833471068668",
    "latitude": "29.97306722421498",
    "geocoded_column": {
      "latitude": "29.97306722421498",
      "longitude": "-90.06833471068668"
    }
  },
  {
    "service_request": "2021-831003",
    "request_type": "Trash/Recycling",
    "request_reason": "Missed Trash Pick-Up",
    "date_created": "2021-10-07T16:17:56.000",
    "date_modified": "2021-10-07T16:17:57.000",
    "request_status": "Pending",
    "responsible_agency": "Department of Sanitation",
    "final_address": "714 Lang St",
    "address_councildis": "C",
    "status": "Assigned to Contractor",
    "contractor": "Richards Disposal",
    "rowid": "831003",
    "final_x": "3702067.57181",
    "final_y": "519925.404152",
    "longitude": "-90.00355067927116",
    "latitude": "29.92297410138509",
    "geocoded_column": {
      "latitude": "29.92297410138509",
      "longitude": "-90.00355067927116"
    }
  },
  {
    "service_request": "2021-831002",
    "request_type": "Trash/Recycling",
    "request_reason": "Illegal Dumping",
    "date_created": "2021-10-07T16:14:58.000",
    "date_modified": "2021-10-07T16:14:58.000",
    "request_status": "Pending",
    "responsible_agency": "Department of Sanitation",
    "final_address": "8520 Hickory St",
    "address_councildis": "A",
    "status": "Pending",
    "rowid": "831002",
    "final_x": "3662167.99405",
    "final_y": "530988.228162",
    "longitude": "-90.12913179251497",
    "latitude": "29.954606289278892",
    "geocoded_column": {
      "latitude": "29.954606289278892",
      "longitude": "-90.12913179251497"
    }
  },
  {
    "service_request": "2021-831001",
    "request_type": "Property Maintenance",
    "request_reason": "Property Maintenance",
    "date_created": "2021-10-07T16:14:18.000",
    "date_modified": "2021-10-07T16:14:18.000",
    "request_status": "Pending",
    "responsible_agency": "Department of Code Enforcement",
    "final_address": "71 Westpark Ct",
    "address_councildis": "C",
    "status": "Pending",
    "rowid": "831001",
    "final_x": "3695750.69424",
    "final_y": "521720.31161",
    "longitude": "-90.02342573326777",
    "latitude": "29.928109551338746",
    "geocoded_column": {
      "latitude": "29.928109551338746",
      "longitude": "-90.02342573326777"
    }
  },
  {
    "service_request": "2021-831000",
    "request_type": "Traffic Signals/Signs/Striping/Streetlights",
    "request_reason": "Street Light Outage/Malfunction",
    "date_created": "2021-10-07T16:12:58.000",
    "date_modified": "2021-10-07T16:12:58.000",
    "request_status": "Pending",
    "responsible_agency": "Department of Public Works",
    "final_address": "2433 Onzaga St",
    "address_councildis": "D",
    "status": "Pending",
    "contractor": "Royal Engineering",
    "rowid": "831000",
    "final_x": "3679979.88335",
    "final_y": "539990.300619",
    "longitude": "-90.07257601586456",
    "latitude": "29.978832176371927",
    "geocoded_column": {
      "latitude": "29.978832176371927",
      "longitude": "-90.07257601586456"
    }
  },
  {
    "service_request": "2021-830997",
    "request_type": "Trash/Recycling",
    "request_reason": "Repair Trash Cart",
    "date_created": "2021-10-07T16:08:56.000",
    "date_modified": "2021-10-07T16:08:57.000",
    "request_status": "Pending",
    "responsible_agency": "Department of Sanitation",
    "final_address": "4316 Fontainebleau Dr",
    "address_councildis": "A",
    "status": "Assigned to Contractor",
    "contractor": "Richards Disposal",
    "rowid": "830997",
    "final_x": "3669295.05249",
    "final_y": "529393.803009",
    "longitude": "-90.10668113856835",
    "latitude": "29.95001426654048",
    "geocoded_column": {
      "latitude": "29.95001426654048",
      "longitude": "-90.10668113856835"
    }
  },
  {
    "service_request": "2021-830995",
    "request_type": "Trash/Recycling",
    "request_reason": "Return Recycling Cart",
    "date_created": "2021-10-07T16:07:03.000",
    "date_modified": "2021-10-07T16:07:03.000",
    "request_status": "Pending",
    "responsible_agency": "Department of Sanitation",
    "final_address": "6313 Eads St",
    "address_councildis": "D",
    "status": "Pending",
    "rowid": "830995",
    "final_x": "3686716.8253",
    "final_y": "556511.43049",
    "longitude": "-90.05071416690902",
    "latitude": "30.024053762289558",
    "geocoded_column": {
      "latitude": "30.024053762289558",
      "longitude": "-90.05071416690902"
    }
  },
  {
    "service_request": "2021-830994",
    "request_type": "Traffic Signals/Signs/Striping/Streetlights",
    "request_reason": "Street Light Outage/Malfunction",
    "date_created": "2021-10-07T16:06:55.000",
    "date_modified": "2021-10-07T16:06:56.000",
    "request_status": "Pending",
    "responsible_agency": "Department of Public Works",
    "final_address": "4833 Chestnut St",
    "address_councildis": "B",
    "status": "Pending",
    "contractor": "Royal Engineering",
    "rowid": "830994",
    "final_x": "3669248.34074",
    "final_y": "519392.173367",
    "longitude": "-90.10716656647652",
    "latitude": "29.922514378491314",
    "geocoded_column": {
      "latitude": "29.922514378491314",
      "longitude": "-90.10716656647652"
    }
  },
  {
    "service_request": "2021-830990",
    "request_type": "Trash/Recycling",
    "request_reason": "Replace Trash Cart",
    "date_created": "2021-10-07T16:03:45.000",
    "date_modified": "2021-10-07T16:03:46.000",
    "request_status": "Pending",
    "responsible_agency": "Department of Sanitation",
    "final_address": "1019 N Broad St",
    "address_councildis": "A",
    "status": "Assigned to Contractor",
    "contractor": "Richards Disposal",
    "rowid": "830990",
    "final_x": "3677342.38382",
    "final_y": "538119.014025",
    "longitude": "-90.08097083905325",
    "latitude": "29.973766313334085",
    "geocoded_column": {
      "latitude": "29.973766313334085",
      "longitude": "-90.08097083905325"
    }
  },
  {
    "service_request": "2021-830989",
    "request_type": "Property Maintenance",
    "request_reason": "Property Maintenance",
    "date_created": "2021-10-07T16:00:15.000",
    "date_modified": "2021-10-07T16:00:15.000",
    "request_status": "Pending",
    "responsible_agency": "Department of Code Enforcement",
    "final_address": "6700 Virgilian St",
    "address_councildis": "D",
    "status": "Pending",
    "rowid": "830989",
    "final_x": "3697014.42",
    "final_y": "555985.640857",
    "longitude": "-90.01819496505628",
    "latitude": "30.0222870755002",
    "geocoded_column": {
      "latitude": "30.0222870755002",
      "longitude": "-90.01819496505628"
    }
  },
  {
    "service_request": "2021-830988",
    "request_type": "Property Maintenance",
    "request_reason": "Property Maintenance",
    "date_created": "2021-10-07T16:00:14.000",
    "date_modified": "2021-10-07T16:00:14.000",
    "request_status": "Pending",
    "responsible_agency": "Department of Code Enforcement",
    "final_address": "6700 Virgilian St",
    "address_councildis": "D",
    "status": "Pending",
    "rowid": "830988",
    "final_x": "3697014.42",
    "final_y": "555985.640857",
    "longitude": "-90.01819496505628",
    "latitude": "30.0222870755002",
    "geocoded_column": {
      "latitude": "30.0222870755002",
      "longitude": "-90.01819496505628"
    }
  },
  {
    "service_request": "2021-830987",
    "request_type": "Trash/Recycling",
    "request_reason": "Missed Trash Pick-Up",
    "date_created": "2021-10-07T15:59:26.000",
    "date_modified": "2021-10-07T15:59:27.000",
    "request_status": "Pending",
    "responsible_agency": "Department of Sanitation",
    "final_address": "5770 Cameron Blvd",
    "address_councildis": "D",
    "status": "Assigned to Contractor",
    "contractor": "Metro Disposal",
    "rowid": "830987",
    "final_x": "3682302.32424",
    "final_y": "554627.594456",
    "longitude": "-90.06472904452035",
    "latitude": "30.019009037595293",
    "geocoded_column": {
      "latitude": "30.019009037595293",
      "longitude": "-90.06472904452035"
    }
  },
  {
    "service_request": "2021-830986",
    "request_type": "Trash/Recycling",
    "request_reason": "Missed Trash Pick-Up",
    "date_created": "2021-10-07T15:55:29.000",
    "date_modified": "2021-10-07T15:55:29.000",
    "request_status": "Pending",
    "responsible_agency": "Department of Sanitation",
    "final_address": "5303 Wildair Dr",
    "address_councildis": "D",
    "status": "Assigned to Contractor",
    "contractor": "Metro Disposal",
    "rowid": "830986",
    "final_x": "3681761.42268",
    "final_y": "552244.84207",
    "longitude": "-90.06652133825455",
    "latitude": "30.012473790856575",
    "geocoded_column": {
      "latitude": "30.012473790856575",
      "longitude": "-90.06652133825455"
    }
  },
  {
    "service_request": "2021-830985",
    "request_type": "Traffic Signals/Signs/Striping/Streetlights",
    "request_reason": "Street Light Outage/Malfunction",
    "date_created": "2021-10-07T15:55:25.000",
    "date_modified": "2021-10-07T15:55:25.000",
    "request_status": "Pending",
    "responsible_agency": "Department of Public Works",
    "final_address": "2414 Deslonde St",
    "address_councildis": "E",
    "status": "Pending",
    "contractor": "Royal Engineering",
    "rowid": "830985",
    "final_x": "3696729.66397",
    "final_y": "539390.491338",
    "longitude": "-90.0196958726076",
    "latitude": "29.976665535096835",
    "geocoded_column": {
      "latitude": "29.976665535096835",
      "longitude": "-90.0196958726076"
    }
  },
  {
    "service_request": "2021-830984",
    "request_type": "Trash/Recycling",
    "request_reason": "Order Trash Cart",
    "date_created": "2021-10-07T15:54:04.000",
    "date_modified": "2021-10-07T15:54:06.000",
    "request_status": "Pending",
    "responsible_agency": "Department of Sanitation",
    "final_address": "4111 N Claiborne Ave",
    "address_councildis": "D",
    "status": "Assigned to Contractor",
    "contractor": "Metro Disposal",
    "rowid": "830984",
    "final_x": "3692681.62582",
    "final_y": "537105.831496",
    "longitude": "-90.03256269148486",
    "latitude": "29.97051051883326",
    "geocoded_column": {
      "latitude": "29.97051051883326",
      "longitude": "-90.03256269148486"
    }
  },
  {
    "service_request": "2021-830983",
    "request_type": "Trash/Recycling",
    "request_reason": "Order Trash Cart",
    "date_created": "2021-10-07T15:53:32.000",
    "date_modified": "2021-10-07T15:53:32.000",
    "request_status": "Pending",
    "responsible_agency": "Department of Sanitation",
    "final_address": "4109 N Claiborne Ave",
    "address_councildis": "D",
    "status": "Assigned to Contractor",
    "contractor": "Metro Disposal",
    "rowid": "830983",
    "final_x": "3692670.84176",
    "final_y": "537109.62292",
    "longitude": "-90.03259661272237",
    "latitude": "29.970521280518692",
    "geocoded_column": {
      "latitude": "29.970521280518692",
      "longitude": "-90.03259661272237"
    }
  },
  {
    "service_request": "2021-830980",
    "request_type": "Trash/Recycling",
    "request_reason": "Replace Recycling Cart",
    "date_created": "2021-10-07T15:51:01.000",
    "date_modified": "2021-10-07T15:51:01.000",
    "request_status": "Pending",
    "responsible_agency": "Department of Sanitation",
    "final_address": "4963 Meadowbank Dr",
    "address_councildis": "E",
    "status": "Pending",
    "rowid": "830980",
    "final_x": "3718981.70751",
    "final_y": "558443.164636",
    "longitude": "-89.94869076559355",
    "latitude": "30.028332724580885",
    "geocoded_column": {
      "latitude": "30.028332724580885",
      "longitude": "-89.94869076559355"
    }
  },
  {
    "service_request": "2021-830979",
    "request_type": "Traffic Signals/Signs/Striping/Streetlights",
    "request_reason": "Street Light Outage/Malfunction",
    "date_created": "2021-10-07T15:47:54.000",
    "date_modified": "2021-10-07T15:47:55.000",
    "request_status": "Pending",
    "responsible_agency": "Department of Public Works",
    "final_address": "2024 Lowerline St, New Orleans, Louisiana, 70118",
    "address_councildis": "A",
    "status": "Pending",
    "contractor": "Royal Engineering",
    "rowid": "830979",
    "final_x": "3665314.16884",
    "final_y": "529418.584385",
    "longitude": "-90.11924986808575",
    "latitude": "29.950198987880896",
    "geocoded_column": {
      "latitude": "29.950198987880896",
      "longitude": "-90.11924986808575"
    }
  },
  {
    "service_request": "2021-830978",
    "request_type": "Safety & Permits",
    "request_reason": "Licenses & Permits",
    "date_created": "2021-10-07T15:47:49.000",
    "date_modified": "2021-10-07T15:47:50.000",
    "request_status": "Pending",
    "responsible_agency": "Safety and Permits",
    "status": "Pending",
    "rowid": "830978",
    "longitude": "0.0",
    "latitude": "0.0",
    "geocoded_column": {
      "latitude": "0.0",
      "longitude": "0.0"
    }
  },
  {
    "service_request": "2021-830977",
    "request_type": "Roads/Drainage",
    "request_reason": "Pothole",
    "date_created": "2021-10-07T15:46:58.000",
    "date_modified": "2021-10-07T15:46:58.000",
    "request_status": "Pending",
    "responsible_agency": "Department of Public Works",
    "final_address": "5131 Dryades St",
    "address_councildis": "B",
    "status": "Pending",
    "rowid": "830977",
    "final_x": "3668204.4354",
    "final_y": "521872.739898",
    "longitude": "-90.11037819416214",
    "latitude": "29.929365824613942",
    "geocoded_column": {
      "latitude": "29.929365824613942",
      "longitude": "-90.11037819416214"
    }
  },
  {
    "service_request": "2021-830975",
    "request_type": "Property Maintenance",
    "request_reason": "Property Maintenance",
    "date_created": "2021-10-07T15:38:51.000",
    "date_modified": "2021-10-07T15:38:51.000",
    "request_status": "Pending",
    "responsible_agency": "Department of Code Enforcement",
    "final_address": "8803 Pritchard Pl",
    "address_councildis": "A",
    "status": "Pending",
    "rowid": "830975",
    "final_x": "3664224.0066",
    "final_y": "534607.766918",
    "longitude": "-90.1225189023639",
    "latitude": "29.964499266032774",
    "geocoded_column": {
      "latitude": "29.964499266032774",
      "longitude": "-90.1225189023639"
    }
  },
  {
    "service_request": "2021-830974",
    "request_type": "Trash/Recycling",
    "request_reason": "Illegal Dumping",
    "date_created": "2021-10-07T15:35:32.000",
    "date_modified": "2021-10-07T15:35:32.000",
    "request_status": "Pending",
    "responsible_agency": "Department of Sanitation",
    "final_address": "8803 Pritchard Pl",
    "address_councildis": "A",
    "status": "Pending",
    "rowid": "830974",
    "final_x": "3664224.0066",
    "final_y": "534607.766918",
    "longitude": "-90.1225189023639",
    "latitude": "29.964499266032774",
    "geocoded_column": {
      "latitude": "29.964499266032774",
      "longitude": "-90.1225189023639"
    }
  },
  {
    "service_request": "2021-830973",
    "request_type": "Trash/Recycling",
    "request_reason": "Missed Trash Pick-Up",
    "date_created": "2021-10-07T15:33:11.000",
    "date_modified": "2021-10-07T15:33:12.000",
    "request_status": "Pending",
    "responsible_agency": "Department of Sanitation",
    "final_address": "8324 Pritchard Pl",
    "address_councildis": "A",
    "status": "Assigned to Contractor",
    "contractor": "Richards Disposal",
    "rowid": "830973",
    "final_x": "3665334.54778",
    "final_y": "533494.4617",
    "longitude": "-90.11904913976382",
    "latitude": "29.961405728226378",
    "geocoded_column": {
      "latitude": "29.961405728226378",
      "longitude": "-90.11904913976382"
    }
  },
  {
    "service_request": "2021-830972",
    "request_type": "Trash/Recycling",
    "request_reason": "Repair Trash Cart",
    "date_created": "2021-10-07T15:31:08.000",
    "date_modified": "2021-10-07T15:32:03.000",
    "request_status": "Pending",
    "responsible_agency": "Department of Sanitation",
    "final_address": "8324 Pritchard Pl",
    "address_councildis": "A",
    "status": "Assigned to Contractor",
    "contractor": "Richards Disposal",
    "rowid": "830972",
    "final_x": "3665334.54778",
    "final_y": "533494.4617",
    "longitude": "-90.11904913976382",
    "latitude": "29.961405728226378",
    "geocoded_column": {
      "latitude": "29.961405728226378",
      "longitude": "-90.11904913976382"
    }
  },
  {
    "service_request": "2021-830971",
    "request_type": "Trash/Recycling",
    "request_reason": "Missed Trash Pick-Up",
    "date_created": "2021-10-07T15:30:38.000",
    "date_modified": "2021-10-07T15:30:39.000",
    "request_status": "Pending",
    "responsible_agency": "Department of Sanitation",
    "final_address": "2335 Pauger St",
    "address_councildis": "D",
    "status": "Assigned to Contractor",
    "contractor": "Metro Disposal",
    "rowid": "830971",
    "final_x": "3683769.0438",
    "final_y": "538358.418505",
    "longitude": "-90.06066567542442",
    "latitude": "29.974229888436398",
    "geocoded_column": {
      "latitude": "29.974229888436398",
      "longitude": "-90.06066567542442"
    }
  },
  {
    "service_request": "2021-830970",
    "request_type": "Abandoned Vehicles",
    "request_reason": "Abandoned/Junk Vehicles",
    "date_created": "2021-10-07T15:29:18.000",
    "date_modified": "2021-10-07T15:29:18.000",
    "request_status": "Pending",
    "responsible_agency": "Department of Public Works",
    "final_address": "434 S Pierce St",
    "address_councildis": "B",
    "status": "Pending",
    "rowid": "830970",
    "final_x": "3670585.15111",
    "final_y": "536814.46868",
    "longitude": "-90.10235597071475",
    "latitude": "29.97038059601084",
    "geocoded_column": {
      "latitude": "29.97038059601084",
      "longitude": "-90.10235597071475"
    }
  },
  {
    "service_request": "2021-830969",
    "request_type": "Trash/Recycling",
    "request_reason": "Repair Trash Cart",
    "date_created": "2021-10-07T15:28:52.000",
    "date_modified": "2021-10-07T15:28:53.000",
    "request_status": "Pending",
    "responsible_agency": "Department of Sanitation",
    "final_address": "7 Yellowstone Dr",
    "address_councildis": "C",
    "status": "Assigned to Contractor",
    "contractor": "Richards Disposal",
    "rowid": "830969",
    "final_x": "3699506.22935",
    "final_y": "517987.872758",
    "longitude": "-90.01170633374278",
    "latitude": "29.917728037658794",
    "geocoded_column": {
      "latitude": "29.917728037658794",
      "longitude": "-90.01170633374278"
    }
  },
  {
    "service_request": "2021-830968",
    "request_type": "Roads/Drainage",
    "request_reason": "Damaged Sidewalk",
    "date_created": "2021-10-07T15:28:16.000",
    "date_modified": "2021-10-07T15:28:16.000",
    "request_status": "Pending",
    "responsible_agency": "Department of Public Works",
    "final_address": "3501 New Orleans St",
    "address_councildis": "D",
    "status": "Pending",
    "rowid": "830968",
    "final_x": "3681766.41039",
    "final_y": "544992.746191",
    "longitude": "-90.06675884807414",
    "latitude": "29.99253297372766",
    "geocoded_column": {
      "latitude": "29.99253297372766",
      "longitude": "-90.06675884807414"
    }
  },
  {
    "service_request": "2021-830967",
    "request_type": "Abandoned Vehicles",
    "request_reason": "Abandoned/Junk Vehicles",
    "date_created": "2021-10-07T15:25:45.000",
    "date_modified": "2021-10-07T15:25:45.000",
    "request_status": "Pending",
    "responsible_agency": "Department of Public Works",
    "final_address": "4227 St Charles Ave",
    "address_councildis": "B",
    "status": "Pending",
    "rowid": "830967",
    "final_x": "3671358.86478",
    "final_y": "521031.645369",
    "longitude": "-90.10044879479399",
    "latitude": "29.926960133461964",
    "geocoded_column": {
      "latitude": "29.926960133461964",
      "longitude": "-90.10044879479399"
    }
  },
  {
    "service_request": "2021-830966",
    "request_type": "Trash/Recycling",
    "request_reason": "Replace Trash Cart",
    "date_created": "2021-10-07T15:25:11.000",
    "date_modified": "2021-10-07T15:25:12.000",
    "request_status": "Pending",
    "responsible_agency": "Department of Sanitation",
    "final_address": "202 Maumus Ave",
    "address_councildis": "C",
    "status": "Assigned to Contractor",
    "contractor": "Richards Disposal",
    "rowid": "830966",
    "final_x": "3706092.49483",
    "final_y": "516839.690997",
    "longitude": "-89.99095977896191",
    "latitude": "29.914360408275105",
    "geocoded_column": {
      "latitude": "29.914360408275105",
      "longitude": "-89.99095977896191"
    }
  },
  {
    "service_request": "2021-830962",
    "request_type": "Property Maintenance",
    "request_reason": "Property Maintenance",
    "date_created": "2021-10-07T15:15:55.000",
    "date_modified": "2021-10-07T15:15:55.000",
    "request_status": "Pending",
    "responsible_agency": "Department of Code Enforcement",
    "final_address": "900 Belleville St",
    "address_councildis": "C",
    "status": "Pending",
    "rowid": "830962",
    "final_x": "3687825.74703",
    "final_y": "528308.904896",
    "longitude": "-90.04820966247249",
    "latitude": "29.946472690784088",
    "geocoded_column": {
      "latitude": "29.946472690784088",
      "longitude": "-90.04820966247249"
    }
  },
  {
    "service_request": "2021-830958",
    "request_type": "Trash/Recycling",
    "request_reason": "Damaged Caused By Contractor",
    "date_created": "2021-10-07T15:08:02.000",
    "date_modified": "2021-10-07T15:08:05.000",
    "request_status": "Pending",
    "responsible_agency": "Department of Sanitation",
    "final_address": "1035 Terry St",
    "address_councildis": "C",
    "status": "Assigned to Contractor",
    "contractor": "Richards Disposal",
    "rowid": "830958",
    "final_x": "3696961.25367",
    "final_y": "527575.020159",
    "longitude": "-90.01939235875989",
    "latitude": "29.944169871963737",
    "geocoded_column": {
      "latitude": "29.944169871963737",
      "longitude": "-90.01939235875989"
    }
  },
  {
    "service_request": "2021-830956",
    "request_type": "Property Maintenance",
    "request_reason": "Property Maintenance",
    "date_created": "2021-10-07T15:04:51.000",
    "date_modified": "2021-10-07T15:04:51.000",
    "request_status": "Pending",
    "responsible_agency": "Department of Code Enforcement",
    "final_address": "8803 Pritchard Pl",
    "address_councildis": "A",
    "status": "Pending",
    "rowid": "830956",
    "final_x": "3664224.0066",
    "final_y": "534607.766918",
    "longitude": "-90.1225189023639",
    "latitude": "29.964499266032774",
    "geocoded_column": {
      "latitude": "29.964499266032774",
      "longitude": "-90.1225189023639"
    }
  },
  {
    "service_request": "2021-830954",
    "request_type": "Trash/Recycling",
    "request_reason": "Missed Trash Pick-Up",
    "date_created": "2021-10-07T15:03:14.000",
    "date_modified": "2021-10-07T15:03:14.000",
    "request_status": "Pending",
    "responsible_agency": "Department of Sanitation",
    "final_address": "7809 Maple St",
    "address_councildis": "A",
    "status": "Assigned to Contractor",
    "contractor": "Richards Disposal",
    "rowid": "830954",
    "final_x": "3661806.49133",
    "final_y": "526678.15475",
    "longitude": "-90.13041615847355",
    "latitude": "29.94276540990869",
    "geocoded_column": {
      "latitude": "29.94276540990869",
      "longitude": "-90.13041615847355"
    }
  },
  {
    "service_request": "2021-830953",
    "request_type": "Trash/Recycling",
    "request_reason": "Missed Trash Pick-Up",
    "date_created": "2021-10-07T15:03:00.000",
    "date_modified": "2021-10-07T15:03:01.000",
    "request_status": "Pending",
    "responsible_agency": "Department of Sanitation",
    "final_address": "1659 N Rocheblave St",
    "address_councildis": "D",
    "status": "Assigned to Contractor",
    "contractor": "Metro Disposal",
    "rowid": "830953",
    "final_x": "3680228.89333",
    "final_y": "539951.295946",
    "longitude": "-90.07179090465783",
    "latitude": "29.978717391121254",
    "geocoded_column": {
      "latitude": "29.978717391121254",
      "longitude": "-90.07179090465783"
    }
  },
  {
    "service_request": "2021-830949",
    "request_type": "Trash/Recycling",
    "request_reason": "Illegal Dumping",
    "date_created": "2021-10-07T14:57:26.000",
    "date_modified": "2021-10-07T14:57:26.000",
    "request_status": "Pending",
    "responsible_agency": "Department of Sanitation",
    "final_address": "S JOHNSON ST & JOSEPH ST",
    "address_councildis": "A",
    "status": "Pending",
    "rowid": "830949",
    "final_x": "3667948.7",
    "final_y": "527092.08",
    "longitude": "-90.11100974296124",
    "latitude": "29.943724838007892",
    "geocoded_column": {
      "latitude": "29.943724838007892",
      "longitude": "-90.11100974296124"
    }
  },
  {
    "service_request": "2021-830947",
    "request_type": "Trash/Recycling",
    "request_reason": "Damaged Caused By Contractor",
    "date_created": "2021-10-07T14:53:41.000",
    "date_modified": "2021-10-07T14:53:41.000",
    "request_status": "Pending",
    "responsible_agency": "Department of Sanitation",
    "final_address": "4726 Gawain Dr",
    "address_councildis": "E",
    "status": "Assigned to Contractor",
    "contractor": "Metro Disposal",
    "rowid": "830947",
    "final_x": "3706909.5347",
    "final_y": "555324.546777",
    "longitude": "-89.98695364591609",
    "latitude": "30.02015333263444",
    "geocoded_column": {
      "latitude": "30.02015333263444",
      "longitude": "-89.98695364591609"
    }
  },
  {
    "service_request": "2021-830946",
    "request_type": "Property Maintenance",
    "request_reason": "Property Maintenance",
    "date_created": "2021-10-07T14:50:38.000",
    "date_modified": "2021-10-07T14:50:38.000",
    "request_status": "Pending",
    "responsible_agency": "Department of Code Enforcement",
    "final_address": "2520 Memorial Park Dr",
    "address_councildis": "C",
    "status": "Pending",
    "rowid": "830946",
    "final_x": "3692874.45027",
    "final_y": "521288.664377",
    "longitude": "-90.0325208151853",
    "latitude": "29.927012765435535",
    "geocoded_column": {
      "latitude": "29.927012765435535",
      "longitude": "-90.0325208151853"
    }
  },
  {
    "service_request": "2021-830945",
    "request_type": "Abandoned Vehicles",
    "request_reason": "Abandoned/Junk Vehicles",
    "date_created": "2021-10-07T14:49:28.000",
    "date_modified": "2021-10-07T14:49:28.000",
    "request_status": "Pending",
    "responsible_agency": "Department of Public Works",
    "final_address": "1443 Annunciation St",
    "address_councildis": "B",
    "status": "Pending",
    "rowid": "830945",
    "final_x": "3681017.77416",
    "final_y": "523953.265916",
    "longitude": "-90.06985647596244",
    "latitude": "29.934704329808987",
    "geocoded_column": {
      "latitude": "29.934704329808987",
      "longitude": "-90.06985647596244"
    }
  },
  {
    "service_request": "2021-830943",
    "request_type": "Trash/Recycling",
    "request_reason": "Order Trash Cart",
    "date_created": "2021-10-07T14:44:21.000",
    "date_modified": "2021-10-07T14:44:22.000",
    "request_status": "Pending",
    "responsible_agency": "Department of Sanitation",
    "final_address": "4013 Prytania St",
    "address_councildis": "B",
    "status": "Assigned to Contractor",
    "contractor": "Richards Disposal",
    "rowid": "830943",
    "final_x": "3672248.28423",
    "final_y": "520506.750264",
    "longitude": "-90.09765899403666",
    "latitude": "29.92549049626173",
    "geocoded_column": {
      "latitude": "29.92549049626173",
      "longitude": "-90.09765899403666"
    }
  },
  {
    "service_request": "2021-830942",
    "request_type": "Trash/Recycling",
    "request_reason": "Missed Trash Pick-Up",
    "date_created": "2021-10-07T14:43:34.000",
    "date_modified": "2021-10-07T14:43:35.000",
    "request_status": "Pending",
    "responsible_agency": "Department of Sanitation",
    "final_address": "1766 Burbank Dr",
    "address_councildis": "D",
    "status": "Assigned to Contractor",
    "contractor": "Metro Disposal",
    "rowid": "830942",
    "final_x": "3680158.6093",
    "final_y": "554389.08444",
    "longitude": "-90.07151073213318",
    "latitude": "30.018418307208716",
    "geocoded_column": {
      "latitude": "30.018418307208716",
      "longitude": "-90.07151073213318"
    }
  },
  {
    "service_request": "2021-830941",
    "request_type": "Trash/Recycling",
    "request_reason": "Missed Trash Pick-Up",
    "date_created": "2021-10-07T14:43:29.000",
    "date_modified": "2021-10-07T14:43:30.000",
    "request_status": "Pending",
    "responsible_agency": "Department of Sanitation",
    "final_address": "1766 Burbank Dr",
    "address_councildis": "D",
    "status": "Assigned to Contractor",
    "contractor": "Metro Disposal",
    "rowid": "830941",
    "final_x": "3680158.6093",
    "final_y": "554389.08444",
    "longitude": "-90.07151073213318",
    "latitude": "30.018418307208716",
    "geocoded_column": {
      "latitude": "30.018418307208716",
      "longitude": "-90.07151073213318"
    }
  },
  {
    "service_request": "2021-830940",
    "request_type": "Roads/Drainage",
    "request_reason": "Street Subsidence (Sinking)",
    "date_created": "2021-10-07T14:43:04.000",
    "date_modified": "2021-10-07T14:44:28.000",
    "request_status": "Pending",
    "responsible_agency": "Department of Public Works",
    "final_address": "1100 BLK Euterpe St",
    "address_councildis": "B",
    "status": "Pending",
    "rowid": "830940",
    "final_x": "3680094.42127",
    "final_y": "524256.022798",
    "longitude": "-90.07276096878125",
    "latitude": "29.935564774651674",
    "geocoded_column": {
      "latitude": "29.935564774651674",
      "longitude": "-90.07276096878125"
    }
  },
  {
    "service_request": "2021-830939",
    "request_type": "Mosquito, Termite & Rodent Control",
    "request_reason": "Non-Rodent Complaint (Mice, Possums, Snakes)",
    "date_created": "2021-10-07T14:42:22.000",
    "date_modified": "2021-10-07T14:42:22.000",
    "request_status": "Pending",
    "responsible_agency": "Mosquito, Termite & Rodent Control Board",
    "final_address": "1421 Josephine St",
    "address_councildis": "B",
    "status": "Pending",
    "rowid": "830939",
    "final_x": "3678459.70357",
    "final_y": "523284.965627",
    "longitude": "-90.07795537608048",
    "latitude": "29.93294403538247",
    "geocoded_column": {
      "latitude": "29.93294403538247",
      "longitude": "-90.07795537608048"
    }
  },
  {
    "service_request": "2021-830938",
    "request_type": "Safety & Permits",
    "request_reason": "Safety & Permits Request (Cyber Incident Back Up)",
    "date_created": "2021-10-07T14:41:14.000",
    "date_modified": "2021-10-07T14:41:14.000",
    "request_status": "Pending",
    "responsible_agency": "Safety and Permits",
    "status": "Pending",
    "rowid": "830938",
    "longitude": "0.0",
    "latitude": "0.0",
    "geocoded_column": {
      "latitude": "0.0",
      "longitude": "0.0"
    }
  },
  {
    "service_request": "2021-830936",
    "request_type": "Trash/Recycling",
    "request_reason": "Illegal Dumping",
    "date_created": "2021-10-07T14:40:06.000",
    "date_modified": "2021-10-07T14:40:06.000",
    "request_status": "Pending",
    "responsible_agency": "Department of Sanitation",
    "final_address": "3001 Grand Route St John St",
    "address_councildis": "A",
    "status": "Pending",
    "rowid": "830936",
    "final_x": "3677107.58069",
    "final_y": "540392.499467",
    "longitude": "-90.08163396394826",
    "latitude": "29.98002467101905",
    "geocoded_column": {
      "latitude": "29.98002467101905",
      "longitude": "-90.08163396394826"
    }
  },
  {
    "service_request": "2021-830934",
    "request_type": "Traffic Signals/Signs/Striping/Streetlights",
    "request_reason": "Traffic Signal Malfunctioning/Damaged",
    "date_created": "2021-10-07T14:38:26.000",
    "date_modified": "2021-10-07T14:38:26.000",
    "request_status": "Pending",
    "responsible_agency": "Department of Public Works",
    "final_address": "ESPLANADE AVE & N BROAD ST",
    "address_councildis": "D",
    "status": "Pending",
    "rowid": "830934",
    "final_x": "3678205.46",
    "final_y": "538920.34",
    "longitude": "-90.07821733427264",
    "latitude": "29.975943718140513",
    "geocoded_column": {
      "latitude": "29.975943718140513",
      "longitude": "-90.07821733427264"
    }
  },
  {
    "service_request": "2021-830932",
    "request_type": "Trash/Recycling",
    "request_reason": "Replace Trash Cart",
    "date_created": "2021-10-07T14:33:07.000",
    "date_modified": "2021-10-07T14:33:08.000",
    "request_status": "Pending",
    "responsible_agency": "Department of Sanitation",
    "final_address": "1515 Andry St",
    "address_councildis": "E",
    "status": "Assigned to Contractor",
    "contractor": "Metro Disposal",
    "rowid": "830932",
    "final_x": "3697649.78883",
    "final_y": "535562.62279",
    "longitude": "-90.01692874138932",
    "latitude": "29.966111233795",
    "geocoded_column": {
      "latitude": "29.966111233795",
      "longitude": "-90.01692874138932"
    }
  },
  {
    "service_request": "2021-830930",
    "request_type": "Trash/Recycling",
    "request_reason": "Replace Trash Cart",
    "date_created": "2021-10-07T14:24:42.000",
    "date_modified": "2021-10-07T14:24:43.000",
    "request_status": "Pending",
    "responsible_agency": "Department of Sanitation",
    "final_address": "2201 Dumaine St",
    "address_councildis": "D",
    "status": "Assigned to Contractor",
    "contractor": "Richards Disposal",
    "rowid": "830930",
    "final_x": "3678788.21019",
    "final_y": "536326.429511",
    "longitude": "-90.07646670273856",
    "latitude": "29.96879379043821",
    "geocoded_column": {
      "latitude": "29.96879379043821",
      "longitude": "-90.07646670273856"
    }
  },
  {
    "service_request": "2021-830929",
    "request_type": "Trash/Recycling",
    "request_reason": "Missed Trash Pick-Up",
    "date_created": "2021-10-07T14:24:02.000",
    "date_modified": "2021-10-07T14:24:03.000",
    "request_status": "Pending",
    "responsible_agency": "Department of Sanitation",
    "final_address": "4548 Duplessis St",
    "address_councildis": "D",
    "status": "Assigned to Contractor",
    "contractor": "Metro Disposal",
    "rowid": "830929",
    "final_x": "3678116.35042",
    "final_y": "549378.351315",
    "longitude": "-90.07813695156362",
    "latitude": "30.00470227098791",
    "geocoded_column": {
      "latitude": "30.00470227098791",
      "longitude": "-90.07813695156362"
    }
  },
  {
    "service_request": "2021-830928",
    "request_type": "Trash/Recycling",
    "request_reason": "Replace Trash Cart",
    "date_created": "2021-10-07T14:22:08.000",
    "date_modified": "2021-10-07T14:22:08.000",
    "request_status": "Pending",
    "responsible_agency": "Department of Sanitation",
    "final_address": "6535 Manchester St",
    "address_councildis": "E",
    "status": "Assigned to Contractor",
    "contractor": "Metro Disposal",
    "rowid": "830928",
    "final_x": "3697445.39767",
    "final_y": "559460.923869",
    "longitude": "-90.01670701179265",
    "latitude": "30.031829167001582",
    "geocoded_column": {
      "latitude": "30.031829167001582",
      "longitude": "-90.01670701179265"
    }
  },
  {
    "service_request": "2021-830927",
    "request_type": "Abandoned Vehicles",
    "request_reason": "Vehicle Blocking Your Driveway",
    "date_created": "2021-10-07T14:20:43.000",
    "date_modified": "2021-10-07T14:20:43.000",
    "request_status": "Pending",
    "responsible_agency": "Department of Public Works",
    "final_address": "4525 Laurel St",
    "address_councildis": "B",
    "status": "Pending",
    "rowid": "830927",
    "final_x": "3670505.40724",
    "final_y": "518048.94879",
    "longitude": "-90.10324402191817",
    "latitude": "29.918783888689653",
    "geocoded_column": {
      "latitude": "29.918783888689653",
      "longitude": "-90.10324402191817"
    }
  },
  {
    "service_request": "2021-830926",
    "request_type": "Abandoned Vehicles",
    "request_reason": "Vehicle Blocking Your Driveway",
    "date_created": "2021-10-07T14:19:20.000",
    "date_modified": "2021-10-07T14:19:20.000",
    "request_status": "Pending",
    "responsible_agency": "Department of Public Works",
    "final_address": "3504 Napoleon Avenue, New Orleans, LA 70125",
    "address_councildis": "B",
    "status": "Pending",
    "rowid": "830926",
    "final_x": "3670022.10766",
    "final_y": "527614.148223",
    "longitude": "-90.1044457446155",
    "latitude": "29.94509937555158",
    "geocoded_column": {
      "latitude": "29.94509937555158",
      "longitude": "-90.1044457446155"
    }
  },
  {
    "service_request": "2021-830925",
    "request_type": "Trash/Recycling",
    "request_reason": "Missed Trash Pick-Up",
    "date_created": "2021-10-07T14:17:31.000",
    "date_modified": "2021-10-07T14:17:32.000",
    "request_status": "Pending",
    "responsible_agency": "Department of Sanitation",
    "final_address": "3142 Trafalgar St",
    "address_councildis": "A",
    "status": "Assigned to Contractor",
    "contractor": "Metro Disposal",
    "rowid": "830925",
    "final_x": "3678411.4811",
    "final_y": "543119.901005",
    "longitude": "-90.07742128506443",
    "latitude": "29.987484847581683",
    "geocoded_column": {
      "latitude": "29.987484847581683",
      "longitude": "-90.07742128506443"
    }
  },
  {
    "service_request": "2021-830924",
    "request_type": "Trash/Recycling",
    "request_reason": "Missed Trash Pick-Up",
    "date_created": "2021-10-07T14:17:21.000",
    "date_modified": "2021-10-07T14:17:22.000",
    "request_status": "Pending",
    "responsible_agency": "Department of Sanitation",
    "final_address": "1829 Charbonnet St",
    "address_councildis": "E",
    "status": "Assigned to Contractor",
    "contractor": "Metro Disposal",
    "rowid": "830924",
    "final_x": "3699429.01533",
    "final_y": "536462.945927",
    "longitude": "-90.0112772179981",
    "latitude": "29.968530474326496",
    "geocoded_column": {
      "latitude": "29.968530474326496",
      "longitude": "-90.0112772179981"
    }
  },
  {
    "service_request": "2021-830923",
    "request_type": "Trash/Recycling",
    "request_reason": "MIssed Recycling Pick-Up",
    "date_created": "2021-10-07T14:16:33.000",
    "date_modified": "2021-10-07T14:16:40.000",
    "request_status": "Pending",
    "responsible_agency": "Department of Sanitation",
    "final_address": "5319 Wingate Dr",
    "address_councildis": "D",
    "status": "Assigned to Contractor",
    "contractor": "Metro Disposal",
    "rowid": "830923",
    "final_x": "3681475.20732",
    "final_y": "552646.908182",
    "longitude": "-90.0674115846723",
    "latitude": "30.013588024557006",
    "geocoded_column": {
      "latitude": "30.013588024557006",
      "longitude": "-90.0674115846723"
    }
  },
  {
    "service_request": "2021-830922",
    "request_type": "Trash/Recycling",
    "request_reason": "Illegal Dumping",
    "date_created": "2021-10-07T14:15:52.000",
    "date_modified": "2021-10-07T14:15:52.000",
    "request_status": "Pending",
    "responsible_agency": "Department of Sanitation",
    "final_address": "1901 Old Prieur St",
    "address_councildis": "D",
    "status": "Pending",
    "rowid": "830922",
    "final_x": "3682215.2493",
    "final_y": "539650.868298",
    "longitude": "-90.06552775229186",
    "latitude": "29.977831037325252",
    "geocoded_column": {
      "latitude": "29.977831037325252",
      "longitude": "-90.06552775229186"
    }
  },
  {
    "service_request": "2021-830920",
    "request_type": "Trash/Recycling",
    "request_reason": "Missed Trash Pick-Up",
    "date_created": "2021-10-07T14:15:19.000",
    "date_modified": "2021-10-07T14:15:19.000",
    "request_status": "Pending",
    "responsible_agency": "Department of Sanitation",
    "final_address": "1901 Old Prieur St",
    "address_councildis": "D",
    "status": "Assigned to Contractor",
    "contractor": "Metro Disposal",
    "rowid": "830920",
    "final_x": "3682215.2493",
    "final_y": "539650.868298",
    "longitude": "-90.06552775229186",
    "latitude": "29.977831037325252",
    "geocoded_column": {
      "latitude": "29.977831037325252",
      "longitude": "-90.06552775229186"
    }
  },
  {
    "service_request": "2021-830918",
    "request_type": "Trash/Recycling",
    "request_reason": "Missed Trash Pick-Up",
    "date_created": "2021-10-07T14:12:49.000",
    "date_modified": "2021-10-07T14:12:50.000",
    "request_status": "Pending",
    "responsible_agency": "Department of Sanitation",
    "final_address": "4322 DHemecourt St",
    "address_councildis": "A",
    "status": "Assigned to Contractor",
    "contractor": "Richards Disposal",
    "rowid": "830918",
    "final_x": "3668887.61082",
    "final_y": "537473.951112",
    "longitude": "-90.10769473015509",
    "latitude": "29.97224398735593",
    "geocoded_column": {
      "latitude": "29.97224398735593",
      "longitude": "-90.10769473015509"
    }
  },
  {
    "service_request": "2021-830917",
    "request_type": "Trash/Recycling",
    "request_reason": "Missed Trash Pick-Up",
    "date_created": "2021-10-07T14:11:12.000",
    "date_modified": "2021-10-07T14:11:13.000",
    "request_status": "Pending",
    "responsible_agency": "Department of Sanitation",
    "final_address": "5319 Wingate Dr",
    "address_councildis": "D",
    "status": "Assigned to Contractor",
    "contractor": "Metro Disposal",
    "rowid": "830917",
    "final_x": "3681475.20732",
    "final_y": "552646.908182",
    "longitude": "-90.0674115846723",
    "latitude": "30.013588024557006",
    "geocoded_column": {
      "latitude": "30.013588024557006",
      "longitude": "-90.0674115846723"
    }
  },
  {
    "service_request": "2021-830914",
    "request_type": "Traffic Signals/Signs/Striping/Streetlights",
    "request_reason": "Street Light Outage/Malfunction",
    "date_created": "2021-10-07T14:07:07.000",
    "date_modified": "2021-10-07T14:07:15.000",
    "request_status": "Pending",
    "responsible_agency": "Department of Public Works",
    "final_address": "2429 Feliciana St",
    "address_councildis": "D",
    "status": "Pending",
    "contractor": "Royal Engineering",
    "rowid": "830914",
    "final_x": "3690052.93091",
    "final_y": "541194.26702",
    "longitude": "-90.04071872834196",
    "latitude": "29.981834058623583",
    "geocoded_column": {
      "latitude": "29.981834058623583",
      "longitude": "-90.04071872834196"
    }
  },