[
  {
    "service_request": "2025-1244231",
    "request_type": "Streetlights",
    "request_reason": "Streetlight Outage/Malfunction",
    "date_created": "2025-12-07T22:52:33.000",
    "date_modified": "2025-12-07T22:52:35.000",
    "request_status": "Pending",
    "responsible_agency": "Department of Public Works",
    "final_address": "1222 Simon Bolivar Ave",
    "address_councildis": "B",
    "status": "Pending",
    "rowid": "1244231",
    "final_x": "3677793.71413",
    "final_y": "527352.983231",
    "longitude": "-90.07991737539807",
    "latitude": "29.944149789178095",
    "geocoded_column": {
      "latitude": "29.944149789178095",
      "longitude": "-90.07991737539807"
    }
  },
  {
    "service_request": "2025-1244230",
    "request_type": "Streetlights",
    "request_reason": "Streetlight Outage/Malfunction",
    "date_created": "2025-12-07T22:45:36.000",
    "date_modified": "2025-12-07T22:45:38.000",
    "request_status": "Pending",
    "responsible_agency": "Department of Public Works",
    "final_address": "1222 Simon Bolivar Ave",
    "address_councildis": "B",
    "status": "Pending",
    "rowid": "1244230",
    "final_x": "3677793.71413",
    "final_y": "527352.983231",
    "longitude": "-90.07991737539807",
    "latitude": "29.944149789178095",
    "geocoded_column": {
      "latitude": "29.944149789178095",
      "longitude": "-90.07991737539807"
    }
  },
  {
    "service_request": "2025-1244229",
    "request_type": "Roads and Streets",
    "request_reason": "Street Subsidence (Sinking)",
    "date_created": "2025-12-07T22:24:52.000",
    "date_modified": "2025-12-07T22:24:53.000",
    "request_status": "Pending",
    "responsible_agency": "Sewerage & Water Board",
    "final_address": "526 Pine St",
    "address_councildis": "A",
    "status": "Pending",
    "rowid": "1244229",
    "final_x": "3662450.33069",
    "final_y": "524615.466172",
    "longitude": "-90.1284518745106",
    "latitude": "29.937075070520944",
    "geocoded_column": {
      "latitude": "29.937075070520944",
      "longitude": "-90.1284518745106"
    }
  },
  {
    "service_request": "2025-1244228",
    "request_type": "Drainage",
    "request_reason": "Drainage Manhole Cover Missing or Damaged",
    "date_created": "2025-12-07T22:23:32.000",
    "date_modified": "2025-12-07T22:23:33.000",
    "request_status": "Pending",
    "responsible_agency": "Sewerage & Water Board",
    "final_address": "526 Pine St",
    "address_councildis": "A",
    "status": "Pending",
    "rowid": "1244228",
    "final_x": "3662450.33069",
    "final_y": "524615.466172",
    "longitude": "-90.1284518745106",
    "latitude": "29.937075070520944",
    "geocoded_column": {
      "latitude": "29.937075070520944",
      "longitude": "-90.1284518745106"
    }
  },
  {
    "service_request": "2025-1244227",
    "request_type": "Trash/Recycling",
    "request_reason": "Request a Large Item Pick Up",
    "date_created": "2025-12-07T20:47:43.000",
    "date_modified": "2025-12-07T20:47:45.000",
    "request_status": "Pending",
    "responsible_agency": "Department of Sanitation",
    "final_address": "7331 Camberley Dr",
    "address_councildis": "E",
    "status": "Assigned to Contractor",
    "contractor": "Waste Pro",
    "rowid": "1244227",
    "final_x": "3712922.87064",
    "final_y": "565406.238306",
    "longitude": "-89.96757390177451",
    "latitude": "30.04767830806638",
    "geocoded_column": {
      "latitude": "30.04767830806638",
      "longitude": "-89.96757390177451"
    }
  },
  {
    "service_request": "2025-1244226",
    "request_type": "Trash/Recycling",
    "request_reason": "Request a Large Item Pick Up",
    "date_created": "2025-12-07T20:32:22.000",
    "date_modified": "2025-12-07T20:32:24.000",
    "request_status": "Pending",
    "responsible_agency": "Department of Sanitation",
    "final_address": "1510 Sumner St",
    "address_councildis": "C",
    "status": "Assigned to Contractor",
    "contractor": "IV Waste",
    "rowid": "1244226",
    "final_x": "3691060.00483",
    "final_y": "525811.519741",
    "longitude": "-90.03808713392915",
    "latitude": "29.93950559923464",
    "geocoded_column": {
      "latitude": "29.93950559923464",
      "longitude": "-90.03808713392915"
    }
  },
  {
    "service_request": "2025-1244225",
    "request_type": "Trash/Recycling",
    "request_reason": "Request a Large Item Pick Up",
    "date_created": "2025-12-07T20:26:47.000",
    "date_modified": "2025-12-07T20:26:49.000",
    "request_status": "Pending",
    "responsible_agency": "Department of Sanitation",
    "final_address": "3116 Palmyra St",
    "address_councildis": "B",
    "status": "Assigned to Contractor",
    "contractor": "IV Waste",
    "rowid": "1244225",
    "final_x": "3673441.64264",
    "final_y": "535495.941062",
    "longitude": "-90.09337989858761",
    "latitude": "29.9666704011716",
    "geocoded_column": {
      "latitude": "29.9666704011716",
      "longitude": "-90.09337989858761"
    }
  },
  {
    "service_request": "2025-1244224",
    "request_type": "Trash/Recycling",
    "request_reason": "Repair Recycling Cart",
    "date_created": "2025-12-07T20:11:34.000",
    "date_modified": "2025-12-07T20:11:36.000",
    "request_status": "Pending",
    "responsible_agency": "Department of Sanitation",
    "final_address": "830 Ida St",
    "address_councildis": "A",
    "status": "Pending",
    "rowid": "1244224",
    "final_x": "3673133.96206",
    "final_y": "540201.169803",
    "longitude": "-90.09419086344707",
    "latitude": "29.979617336338613",
    "geocoded_column": {
      "latitude": "29.979617336338613",
      "longitude": "-90.09419086344707"
    }
  },
  {
    "service_request": "2025-1244223",
    "request_type": "Trash/Recycling",
    "request_reason": "Repair Trash Cart",
    "date_created": "2025-12-07T20:08:30.000",
    "date_modified": "2025-12-07T20:08:32.000",
    "request_status": "Pending",
    "responsible_agency": "Department of Sanitation",
    "final_address": "830 Ida St",
    "address_councildis": "A",
    "status": "Assigned to Contractor",
    "contractor": "IV Waste",
    "rowid": "1244223",
    "final_x": "3673133.96206",
    "final_y": "540201.169803",
    "longitude": "-90.09419086344707",
    "latitude": "29.979617336338613",
    "geocoded_column": {
      "latitude": "29.979617336338613",
      "longitude": "-90.09419086344707"
    }
  },
  {
    "service_request": "2025-1244222",
    "request_type": "Trash/Recycling",
    "request_reason": "Repair Trash Cart",
    "date_created": "2025-12-07T19:58:19.000",
    "date_modified": "2025-12-07T19:58:20.000",
    "request_status": "Pending",
    "responsible_agency": "Department of Sanitation",
    "final_address": "1129 Allen Toussaint Blvd",
    "address_councildis": "D",
    "status": "Assigned to Contractor",
    "contractor": "IV Waste",
    "rowid": "1244222",
    "final_x": "3674908.13467",
    "final_y": "554879.7302",
    "longitude": "-90.08808347430332",
    "latitude": "30.01992534352437",
    "geocoded_column": {
      "latitude": "30.01992534352437",
      "longitude": "-90.08808347430332"
    }
  },
  {
    "service_request": "2025-1244221",
    "request_type": "Trash/Recycling",
    "request_reason": "Request a Large Item Pick Up",
    "date_created": "2025-12-07T19:41:17.000",
    "date_modified": "2025-12-07T19:41:19.000",
    "request_status": "Pending",
    "responsible_agency": "Department of Sanitation",
    "final_address": "122 N Alexander St",
    "address_councildis": "A",
    "status": "Assigned to Contractor",
    "contractor": "IV Waste",
    "rowid": "1244221",
    "final_x": "3670192.51911",
    "final_y": "539357.743882",
    "longitude": "-90.10350974300943",
    "latitude": "29.97738533823489",
    "geocoded_column": {
      "latitude": "29.97738533823489",
      "longitude": "-90.10350974300943"
    }
  },
  {
    "service_request": "2025-1244220",
    "request_type": "General Services",
    "request_reason": "General Service Request",
    "date_created": "2025-12-07T18:50:03.000",
    "date_modified": "2025-12-07T18:50:05.000",
    "request_status": "Pending",
    "responsible_agency": "Orleans Parish Communication District",
    "final_address": "5637 Charles Pl",
    "address_councildis": "A",
    "status": "Pending",
    "rowid": "1244220",
    "final_x": "3668999.7762",
    "final_y": "545006.513807",
    "longitude": "-90.10708590685172",
    "latitude": "29.992952678113696",
    "geocoded_column": {
      "latitude": "29.992952678113696",
      "longitude": "-90.10708590685172"
    }
  },
  {
    "service_request": "2025-1244219",
    "request_type": "Drainage",
    "request_reason": "Illegal Dumping (Sewer Odor)",
    "date_created": "2025-12-07T18:36:22.000",
    "date_modified": "2025-12-07T18:36:24.000",
    "request_status": "Pending",
    "responsible_agency": "Sewerage & Water Board",
    "final_address": "821 Dante St",
    "address_councildis": "A",
    "status": "Pending",
    "rowid": "1244219",
    "final_x": "3660627.61165",
    "final_y": "527932.099903",
    "longitude": "-90.13409674662248",
    "latitude": "29.946247337782747",
    "geocoded_column": {
      "latitude": "29.946247337782747",
      "longitude": "-90.13409674662248"
    }
  },
  {
    "service_request": "2025-1244218",
    "request_type": "Trash/Recycling",
    "request_reason": "Replace Trash Cart",
    "date_created": "2025-12-07T17:45:31.000",
    "date_modified": "2025-12-07T17:45:33.000",
    "request_status": "Pending",
    "responsible_agency": "Department of Sanitation",
    "final_address": "1918 Washington Ave",
    "address_councildis": "B",
    "status": "Assigned to Contractor",
    "contractor": "IV Waste",
    "rowid": "1244218",
    "final_x": "3675194.17531",
    "final_y": "523559.960571",
    "longitude": "-90.08825498797992",
    "latitude": "29.933798152998662",
    "geocoded_column": {
      "latitude": "29.933798152998662",
      "longitude": "-90.08825498797992"
    }
  },
  {
    "service_request": "2025-1244217",
    "request_type": "Streetlights",
    "request_reason": "Streetlight Outage/Malfunction",
    "date_created": "2025-12-07T17:41:21.000",
    "date_modified": "2025-12-07T17:41:23.000",
    "request_status": "Pending",
    "responsible_agency": "Department of Public Works",
    "final_address": "5646 Charles Pl",
    "address_councildis": "A",
    "status": "Pending",
    "rowid": "1244217",
    "final_x": "3668850.09108",
    "final_y": "545126.130063",
    "longitude": "-90.10755469542005",
    "latitude": "29.993285985496843",
    "geocoded_column": {
      "latitude": "29.993285985496843",
      "longitude": "-90.10755469542005"
    }
  },
  {
    "service_request": "2025-1244216",
    "request_type": "Trash/Recycling",
    "request_reason": "Missed Trash Pick-Up",
    "date_created": "2025-12-07T17:38:38.000",
    "date_modified": "2025-12-07T17:38:39.000",
    "request_status": "Pending",
    "responsible_agency": "Department of Sanitation",
    "final_address": "1800 Toledano St",
    "address_councildis": "B",
    "status": "Assigned to Contractor",
    "contractor": "IV Waste",
    "rowid": "1244216",
    "final_x": "3674192.57057",
    "final_y": "522462.012602",
    "longitude": "-90.09145457924824",
    "latitude": "29.930809040302144",
    "geocoded_column": {
      "latitude": "29.930809040302144",
      "longitude": "-90.09145457924824"
    }
  },
  {
    "service_request": "2025-1244215",
    "request_type": "Trash/Recycling",
    "request_reason": "Repair Trash Cart",
    "date_created": "2025-12-07T17:31:47.000",
    "date_modified": "2025-12-07T17:31:48.000",
    "request_status": "Pending",
    "responsible_agency": "Department of Sanitation",
    "final_address": "1829 Valence St Apt B",
    "address_councildis": "B",
    "status": "Assigned to Contractor",
    "contractor": "IV Waste",
    "rowid": "1244215",
    "final_x": "3669716.26599",
    "final_y": "521745.170426",
    "longitude": "-90.10560992856688",
    "latitude": "29.928970594651155",
    "geocoded_column": {
      "latitude": "29.928970594651155",
      "longitude": "-90.10560992856688"
    }
  },
  {
    "service_request": "2025-1244214",
    "request_type": "Trash/Recycling",
    "request_reason": "Order Recycling Cart",
    "date_created": "2025-12-07T17:30:57.000",
    "date_modified": "2025-12-07T17:30:59.000",
    "request_status": "Pending",
    "responsible_agency": "Department of Sanitation",
    "final_address": "1829 Valence St Apt B",
    "address_councildis": "B",
    "status": "Pending",
    "rowid": "1244214",
    "final_x": "3669716.26599",
    "final_y": "521745.170426",
    "longitude": "-90.10560992856688",
    "latitude": "29.928970594651155",
    "geocoded_column": {
      "latitude": "29.928970594651155",
      "longitude": "-90.10560992856688"
    }
  },
  {
    "service_request": "2025-1244213",
    "request_type": "Trash/Recycling",
    "request_reason": "Order Trash Cart",
    "date_created": "2025-12-07T17:29:55.000",
    "date_modified": "2025-12-07T17:29:58.000",
    "request_status": "Pending",
    "responsible_agency": "Department of Sanitation",
    "final_address": "1829 Valence St Apt B",
    "address_councildis": "B",
    "status": "Assigned to Contractor",
    "contractor": "IV Waste",
    "rowid": "1244213",
    "final_x": "3669716.26599",
    "final_y": "521745.170426",
    "longitude": "-90.10560992856688",
    "latitude": "29.928970594651155",
    "geocoded_column": {
      "latitude": "29.928970594651155",
      "longitude": "-90.10560992856688"
    }
  },
  {
    "service_request": "2025-1244212",
    "request_type": "Streetlights",
    "request_reason": "Streetlight Outage/Malfunction",
    "date_created": "2025-12-07T16:53:47.000",
    "date_modified": "2025-12-07T16:53:49.000",
    "request_status": "Pending",
    "responsible_agency": "Department of Public Works",
    "final_address": "7500 Hampson St",
    "address_councildis": "A",
    "status": "Pending",
    "rowid": "1244212",
    "final_x": "3662317.00909",
    "final_y": "525665.337725",
    "longitude": "-90.12883793874707",
    "latitude": "29.939965738572415",
    "geocoded_column": {
      "latitude": "29.939965738572415",
      "longitude": "-90.12883793874707"
    }
  },
  {
    "service_request": "2025-1244211",
    "request_type": "Trash/Recycling",
    "request_reason": "Damaged Caused By Contractor",
    "date_created": "2025-12-07T16:31:59.000",
    "date_modified": "2025-12-07T16:32:00.000",
    "request_status": "Pending",
    "responsible_agency": "Department of Sanitation",
    "final_address": "4958 Robin Hood Dr",
    "address_councildis": "E",
    "status": "Assigned to Contractor",
    "contractor": "Waste Pro",
    "rowid": "1244211",
    "final_x": "3717305.64626",
    "final_y": "558083.451611",
    "longitude": "-89.95400064790726",
    "latitude": "30.027399241162822",
    "geocoded_column": {
      "latitude": "30.027399241162822",
      "longitude": "-89.95400064790726"
    }
  },
  {
    "service_request": "2025-1244210",
    "request_type": "Trash/Recycling",
    "request_reason": "Repair Trash Cart",
    "date_created": "2025-12-07T16:29:00.000",
    "date_modified": "2025-12-07T16:29:01.000",
    "request_status": "Pending",
    "responsible_agency": "Department of Sanitation",
    "final_address": "245 Lowerline St",
    "address_councildis": "A",
    "status": "Assigned to Contractor",
    "contractor": "IV Waste",
    "rowid": "1244210",
    "final_x": "3661228.63437",
    "final_y": "523088.451899",
    "longitude": "-90.13235938856441",
    "latitude": "29.932911529139652",
    "geocoded_column": {
      "latitude": "29.932911529139652",
      "longitude": "-90.13235938856441"
    }
  },
  {
    "service_request": "2025-1244209",
    "request_type": "Trash/Recycling",
    "request_reason": "Request a Large Item Pick Up",
    "date_created": "2025-12-07T16:27:14.000",
    "date_modified": "2025-12-07T16:27:16.000",
    "request_status": "Pending",
    "responsible_agency": "Department of Sanitation",
    "final_address": "245 Lowerline St",
    "address_councildis": "A",
    "status": "Assigned to Contractor",
    "contractor": "IV Waste",
    "rowid": "1244209",
    "final_x": "3661228.63437",
    "final_y": "523088.451899",
    "longitude": "-90.13235938856441",
    "latitude": "29.932911529139652",
    "geocoded_column": {
      "latitude": "29.932911529139652",
      "longitude": "-90.13235938856441"
    }
  },
  {
    "service_request": "2025-1244208",
    "request_type": "Trash/Recycling",
    "request_reason": "Order Trash Cart",
    "date_created": "2025-12-07T16:15:20.000",
    "date_modified": "2025-12-07T16:15:22.000",
    "request_status": "Pending",
    "responsible_agency": "Department of Sanitation",
    "final_address": "6220 Baccich St",
    "address_councildis": "D",
    "status": "Assigned to Contractor",
    "contractor": "IV Waste",
    "rowid": "1244208",
    "final_x": "3687377.45436",
    "final_y": "556252.351194",
    "longitude": "-90.04863588785103",
    "latitude": "30.023321040882408",
    "geocoded_column": {
      "latitude": "30.023321040882408",
      "longitude": "-90.04863588785103"
    }
  },
  {
    "service_request": "2025-1244207",
    "request_type": "Trash/Recycling",
    "request_reason": "Replace Trash Cart",
    "date_created": "2025-12-07T16:12:42.000",
    "date_modified": "2025-12-07T16:12:43.000",
    "request_status": "Pending",
    "responsible_agency": "Department of Sanitation",
    "final_address": "519 River Oaks Dr",
    "address_councildis": "C",
    "status": "Assigned to Contractor",
    "contractor": "IV Waste",
    "rowid": "1244207",
    "final_x": "3701457.897",
    "final_y": "521096.530425",
    "longitude": "-90.0054323307301",
    "latitude": "29.926213735984128",
    "geocoded_column": {
      "latitude": "29.926213735984128",
      "longitude": "-90.0054323307301"
    }
  },
  {
    "service_request": "2025-1244206",
    "request_type": "Trash/Recycling",
    "request_reason": "Start Trash Service",
    "date_created": "2025-12-07T16:11:16.000",
    "date_modified": "2025-12-07T16:11:18.000",
    "request_status": "Pending",
    "responsible_agency": "Department of Sanitation",
    "final_address": "6220 Baccich St",
    "address_councildis": "D",
    "status": "Assigned to Contractor",
    "contractor": "IV Waste",
    "rowid": "1244206",
    "final_x": "3687377.45436",
    "final_y": "556252.351194",
    "longitude": "-90.04863588785103",
    "latitude": "30.023321040882408",
    "geocoded_column": {
      "latitude": "30.023321040882408",
      "longitude": "-90.04863588785103"
    }
  },
  {
    "service_request": "2025-1244205",
    "request_type": "Trash/Recycling",
    "request_reason": "Replace Trash Cart",
    "date_created": "2025-12-07T15:55:17.000",
    "date_modified": "2025-12-07T15:55:19.000",
    "request_status": "Pending",
    "responsible_agency": "Department of Sanitation",
    "final_address": "103 Lark St",
    "address_councildis": "D",
    "status": "Assigned to Contractor",
    "contractor": "IV Waste",
    "rowid": "1244205",
    "final_x": "3675052.02952",
    "final_y": "556213.253146",
    "longitude": "-90.08758300309654",
    "latitude": "30.023587749640377",
    "geocoded_column": {
      "latitude": "30.023587749640377",
      "longitude": "-90.08758300309654"
    }
  },
  {
    "service_request": "2025-1244204",
    "request_type": "Traffic Signals",
    "request_reason": "Traffic Signal Malfunctioning or Damaged",
    "date_created": "2025-12-07T15:31:34.000",
    "date_modified": "2025-12-07T15:31:36.000",
    "request_status": "Pending",
    "responsible_agency": "Department of Public Works",
    "final_address": "1755 St Charles Ave",
    "address_councildis": "B",
    "status": "Pending",
    "rowid": "1244204",
    "final_x": "3678537.36731",
    "final_y": "524594.319356",
    "longitude": "-90.07766490001445",
    "latitude": "29.9365419876982",
    "geocoded_column": {
      "latitude": "29.9365419876982",
      "longitude": "-90.07766490001445"
    }
  },
  {
    "service_request": "2025-1244203",
    "request_type": "Abandoned Vehicles",
    "request_reason": "Abandoned/Junk Vehicles",
    "date_created": "2025-12-07T15:30:29.000",
    "date_modified": "2025-12-07T15:30:31.000",
    "request_status": "Pending",
    "responsible_agency": "Department of Public Works",
    "final_address": "3529 St Claude Ave",
    "address_councildis": "C",
    "status": "Pending",
    "rowid": "1244203",
    "final_x": "3690716.79875",
    "final_y": "535691.108039",
    "longitude": "-90.03881829519734",
    "latitude": "29.966681711844014",
    "geocoded_column": {
      "latitude": "29.966681711844014",
      "longitude": "-90.03881829519734"
    }
  },
  {
    "service_request": "2025-1244202",
    "request_type": "Trash/Recycling",
    "request_reason": "Missed Trash Pick-Up",
    "date_created": "2025-12-07T15:21:43.000",
    "date_modified": "2025-12-07T15:21:44.000",
    "request_status": "Pending",
    "responsible_agency": "Department of Sanitation",
    "final_address": "27 Christopher Ct, New Orleans, Louisiana, 70128",
    "address_councildis": "E",
    "status": "Assigned to Contractor",
    "contractor": "Waste Pro",
    "rowid": "1244202",
    "final_x": "3716452.68127",
    "final_y": "570139.390823",
    "longitude": "-89.95623807308125",
    "latitude": "30.060576373175895",
    "geocoded_column": {
      "latitude": "30.060576373175895",
      "longitude": "-89.95623807308125"
    }
  },
  {
    "service_request": "2025-1244201",
    "request_type": "Trash/Recycling",
    "request_reason": "Request a Large Item Pick Up",
    "date_created": "2025-12-07T15:20:33.000",
    "date_modified": "2025-12-07T15:20:34.000",
    "request_status": "Pending",
    "responsible_agency": "Department of Sanitation",
    "final_address": "7708 Woodbine Dr",
    "address_councildis": "E",
    "status": "Assigned to Contractor",
    "contractor": "Waste Pro",
    "rowid": "1244201",
    "final_x": "3701815.91549",
    "final_y": "561577.244639",
    "longitude": "-90.00281836829033",
    "latitude": "30.037509416136853",
    "geocoded_column": {
      "latitude": "30.037509416136853",
      "longitude": "-90.00281836829033"
    }
  },
  {
    "service_request": "2025-1244200",
    "request_type": "Trash/Recycling",
    "request_reason": "Request a Large Item Pick Up",
    "date_created": "2025-12-07T15:18:51.000",
    "date_modified": "2025-12-07T15:18:52.000",
    "request_status": "Pending",
    "responsible_agency": "Department of Sanitation",
    "final_address": "305 Wallace Dr",
    "address_councildis": "D",
    "status": "Assigned to Contractor",
    "contractor": "IV Waste",
    "rowid": "1244200",
    "final_x": "3682386.9718",
    "final_y": "547829.29685",
    "longitude": "-90.0646994096488",
    "latitude": "30.000313601870353",
    "geocoded_column": {
      "latitude": "30.000313601870353",
      "longitude": "-90.0646994096488"
    }
  },
  {
    "service_request": "2025-1244199",
    "request_type": "Trash/Recycling",
    "request_reason": "Request a Large Item Pick Up",
    "date_created": "2025-12-07T15:18:18.000",
    "date_modified": "2025-12-07T15:18:21.000",
    "request_status": "Pending",
    "responsible_agency": "Department of Sanitation",
    "final_address": "2621 Barracks St",
    "address_councildis": "D",
    "status": "Assigned to Contractor",
    "contractor": "IV Waste",
    "rowid": "1244199",
    "final_x": "3678324.27957",
    "final_y": "538588.511561",
    "longitude": "-90.07785355074466",
    "latitude": "29.97502772492908",
    "geocoded_column": {
      "latitude": "29.97502772492908",
      "longitude": "-90.07785355074466"
    }
  },
  {
    "service_request": "2025-1244198",
    "request_type": "Trash/Recycling",
    "request_reason": "Order Trash Cart",
    "date_created": "2025-12-07T15:06:59.000",
    "date_modified": "2025-12-07T15:07:03.000",
    "request_status": "Pending",
    "responsible_agency": "Department of Sanitation",
    "final_address": "1715 Short St",
    "address_councildis": "A",
    "status": "Assigned to Contractor",
    "contractor": "IV Waste",
    "rowid": "1244198",
    "final_x": "3663597.80378",
    "final_y": "529439.915137",
    "longitude": "-90.12466855789725",
    "latitude": "29.950307534081592",
    "geocoded_column": {
      "latitude": "29.950307534081592",
      "longitude": "-90.12466855789725"
    }
  },
  {
    "service_request": "2025-1244197",
    "request_type": "Trash/Recycling",
    "request_reason": "Request a Large Item Pick Up",
    "date_created": "2025-12-07T15:05:44.000",
    "date_modified": "2025-12-07T15:05:46.000",
    "request_status": "Pending",
    "responsible_agency": "Department of Sanitation",
    "final_address": "1747 Pratt Dr",
    "address_councildis": "D",
    "status": "Assigned to Contractor",
    "contractor": "IV Waste",
    "rowid": "1244197",
    "final_x": "3680301.34728",
    "final_y": "549383.633875",
    "longitude": "-90.07123393314137",
    "latitude": "30.004650801718938",
    "geocoded_column": {
      "latitude": "30.004650801718938",
      "longitude": "-90.07123393314137"
    }
  },
  {
    "service_request": "2025-1244196",
    "request_type": "Trash/Recycling",
    "request_reason": "Replace Recycling Cart",
    "date_created": "2025-12-07T14:25:02.000",
    "date_modified": "2025-12-07T14:25:06.000",
    "request_status": "Pending",
    "responsible_agency": "Department of Sanitation",
    "final_address": "2501 Carondelet St",
    "address_councildis": "B",
    "status": "Pending",
    "rowid": "1244196",
    "final_x": "3676441.80712",
    "final_y": "523377.510971",
    "longitude": "-90.08432254752674",
    "latitude": "29.933259140331867",
    "geocoded_column": {
      "latitude": "29.933259140331867",
      "longitude": "-90.08432254752674"
    }
  },
  {
    "service_request": "2025-1244195",
    "request_type": "Trash/Recycling",
    "request_reason": "Start Trash Service",
    "date_created": "2025-12-07T14:13:47.000",
    "date_modified": "2025-12-07T14:13:49.000",
    "request_status": "Pending",
    "responsible_agency": "Department of Sanitation",
    "final_address": "1812 Numa St",
    "address_councildis": "C",
    "status": "Assigned to Contractor",
    "contractor": "IV Waste",
    "rowid": "1244195",
    "final_x": "3691729.33257",
    "final_y": "524582.520828",
    "longitude": "-90.03601791508231",
    "latitude": "29.936105450459987",
    "geocoded_column": {
      "latitude": "29.936105450459987",
      "longitude": "-90.03601791508231"
    }
  },
  {
    "service_request": "2025-1244194",
    "request_type": "Trash/Recycling",
    "request_reason": "Replace Trash Cart",
    "date_created": "2025-12-07T13:56:13.000",
    "date_modified": "2025-12-07T13:56:14.000",
    "request_status": "Pending",
    "responsible_agency": "Department of Sanitation",
    "final_address": "5 Yosemite Dr",
    "address_councildis": "C",
    "status": "Assigned to Contractor",
    "contractor": "IV Waste",
    "rowid": "1244194",
    "final_x": "3699429.76663",
    "final_y": "517716.636406",
    "longitude": "-90.01195755558766",
    "latitude": "29.916984654818734",
    "geocoded_column": {
      "latitude": "29.916984654818734",
      "longitude": "-90.01195755558766"
    }
  },
  {
    "service_request": "2025-1244193",
    "request_type": "Trash/Recycling",
    "request_reason": "Request a Large Item Pick Up",
    "date_created": "2025-12-07T13:54:37.000",
    "date_modified": "2025-12-07T13:54:39.000",
    "request_status": "Pending",
    "responsible_agency": "Department of Sanitation",
    "final_address": "5 Yosemite Dr",
    "address_councildis": "C",
    "status": "Assigned to Contractor",
    "contractor": "IV Waste",
    "rowid": "1244193",
    "final_x": "3699429.76663",
    "final_y": "517716.636406",
    "longitude": "-90.01195755558766",
    "latitude": "29.916984654818734",
    "geocoded_column": {
      "latitude": "29.916984654818734",
      "longitude": "-90.01195755558766"
    }
  },
  {
    "service_request": "2025-1244192",
    "request_type": "Trash/Recycling",
    "request_reason": "Request a Large Item Pick Up",
    "date_created": "2025-12-07T13:47:41.000",
    "date_modified": "2025-12-07T13:47:43.000",
    "request_status": "Pending",
    "responsible_agency": "Department of Sanitation",
    "final_address": "5852 General Diaz St",
    "address_councildis": "A",
    "status": "Assigned to Contractor",
    "contractor": "IV Waste",
    "rowid": "1244192",
    "final_x": "3669326.29255",
    "final_y": "546285.741072",
    "longitude": "-90.10601121353952",
    "latitude": "29.996460500008144",
    "geocoded_column": {
      "latitude": "29.996460500008144",
      "longitude": "-90.10601121353952"
    }
  },
  {
    "service_request": "2025-1244191",
    "request_type": "Trash/Recycling",
    "request_reason": "Request a Large Item Pick Up",
    "date_created": "2025-12-07T13:29:20.000",
    "date_modified": "2025-12-07T13:29:21.000",
    "request_status": "Pending",
    "responsible_agency": "Department of Sanitation",
    "final_address": "2433 Killdeer St",
    "address_councildis": "D",
    "status": "Assigned to Contractor",
    "contractor": "IV Waste",
    "rowid": "1244191",
    "final_x": "3684923.75196",
    "final_y": "557749.110491",
    "longitude": "-90.05633634446266",
    "latitude": "30.02751198944454",
    "geocoded_column": {
      "latitude": "30.02751198944454",
      "longitude": "-90.05633634446266"
    }
  },
  {
    "service_request": "2025-1244190",
    "request_type": "Streetlights",
    "request_reason": "Streetlight Outage/Malfunction",
    "date_created": "2025-12-07T13:27:56.000",
    "date_modified": "2025-12-07T13:27:58.000",
    "request_status": "Pending",
    "responsible_agency": "Department of Public Works",
    "final_address": "6101 Memphis St",
    "address_councildis": "A",
    "status": "Pending",
    "rowid": "1244190",
    "final_x": "3669342.08487",
    "final_y": "547912.249042",
    "longitude": "-90.10590628763936",
    "latitude": "30.00093236838842",
    "geocoded_column": {
      "latitude": "30.00093236838842",
      "longitude": "-90.10590628763936"
    }
  },
  {
    "service_request": "2025-1244189",
    "request_type": "Trash/Recycling",
    "request_reason": "Repair Trash Cart",
    "date_created": "2025-12-07T13:15:50.000",
    "date_modified": "2025-12-07T13:15:53.000",
    "request_status": "Pending",
    "responsible_agency": "Department of Sanitation",
    "final_address": "6101 Memphis St",
    "address_councildis": "A",
    "status": "Assigned to Contractor",
    "contractor": "IV Waste",
    "rowid": "1244189",
    "final_x": "3669342.08487",
    "final_y": "547912.249042",
    "longitude": "-90.10590628763936",
    "latitude": "30.00093236838842",
    "geocoded_column": {
      "latitude": "30.00093236838842",
      "longitude": "-90.10590628763936"
    }
  },
  {
    "service_request": "2025-1244188",
    "request_type": "Roads and Streets",
    "request_reason": "Street Subsidence (Sinking)",
    "date_created": "2025-12-07T12:55:37.000",
    "date_modified": "2025-12-07T12:55:39.000",
    "request_status": "Pending",
    "responsible_agency": "Sewerage & Water Board",
    "final_address": "4527 S Miro St",
    "address_councildis": "B",
    "status": "Pending",
    "rowid": "1244188",
    "final_x": "3669523.6171",
    "final_y": "527811.372927",
    "longitude": "-90.10601296908825",
    "latitude": "29.945656370174284",
    "geocoded_column": {
      "latitude": "29.945656370174284",
      "longitude": "-90.10601296908825"
    }
  },
  {
    "service_request": "2025-1244187",
    "request_type": "Trash/Recycling",
    "request_reason": "Missed Trash Pick-Up",
    "date_created": "2025-12-07T12:49:38.000",
    "date_modified": "2025-12-07T12:49:40.000",
    "request_status": "Pending",
    "responsible_agency": "Department of Sanitation",
    "final_address": "4516 S Miro St",
    "address_councildis": "B",
    "status": "Assigned to Contractor",
    "contractor": "IV Waste",
    "rowid": "1244187",
    "final_x": "3669595.28154",
    "final_y": "527722.034239",
    "longitude": "-90.1057897220994",
    "latitude": "29.94540860700847",
    "geocoded_column": {
      "latitude": "29.94540860700847",
      "longitude": "-90.1057897220994"
    }
  },
  {
    "service_request": "2025-1244186",
    "request_type": "Trash/Recycling",
    "request_reason": "Request a Large Item Pick Up",
    "date_created": "2025-12-07T12:25:31.000",
    "date_modified": "2025-12-07T12:25:32.000",
    "request_status": "Pending",
    "responsible_agency": "Department of Sanitation",
    "final_address": "2228 Delachaise St",
    "address_councildis": "B",
    "status": "Assigned to Contractor",
    "contractor": "IV Waste",
    "rowid": "1244186",
    "final_x": "3672856.44219",
    "final_y": "523548.383739",
    "longitude": "-90.09563551161291",
    "latitude": "29.93383596055463",
    "geocoded_column": {
      "latitude": "29.93383596055463",
      "longitude": "-90.09563551161291"
    }
  },
  {
    "service_request": "2025-1244184",
    "request_type": "Abandoned Vehicles",
    "request_reason": "Abandoned/Junk Vehicles",
    "date_created": "2025-12-07T12:10:58.000",
    "date_modified": "2025-12-07T12:11:01.000",
    "request_status": "Pending",
    "responsible_agency": "Department of Public Works",
    "final_address": "1331 Franklin Ave",
    "address_councildis": "C",
    "status": "Pending",
    "rowid": "1244184",
    "final_x": "3687400.79586",
    "final_y": "537437.70836",
    "longitude": "-90.04922837259456",
    "latitude": "29.971586845087213",
    "geocoded_column": {
      "latitude": "29.971586845087213",
      "longitude": "-90.04922837259456"
    }
  },
  {
    "service_request": "2025-1244183",
    "request_type": "Trash/Recycling",
    "request_reason": "Order Recycling Cart",
    "date_created": "2025-12-07T12:04:05.000",
    "date_modified": "2025-12-07T12:04:06.000",
    "request_status": "Pending",
    "responsible_agency": "Department of Sanitation",
    "final_address": "1242 St Roch Ave",
    "address_councildis": "C",
    "status": "Pending",
    "rowid": "1244183",
    "final_x": "3686356.78473",
    "final_y": "537120.051912",
    "longitude": "-90.05253672186006",
    "latitude": "29.970745530140288",
    "geocoded_column": {
      "latitude": "29.970745530140288",
      "longitude": "-90.05253672186006"
    }
  },
  {
    "service_request": "2025-1244182",
    "request_type": "Trash/Recycling",
    "request_reason": "Request a Large Item Pick Up",
    "date_created": "2025-12-07T12:03:12.000",
    "date_modified": "2025-12-07T12:03:18.000",
    "request_status": "Pending",
    "responsible_agency": "Department of Sanitation",
    "final_address": "4956 Copernicus St",
    "address_councildis": "C",
    "status": "Assigned to Contractor",
    "contractor": "IV Waste",
    "rowid": "1244182",
    "final_x": "3702445.32164",
    "final_y": "522514.981114",
    "longitude": "-90.00226332185771",
    "latitude": "29.93008248156346",
    "geocoded_column": {
      "latitude": "29.93008248156346",
      "longitude": "-90.00226332185771"
    }
  },
  {
    "service_request": "2025-1244181",
    "request_type": "General Services",
    "request_reason": "General Service Request",
    "date_created": "2025-12-07T11:53:11.000",
    "date_modified": "2025-12-07T11:53:12.000",
    "request_status": "Pending",
    "responsible_agency": "Orleans Parish Communication District",
    "final_address": "6672 Pontchartrain Blvd",
    "address_councildis": "A",
    "status": "Pending",
    "rowid": "1244181",
    "final_x": "3666299.51405",
    "final_y": "552563.959126",
    "longitude": "-90.11536184171649",
    "latitude": "30.01381221993473",
    "geocoded_column": {
      "latitude": "30.01381221993473",
      "longitude": "-90.11536184171649"
    }
  },
  {
    "service_request": "2025-1244180",
    "request_type": "Abandoned Vehicles",
    "request_reason": "Abandoned/Junk Vehicles",
    "date_created": "2025-12-07T11:48:10.000",
    "date_modified": "2025-12-07T11:48:13.000",
    "request_status": "Pending",
    "responsible_agency": "Department of Public Works",
    "final_address": "1500 BLK Cambronne St",
    "address_councildis": "A",
    "status": "Pending",
    "rowid": "1244180",
    "final_x": "3661993.2685",
    "final_y": "530008.396136",
    "longitude": "-90.12971601018137",
    "latitude": "29.951917114927543",
    "geocoded_column": {
      "latitude": "29.951917114927543",
      "longitude": "-90.12971601018137"
    }
  },
  {
    "service_request": "2025-1244179",
    "request_type": "Trash/Recycling",
    "request_reason": "Replace Recycling Cart",
    "date_created": "2025-12-07T11:17:23.000",
    "date_modified": "2025-12-07T11:17:25.000",
    "request_status": "Pending",
    "responsible_agency": "Department of Sanitation",
    "final_address": "2021 Cambronne St",
    "address_councildis": "A",
    "status": "Pending",
    "rowid": "1244179",
    "final_x": "3663211.70912",
    "final_y": "531293.910786",
    "longitude": "-90.1258259581572",
    "latitude": "29.955416615795766",
    "geocoded_column": {
      "latitude": "29.955416615795766",
      "longitude": "-90.1258259581572"
    }
  },
  {
    "service_request": "2025-1244178",
    "request_type": "Streetlights",
    "request_reason": "Streetlight Outage/Malfunction",
    "date_created": "2025-12-07T10:58:57.000",
    "date_modified": "2025-12-07T10:59:00.000",
    "request_status": "Pending",
    "responsible_agency": "Department of Public Works",
    "final_address": "2005 Magazine St",
    "address_councildis": "B",
    "status": "Pending",
    "rowid": "1244178",
    "final_x": "3679437.45999",
    "final_y": "522579.60281",
    "longitude": "-90.0748931271336",
    "latitude": "29.9309750279959",
    "geocoded_column": {
      "latitude": "29.9309750279959",
      "longitude": "-90.0748931271336"
    }
  },
  {
    "service_request": "2025-1244177",
    "request_type": "General Services",
    "request_reason": "General Service Request",
    "date_created": "2025-12-07T10:53:09.000",
    "date_modified": "2025-12-07T10:53:11.000",
    "request_status": "Pending",
    "responsible_agency": "Orleans Parish Communication District",
    "final_address": "1004 Merrill St",
    "address_councildis": "C",
    "status": "Pending",
    "rowid": "1244177",
    "final_x": "3695049.65648",
    "final_y": "528366.918208",
    "longitude": "-90.02539924052219",
    "latitude": "29.94640745221998",
    "geocoded_column": {
      "latitude": "29.94640745221998",
      "longitude": "-90.02539924052219"
    }
  },
  {
    "service_request": "2025-1244176",
    "request_type": "General Services",
    "request_reason": "General Service Request",
    "date_created": "2025-12-07T10:36:28.000",
    "date_modified": "2025-12-07T10:36:30.000",
    "request_status": "Pending",
    "responsible_agency": "Orleans Parish Communication District",
    "final_address": "6674 Avenue A",
    "address_councildis": "A",
    "status": "Pending",
    "rowid": "1244176",
    "final_x": "3666006.68039",
    "final_y": "552594.535702",
    "longitude": "-90.11628602315967",
    "latitude": "30.013904850309306",
    "geocoded_column": {
      "latitude": "30.013904850309306",
      "longitude": "-90.11628602315967"
    }
  },
  {
    "service_request": "2025-1244175",
    "request_type": "Trash/Recycling",
    "request_reason": "Missed Trash Pick-Up",
    "date_created": "2025-12-07T10:33:34.000",
    "date_modified": "2025-12-07T10:33:37.000",
    "request_status": "Pending",
    "responsible_agency": "Department of Sanitation",
    "final_address": "7323 Perth St",
    "address_councildis": "E",
    "status": "Assigned to Contractor",
    "contractor": "Waste Pro",
    "rowid": "1244175",
    "final_x": "3698467.32701",
    "final_y": "558964.103964",
    "longitude": "-90.01349575987467",
    "latitude": "30.030430776551963",
    "geocoded_column": {
      "latitude": "30.030430776551963",
      "longitude": "-90.01349575987467"
    }
  },
  {
    "service_request": "2025-1244173",
    "request_type": "Traffic Signals",
    "request_reason": "Traffic Signal Malfunctioning or Damaged",
    "date_created": "2025-12-07T10:28:27.000",
    "date_modified": "2025-12-07T10:28:29.000",
    "request_status": "Pending",
    "responsible_agency": "Department of Public Works",
    "final_address": "2000 Magazine St",
    "address_councildis": "B",
    "status": "Pending",
    "rowid": "1244173",
    "final_x": "3679516.00559",
    "final_y": "522534.31257",
    "longitude": "-90.07464673991954",
    "latitude": "29.93084812248838",
    "geocoded_column": {
      "latitude": "29.93084812248838",
      "longitude": "-90.07464673991954"
    }
  },
  {
    "service_request": "2025-1244174",
    "request_type": "Traffic Signals",
    "request_reason": "Traffic Signal Malfunctioning or Damaged",
    "date_created": "2025-12-07T10:28:27.000",
    "date_modified": "2025-12-07T10:28:29.000",
    "request_status": "Pending",
    "responsible_agency": "Department of Public Works",
    "final_address": "2000 Magazine St",
    "address_councildis": "B",
    "status": "Pending",
    "rowid": "1244174",
    "final_x": "3679516.00559",
    "final_y": "522534.31257",
    "longitude": "-90.07464673991954",
    "latitude": "29.93084812248838",
    "geocoded_column": {
      "latitude": "29.93084812248838",
      "longitude": "-90.07464673991954"
    }
  },
  {
    "service_request": "2025-1244172",
    "request_type": "Streetlights",
    "request_reason": "Streetlight Outage/Malfunction",
    "date_created": "2025-12-07T10:15:41.000",
    "date_modified": "2025-12-07T10:15:42.000",
    "request_status": "Pending",
    "responsible_agency": "Department of Public Works",
    "final_address": "WEST END BLVD & SAPPHIRE ST",
    "address_councildis": "D",
    "status": "Pending",
    "rowid": "1244172",
    "final_x": "3667020.1",
    "final_y": "555417.48",
    "longitude": "-90.11298913331144",
    "latitude": "30.021637315567204",
    "geocoded_column": {
      "latitude": "30.021637315567204",
      "longitude": "-90.11298913331144"
    }
  },
  {
    "service_request": "2025-1244171",
    "request_type": "Streetlights",
    "request_reason": "Streetlight Outage/Malfunction",
    "date_created": "2025-12-07T10:12:49.000",
    "date_modified": "2025-12-07T10:12:51.000",
    "request_status": "Pending",
    "responsible_agency": "Department of Public Works",
    "final_address": "600 Amethyst St",
    "address_councildis": "D",
    "status": "Pending",
    "rowid": "1244171",
    "final_x": "3669063.9403",
    "final_y": "556712.375386",
    "longitude": "-90.10648731405055",
    "latitude": "30.025137805238597",
    "geocoded_column": {
      "latitude": "30.025137805238597",
      "longitude": "-90.10648731405055"
    }
  },
  {
    "service_request": "2025-1244170",
    "request_type": "Streetlights",
    "request_reason": "Streetlight Outage/Malfunction",
    "date_created": "2025-12-07T10:09:40.000",
    "date_modified": "2025-12-07T10:09:41.000",
    "request_status": "Pending",
    "responsible_agency": "Department of Public Works",
    "final_address": "WEST END BLVD & DOWNS ST",
    "address_councildis": "A",
    "status": "Pending",
    "rowid": "1244170",
    "final_x": "3666770.3",
    "final_y": "553206.48",
    "longitude": "-90.11385278946197",
    "latitude": "30.015565158512178",
    "geocoded_column": {
      "latitude": "30.015565158512178",
      "longitude": "-90.11385278946197"
    }
  },
  {
    "service_request": "2025-1244169",
    "request_type": "Streetlights",
    "request_reason": "Streetlight Outage/Malfunction",
    "date_created": "2025-12-07T10:07:31.000",
    "date_modified": "2025-12-07T10:07:32.000",
    "request_status": "Pending",
    "responsible_agency": "Department of Public Works",
    "final_address": "WEST END BLVD & MOUTON ST",
    "address_councildis": "A",
    "status": "Pending",
    "rowid": "1244169",
    "final_x": "3666801.0",
    "final_y": "553662.98",
    "longitude": "-90.11374043948362",
    "latitude": "30.01681947448714",
    "geocoded_column": {
      "latitude": "30.01681947448714",
      "longitude": "-90.11374043948362"
    }
  },
  {
    "service_request": "2025-1244168",
    "request_type": "Parks & Parkways",
    "request_reason": "Request Tree Service (Right of Way/Public Property)",
    "date_created": "2025-12-07T10:06:39.000",
    "date_modified": "2025-12-07T10:06:41.000",
    "request_status": "Pending",
    "responsible_agency": "Department of Parks & Parkway",
    "final_address": "723 N Salcedo St",
    "address_councildis": "A",
    "status": "Pending",
    "rowid": "1244168",
    "final_x": "3675522.91835",
    "final_y": "538038.875913",
    "longitude": "-90.08671986775683",
    "latitude": "29.97360051538253",
    "geocoded_column": {
      "latitude": "29.97360051538253",
      "longitude": "-90.08671986775683"
    }
  },
  {
    "service_request": "2025-1244167",
    "request_type": "Street and Traffic Signs",
    "request_reason": "Street Name Sign Damaged or Missing",
    "date_created": "2025-12-07T10:05:11.000",
    "date_modified": "2025-12-07T10:05:13.000",
    "request_status": "Pending",
    "responsible_agency": "Department of Public Works",
    "final_address": "MILNE BLVD & MOUTON ST",
    "address_councildis": "A",
    "status": "Pending",
    "rowid": "1244167",
    "final_x": "3667588.27",
    "final_y": "553462.58",
    "longitude": "-90.1112597402284",
    "latitude": "30.016245381225204",
    "geocoded_column": {
      "latitude": "30.016245381225204",
      "longitude": "-90.1112597402284"
    }
  },
  {
    "service_request": "2025-1244166",
    "request_type": "Roads and Streets",
    "request_reason": "Debris in Driving Lanes",
    "date_created": "2025-12-07T10:01:50.000",
    "date_modified": "2025-12-07T10:01:51.000",
    "request_status": "Pending",
    "responsible_agency": "Department of Public Works",
    "final_address": "600 Amethyst St",
    "address_councildis": "D",
    "status": "Pending",
    "rowid": "1244166",
    "final_x": "3669063.9403",
    "final_y": "556712.375386",
    "longitude": "-90.10648731405055",
    "latitude": "30.025137805238597",
    "geocoded_column": {
      "latitude": "30.025137805238597",
      "longitude": "-90.10648731405055"
    }
  },
  {
    "service_request": "2025-1244165",
    "request_type": "Abandoned Vehicles",
    "request_reason": "Abandoned/Junk Vehicles",
    "date_created": "2025-12-07T09:55:07.000",
    "date_modified": "2025-12-07T09:55:08.000",
    "request_status": "Pending",
    "responsible_agency": "Department of Public Works",
    "final_address": "209 Opal St Unit D",
    "address_councildis": "D",
    "status": "Pending",
    "rowid": "1244165",
    "final_x": "3667161.08461",
    "final_y": "555632.615065",
    "longitude": "-90.11253641544774",
    "latitude": "30.022224731329242",
    "geocoded_column": {
      "latitude": "30.022224731329242",
      "longitude": "-90.11253641544774"
    }
  },
  {
    "service_request": "2025-1244164",
    "request_type": "Abandoned Vehicles",
    "request_reason": "Abandoned/Junk Vehicles",
    "date_created": "2025-12-07T09:49:58.000",
    "date_modified": "2025-12-07T09:50:00.000",
    "request_status": "Pending",
    "responsible_agency": "Department of Public Works",
    "final_address": "209 Opal St Unit D",
    "address_councildis": "D",
    "status": "Pending",
    "rowid": "1244164",
    "final_x": "3667161.08461",
    "final_y": "555632.615065",
    "longitude": "-90.11253641544774",
    "latitude": "30.022224731329242",
    "geocoded_column": {
      "latitude": "30.022224731329242",
      "longitude": "-90.11253641544774"
    }
  },
  {
    "service_request": "2025-1244163",
    "request_type": "Abandoned Vehicles",
    "request_reason": "Abandoned/Junk Vehicles",
    "date_created": "2025-12-07T09:40:12.000",
    "date_modified": "2025-12-07T09:40:14.000",
    "request_status": "Pending",
    "responsible_agency": "Department of Public Works",
    "final_address": "725 Louisa St",
    "address_councildis": "C",
    "status": "Pending",
    "rowid": "1244163",
    "final_x": "3689274.26908",
    "final_y": "534555.602821",
    "longitude": "-90.04341414912896",
    "latitude": "29.963604201527918",
    "geocoded_column": {
      "latitude": "29.963604201527918",
      "longitude": "-90.04341414912896"
    }
  },
  {
    "service_request": "2025-1244162",
    "request_type": "Health Related Request",
    "request_reason": "Noise Ordinance Complaint",
    "date_created": "2025-12-07T09:11:02.000",
    "date_modified": "2025-12-07T09:11:03.000",
    "request_status": "Pending",
    "responsible_agency": "Health Department",
    "final_address": "1800 General Ogden St",
    "address_councildis": "A",
    "status": "Pending",
    "rowid": "1244162",
    "final_x": "3661284.39917",
    "final_y": "531893.951811",
    "longitude": "-90.13189186983556",
    "latitude": "29.957122240810826",
    "geocoded_column": {
      "latitude": "29.957122240810826",
      "longitude": "-90.13189186983556"
    }
  },
  {
    "service_request": "2025-1244161",
    "request_type": "Trash/Recycling",
    "request_reason": "Order Second Trash Cart",
    "date_created": "2025-12-07T09:09:15.000",
    "date_modified": "2025-12-07T09:09:16.000",
    "request_status": "Pending",
    "responsible_agency": "Department of Sanitation",
    "final_address": "8831 Dinkins St",
    "address_councildis": "E",
    "status": "Assigned to Contractor",
    "contractor": "Waste Pro",
    "rowid": "1244161",
    "final_x": "3704557.24727",
    "final_y": "563392.377568",
    "longitude": "-89.99408813428248",
    "latitude": "30.042412506398385",
    "geocoded_column": {
      "latitude": "30.042412506398385",
      "longitude": "-89.99408813428248"
    }
  },
  {
    "service_request": "2025-1244160",
    "request_type": "General Services",
    "request_reason": "General Service Request",
    "date_created": "2025-12-07T09:06:10.000",
    "date_modified": "2025-12-07T09:06:12.000",
    "request_status": "Pending",
    "responsible_agency": "Orleans Parish Communication District",
    "final_address": "47 French Market Pl",
    "address_councildis": "C",
    "status": "Pending",
    "rowid": "1244160",
    "final_x": "3684325.97301",
    "final_y": "533338.345668",
    "longitude": "-90.05908307911965",
    "latitude": "29.960409404955826",
    "geocoded_column": {
      "latitude": "29.960409404955826",
      "longitude": "-90.05908307911965"
    }
  },
  {
    "service_request": "2025-1244159",
    "request_type": "Street and Traffic Signs",
    "request_reason": "Street Name Sign Damaged or Missing",
    "date_created": "2025-12-07T07:37:18.000",
    "date_modified": "2025-12-07T07:37:20.000",
    "request_status": "Pending",
    "responsible_agency": "Department of Public Works",
    "final_address": "700 Magazine St",
    "address_councildis": "B",
    "status": "Pending",
    "rowid": "1244159",
    "final_x": "3681333.99368",
    "final_y": "528291.429888",
    "longitude": "-90.0687070244851",
    "latitude": "29.94662324314497",
    "geocoded_column": {
      "latitude": "29.94662324314497",
      "longitude": "-90.0687070244851"
    }
  },
  {
    "service_request": "2025-1244158",
    "request_type": "Streetlights",
    "request_reason": "New Streetlight Request",
    "date_created": "2025-12-06T23:35:13.000",
    "date_modified": "2025-12-06T23:35:15.000",
    "request_status": "Pending",
    "responsible_agency": "Department of Public Works",
    "final_address": "1228 N Villere St",
    "address_councildis": "C",
    "status": "Pending",
    "rowid": "1244158",
    "final_x": "3681713.71349",
    "final_y": "535863.454343",
    "longitude": "-90.06724394809878",
    "latitude": "29.96743220808133",
    "geocoded_column": {
      "latitude": "29.96743220808133",
      "longitude": "-90.06724394809878"
    }
  },
  {
    "service_request": "2025-1244157",
    "request_type": "Trash/Recycling",
    "request_reason": "Replace Trash Cart",
    "date_created": "2025-12-06T23:28:38.000",
    "date_modified": "2025-12-06T23:28:40.000",
    "request_status": "Pending",
    "responsible_agency": "Department of Sanitation",
    "final_address": "1228 N Villere St",
    "address_councildis": "C",
    "status": "Assigned to Contractor",
    "contractor": "IV Waste",
    "rowid": "1244157",
    "final_x": "3681713.71349",
    "final_y": "535863.454343",
    "longitude": "-90.06724394809878",
    "latitude": "29.96743220808133",
    "geocoded_column": {
      "latitude": "29.96743220808133",
      "longitude": "-90.06724394809878"
    }
  },
  {
    "service_request": "2025-1244156",
    "request_type": "Trash/Recycling",
    "request_reason": "Order Second Trash Cart",
    "date_created": "2025-12-06T23:12:50.000",
    "date_modified": "2025-12-06T23:12:52.000",
    "request_status": "Pending",
    "responsible_agency": "Department of Sanitation",
    "final_address": "8953 Dinkins St",
    "address_councildis": "E",
    "status": "Assigned to Contractor",
    "contractor": "Waste Pro",
    "rowid": "1244156",
    "final_x": "3704992.66692",
    "final_y": "563654.651937",
    "longitude": "-89.99270235043876",
    "latitude": "30.043119656680545",
    "geocoded_column": {
      "latitude": "30.043119656680545",
      "longitude": "-89.99270235043876"
    }
  },
  {
    "service_request": "2025-1244155",
    "request_type": "Trash/Recycling",
    "request_reason": "Request a Large Item Pick Up",
    "date_created": "2025-12-06T21:13:24.000",
    "date_modified": "2025-12-06T21:13:26.000",
    "request_status": "Pending",
    "responsible_agency": "Department of Sanitation",
    "final_address": "13026 Laval St",
    "address_councildis": "E",
    "status": "Assigned to Contractor",
    "contractor": "Waste Pro",
    "rowid": "1244155",
    "final_x": "3723818.83411",
    "final_y": "562361.092319",
    "longitude": "-89.93325465065008",
    "latitude": "30.038943815142815",
    "geocoded_column": {
      "latitude": "30.038943815142815",
      "longitude": "-89.93325465065008"
    }
  },
  {
    "service_request": "2025-1244154",
    "request_type": "Trash/Recycling",
    "request_reason": "Request a Large Item Pick Up",
    "date_created": "2025-12-06T20:53:10.000",
    "date_modified": "2025-12-06T20:53:13.000",
    "request_status": "Pending",
    "responsible_agency": "Department of Sanitation",
    "final_address": "4343 Genoa St",
    "address_councildis": "E",
    "status": "Assigned to Contractor",
    "contractor": "Waste Pro",
    "rowid": "1244154",
    "final_x": "3760916.38589",
    "final_y": "573658.667946",
    "longitude": "-89.8155461661284",
    "latitude": "30.068708476580923",
    "geocoded_column": {
      "latitude": "30.068708476580923",
      "longitude": "-89.8155461661284"
    }
  },
  {
    "service_request": "2025-1244153",
    "request_type": "General Services",
    "request_reason": "General Service Request",
    "date_created": "2025-12-06T18:48:52.000",
    "date_modified": "2025-12-06T18:48:55.000",
    "request_status": "Pending",
    "responsible_agency": "Orleans Parish Communication District",
    "final_address": "4654 Baccich St",
    "address_councildis": "D",
    "status": "Pending",
    "rowid": "1244153",
    "final_x": "3687712.08271",
    "final_y": "550161.348628",
    "longitude": "-90.04779446332665",
    "latitude": "30.006562708676025",
    "geocoded_column": {
      "latitude": "30.006562708676025",
      "longitude": "-90.04779446332665"
    }
  },
  {
    "service_request": "2025-1244152",
    "request_type": "Trash/Recycling",
    "request_reason": "Order Second Trash Cart",
    "date_created": "2025-12-06T18:47:52.000",
    "date_modified": "2025-12-06T18:47:54.000",
    "request_status": "Pending",
    "responsible_agency": "Department of Sanitation",
    "final_address": "3923 Odin St",
    "address_councildis": "D",
    "status": "Assigned to Contractor",
    "contractor": "IV Waste",
    "rowid": "1244152",
    "final_x": "3688517.89129",
    "final_y": "554021.437528",
    "longitude": "-90.04511161117644",
    "latitude": "30.017151650081914",
    "geocoded_column": {
      "latitude": "30.017151650081914",
      "longitude": "-90.04511161117644"
    }
  },
  {
    "service_request": "2025-1244151",
    "request_type": "Safety & Permits",
    "request_reason": "Construction permit",
    "date_created": "2025-12-06T17:45:33.000",
    "date_modified": "2025-12-06T17:45:35.000",
    "request_status": "Pending",
    "responsible_agency": "Safety and Permits",
    "final_address": "1808 Esplanade Ave",
    "address_councildis": "D",
    "status": "Pending",
    "rowid": "1244151",
    "final_x": "3680554.46479",
    "final_y": "537025.027592",
    "longitude": "-90.07086445802251",
    "latitude": "29.970661305010626",
    "geocoded_column": {
      "latitude": "29.970661305010626",
      "longitude": "-90.07086445802251"
    }
  },
  {
    "service_request": "2025-1244150",
    "request_type": "Healthy Homes",
    "request_reason": "Healthy Homes",
    "date_created": "2025-12-06T17:40:38.000",
    "date_modified": "2025-12-06T17:40:40.000",
    "request_status": "Pending",
    "responsible_agency": "Department of Code Enforcement",
    "final_address": "1808 Esplanade Ave",
    "address_councildis": "D",
    "status": "Pending",
    "rowid": "1244150",
    "final_x": "3680554.46479",
    "final_y": "537025.027592",
    "longitude": "-90.07086445802251",
    "latitude": "29.970661305010626",
    "geocoded_column": {
      "latitude": "29.970661305010626",
      "longitude": "-90.07086445802251"
    }
  },
  {
    "service_request": "2025-1244149",
    "request_type": "Safety & Permits",
    "request_reason": "Licenses & Permits",
    "date_created": "2025-12-06T17:38:22.000",
    "date_modified": "2025-12-06T17:38:23.000",
    "request_status": "Pending",
    "responsible_agency": "Safety and Permits",
    "final_address": "1808 Esplanade Ave",
    "address_councildis": "D",
    "status": "Pending",
    "rowid": "1244149",
    "final_x": "3680554.46479",
    "final_y": "537025.027592",
    "longitude": "-90.07086445802251",
    "latitude": "29.970661305010626",
    "geocoded_column": {
      "latitude": "29.970661305010626",
      "longitude": "-90.07086445802251"
    }
  },
  {
    "service_request": "2025-1244148",
    "request_type": "Mosquito, Termite & Rodent Control",
    "request_reason": "Rodent Complaint (Mice & Rats)",
    "date_created": "2025-12-06T17:36:26.000",
    "date_modified": "2025-12-06T17:36:27.000",
    "request_status": "Pending",
    "responsible_agency": "Mosquito, Termite & Rodent Control Board",
    "final_address": "1808 Esplanade Ave",
    "address_councildis": "D",
    "status": "Pending",
    "rowid": "1244148",
    "final_x": "3680554.46479",
    "final_y": "537025.027592",
    "longitude": "-90.07086445802251",
    "latitude": "29.970661305010626",
    "geocoded_column": {
      "latitude": "29.970661305010626",
      "longitude": "-90.07086445802251"
    }
  },
  {
    "service_request": "2025-1244146",
    "request_type": "Trash/Recycling",
    "request_reason": "Request a Large Item Pick Up",
    "date_created": "2025-12-06T17:31:27.000",
    "date_modified": "2025-12-06T17:31:29.000",
    "request_status": "Pending",
    "responsible_agency": "Department of Sanitation",
    "final_address": "2413 State St",
    "address_councildis": "A",
    "status": "Assigned to Contractor",
    "contractor": "IV Waste",
    "rowid": "1244146",
    "final_x": "3666789.1497",
    "final_y": "525449.843837",
    "longitude": "-90.11472590958984",
    "latitude": "29.939243177974493",
    "geocoded_column": {
      "latitude": "29.939243177974493",
      "longitude": "-90.11472590958984"
    }
  },
  {
    "service_request": "2025-1244145",
    "request_type": "Trash/Recycling",
    "request_reason": "Replace Recycling Cart",
    "date_created": "2025-12-06T16:25:01.000",
    "date_modified": "2025-12-06T16:25:04.000",
    "request_status": "Pending",
    "responsible_agency": "Department of Sanitation",
    "final_address": "35 Park Timbers Dr",
    "address_councildis": "C",
    "status": "Pending",
    "rowid": "1244145",
    "final_x": "3699157.93648",
    "final_y": "517445.500982",
    "longitude": "-90.01282542363802",
    "latitude": "29.916247741235626",
    "geocoded_column": {
      "latitude": "29.916247741235626",
      "longitude": "-90.01282542363802"
    }
  },
  {
    "service_request": "2025-1244144",
    "request_type": "Roads and Streets",
    "request_reason": "Pothole",
    "date_created": "2025-12-06T16:14:58.000",
    "date_modified": "2025-12-06T16:15:00.000",
    "request_status": "Pending",
    "responsible_agency": "Department of Public Works",
    "final_address": "3400 Bienville Ave",
    "address_councildis": "B",
    "status": "Pending",
    "rowid": "1244144",
    "final_x": "3673517.07854",
    "final_y": "537403.287944",
    "longitude": "-90.09307647494279",
    "latitude": "29.971912715918478",
    "geocoded_column": {
      "latitude": "29.971912715918478",
      "longitude": "-90.09307647494279"
    }
  },
  {
    "service_request": "2025-1244143",
    "request_type": "Road Striping",
    "request_reason": "Bike Lane",
    "date_created": "2025-12-06T15:52:30.000",
    "date_modified": "2025-12-06T15:52:32.000",
    "request_status": "Pending",
    "responsible_agency": "Department of Public Works",
    "final_address": "1522 St Bernard Ave",
    "address_councildis": "C",
    "status": "Pending",
    "rowid": "1244143",
    "final_x": "3682239.02031",
    "final_y": "537608.614664",
    "longitude": "-90.0655240425466",
    "latitude": "29.97221482598535",
    "geocoded_column": {
      "latitude": "29.97221482598535",
      "longitude": "-90.0655240425466"
    }
  },
  {
    "service_request": "2025-1244142",
    "request_type": "Trash/Recycling",
    "request_reason": "Damaged Caused By Contractor",
    "date_created": "2025-12-06T15:16:42.000",
    "date_modified": "2025-12-06T15:16:44.000",
    "request_status": "Pending",
    "responsible_agency": "Department of Sanitation",
    "final_address": "2301 Carondelet St",
    "address_councildis": "B",
    "status": "Assigned to Contractor",
    "contractor": "IV Waste",
    "rowid": "1244142",
    "final_x": "3676886.60514",
    "final_y": "523675.080891",
    "longitude": "-90.08290809592863",
    "latitude": "29.934064021083767",
    "geocoded_column": {
      "latitude": "29.934064021083767",
      "longitude": "-90.08290809592863"
    }
  },
  {
    "service_request": "2025-1244141",
    "request_type": "Trash/Recycling",
    "request_reason": "Order Trash Cart",
    "date_created": "2025-12-06T14:48:04.000",
    "date_modified": "2025-12-06T14:48:06.000",
    "request_status": "Pending",
    "responsible_agency": "Department of Sanitation",
    "final_address": "2524 Valence St",
    "address_councildis": "B",
    "status": "Assigned to Contractor",
    "contractor": "IV Waste",
    "rowid": "1244141",
    "final_x": "3669347.64506",
    "final_y": "524145.718076",
    "longitude": "-90.10669247050184",
    "latitude": "29.93558218659783",
    "geocoded_column": {
      "latitude": "29.93558218659783",
      "longitude": "-90.10669247050184"
    }
  },
  {
    "service_request": "2025-1244140",
    "request_type": "Trash/Recycling",
    "request_reason": "Replace Trash Cart",
    "date_created": "2025-12-06T14:35:06.000",
    "date_modified": "2025-12-06T14:35:08.000",
    "request_status": "Pending",
    "responsible_agency": "Department of Sanitation",
    "final_address": "2613 Philip St",
    "address_councildis": "B",
    "status": "Assigned to Contractor",
    "contractor": "IV Waste",
    "rowid": "1244140",
    "final_x": "3675128.02843",
    "final_y": "526493.096062",
    "longitude": "-90.08836320222485",
    "latitude": "29.941865292179482",
    "geocoded_column": {
      "latitude": "29.941865292179482",
      "longitude": "-90.08836320222485"
    }
  },
  {
    "service_request": "2025-1244139",
    "request_type": "Abandoned Vehicles",
    "request_reason": "Abandoned/Junk Vehicles",
    "date_created": "2025-12-06T14:23:30.000",
    "date_modified": "2025-12-06T14:23:32.000",
    "request_status": "Pending",
    "responsible_agency": "Department of Public Works",
    "final_address": "0 BLK Acadiana Pl",
    "address_councildis": "E",
    "status": "Pending",
    "rowid": "1244139",
    "final_x": "3725131.4083",
    "final_y": "564393.680055",
    "longitude": "-89.92902788187175",
    "latitude": "30.04448842646984",
    "geocoded_column": {
      "latitude": "30.04448842646984",
      "longitude": "-89.92902788187175"
    }
  },
  {
    "service_request": "2025-1244138",
    "request_type": "Trash/Recycling",
    "request_reason": "Request a Large Item Pick Up",
    "date_created": "2025-12-06T13:40:07.000",
    "date_modified": "2025-12-06T13:40:09.000",
    "request_status": "Pending",
    "responsible_agency": "Department of Sanitation",
    "final_address": "900 Aline St",
    "address_councildis": "B",
    "status": "Assigned to Contractor",
    "contractor": "IV Waste",
    "rowid": "1244138",
    "final_x": "3674645.16289",
    "final_y": "518724.348087",
    "longitude": "-90.09015382347222",
    "latitude": "29.92051817205985",
    "geocoded_column": {
      "latitude": "29.92051817205985",
      "longitude": "-90.09015382347222"
    }
  },
  {
    "service_request": "2025-1244137",
    "request_type": "Property Maintenance",
    "request_reason": "Property Maintenance",
    "date_created": "2025-12-06T13:27:36.000",
    "date_modified": "2025-12-06T13:27:39.000",
    "request_status": "Pending",
    "responsible_agency": "Department of Code Enforcement",
    "final_address": "4005 St Claude Ave",
    "address_councildis": "C",
    "status": "Pending",
    "rowid": "1244137",
    "final_x": "3691885.57488",
    "final_y": "535447.247686",
    "longitude": "-90.03513604677902",
    "latitude": "29.965974822792806",
    "geocoded_column": {
      "latitude": "29.965974822792806",
      "longitude": "-90.03513604677902"
    }
  },
  {
    "service_request": "2025-1244136",
    "request_type": "Trash/Recycling",
    "request_reason": "Illegal Dumping",
    "date_created": "2025-12-06T13:21:10.000",
    "date_modified": "2025-12-06T13:21:12.000",
    "request_status": "Pending",
    "responsible_agency": "Department of Sanitation",
    "final_address": "1327 France St",
    "address_councildis": "D",
    "status": "Pending",
    "rowid": "1244136",
    "final_x": "3692670.09878",
    "final_y": "536108.142087",
    "longitude": "-90.03263486144942",
    "latitude": "29.967767585813483",
    "geocoded_column": {
      "latitude": "29.967767585813483",
      "longitude": "-90.03263486144942"
    }
  },
  {
    "service_request": "2025-1244135",
    "request_type": "Trash/Recycling",
    "request_reason": "Repair Trash Cart",
    "date_created": "2025-12-06T13:15:36.000",
    "date_modified": "2025-12-06T13:15:37.000",
    "request_status": "Pending",
    "responsible_agency": "Department of Sanitation",
    "final_address": "4004 Sullen Pl, New Orleans, Louisiana, 70131",
    "address_councildis": "C",
    "status": "Assigned to Contractor",
    "contractor": "IV Waste",
    "rowid": "1244135",
    "final_x": "3707558.54936",
    "final_y": "516128.887284",
    "longitude": "-89.9863588285866",
    "latitude": "29.912358636860816",
    "geocoded_column": {
      "latitude": "29.912358636860816",
      "longitude": "-89.9863588285866"
    }
  },
  {
    "service_request": "2025-1244134",
    "request_type": "Abandoned Vehicles",
    "request_reason": "Abandoned/Junk Vehicles",
    "date_created": "2025-12-06T13:15:06.000",
    "date_modified": "2025-12-06T13:15:07.000",
    "request_status": "Pending",
    "responsible_agency": "Department of Public Works",
    "final_address": "8523 Chase St",
    "address_councildis": "E",
    "status": "Pending",
    "rowid": "1244134",
    "final_x": "3703450.74686",
    "final_y": "563389.208928",
    "longitude": "-89.99758520009433",
    "latitude": "30.04243930732793",
    "geocoded_column": {
      "latitude": "30.04243930732793",
      "longitude": "-89.99758520009433"
    }
  },
  {
    "service_request": "2025-1244133",
    "request_type": "Trash/Recycling",
    "request_reason": "Request a Large Item Pick Up",
    "date_created": "2025-12-06T13:04:56.000",
    "date_modified": "2025-12-06T13:04:58.000",
    "request_status": "Pending",
    "responsible_agency": "Department of Sanitation",
    "final_address": "11931 Curran Rd",
    "address_councildis": "E",
    "status": "Assigned to Contractor",
    "contractor": "Waste Pro",
    "rowid": "1244133",
    "final_x": "3713051.55083",
    "final_y": "567872.578212",
    "longitude": "-89.96707426012453",
    "latitude": "30.054455520974",
    "geocoded_column": {
      "latitude": "30.054455520974",
      "longitude": "-89.96707426012453"
    }
  },
  {
    "service_request": "2025-1244132",
    "request_type": "Trash/Recycling",
    "request_reason": "Order Recycling Cart",
    "date_created": "2025-12-06T12:49:51.000",
    "date_modified": "2025-12-06T12:49:53.000",
    "request_status": "Pending",
    "responsible_agency": "Department of Sanitation",
    "final_address": "6242 Wadsworth Dr",
    "address_councildis": "D",
    "status": "Pending",
    "rowid": "1244132",
    "final_x": "3681546.42991",
    "final_y": "556169.351898",
    "longitude": "-90.0670635708905",
    "latitude": "30.02327129561752",
    "geocoded_column": {
      "latitude": "30.02327129561752",
      "longitude": "-90.0670635708905"
    }
  },
  {
    "service_request": "2025-1244131",
    "request_type": "Trash/Recycling",
    "request_reason": "Replace Trash Cart",
    "date_created": "2025-12-06T12:48:24.000",
    "date_modified": "2025-12-06T12:48:26.000",
    "request_status": "Pending",
    "responsible_agency": "Department of Sanitation",
    "final_address": "4901 Eastern St",
    "address_councildis": "D",
    "status": "Assigned to Contractor",
    "contractor": "IV Waste",
    "rowid": "1244131",
    "final_x": "3688023.61961",
    "final_y": "551106.809237",
    "longitude": "-90.04677670333888",
    "latitude": "30.009152765304822",
    "geocoded_column": {
      "latitude": "30.009152765304822",
      "longitude": "-90.04677670333888"
    }
  },
  {
    "service_request": "2025-1244130",
    "request_type": "Trash/Recycling",
    "request_reason": "Order Recycling Cart",
    "date_created": "2025-12-06T12:44:50.000",
    "date_modified": "2025-12-06T12:44:53.000",
    "request_status": "Pending",
    "responsible_agency": "Department of Sanitation",
    "final_address": "137 S Hennessey St",
    "address_councildis": "A",
    "status": "Pending",
    "rowid": "1244130",
    "final_x": "3670038.24705",
    "final_y": "538698.561033",
    "longitude": "-90.10401932270256",
    "latitude": "29.975577360066254",
    "geocoded_column": {
      "latitude": "29.975577360066254",
      "longitude": "-90.10401932270256"
    }
  },
  {
    "service_request": "2025-1244129",
    "request_type": "Trash/Recycling",
    "request_reason": "Damaged Caused By Contractor",
    "date_created": "2025-12-06T12:18:01.000",
    "date_modified": "2025-12-06T12:18:03.000",
    "request_status": "Pending",
    "responsible_agency": "Department of Sanitation",
    "final_address": "2843 Carondelet St",
    "address_councildis": "B",
    "status": "Assigned to Contractor",
    "contractor": "IV Waste",
    "rowid": "1244129",
    "final_x": "3675393.82305",
    "final_y": "522686.062586",
    "longitude": "-90.08765470100083",
    "latitude": "29.931389251344253",
    "geocoded_column": {
      "latitude": "29.931389251344253",
      "longitude": "-90.08765470100083"
    }
  },
  {
    "service_request": "2025-1244128",
    "request_type": "General Services",
    "request_reason": "General Service Request",
    "date_created": "2025-12-06T12:09:38.000",
    "date_modified": "2025-12-06T12:09:40.000",
    "request_status": "Pending",
    "responsible_agency": "Orleans Parish Communication District",
    "final_address": "7091 Queensway Dr",
    "address_councildis": "E",
    "status": "Pending",
    "rowid": "1244128",
    "final_x": "3719064.71052",
    "final_y": "569697.868966",
    "longitude": "-89.94799850951951",
    "latitude": "30.05927579783677",
    "geocoded_column": {
      "latitude": "30.05927579783677",
      "longitude": "-89.94799850951951"
    }
  },
  {
    "service_request": "2025-1244127",
    "request_type": "Trash/Recycling",
    "request_reason": "Request a Large Item Pick Up",
    "date_created": "2025-12-06T12:01:20.000",
    "date_modified": "2025-12-06T12:01:22.000",
    "request_status": "Pending",
    "responsible_agency": "Department of Sanitation",
    "final_address": "1304 First St",
    "address_councildis": "B",
    "status": "Assigned to Contractor",
    "contractor": "IV Waste",
    "rowid": "1244127",
    "final_x": "3677569.65083",
    "final_y": "522116.004282",
    "longitude": "-90.08080554782089",
    "latitude": "29.92975655679384",
    "geocoded_column": {
      "latitude": "29.92975655679384",
      "longitude": "-90.08080554782089"
    }
  },
  {
    "service_request": "2025-1244126",
    "request_type": "Abandoned Vehicles",
    "request_reason": "Abandoned/Junk Vehicles",
    "date_created": "2025-12-06T11:32:19.000",
    "date_modified": "2025-12-06T11:32:21.000",
    "request_status": "Pending",
    "responsible_agency": "Department of Public Works",
    "final_address": "3048 Metropolitan St",
    "address_councildis": "D",
    "status": "Pending",
    "rowid": "1244126",
    "final_x": "3691231.80816",
    "final_y": "543860.782798",
    "longitude": "-90.03689999967918",
    "latitude": "29.989129399429128",
    "geocoded_column": {
      "latitude": "29.989129399429128",
      "longitude": "-90.03689999967918"
    }
  },
  {
    "service_request": "2025-1244125",
    "request_type": "Trash/Recycling",
    "request_reason": "Request a Large Item Pick Up",
    "date_created": "2025-12-06T10:36:37.000",
    "date_modified": "2025-12-06T10:36:38.000",
    "request_status": "Pending",
    "responsible_agency": "Department of Sanitation",
    "final_address": "740 Hidalgo St",
    "address_councildis": "A",
    "status": "Assigned to Contractor",
    "contractor": "IV Waste",
    "rowid": "1244125",
    "final_x": "3668669.84474",
    "final_y": "544076.588046",
    "longitude": "-90.1081595146084",
    "latitude": "29.990405405613547",
    "geocoded_column": {
      "latitude": "29.990405405613547",
      "longitude": "-90.1081595146084"
    }
  },
  {
    "service_request": "2025-1244124",
    "request_type": "Roads and Streets",
    "request_reason": "Pothole",
    "date_created": "2025-12-06T10:34:39.000",
    "date_modified": "2025-12-06T10:34:41.000",
    "request_status": "Pending",
    "responsible_agency": "Department of Public Works",
    "final_address": "819 Broadway St",
    "address_councildis": "A",
    "status": "Pending",
    "rowid": "1244124",
    "final_x": "3663514.63699",
    "final_y": "525435.218621",
    "longitude": "-90.12506449295243",
    "latitude": "29.939298313407832",
    "geocoded_column": {
      "latitude": "29.939298313407832",
      "longitude": "-90.12506449295243"
    }
  },
  {
    "service_request": "2025-1244123",
    "request_type": "Trash/Recycling",
    "request_reason": "Request a Large Item Pick Up",
    "date_created": "2025-12-06T10:28:58.000",
    "date_modified": "2025-12-06T10:29:01.000",
    "request_status": "Pending",
    "responsible_agency": "Department of Sanitation",
    "final_address": "740 Hidalgo St",
    "address_councildis": "A",
    "status": "Assigned to Contractor",
    "contractor": "IV Waste",
    "rowid": "1244123",
    "final_x": "3668669.84474",
    "final_y": "544076.588046",
    "longitude": "-90.1081595146084",
    "latitude": "29.990405405613547",
    "geocoded_column": {
      "latitude": "29.990405405613547",
      "longitude": "-90.1081595146084"
    }
  },
  {
    "service_request": "2025-1244122",
    "request_type": "Trash/Recycling",
    "request_reason": "Request a Large Item Pick Up",
    "date_created": "2025-12-06T09:35:14.000",
    "date_modified": "2025-12-06T09:35:16.000",
    "request_status": "Pending",
    "responsible_agency": "Department of Sanitation",
    "final_address": "331 Broadway St",
    "address_councildis": "A",
    "status": "Assigned to Contractor",
    "contractor": "IV Waste",
    "rowid": "1244122",
    "final_x": "3661729.84032",
    "final_y": "522767.790138",
    "longitude": "-90.13078773458976",
    "latitude": "29.932015355925696",
    "geocoded_column": {
      "latitude": "29.932015355925696",
      "longitude": "-90.13078773458976"
    }
  },
  {
    "service_request": "2025-1244121",
    "request_type": "Trash/Recycling",
    "request_reason": "Illegal Dumping",
    "date_created": "2025-12-06T09:08:22.000",
    "date_modified": "2025-12-06T09:08:24.000",
    "request_status": "Pending",
    "responsible_agency": "Department of Sanitation",
    "final_address": "2032 Philip St",
    "address_councildis": "B",
    "status": "Pending",
    "rowid": "1244121",
    "final_x": "3676113.48046",
    "final_y": "524710.864636",
    "longitude": "-90.08531320812314",
    "latitude": "29.93693526363562",
    "geocoded_column": {
      "latitude": "29.93693526363562",
      "longitude": "-90.08531320812314"
    }
  },
  {
    "service_request": "2025-1244120",
    "request_type": "Drainage",
    "request_reason": "Illegal Dumping (Sewer Odor)",
    "date_created": "2025-12-06T09:06:29.000",
    "date_modified": "2025-12-06T09:06:31.000",
    "request_status": "Pending",
    "responsible_agency": "Sewerage & Water Board",
    "final_address": "1400 N Broad St",
    "address_councildis": "D",
    "status": "Pending",
    "rowid": "1244120",
    "final_x": "3678323.85883",
    "final_y": "539010.605066",
    "longitude": "-90.07784027303971",
    "latitude": "29.976188349412144",
    "geocoded_column": {
      "latitude": "29.976188349412144",
      "longitude": "-90.07784027303971"
    }
  },
  {
    "service_request": "2025-1244119",
    "request_type": "Trash/Recycling",
    "request_reason": "Order Trash Cart",
    "date_created": "2025-12-06T08:59:57.000",
    "date_modified": "2025-12-06T08:59:59.000",
    "request_status": "Pending",
    "responsible_agency": "Department of Sanitation",
    "final_address": "1224 Antonine St",
    "address_councildis": "B",
    "status": "Assigned to Contractor",
    "contractor": "IV Waste",
    "rowid": "1244119",
    "final_x": "3673621.56852",
    "final_y": "519747.58348",
    "longitude": "-90.09334988638918",
    "latitude": "29.92336223859172",
    "geocoded_column": {
      "latitude": "29.92336223859172",
      "longitude": "-90.09334988638918"
    }
  },
  {
    "service_request": "2025-1244118",
    "request_type": "Trash/Recycling",
    "request_reason": "Order Trash Cart",
    "date_created": "2025-12-06T08:34:07.000",
    "date_modified": "2025-12-06T08:34:09.000",
    "request_status": "Pending",
    "responsible_agency": "Department of Sanitation",
    "final_address": "4216 N Villere St",
    "address_councildis": "D",
    "status": "Assigned to Contractor",
    "contractor": "IV Waste",
    "rowid": "1244118",
    "final_x": "3692802.07254",
    "final_y": "536185.178823",
    "longitude": "-90.03221532380962",
    "latitude": "29.967975289696486",
    "geocoded_column": {
      "latitude": "29.967975289696486",
      "longitude": "-90.03221532380962"
    }
  },
  {
    "service_request": "2025-1244117",
    "request_type": "Trash/Recycling",
    "request_reason": "Order Recycling Cart",
    "date_created": "2025-12-06T08:31:13.000",
    "date_modified": "2025-12-06T08:31:21.000",
    "request_status": "Pending",
    "responsible_agency": "Department of Sanitation",
    "final_address": "4216 N Villere St",
    "address_councildis": "D",
    "status": "Pending",
    "rowid": "1244117",
    "final_x": "3692802.07254",
    "final_y": "536185.178823",
    "longitude": "-90.03221532380962",
    "latitude": "29.967975289696486",
    "geocoded_column": {
      "latitude": "29.967975289696486",
      "longitude": "-90.03221532380962"
    }
  },
  {
    "service_request": "2025-1244116",
    "request_type": "Trash/Recycling",
    "request_reason": "Request a Large Item Pick Up",
    "date_created": "2025-12-06T08:28:39.000",
    "date_modified": "2025-12-06T08:28:41.000",
    "request_status": "Pending",
    "responsible_agency": "Department of Sanitation",
    "final_address": "4216 N Villere St",
    "address_councildis": "D",
    "status": "Assigned to Contractor",
    "contractor": "IV Waste",
    "rowid": "1244116",
    "final_x": "3692802.07254",
    "final_y": "536185.178823",
    "longitude": "-90.03221532380962",
    "latitude": "29.967975289696486",
    "geocoded_column": {
      "latitude": "29.967975289696486",
      "longitude": "-90.03221532380962"
    }
  },
  {
    "service_request": "2025-1244115",
    "request_type": "General Services",
    "request_reason": "General Service Request",
    "date_created": "2025-12-06T08:05:29.000",
    "date_modified": "2025-12-06T08:05:31.000",
    "request_status": "Pending",
    "responsible_agency": "Orleans Parish Communication District",
    "final_address": "1427 Broadway St",
    "address_councildis": "A",
    "status": "Pending",
    "rowid": "1244115",
    "final_x": "3664755.60813",
    "final_y": "527261.577599",
    "longitude": "-90.12108556978329",
    "latitude": "29.944284175743686",
    "geocoded_column": {
      "latitude": "29.944284175743686",
      "longitude": "-90.12108556978329"
    }
  },
  {
    "service_request": "2025-1244114",
    "request_type": "Roads and Streets",
    "request_reason": "Sidewalk Damaged or Missing",
    "date_created": "2025-12-06T07:47:44.000",
    "date_modified": "2025-12-06T07:47:47.000",
    "request_status": "Pending",
    "responsible_agency": "Department of Public Works",
    "final_address": "7221 E Renaissance Ct",
    "address_councildis": "E",
    "status": "Pending",
    "rowid": "1244114",
    "final_x": "3717025.27852",
    "final_y": "568356.158245",
    "longitude": "-89.95449596203733",
    "latitude": "30.055654287632233",
    "geocoded_column": {
      "latitude": "30.055654287632233",
      "longitude": "-89.95449596203733"
    }
  },
  {
    "service_request": "2025-1244113",
    "request_type": "Trash/Recycling",
    "request_reason": "Request a Large Item Pick Up",
    "date_created": "2025-12-06T07:27:40.000",
    "date_modified": "2025-12-06T07:27:42.000",
    "request_status": "Pending",
    "responsible_agency": "Department of Sanitation",
    "final_address": "7231 W Renaissance Ct",
    "address_councildis": "E",
    "status": "Assigned to Contractor",
    "contractor": "Waste Pro",
    "rowid": "1244113",
    "final_x": "3716460.56709",
    "final_y": "567929.624165",
    "longitude": "-89.9562970898601",
    "latitude": "30.054500167272174",
    "geocoded_column": {
      "latitude": "30.054500167272174",
      "longitude": "-89.9562970898601"
    }
  },
  {
    "service_request": "2025-1244112",
    "request_type": "Trash/Recycling",
    "request_reason": "Request a Large Item Pick Up",
    "date_created": "2025-12-06T07:25:44.000",
    "date_modified": "2025-12-06T07:25:46.000",
    "request_status": "Pending",
    "responsible_agency": "Department of Sanitation",
    "final_address": "7231 W Renaissance Ct",
    "address_councildis": "E",
    "status": "Assigned to Contractor",
    "contractor": "Waste Pro",
    "rowid": "1244112",
    "final_x": "3716460.56709",
    "final_y": "567929.624165",
    "longitude": "-89.9562970898601",
    "latitude": "30.054500167272174",
    "geocoded_column": {
      "latitude": "30.054500167272174",
      "longitude": "-89.9562970898601"
    }
  },
  {
    "service_request": "2025-1244111",
    "request_type": "Trash/Recycling",
    "request_reason": "Request a Large Item Pick Up",
    "date_created": "2025-12-06T07:20:08.000",
    "date_modified": "2025-12-06T07:20:10.000",
    "request_status": "Pending",
    "responsible_agency": "Department of Sanitation",
    "final_address": "7543 Briarwood Dr",
    "address_councildis": "E",
    "status": "Assigned to Contractor",
    "contractor": "Waste Pro",
    "rowid": "1244111",
    "final_x": "3717793.49893",
    "final_y": "570602.851111",
    "longitude": "-89.95198218213788",
    "latitude": "30.06180632014306",
    "geocoded_column": {
      "latitude": "30.06180632014306",
      "longitude": "-89.95198218213788"
    }
  },
  {
    "service_request": "2025-1244110",
    "request_type": "Abandoned Vehicles",
    "request_reason": "Abandoned/Junk Vehicles",
    "date_created": "2025-12-06T04:29:38.000",
    "date_modified": "2025-12-06T04:29:40.000",
    "request_status": "Pending",
    "responsible_agency": "Department of Public Works",
    "final_address": "3629 Prytania St",
    "address_councildis": "B",
    "status": "Pending",
    "rowid": "1244110",
    "final_x": "3673410.74836",
    "final_y": "520712.326393",
    "longitude": "-90.09398242884356",
    "latitude": "29.926021243402264",
    "geocoded_column": {
      "latitude": "29.926021243402264",
      "longitude": "-90.09398242884356"
    }
  },
  {
    "service_request": "2025-1244109",
    "request_type": "Trash/Recycling",
    "request_reason": "Order Recycling Cart",
    "date_created": "2025-12-06T02:34:05.000",
    "date_modified": "2025-12-06T02:34:06.000",
    "request_status": "Pending",
    "responsible_agency": "Department of Sanitation",
    "final_address": "1000 BLK N Claiborne Ave",
    "address_councildis": "D",
    "status": "Pending",
    "rowid": "1244109",
    "final_x": "3680506.62845",
    "final_y": "535674.84248",
    "longitude": "-90.07106250406953",
    "latitude": "29.96695020877149",
    "geocoded_column": {
      "latitude": "29.96695020877149",
      "longitude": "-90.07106250406953"
    }
  },
  {
    "service_request": "2025-1244108",
    "request_type": "Health Related Request",
    "request_reason": "Noise Ordinance Complaint",
    "date_created": "2025-12-06T00:15:28.000",
    "date_modified": "2025-12-06T00:15:31.000",
    "request_status": "Pending",
    "responsible_agency": "Health Department",
    "final_address": "530 Lyons St",
    "address_councildis": "B",
    "status": "Pending",
    "rowid": "1244108",
    "final_x": "3669312.65748",
    "final_y": "517527.298038",
    "longitude": "-90.10702654441026",
    "latitude": "29.91738466791682",
    "geocoded_column": {
      "latitude": "29.91738466791682",
      "longitude": "-90.10702654441026"
    }
  },
  {
    "service_request": "2025-1244107",
    "request_type": "Health Related Request",
    "request_reason": "Noise Ordinance Complaint",
    "date_created": "2025-12-05T23:44:43.000",
    "date_modified": "2025-12-05T23:44:46.000",
    "request_status": "Pending",
    "responsible_agency": "Health Department",
    "final_address": "601 Lyons St",
    "address_councildis": "B",
    "status": "Pending",
    "rowid": "1244107",
    "final_x": "3669373.41882",
    "final_y": "517605.11679",
    "longitude": "-90.10683212544802",
    "latitude": "29.917596856751924",
    "geocoded_column": {
      "latitude": "29.917596856751924",
      "longitude": "-90.10683212544802"
    }
  },
  {
    "service_request": "2025-1244106",
    "request_type": "Health Related Request",
    "request_reason": "Noise Ordinance Complaint",
    "date_created": "2025-12-05T23:19:06.000",
    "date_modified": "2025-12-05T23:19:09.000",
    "request_status": "Pending",
    "responsible_agency": "Health Department",
    "final_address": "530 Lyons St",
    "address_councildis": "B",
    "status": "Pending",
    "rowid": "1244106",
    "final_x": "3669312.65748",
    "final_y": "517527.298038",
    "longitude": "-90.10702654441026",
    "latitude": "29.91738466791682",
    "geocoded_column": {
      "latitude": "29.91738466791682",
      "longitude": "-90.10702654441026"
    }
  },
  {
    "service_request": "2025-1244105",
    "request_type": "Trash/Recycling",
    "request_reason": "Replace Trash Cart",
    "date_created": "2025-12-05T22:57:10.000",
    "date_modified": "2025-12-05T22:57:12.000",
    "request_status": "Pending",
    "responsible_agency": "Department of Sanitation",
    "final_address": "302 S Clark St",
    "address_councildis": "B",
    "status": "Assigned to Contractor",
    "contractor": "IV Waste",
    "rowid": "1244105",
    "final_x": "3672385.2059",
    "final_y": "536309.398791",
    "longitude": "-90.09668840105334",
    "latitude": "29.96893852834716",
    "geocoded_column": {
      "latitude": "29.96893852834716",
      "longitude": "-90.09668840105334"
    }
  },
  {
    "service_request": "2025-1244104",
    "request_type": "Roads and Streets",
    "request_reason": "Pothole",
    "date_created": "2025-12-05T22:32:20.000",
    "date_modified": "2025-12-05T22:32:22.000",
    "request_status": "Pending",
    "responsible_agency": "Department of Public Works",
    "final_address": "1031 S Carrollton Ave",
    "address_councildis": "A",
    "status": "Pending",
    "rowid": "1244104",
    "final_x": "3661802.12902",
    "final_y": "527925.366399",
    "longitude": "-90.13038859147233",
    "latitude": "29.94619497020936",
    "geocoded_column": {
      "latitude": "29.94619497020936",
      "longitude": "-90.13038859147233"
    }
  },
  {
    "service_request": "2025-1244103",
    "request_type": "Trash/Recycling",
    "request_reason": "Order Recycling Cart",
    "date_created": "2025-12-05T22:30:56.000",
    "date_modified": "2025-12-05T22:30:58.000",
    "request_status": "Pending",
    "responsible_agency": "Department of Sanitation",
    "final_address": "3814 Buchanan St",
    "address_councildis": "D",
    "status": "Pending",
    "rowid": "1244103",
    "final_x": "3677329.8971",
    "final_y": "546205.366352",
    "longitude": "-90.08073109512516",
    "latitude": "29.996001349489024",
    "geocoded_column": {
      "latitude": "29.996001349489024",
      "longitude": "-90.08073109512516"
    }
  },
  {
    "service_request": "2025-1244102",
    "request_type": "Trash/Recycling",
    "request_reason": "Order Second Trash Cart",
    "date_created": "2025-12-05T20:21:36.000",
    "date_modified": "2025-12-05T20:21:38.000",
    "request_status": "Pending",
    "responsible_agency": "Department of Sanitation",
    "final_address": "2119 Franklin Ave",
    "address_councildis": "D",
    "status": "Assigned to Contractor",
    "contractor": "IV Waste",
    "rowid": "1244102",
    "final_x": "3687688.50607",
    "final_y": "540394.156939",
    "longitude": "-90.04821502516377",
    "latitude": "29.97970716866076",
    "geocoded_column": {
      "latitude": "29.97970716866076",
      "longitude": "-90.04821502516377"
    }
  },
  {
    "service_request": "2025-1244101",
    "request_type": "General Services",
    "request_reason": "General Service Request",
    "date_created": "2025-12-05T19:54:52.000",
    "date_modified": "2025-12-05T19:54:54.000",
    "request_status": "Pending",
    "responsible_agency": "Orleans Parish Communication District",
    "final_address": "5 Alice Ct",
    "address_councildis": "E",
    "status": "Pending",
    "rowid": "1244101",
    "final_x": "3696783.60669",
    "final_y": "533846.636549",
    "longitude": "-90.01972623332642",
    "latitude": "29.96142021521976",
    "geocoded_column": {
      "latitude": "29.96142021521976",
      "longitude": "-90.01972623332642"
    }
  },
  {
    "service_request": "2025-1244100",
    "request_type": "Streetlights",
    "request_reason": "Streetlight Outage/Malfunction",
    "date_created": "2025-12-05T18:52:24.000",
    "date_modified": "2025-12-05T18:52:26.000",
    "request_status": "Pending",
    "responsible_agency": "Department of Public Works",
    "final_address": "1428 Ursulines Ave",
    "address_councildis": "C",
    "status": "Pending",
    "rowid": "1244100",
    "final_x": "3681260.62946",
    "final_y": "535281.292614",
    "longitude": "-90.06869508541608",
    "latitude": "29.965845221026964",
    "geocoded_column": {
      "latitude": "29.965845221026964",
      "longitude": "-90.06869508541608"
    }
  },
  {
    "service_request": "2025-1244099",
    "request_type": "Trash/Recycling",
    "request_reason": "Missed Trash Pick-Up",
    "date_created": "2025-12-05T18:48:44.000",
    "date_modified": "2025-12-06T07:00:19.000",
    "case_close_date": "2025-12-06T01:00:18.000",
    "request_status": "Closed",
    "responsible_agency": "Department of Sanitation",
    "final_address": "2715 St Charles Ave",
    "address_councildis": "B",
    "status": "Invalid Request",
    "contractor": "IV Waste",
    "contractor_action": "Invalid",
    "rowid": "1244099",
    "final_x": "3676034.12814",
    "final_y": "522712.34905",
    "longitude": "-90.08563243084537",
    "latitude": "29.931442374685485",
    "geocoded_column": {
      "latitude": "29.931442374685485",
      "longitude": "-90.08563243084537"
    }
  },
  {
    "service_request": "2025-1244098",
    "request_type": "Trash/Recycling",
    "request_reason": "Request a Large Item Pick Up",
    "date_created": "2025-12-05T18:46:13.000",
    "date_modified": "2025-12-05T18:46:15.000",
    "request_status": "Pending",
    "responsible_agency": "Department of Sanitation",
    "final_address": "50 N Lark St",
    "address_councildis": "D",
    "status": "Assigned to Contractor",
    "contractor": "IV Waste",
    "rowid": "1244098",
    "final_x": "3675343.6452",
    "final_y": "556503.946522",
    "longitude": "-90.0866515623083",
    "latitude": "30.024378330396758",
    "geocoded_column": {
      "latitude": "30.024378330396758",
      "longitude": "-90.0866515623083"
    }
  },
  {
    "service_request": "2025-1244097",
    "request_type": "Trash/Recycling",
    "request_reason": "Replace Trash Cart",
    "date_created": "2025-12-05T18:44:35.000",
    "date_modified": "2025-12-05T18:44:37.000",
    "request_status": "Pending",
    "responsible_agency": "Department of Sanitation",
    "final_address": "738 Toulouse St",
    "address_councildis": "C",
    "status": "Assigned to Contractor",
    "contractor": "IV Waste",
    "rowid": "1244097",
    "final_x": "3682055.2004",
    "final_y": "532311.350531",
    "longitude": "-90.06628956898791",
    "latitude": "29.957654758842732",
    "geocoded_column": {
      "latitude": "29.957654758842732",
      "longitude": "-90.06628956898791"
    }
  },
  {
    "service_request": "2025-1244096",
    "request_type": "Street and Traffic Signs",
    "request_reason": "Stop Sign Missing or Damaged",
    "date_created": "2025-12-05T17:18:14.000",
    "date_modified": "2025-12-05T17:18:16.000",
    "request_status": "Pending",
    "responsible_agency": "Department of Public Works",
    "final_address": "ABUNDANCE ST & METROPOLITAN ST",
    "address_councildis": "D",
    "status": "Pending",
    "rowid": "1244096",
    "final_x": "3691174.2",
    "final_y": "543475.18",
    "longitude": "-90.03709574488991",
    "latitude": "29.988070922792502",
    "geocoded_column": {
      "latitude": "29.988070922792502",
      "longitude": "-90.03709574488991"
    }
  },
  {
    "service_request": "2025-1244095",
    "request_type": "Trash/Recycling",
    "request_reason": "Request a Large Item Pick Up",
    "date_created": "2025-12-05T16:56:12.000",
    "date_modified": "2025-12-05T16:56:14.000",
    "request_status": "Pending",
    "responsible_agency": "Department of Sanitation",
    "final_address": "5439 Royal St",
    "address_councildis": "E",
    "status": "Assigned to Contractor",
    "contractor": "Waste Pro",
    "rowid": "1244095",
    "final_x": "3696992.39127",
    "final_y": "532472.374212",
    "longitude": "-90.01911670500233",
    "latitude": "29.957634897024995",
    "geocoded_column": {
      "latitude": "29.957634897024995",
      "longitude": "-90.01911670500233"
    }
  },
  {
    "service_request": "2025-1244094",
    "request_type": "Roads and Streets",
    "request_reason": "Abandoned Service Cut",
    "date_created": "2025-12-05T16:47:10.000",
    "date_modified": "2025-12-05T16:47:12.000",
    "request_status": "Pending",
    "responsible_agency": "Department of Public Works",
    "final_address": "3802 St Bernard Ave",
    "address_councildis": "D",
    "status": "Pending",
    "rowid": "1244094",
    "final_x": "3677775.01339",
    "final_y": "546217.829328",
    "longitude": "-90.07932457598416",
    "latitude": "29.996022231286528",
    "geocoded_column": {
      "latitude": "29.996022231286528",
      "longitude": "-90.07932457598416"
    }
  },
  {
    "service_request": "2025-1244093",
    "request_type": "Trash/Recycling",
    "request_reason": "Dead Animal Pick Up",
    "date_created": "2025-12-05T16:38:57.000",
    "date_modified": "2025-12-05T16:38:58.000",
    "request_status": "Pending",
    "responsible_agency": "Department of Sanitation",
    "final_address": "2500 BLK Jourdan Ave",
    "address_councildis": "E",
    "status": "Assigned to Contractor",
    "contractor": "Waste Pro",
    "rowid": "1244093",
    "final_x": "3696561.97659",
    "final_y": "539914.414709",
    "longitude": "-90.02020651559462",
    "latitude": "29.97811142044016",
    "geocoded_column": {
      "latitude": "29.97811142044016",
      "longitude": "-90.02020651559462"
    }
  },
  {
    "service_request": "2025-1244092",
    "request_type": "Parks & Parkways",
    "request_reason": "Request Tree Service (Right of Way/Public Property)",
    "date_created": "2025-12-05T16:36:31.000",
    "date_modified": "2025-12-05T16:36:33.000",
    "request_status": "Pending",
    "responsible_agency": "Department of Parks & Parkway",
    "final_address": "3445 Prytania St",
    "address_councildis": "B",
    "status": "Pending",
    "rowid": "1244092",
    "final_x": "3673995.86612",
    "final_y": "520903.584185",
    "longitude": "-90.0921288403623",
    "latitude": "29.926529725948196",
    "geocoded_column": {
      "latitude": "29.926529725948196",
      "longitude": "-90.0921288403623"
    }
  },
  {
    "service_request": "2025-1244091",
    "request_type": "Abandoned Vehicles",
    "request_reason": "Abandoned/Junk Vehicles",
    "date_created": "2025-12-05T16:16:28.000",
    "date_modified": "2025-12-05T16:16:29.000",
    "request_status": "Pending",
    "responsible_agency": "Department of Public Works",
    "final_address": "6311 St Roch Ave",
    "address_councildis": "D",
    "status": "Pending",
    "rowid": "1244091",
    "final_x": "3684975.02524",
    "final_y": "556467.65385",
    "longitude": "-90.05621945734437",
    "latitude": "30.0239868878123",
    "geocoded_column": {
      "latitude": "30.0239868878123",
      "longitude": "-90.05621945734437"
    }
  },