[
  {
    "service_request": "2025-1224835",
    "request_type": "Trash/Recycling",
    "request_reason": "Replace Recycling Cart",
    "date_created": "2025-09-08T22:51:38.000",
    "date_modified": "2025-09-08T22:51:41.000",
    "request_status": "Pending",
    "responsible_agency": "Department of Sanitation",
    "final_address": "7307 Hurst St",
    "address_councildis": "A",
    "status": "Pending",
    "rowid": "1224835",
    "final_x": "3661934.79987",
    "final_y": "523848.139195",
    "longitude": "-90.13010488136943",
    "latitude": "29.934980059427854",
    "geocoded_column": {
      "latitude": "29.934980059427854",
      "longitude": "-90.13010488136943"
    }
  },
  {
    "service_request": "2025-1224834",
    "request_type": "Trash/Recycling",
    "request_reason": "Request a Large Item Pick Up",
    "date_created": "2025-09-08T22:08:44.000",
    "date_modified": "2025-09-08T22:08:46.000",
    "request_status": "Pending",
    "responsible_agency": "Department of Sanitation",
    "final_address": "5118 Frenchmen St",
    "address_councildis": "D",
    "status": "Assigned to Contractor",
    "contractor": "IV Waste",
    "rowid": "1224834",
    "final_x": "3683307.12879",
    "final_y": "551624.407701",
    "longitude": "-90.06165952771217",
    "latitude": "30.010720742853394",
    "geocoded_column": {
      "latitude": "30.010720742853394",
      "longitude": "-90.06165952771217"
    }
  },
  {
    "service_request": "2025-1224833",
    "request_type": "Parks & Parkways",
    "request_reason": "Request Grass Cutting Service (City Owned Property)",
    "date_created": "2025-09-08T21:57:47.000",
    "date_modified": "2025-09-08T21:57:49.000",
    "request_status": "Pending",
    "responsible_agency": "Department of Parks & Parkway",
    "final_address": "8825 Airline Hwy",
    "address_councildis": "A",
    "status": "Pending",
    "rowid": "1224833",
    "final_x": "3666584.17165",
    "final_y": "537220.185864",
    "longitude": "-90.11497793136665",
    "latitude": "29.97161376403951",
    "geocoded_column": {
      "latitude": "29.97161376403951",
      "longitude": "-90.11497793136665"
    }
  },
  {
    "service_request": "2025-1224832",
    "request_type": "Health Related Request",
    "request_reason": "Noise Ordinance Complaint",
    "date_created": "2025-09-08T21:41:37.000",
    "date_modified": "2025-09-08T21:41:40.000",
    "request_status": "Pending",
    "responsible_agency": "Health Department",
    "final_address": "5342 Saint Charles Ave, New Orleans, Louisiana, 70115",
    "address_councildis": "B",
    "status": "Pending",
    "rowid": "1224832",
    "final_x": "3667474.89831",
    "final_y": "521397.581753",
    "longitude": "-90.11269719363567",
    "latitude": "29.928080680395222",
    "geocoded_column": {
      "latitude": "29.928080680395222",
      "longitude": "-90.11269719363567"
    }
  },
  {
    "service_request": "2025-1224831",
    "request_type": "Trash/Recycling",
    "request_reason": "Request a Large Item Pick Up",
    "date_created": "2025-09-08T21:33:47.000",
    "date_modified": "2025-09-08T21:33:49.000",
    "request_status": "Pending",
    "responsible_agency": "Department of Sanitation",
    "final_address": "1719 Spain St",
    "address_councildis": "D",
    "status": "Assigned to Contractor",
    "contractor": "IV Waste",
    "rowid": "1224831",
    "final_x": "3685976.1974",
    "final_y": "538790.792393",
    "longitude": "-90.05367973491722",
    "latitude": "29.975351174080366",
    "geocoded_column": {
      "latitude": "29.975351174080366",
      "longitude": "-90.05367973491722"
    }
  },
  {
    "service_request": "2025-1224830",
    "request_type": "Parks & Parkways",
    "request_reason": "Request Tree Service (Right of Way/Public Property)",
    "date_created": "2025-09-08T21:02:59.000",
    "date_modified": "2025-09-08T21:03:01.000",
    "request_status": "Pending",
    "responsible_agency": "Department of Parks & Parkway",
    "final_address": "2457 Athis St",
    "address_councildis": "D",
    "status": "Pending",
    "rowid": "1224830",
    "final_x": "3685610.91042",
    "final_y": "554435.058648",
    "longitude": "-90.05428187859418",
    "latitude": "30.01837849915708",
    "geocoded_column": {
      "latitude": "30.01837849915708",
      "longitude": "-90.05428187859418"
    }
  },
  {
    "service_request": "2025-1224829",
    "request_type": "Trash/Recycling",
    "request_reason": "Request a Large Item Pick Up",
    "date_created": "2025-09-08T19:54:53.000",
    "date_modified": "2025-09-08T19:54:55.000",
    "request_status": "Pending",
    "responsible_agency": "Department of Sanitation",
    "final_address": "8013 Lehigh St",
    "address_councildis": "E",
    "status": "Assigned to Contractor",
    "contractor": "Waste Pro",
    "rowid": "1224829",
    "final_x": "3709803.82782",
    "final_y": "566962.542564",
    "longitude": "-89.97737351920539",
    "latitude": "30.052059369494643",
    "geocoded_column": {
      "latitude": "30.052059369494643",
      "longitude": "-89.97737351920539"
    }
  },
  {
    "service_request": "2025-1224828",
    "request_type": "Trash/Recycling",
    "request_reason": "Request a Large Item Pick Up",
    "date_created": "2025-09-08T19:54:11.000",
    "date_modified": "2025-09-08T19:54:14.000",
    "request_status": "Pending",
    "responsible_agency": "Department of Sanitation",
    "final_address": "7950 Arcadia Ln",
    "address_councildis": "E",
    "status": "Assigned to Contractor",
    "contractor": "Waste Pro",
    "rowid": "1224828",
    "final_x": "3711729.18302",
    "final_y": "567986.627237",
    "longitude": "-89.9712496382031",
    "latitude": "30.054812397331297",
    "geocoded_column": {
      "latitude": "30.054812397331297",
      "longitude": "-89.9712496382031"
    }
  },
  {
    "service_request": "2025-1224827",
    "request_type": "Health Related Request",
    "request_reason": "Homeless Encampment Complaint",
    "date_created": "2025-09-08T19:40:20.000",
    "date_modified": "2025-09-08T19:40:22.000",
    "request_status": "Pending",
    "responsible_agency": "Office Of Homeless Services And Strategy",
    "final_address": "2653 Halsey Ave",
    "address_councildis": "C",
    "status": "Pending",
    "rowid": "1224827",
    "final_x": "3697600.97559",
    "final_y": "521317.072569",
    "longitude": "-90.01759946384932",
    "latitude": "29.926942491023016",
    "geocoded_column": {
      "latitude": "29.926942491023016",
      "longitude": "-90.01759946384932"
    }
  },
  {
    "service_request": "2025-1224826",
    "request_type": "Health Related Request",
    "request_reason": "Homeless Encampment Complaint",
    "date_created": "2025-09-08T19:38:57.000",
    "date_modified": "2025-09-08T19:39:00.000",
    "request_status": "Pending",
    "responsible_agency": "Office Of Homeless Services And Strategy",
    "final_address": "2653 Halsey Ave",
    "address_councildis": "C",
    "status": "Pending",
    "rowid": "1224826",
    "final_x": "3697600.97559",
    "final_y": "521317.072569",
    "longitude": "-90.01759946384932",
    "latitude": "29.926942491023016",
    "geocoded_column": {
      "latitude": "29.926942491023016",
      "longitude": "-90.01759946384932"
    }
  },
  {
    "service_request": "2025-1224825",
    "request_type": "Streetlights",
    "request_reason": "Streetlight Outage/Malfunction",
    "date_created": "2025-09-08T19:35:27.000",
    "date_modified": "2025-09-08T19:35:29.000",
    "request_status": "Pending",
    "responsible_agency": "Department of Public Works",
    "final_address": "8 Warbler St",
    "address_councildis": "D",
    "status": "Pending",
    "rowid": "1224825",
    "final_x": "3672757.99297",
    "final_y": "557074.996058",
    "longitude": "-90.09480227239096",
    "latitude": "30.026025610154466",
    "geocoded_column": {
      "latitude": "30.026025610154466",
      "longitude": "-90.09480227239096"
    }
  },
  {
    "service_request": "2025-1224824",
    "request_type": "Streetlights",
    "request_reason": "Streetlight Outage/Malfunction",
    "date_created": "2025-09-08T19:34:19.000",
    "date_modified": "2025-09-08T19:34:21.000",
    "request_status": "Pending",
    "responsible_agency": "Department of Public Works",
    "final_address": "2128 Pine St",
    "address_councildis": "A",
    "status": "Pending",
    "rowid": "1224824",
    "final_x": "3665778.2386",
    "final_y": "529575.597697",
    "longitude": "-90.117779315529",
    "latitude": "29.950617195067164",
    "geocoded_column": {
      "latitude": "29.950617195067164",
      "longitude": "-90.117779315529"
    }
  },
  {
    "service_request": "2025-1224823",
    "request_type": "Trash/Recycling",
    "request_reason": "Replace Trash Cart",
    "date_created": "2025-09-08T19:31:27.000",
    "date_modified": "2025-09-08T19:31:29.000",
    "request_status": "Pending",
    "responsible_agency": "Department of Sanitation",
    "final_address": "3223 St Peter St",
    "address_councildis": "A",
    "status": "Assigned to Contractor",
    "contractor": "IV Waste",
    "rowid": "1224823",
    "final_x": "3674763.60328",
    "final_y": "538330.650313",
    "longitude": "-90.08910794350851",
    "latitude": "29.97442548847844",
    "geocoded_column": {
      "latitude": "29.97442548847844",
      "longitude": "-90.08910794350851"
    }
  },
  {
    "service_request": "2025-1224822",
    "request_type": "Streetlights",
    "request_reason": "Streetlight Outage/Malfunction",
    "date_created": "2025-09-08T19:26:12.000",
    "date_modified": "2025-09-08T19:26:14.000",
    "request_status": "Pending",
    "responsible_agency": "Department of Public Works",
    "final_address": "7740 Alabama St",
    "address_councildis": "D",
    "status": "Pending",
    "rowid": "1224822",
    "final_x": "3694706.1096",
    "final_y": "559041.825244",
    "longitude": "-90.02537839438047",
    "latitude": "30.030763067853908",
    "geocoded_column": {
      "latitude": "30.030763067853908",
      "longitude": "-90.02537839438047"
    }
  },
  {
    "service_request": "2025-1224821",
    "request_type": "Health Related Request",
    "request_reason": "Homeless Encampment Complaint",
    "date_created": "2025-09-08T19:24:32.000",
    "date_modified": "2025-09-08T19:24:34.000",
    "request_status": "Pending",
    "responsible_agency": "Office Of Homeless Services And Strategy",
    "final_address": "2653 Halsey Ave",
    "address_councildis": "C",
    "status": "Pending",
    "rowid": "1224821",
    "final_x": "3697600.97559",
    "final_y": "521317.072569",
    "longitude": "-90.01759946384932",
    "latitude": "29.926942491023016",
    "geocoded_column": {
      "latitude": "29.926942491023016",
      "longitude": "-90.01759946384932"
    }
  },
  {
    "service_request": "2025-1224820",
    "request_type": "Streetlights",
    "request_reason": "Streetlight Outage/Malfunction",
    "date_created": "2025-09-08T19:11:41.000",
    "date_modified": "2025-09-08T19:11:42.000",
    "request_status": "Pending",
    "responsible_agency": "Department of Public Works",
    "final_address": "0 BLK Crane St",
    "address_councildis": "D",
    "status": "Pending",
    "rowid": "1224820",
    "final_x": "3673240.03439",
    "final_y": "554739.01006",
    "longitude": "-90.09335895819596",
    "latitude": "30.0195881540786",
    "geocoded_column": {
      "latitude": "30.0195881540786",
      "longitude": "-90.09335895819596"
    }
  },
  {
    "service_request": "2025-1224819",
    "request_type": "General Services",
    "request_reason": "General Service Request",
    "date_created": "2025-09-08T19:08:30.000",
    "date_modified": "2025-09-08T19:08:32.000",
    "request_status": "Pending",
    "responsible_agency": "Orleans Parish Communication District",
    "final_address": "1718 S Carrollton Ave",
    "address_councildis": "A",
    "status": "Pending",
    "rowid": "1224819",
    "final_x": "3663192.39296",
    "final_y": "529776.071553",
    "longitude": "-90.12593745453606",
    "latitude": "29.951243608300597",
    "geocoded_column": {
      "latitude": "29.951243608300597",
      "longitude": "-90.12593745453606"
    }
  },
  {
    "service_request": "2025-1224818",
    "request_type": "Abandoned Vehicles",
    "request_reason": "Abandoned/Junk Vehicles",
    "date_created": "2025-09-08T19:02:06.000",
    "date_modified": "2025-09-08T19:02:08.000",
    "request_status": "Pending",
    "responsible_agency": "Department of Public Works",
    "final_address": "1300 St Bernard Ave",
    "address_councildis": "C",
    "status": "Pending",
    "rowid": "1224818",
    "final_x": "3682811.5492",
    "final_y": "536558.891399",
    "longitude": "-90.06375263366567",
    "latitude": "29.969311019635704",
    "geocoded_column": {
      "latitude": "29.969311019635704",
      "longitude": "-90.06375263366567"
    }
  },
  {
    "service_request": "2025-1224817",
    "request_type": "General Services",
    "request_reason": "General Service Request",
    "date_created": "2025-09-08T18:54:09.000",
    "date_modified": "2025-09-08T18:54:11.000",
    "request_status": "Pending",
    "responsible_agency": "Orleans Parish Communication District",
    "final_address": "1538 Dublin St",
    "address_councildis": "A",
    "status": "Pending",
    "rowid": "1224817",
    "final_x": "3662591.93472",
    "final_y": "529647.607489",
    "longitude": "-90.12783768142836",
    "latitude": "29.95090775740007",
    "geocoded_column": {
      "latitude": "29.95090775740007",
      "longitude": "-90.12783768142836"
    }
  },
  {
    "service_request": "2025-1224816",
    "request_type": "Trash/Recycling",
    "request_reason": "Replace Trash Cart",
    "date_created": "2025-09-08T18:52:31.000",
    "date_modified": "2025-09-08T18:52:32.000",
    "request_status": "Pending",
    "responsible_agency": "Department of Sanitation",
    "final_address": "1601 St Ann St",
    "address_councildis": "C",
    "status": "Assigned to Contractor",
    "contractor": "IV Waste",
    "rowid": "1224816",
    "final_x": "3680275.71087",
    "final_y": "534701.056646",
    "longitude": "-90.07182559856783",
    "latitude": "29.96427962334309",
    "geocoded_column": {
      "latitude": "29.96427962334309",
      "longitude": "-90.07182559856783"
    }
  },
  {
    "service_request": "2025-1224815",
    "request_type": "Trash/Recycling",
    "request_reason": "Request a Large Item Pick Up",
    "date_created": "2025-09-08T18:22:15.000",
    "date_modified": "2025-09-08T18:22:17.000",
    "request_status": "Pending",
    "responsible_agency": "Department of Sanitation",
    "final_address": "5011 Good Dr",
    "address_councildis": "E",
    "status": "Assigned to Contractor",
    "contractor": "Waste Pro",
    "rowid": "1224815",
    "final_x": "3714745.87525",
    "final_y": "557886.054107",
    "longitude": "-89.96209668454567",
    "latitude": "30.026940954578897",
    "geocoded_column": {
      "latitude": "30.026940954578897",
      "longitude": "-89.96209668454567"
    }
  },
  {
    "service_request": "2025-1224813",
    "request_type": "EMS",
    "request_reason": "EMS Compliment",
    "date_created": "2025-09-08T18:15:33.000",
    "date_modified": "2025-09-08T18:15:35.000",
    "request_status": "Pending",
    "responsible_agency": "Emergency Medical Services",
    "final_address": "0 BLK Agriculture Pl",
    "address_councildis": "D",
    "status": "Pending",
    "rowid": "1224813",
    "final_x": "3689891.40135",
    "final_y": "543419.290574",
    "longitude": "-90.04114966127275",
    "latitude": "29.987957086684915",
    "geocoded_column": {
      "latitude": "29.987957086684915",
      "longitude": "-90.04114966127275"
    }
  },
  {
    "service_request": "2025-1224812",
    "request_type": "Trash/Recycling",
    "request_reason": "Request a Large Item Pick Up",
    "date_created": "2025-09-08T17:57:20.000",
    "date_modified": "2025-09-08T17:57:22.000",
    "request_status": "Pending",
    "responsible_agency": "Department of Sanitation",
    "final_address": "2214 Lizardi St",
    "address_councildis": "E",
    "status": "Assigned to Contractor",
    "contractor": "Waste Pro",
    "rowid": "1224812",
    "final_x": "3697648.27946",
    "final_y": "538385.366025",
    "longitude": "-90.0168310897964",
    "latitude": "29.973872813372065",
    "geocoded_column": {
      "latitude": "29.973872813372065",
      "longitude": "-90.0168310897964"
    }
  },
  {
    "service_request": "2025-1224811",
    "request_type": "Trash/Recycling",
    "request_reason": "Request a Large Item Pick Up",
    "date_created": "2025-09-08T17:54:43.000",
    "date_modified": "2025-09-08T17:54:46.000",
    "request_status": "Pending",
    "responsible_agency": "Department of Sanitation",
    "final_address": "2228 Lizardi St",
    "address_councildis": "E",
    "status": "Assigned to Contractor",
    "contractor": "Waste Pro",
    "rowid": "1224811",
    "final_x": "3697715.91472",
    "final_y": "538495.162761",
    "longitude": "-90.01661349914619",
    "latitude": "29.974172577954366",
    "geocoded_column": {
      "latitude": "29.974172577954366",
      "longitude": "-90.01661349914619"
    }
  },
  {
    "service_request": "2025-1224810",
    "request_type": "Roads and Streets",
    "request_reason": "Road Shoulder Damage",
    "date_created": "2025-09-08T17:51:42.000",
    "date_modified": "2025-09-08T17:51:44.000",
    "request_status": "Pending",
    "responsible_agency": "Department of Public Works",
    "final_address": "4508 Fiesta St",
    "address_councildis": "C",
    "status": "Pending",
    "rowid": "1224810",
    "final_x": "3700501.89335",
    "final_y": "521679.151481",
    "longitude": "-90.00842887479668",
    "latitude": "29.927846171994567",
    "geocoded_column": {
      "latitude": "29.927846171994567",
      "longitude": "-90.00842887479668"
    }
  },
  {
    "service_request": "2025-1224809",
    "request_type": "Trash/Recycling",
    "request_reason": "Request a Large Item Pick Up",
    "date_created": "2025-09-08T17:29:54.000",
    "date_modified": "2025-09-08T17:29:56.000",
    "request_status": "Pending",
    "responsible_agency": "Department of Sanitation",
    "final_address": "5820 Abbey Dr",
    "address_councildis": "C",
    "status": "Assigned to Contractor",
    "contractor": "Richards Disposal",
    "rowid": "1224809",
    "final_x": "3705284.12254",
    "final_y": "520972.044537",
    "longitude": "-89.99335872607088",
    "latitude": "29.925748963857746",
    "geocoded_column": {
      "latitude": "29.925748963857746",
      "longitude": "-89.99335872607088"
    }
  },
  {
    "service_request": "2025-1224808",
    "request_type": "Trash/Recycling",
    "request_reason": "Request a Large Item Pick Up",
    "date_created": "2025-09-08T16:59:54.000",
    "date_modified": "2025-09-08T16:59:57.000",
    "request_status": "Pending",
    "responsible_agency": "Department of Sanitation",
    "final_address": "2600 Danneel St",
    "address_councildis": "B",
    "status": "Assigned to Contractor",
    "contractor": "IV Waste",
    "rowid": "1224808",
    "final_x": "3675622.79982",
    "final_y": "524017.6663",
    "longitude": "-90.08688612060968",
    "latitude": "29.93504388094207",
    "geocoded_column": {
      "latitude": "29.93504388094207",
      "longitude": "-90.08688612060968"
    }
  },
  {
    "service_request": "2025-1224807",
    "request_type": "Trash/Recycling",
    "request_reason": "Request a Large Item Pick Up",
    "date_created": "2025-09-08T16:54:58.000",
    "date_modified": "2025-09-08T16:55:00.000",
    "request_status": "Pending",
    "responsible_agency": "Department of Sanitation",
    "final_address": "9162 Bunker Hill Rd",
    "address_councildis": "E",
    "status": "Assigned to Contractor",
    "contractor": "Waste Pro",
    "rowid": "1224807",
    "final_x": "3706995.20222",
    "final_y": "560366.955933",
    "longitude": "-89.98649569408867",
    "latitude": "30.034015219551858",
    "geocoded_column": {
      "latitude": "30.034015219551858",
      "longitude": "-89.98649569408867"
    }
  },
  {
    "service_request": "2025-1224806",
    "request_type": "Abandoned Vehicles",
    "request_reason": "Abandoned/Junk Vehicles",
    "date_created": "2025-09-08T16:54:10.000",
    "date_modified": "2025-09-08T16:54:12.000",
    "request_status": "Pending",
    "responsible_agency": "Department of Public Works",
    "final_address": "7159 Crowder Blvd",
    "address_councildis": "E",
    "status": "Pending",
    "rowid": "1224806",
    "final_x": "3704176.87044",
    "final_y": "560347.128605",
    "longitude": "-89.99540264061919",
    "latitude": "30.03405148797682",
    "geocoded_column": {
      "latitude": "30.03405148797682",
      "longitude": "-89.99540264061919"
    }
  },
  {
    "service_request": "2025-1224805",
    "request_type": "Trash/Recycling",
    "request_reason": "Request a Large Item Pick Up",
    "date_created": "2025-09-08T16:50:16.000",
    "date_modified": "2025-09-08T16:50:17.000",
    "request_status": "Pending",
    "responsible_agency": "Department of Sanitation",
    "final_address": "7906 Sandy Cove Dr",
    "address_councildis": "E",
    "status": "Assigned to Contractor",
    "contractor": "Waste Pro",
    "rowid": "1224805",
    "final_x": "3714929.02232",
    "final_y": "570148.722343",
    "longitude": "-89.9610539029617",
    "latitude": "30.06065229281836",
    "geocoded_column": {
      "latitude": "30.06065229281836",
      "longitude": "-89.9610539029617"
    }
  },
  {
    "service_request": "2025-1224804",
    "request_type": "Property Maintenance",
    "request_reason": "Property Maintenance",
    "date_created": "2025-09-08T16:48:28.000",
    "date_modified": "2025-09-08T16:48:30.000",
    "request_status": "Pending",
    "responsible_agency": "Department of Code Enforcement",
    "final_address": "2234 N Villere St",
    "address_councildis": "C",
    "status": "Pending",
    "rowid": "1224804",
    "final_x": "3685258.98255",
    "final_y": "537392.417672",
    "longitude": "-90.05599412044019",
    "latitude": "29.971528136464528",
    "geocoded_column": {
      "latitude": "29.971528136464528",
      "longitude": "-90.05599412044019"
    }
  },
  {
    "service_request": "2025-1224803",
    "request_type": "Trash/Recycling",
    "request_reason": "Request a Large Item Pick Up",
    "date_created": "2025-09-08T16:47:34.000",
    "date_modified": "2025-09-08T16:47:37.000",
    "request_status": "Pending",
    "responsible_agency": "Department of Sanitation",
    "final_address": "4712 Corinne St",
    "address_councildis": "E",
    "status": "Assigned to Contractor",
    "contractor": "Waste Pro",
    "rowid": "1224803",
    "final_x": "3714972.67967",
    "final_y": "556685.450394",
    "longitude": "-89.96142543553944",
    "latitude": "30.023632306182126",
    "geocoded_column": {
      "latitude": "30.023632306182126",
      "longitude": "-89.96142543553944"
    }
  },
  {
    "service_request": "2025-1224802",
    "request_type": "Trash/Recycling",
    "request_reason": "Request a Large Item Pick Up",
    "date_created": "2025-09-08T16:41:59.000",
    "date_modified": "2025-09-08T16:42:04.000",
    "request_status": "Pending",
    "responsible_agency": "Department of Sanitation",
    "final_address": "7120 Read Blvd",
    "address_councildis": "E",
    "status": "Assigned to Contractor",
    "contractor": "Waste Pro",
    "rowid": "1224802",
    "final_x": "3709443.74469",
    "final_y": "562549.174752",
    "longitude": "-89.97867653629854",
    "latitude": "30.039936091373203",
    "geocoded_column": {
      "latitude": "30.039936091373203",
      "longitude": "-89.97867653629854"
    }
  },
  {
    "service_request": "2025-1224801",
    "request_type": "Trash/Recycling",
    "request_reason": "Request a Large Item Pick Up",
    "date_created": "2025-09-08T16:41:49.000",
    "date_modified": "2025-09-08T16:41:50.000",
    "request_status": "Pending",
    "responsible_agency": "Department of Sanitation",
    "final_address": "5712 Wildair Dr",
    "address_councildis": "D",
    "status": "Assigned to Contractor",
    "contractor": "IV Waste",
    "rowid": "1224801",
    "final_x": "3681520.44757",
    "final_y": "553873.611351",
    "longitude": "-90.06722582376061",
    "latitude": "30.016959637967403",
    "geocoded_column": {
      "latitude": "30.016959637967403",
      "longitude": "-90.06722582376061"
    }
  },
  {
    "service_request": "2025-1224799",
    "request_type": "Abandoned Vehicles",
    "request_reason": "Abandoned/Junk Vehicles",
    "date_created": "2025-09-08T16:41:03.000",
    "date_modified": "2025-09-08T16:41:05.000",
    "request_status": "Pending",
    "responsible_agency": "Department of Public Works",
    "final_address": "11230 S Parkwood Ct",
    "address_councildis": "E",
    "status": "Pending",
    "rowid": "1224799",
    "final_x": "3716782.30412",
    "final_y": "558963.209116",
    "longitude": "-89.95562092073904",
    "latitude": "30.02983553403715",
    "geocoded_column": {
      "latitude": "30.02983553403715",
      "longitude": "-89.95562092073904"
    }
  },
  {
    "service_request": "2025-1224798",
    "request_type": "Trash/Recycling",
    "request_reason": "Repair Trash Cart",
    "date_created": "2025-09-08T16:40:59.000",
    "date_modified": "2025-09-08T16:41:01.000",
    "request_status": "Pending",
    "responsible_agency": "Department of Sanitation",
    "final_address": "4911 Perelli Dr",
    "address_councildis": "E",
    "status": "Assigned to Contractor",
    "contractor": "Waste Pro",
    "rowid": "1224798",
    "final_x": "3711699.68178",
    "final_y": "557035.625242",
    "longitude": "-89.97175419141703",
    "latitude": "30.024702493705412",
    "geocoded_column": {
      "latitude": "30.024702493705412",
      "longitude": "-89.97175419141703"
    }
  },
  {
    "service_request": "2025-1224797",
    "request_type": "Trash/Recycling",
    "request_reason": "Request a Large Item Pick Up",
    "date_created": "2025-09-08T16:40:18.000",
    "date_modified": "2025-09-08T16:40:20.000",
    "request_status": "Pending",
    "responsible_agency": "Department of Sanitation",
    "final_address": "1704 Spain St",
    "address_councildis": "D",
    "status": "Assigned to Contractor",
    "contractor": "IV Waste",
    "rowid": "1224797",
    "final_x": "3685917.19996",
    "final_y": "538715.802953",
    "longitude": "-90.05386870883589",
    "latitude": "29.97514679094592",
    "geocoded_column": {
      "latitude": "29.97514679094592",
      "longitude": "-90.05386870883589"
    }
  },
  {
    "service_request": "2025-1224796",
    "request_type": "Roads and Streets",
    "request_reason": "Sidewalk Damaged or Missing",
    "date_created": "2025-09-08T16:38:44.000",
    "date_modified": "2025-09-08T16:38:46.000",
    "request_status": "Pending",
    "responsible_agency": "Department of Public Works",
    "final_address": "4800 BLK Washington Ave",
    "address_councildis": "B",
    "status": "Pending",
    "rowid": "1224796",
    "final_x": "3669551.33409",
    "final_y": "533478.933158",
    "longitude": "-90.10573374536023",
    "latitude": "29.96123948290637",
    "geocoded_column": {
      "latitude": "29.96123948290637",
      "longitude": "-90.10573374536023"
    }
  },
  {
    "service_request": "2025-1224795",
    "request_type": "Trash/Recycling",
    "request_reason": "Replace Trash Cart",
    "date_created": "2025-09-08T16:35:42.000",
    "date_modified": "2025-09-08T16:35:45.000",
    "request_status": "Pending",
    "responsible_agency": "Department of Sanitation",
    "final_address": "538 Jackson Ave",
    "address_councildis": "B",
    "status": "Assigned to Contractor",
    "contractor": "IV Waste",
    "rowid": "1224795",
    "final_x": "3679978.27586",
    "final_y": "520524.056568",
    "longitude": "-90.07325720539292",
    "latitude": "29.925306606257028",
    "geocoded_column": {
      "latitude": "29.925306606257028",
      "longitude": "-90.07325720539292"
    }
  },
  {
    "service_request": "2025-1224794",
    "request_type": "Trash/Recycling",
    "request_reason": "Order Recycling Cart",
    "date_created": "2025-09-08T16:34:19.000",
    "date_modified": "2025-09-08T16:34:20.000",
    "request_status": "Pending",
    "responsible_agency": "Department of Sanitation",
    "final_address": "1912 Rosary Dr",
    "address_councildis": "D",
    "status": "Pending",
    "rowid": "1224794",
    "final_x": "3681557.86908",
    "final_y": "555055.948249",
    "longitude": "-90.0670663042545",
    "latitude": "30.020209495896072",
    "geocoded_column": {
      "latitude": "30.020209495896072",
      "longitude": "-90.0670663042545"
    }
  },
  {
    "service_request": "2025-1224793",
    "request_type": "Trash/Recycling",
    "request_reason": "Request a Large Item Pick Up",
    "date_created": "2025-09-08T16:30:11.000",
    "date_modified": "2025-09-08T16:30:14.000",
    "request_status": "Pending",
    "responsible_agency": "Department of Sanitation",
    "final_address": "329 Eliza St",
    "address_councildis": "C",
    "status": "Assigned to Contractor",
    "contractor": "Richards Disposal",
    "rowid": "1224793",
    "final_x": "3686551.3503",
    "final_y": "529544.547457",
    "longitude": "-90.05218975520512",
    "latitude": "29.949909526614697",
    "geocoded_column": {
      "latitude": "29.949909526614697",
      "longitude": "-90.05218975520512"
    }
  },
  {
    "service_request": "2025-1224792",
    "request_type": "Trash/Recycling",
    "request_reason": "Request a Large Item Pick Up",
    "date_created": "2025-09-08T16:28:45.000",
    "date_modified": "2025-09-08T16:28:47.000",
    "request_status": "Pending",
    "responsible_agency": "Department of Sanitation",
    "final_address": "4609 De Montluzin St",
    "address_councildis": "D",
    "status": "Assigned to Contractor",
    "contractor": "IV Waste",
    "rowid": "1224792",
    "final_x": "3687262.01737",
    "final_y": "549782.967764",
    "longitude": "-90.0492297281449",
    "latitude": "30.005536175433264",
    "geocoded_column": {
      "latitude": "30.005536175433264",
      "longitude": "-90.0492297281449"
    }
  },
  {
    "service_request": "2025-1224791",
    "request_type": "Trash/Recycling",
    "request_reason": "Request a Large Item Pick Up",
    "date_created": "2025-09-08T16:27:34.000",
    "date_modified": "2025-09-08T16:27:36.000",
    "request_status": "Pending",
    "responsible_agency": "Department of Sanitation",
    "final_address": "4634 Lonely Oak Dr",
    "address_councildis": "E",
    "status": "Assigned to Contractor",
    "contractor": "Waste Pro",
    "rowid": "1224791",
    "final_x": "3702338.61303",
    "final_y": "553755.776407",
    "longitude": "-90.00145384001848",
    "latitude": "30.015986702204447",
    "geocoded_column": {
      "latitude": "30.015986702204447",
      "longitude": "-90.00145384001848"
    }
  },
  {
    "service_request": "2025-1224790",
    "request_type": "Trash/Recycling",
    "request_reason": "Request a Large Item Pick Up",
    "date_created": "2025-09-08T16:25:55.000",
    "date_modified": "2025-09-08T16:25:57.000",
    "request_status": "Pending",
    "responsible_agency": "Department of Sanitation",
    "final_address": "2412 Verbena St",
    "address_councildis": "D",
    "status": "Assigned to Contractor",
    "contractor": "IV Waste",
    "rowid": "1224790",
    "final_x": "3685745.25948",
    "final_y": "547637.07477",
    "longitude": "-90.05409718246386",
    "latitude": "29.99968239635671",
    "geocoded_column": {
      "latitude": "29.99968239635671",
      "longitude": "-90.05409718246386"
    }
  },
  {
    "service_request": "2025-1224789",
    "request_type": "Trash/Recycling",
    "request_reason": "Repair Trash Cart",
    "date_created": "2025-09-08T16:24:36.000",
    "date_modified": "2025-09-08T16:24:38.000",
    "request_status": "Pending",
    "responsible_agency": "Department of Sanitation",
    "final_address": "4318 Sybil St",
    "address_councildis": "D",
    "status": "Assigned to Contractor",
    "contractor": "IV Waste",
    "rowid": "1224789",
    "final_x": "3679020.93359",
    "final_y": "548251.266578",
    "longitude": "-90.0753182870357",
    "latitude": "30.00157591183089",
    "geocoded_column": {
      "latitude": "30.00157591183089",
      "longitude": "-90.0753182870357"
    }
  },
  {
    "service_request": "2025-1224788",
    "request_type": "Parks & Parkways",
    "request_reason": "Request Grass Cutting Service (City Owned Property)",
    "date_created": "2025-09-08T16:18:35.000",
    "date_modified": "2025-09-08T16:18:37.000",
    "request_status": "Pending",
    "responsible_agency": "Department of Parks & Parkway",
    "final_address": "1118 Orange St",
    "address_councildis": "B",
    "status": "Pending",
    "rowid": "1224788",
    "final_x": "3679919.82043",
    "final_y": "523495.636923",
    "longitude": "-90.073338582148",
    "latitude": "29.933479244861044",
    "geocoded_column": {
      "latitude": "29.933479244861044",
      "longitude": "-90.073338582148"
    }
  },
  {
    "service_request": "2025-1224787",
    "request_type": "Trash/Recycling",
    "request_reason": "Request a Large Item Pick Up",
    "date_created": "2025-09-08T16:16:51.000",
    "date_modified": "2025-09-08T16:16:53.000",
    "request_status": "Pending",
    "responsible_agency": "Department of Sanitation",
    "final_address": "2121 Holiday Dr",
    "address_councildis": "C",
    "status": "Assigned to Contractor",
    "contractor": "Richards Disposal",
    "rowid": "1224787",
    "final_x": "3698819.46397",
    "final_y": "523420.322939",
    "longitude": "-90.01367657480468",
    "latitude": "29.93268717706794",
    "geocoded_column": {
      "latitude": "29.93268717706794",
      "longitude": "-90.01367657480468"
    }
  },
  {
    "service_request": "2025-1224786",
    "request_type": "Trash/Recycling",
    "request_reason": "Repair Trash Cart",
    "date_created": "2025-09-08T16:15:20.000",
    "date_modified": "2025-09-08T16:15:22.000",
    "request_status": "Pending",
    "responsible_agency": "Department of Sanitation",
    "final_address": "1538 Tropic Dr",
    "address_councildis": "C",
    "status": "Assigned to Contractor",
    "contractor": "Richards Disposal",
    "rowid": "1224786",
    "final_x": "3699560.59517",
    "final_y": "525230.140925",
    "longitude": "-90.01127097768264",
    "latitude": "29.93764005795495",
    "geocoded_column": {
      "latitude": "29.93764005795495",
      "longitude": "-90.01127097768264"
    }
  },
  {
    "service_request": "2025-1224784",
    "request_type": "Property Maintenance",
    "request_reason": "Property Maintenance",
    "date_created": "2025-09-08T16:15:17.000",
    "date_modified": "2025-09-08T16:15:18.000",
    "request_status": "Pending",
    "responsible_agency": "Department of Code Enforcement",
    "final_address": "237 22Nd St",
    "address_councildis": "A",
    "status": "Pending",
    "rowid": "1224784",
    "final_x": "3665400.99764",
    "final_y": "549360.288467",
    "longitude": "-90.11830803482745",
    "latitude": "30.005029470383942",
    "geocoded_column": {
      "latitude": "30.005029470383942",
      "longitude": "-90.11830803482745"
    }
  },
  {
    "service_request": "2025-1224785",
    "request_type": "Property Maintenance",
    "request_reason": "Property Maintenance",
    "date_created": "2025-09-08T16:15:17.000",
    "date_modified": "2025-09-08T16:15:19.000",
    "request_status": "Pending",
    "responsible_agency": "Department of Code Enforcement",
    "final_address": "237 22Nd St",
    "address_councildis": "A",
    "status": "Pending",
    "rowid": "1224785",
    "final_x": "3665400.99764",
    "final_y": "549360.288467",
    "longitude": "-90.11830803482745",
    "latitude": "30.005029470383942",
    "geocoded_column": {
      "latitude": "30.005029470383942",
      "longitude": "-90.11830803482745"
    }
  },
  {
    "service_request": "2025-1224783",
    "request_type": "Trash/Recycling",
    "request_reason": "Request a Large Item Pick Up",
    "date_created": "2025-09-08T16:15:04.000",
    "date_modified": "2025-09-08T16:15:09.000",
    "request_status": "Pending",
    "responsible_agency": "Department of Sanitation",
    "final_address": "1922 Allen Toussaint Blvd",
    "address_councildis": "D",
    "status": "Assigned to Contractor",
    "contractor": "IV Waste",
    "rowid": "1224783",
    "final_x": "3681635.51586",
    "final_y": "555493.074585",
    "longitude": "-90.06680569819186",
    "latitude": "30.02140907370414",
    "geocoded_column": {
      "latitude": "30.02140907370414",
      "longitude": "-90.06680569819186"
    }
  },
  {
    "service_request": "2025-1224782",
    "request_type": "Trash/Recycling",
    "request_reason": "Request a Large Item Pick Up",
    "date_created": "2025-09-08T16:14:14.000",
    "date_modified": "2025-09-08T16:14:15.000",
    "request_status": "Pending",
    "responsible_agency": "Department of Sanitation",
    "final_address": "5435 Lafaye St",
    "address_councildis": "D",
    "status": "Assigned to Contractor",
    "contractor": "IV Waste",
    "rowid": "1224782",
    "final_x": "3687343.05974",
    "final_y": "553283.144599",
    "longitude": "-90.04884973980765",
    "latitude": "30.01515788209823",
    "geocoded_column": {
      "latitude": "30.01515788209823",
      "longitude": "-90.04884973980765"
    }
  },
  {
    "service_request": "2025-1224781",
    "request_type": "Abandoned Vehicles",
    "request_reason": "Abandoned/Junk Vehicles",
    "date_created": "2025-09-08T16:13:56.000",
    "date_modified": "2025-09-08T16:13:58.000",
    "request_status": "Pending",
    "responsible_agency": "Department of Public Works",
    "final_address": "8724 Plum St",
    "address_councildis": "A",
    "status": "Pending",
    "rowid": "1224781",
    "final_x": "3660429.61171",
    "final_y": "530188.754305",
    "longitude": "-90.13464736807991",
    "latitude": "29.952458112775656",
    "geocoded_column": {
      "latitude": "29.952458112775656",
      "longitude": "-90.13464736807991"
    }
  },
  {
    "service_request": "2025-1224780",
    "request_type": "Trash/Recycling",
    "request_reason": "Request a Large Item Pick Up",
    "date_created": "2025-09-08T16:13:25.000",
    "date_modified": "2025-09-08T16:13:26.000",
    "request_status": "Pending",
    "responsible_agency": "Department of Sanitation",
    "final_address": "9117 Stroelitz St",
    "address_councildis": "A",
    "status": "Assigned to Contractor",
    "contractor": "IV Waste",
    "rowid": "1224780",
    "final_x": "3665253.88167",
    "final_y": "537487.436168",
    "longitude": "-90.11917026062896",
    "latitude": "29.972387439870054",
    "geocoded_column": {
      "latitude": "29.972387439870054",
      "longitude": "-90.11917026062896"
    }
  },
  {
    "service_request": "2025-1224779",
    "request_type": "Abandoned Vehicles",
    "request_reason": "Abandoned/Junk Vehicles",
    "date_created": "2025-09-08T16:11:36.000",
    "date_modified": "2025-09-08T16:11:37.000",
    "request_status": "Pending",
    "responsible_agency": "Department of Public Works",
    "final_address": "8724 Plum St",
    "address_councildis": "A",
    "status": "Pending",
    "rowid": "1224779",
    "final_x": "3660429.61171",
    "final_y": "530188.754305",
    "longitude": "-90.13464736807991",
    "latitude": "29.952458112775656",
    "geocoded_column": {
      "latitude": "29.952458112775656",
      "longitude": "-90.13464736807991"
    }
  },
  {
    "service_request": "2025-1224778",
    "request_type": "Trash/Recycling",
    "request_reason": "Request a Large Item Pick Up",
    "date_created": "2025-09-08T16:11:01.000",
    "date_modified": "2025-09-08T16:11:05.000",
    "request_status": "Pending",
    "responsible_agency": "Department of Sanitation",
    "final_address": "1332 Philip St",
    "address_councildis": "B",
    "status": "Assigned to Contractor",
    "contractor": "IV Waste",
    "rowid": "1224778",
    "final_x": "3677894.23061",
    "final_y": "522602.348026",
    "longitude": "-90.07976410915133",
    "latitude": "29.931084083332436",
    "geocoded_column": {
      "latitude": "29.931084083332436",
      "longitude": "-90.07976410915133"
    }
  },
  {
    "service_request": "2025-1224777",
    "request_type": "Abandoned Vehicles",
    "request_reason": "Abandoned/Junk Vehicles",
    "date_created": "2025-09-08T16:09:04.000",
    "date_modified": "2025-09-08T16:09:05.000",
    "request_status": "Pending",
    "responsible_agency": "Department of Public Works",
    "final_address": "8724 Plum St",
    "address_councildis": "A",
    "status": "Pending",
    "rowid": "1224777",
    "final_x": "3660429.61171",
    "final_y": "530188.754305",
    "longitude": "-90.13464736807991",
    "latitude": "29.952458112775656",
    "geocoded_column": {
      "latitude": "29.952458112775656",
      "longitude": "-90.13464736807991"
    }
  },
  {
    "service_request": "2025-1224776",
    "request_type": "Trash/Recycling",
    "request_reason": "Request a Large Item Pick Up",
    "date_created": "2025-09-08T16:05:25.000",
    "date_modified": "2025-09-08T16:05:27.000",
    "request_status": "Pending",
    "responsible_agency": "Department of Sanitation",
    "final_address": "2336 St Nick Dr",
    "address_councildis": "C",
    "status": "Assigned to Contractor",
    "contractor": "Richards Disposal",
    "rowid": "1224776",
    "final_x": "3699619.45661",
    "final_y": "522321.25241",
    "longitude": "-90.01119111451732",
    "latitude": "29.929639754660748",
    "geocoded_column": {
      "latitude": "29.929639754660748",
      "longitude": "-90.01119111451732"
    }
  },
  {
    "service_request": "2025-1224775",
    "request_type": "Trash/Recycling",
    "request_reason": "Order Recycling Cart",
    "date_created": "2025-09-08T16:01:54.000",
    "date_modified": "2025-09-08T16:01:56.000",
    "request_status": "Pending",
    "responsible_agency": "Department of Sanitation",
    "final_address": "2112 Painters St",
    "address_councildis": "D",
    "status": "Pending",
    "rowid": "1224775",
    "final_x": "3687226.50562",
    "final_y": "540305.479243",
    "longitude": "-90.04967734432039",
    "latitude": "29.97947757575487",
    "geocoded_column": {
      "latitude": "29.97947757575487",
      "longitude": "-90.04967734432039"
    }
  },
  {
    "service_request": "2025-1224774",
    "request_type": "Trash/Recycling",
    "request_reason": "Order Trash Cart",
    "date_created": "2025-09-08T16:01:42.000",
    "date_modified": "2025-09-08T16:01:44.000",
    "request_status": "Pending",
    "responsible_agency": "Department of Sanitation",
    "final_address": "3726 Fourth St",
    "address_councildis": "B",
    "status": "Assigned to Contractor",
    "contractor": "IV Waste",
    "rowid": "1224774",
    "final_x": "3671971.19342",
    "final_y": "529026.308928",
    "longitude": "-90.09824380226533",
    "latitude": "29.948924732726724",
    "geocoded_column": {
      "latitude": "29.948924732726724",
      "longitude": "-90.09824380226533"
    }
  },
  {
    "service_request": "2025-1224773",
    "request_type": "Trash/Recycling",
    "request_reason": "Request a Large Item Pick Up",
    "date_created": "2025-09-08T16:00:52.000",
    "date_modified": "2025-09-08T16:03:11.000",
    "request_status": "Pending",
    "responsible_agency": "Department of Sanitation",
    "final_address": "5236 Chartres St",
    "address_councildis": "E",
    "status": "Assigned to Contractor",
    "contractor": "Waste Pro",
    "rowid": "1224773",
    "final_x": "3696211.23018",
    "final_y": "532219.360451",
    "longitude": "-90.0215925165113",
    "latitude": "29.956963810735125",
    "geocoded_column": {
      "latitude": "29.956963810735125",
      "longitude": "-90.0215925165113"
    }
  },
  {
    "service_request": "2025-1224772",
    "request_type": "Property Maintenance",
    "request_reason": "Property Maintenance",
    "date_created": "2025-09-08T16:00:20.000",
    "date_modified": "2025-09-08T16:00:21.000",
    "request_status": "Pending",
    "responsible_agency": "Department of Code Enforcement",
    "final_address": "6312 Lafaye St",
    "address_councildis": "D",
    "status": "Pending",
    "rowid": "1224772",
    "final_x": "3686980.45046",
    "final_y": "556543.52553",
    "longitude": "-90.04988002736266",
    "latitude": "30.02413389507457",
    "geocoded_column": {
      "latitude": "30.02413389507457",
      "longitude": "-90.04988002736266"
    }
  },
  {
    "service_request": "2025-1224771",
    "request_type": "Trash/Recycling",
    "request_reason": "Request a Large Item Pick Up",
    "date_created": "2025-09-08T15:56:54.000",
    "date_modified": "2025-09-08T15:56:56.000",
    "request_status": "Pending",
    "responsible_agency": "Department of Sanitation",
    "final_address": "232 Nashville Ave",
    "address_councildis": "A",
    "status": "Assigned to Contractor",
    "contractor": "IV Waste",
    "rowid": "1224771",
    "final_x": "3665058.90682",
    "final_y": "517146.973557",
    "longitude": "-90.12046599309042",
    "latitude": "29.916463387106205",
    "geocoded_column": {
      "latitude": "29.916463387106205",
      "longitude": "-90.12046599309042"
    }
  },
  {
    "service_request": "2025-1224770",
    "request_type": "Parks & Parkways",
    "request_reason": "Request Tree Service (Right of Way/Public Property)",
    "date_created": "2025-09-08T15:56:19.000",
    "date_modified": "2025-09-08T15:56:20.000",
    "request_status": "Pending",
    "responsible_agency": "Department of Parks & Parkway",
    "final_address": "1200 BLK Elysian Fields Ave",
    "address_councildis": "C",
    "status": "Pending",
    "rowid": "1224770",
    "final_x": "3684917.1006",
    "final_y": "536848.736786",
    "longitude": "-90.0570929563633",
    "latitude": "29.97004367815433",
    "geocoded_column": {
      "latitude": "29.97004367815433",
      "longitude": "-90.0570929563633"
    }
  },
  {
    "service_request": "2025-1224769",
    "request_type": "Trash/Recycling",
    "request_reason": "Request a Large Item Pick Up",
    "date_created": "2025-09-08T15:54:07.000",
    "date_modified": "2025-09-08T15:54:13.000",
    "request_status": "Pending",
    "responsible_agency": "Department of Sanitation",
    "final_address": "7601 Devine Ave",
    "address_councildis": "E",
    "status": "Assigned to Contractor",
    "contractor": "Waste Pro",
    "rowid": "1224769",
    "final_x": "3705786.27991",
    "final_y": "562986.995808",
    "longitude": "-89.99021895845964",
    "latitude": "30.04125831221498",
    "geocoded_column": {
      "latitude": "30.04125831221498",
      "longitude": "-89.99021895845964"
    }
  },
  {
    "service_request": "2025-1224768",
    "request_type": "Streetlights",
    "request_reason": "New Streetlight Request",
    "date_created": "2025-09-08T15:53:57.000",
    "date_modified": "2025-09-08T15:53:59.000",
    "request_status": "Pending",
    "responsible_agency": "Department of Public Works",
    "final_address": "URQUHART ST & ELYSIAN FIELDS AVE",
    "address_councildis": "C",
    "status": "Pending",
    "rowid": "1224768",
    "final_x": "3684905.4",
    "final_y": "537036.38",
    "longitude": "-90.05712330777588",
    "latitude": "29.97055999008169",
    "geocoded_column": {
      "latitude": "29.97055999008169",
      "longitude": "-90.05712330777588"
    }
  },
  {
    "service_request": "2025-1224767",
    "request_type": "General Services",
    "request_reason": "General Service Request",
    "date_created": "2025-09-08T15:53:43.000",
    "date_modified": "2025-09-08T15:53:45.000",
    "request_status": "Pending",
    "responsible_agency": "Orleans Parish Communication District",
    "final_address": "4516 S Robertson St",
    "address_councildis": "B",
    "status": "Pending",
    "rowid": "1224767",
    "final_x": "3669948.49806",
    "final_y": "524303.036476",
    "longitude": "-90.10479024132798",
    "latitude": "29.935997061313838",
    "geocoded_column": {
      "latitude": "29.935997061313838",
      "longitude": "-90.10479024132798"
    }
  },
  {
    "service_request": "2025-1224766",
    "request_type": "Trash/Recycling",
    "request_reason": "Request a Large Item Pick Up",
    "date_created": "2025-09-08T15:39:12.000",
    "date_modified": "2025-09-08T15:39:14.000",
    "request_status": "Pending",
    "responsible_agency": "Department of Sanitation",
    "final_address": "605 S Hennessey St",
    "address_councildis": "A",
    "status": "Assigned to Contractor",
    "contractor": "IV Waste",
    "rowid": "1224766",
    "final_x": "3669028.6443",
    "final_y": "537342.757768",
    "longitude": "-90.10725375455976",
    "latitude": "29.971879100885342",
    "geocoded_column": {
      "latitude": "29.971879100885342",
      "longitude": "-90.10725375455976"
    }
  },
  {
    "service_request": "2025-1224765",
    "request_type": "Trash/Recycling",
    "request_reason": "Request a Large Item Pick Up",
    "date_created": "2025-09-08T15:39:06.000",
    "date_modified": "2025-09-08T15:39:08.000",
    "request_status": "Pending",
    "responsible_agency": "Department of Sanitation",
    "final_address": "4742 Redwood St",
    "address_councildis": "E",
    "status": "Assigned to Contractor",
    "contractor": "Waste Pro",
    "rowid": "1224765",
    "final_x": "3712410.96894",
    "final_y": "556169.862106",
    "longitude": "-89.96953922772583",
    "latitude": "30.02229872694248",
    "geocoded_column": {
      "latitude": "30.02229872694248",
      "longitude": "-89.96953922772583"
    }
  },
  {
    "service_request": "2025-1224764",
    "request_type": "Drainage",
    "request_reason": "Catch Basin Not Draining",
    "date_created": "2025-09-08T15:36:41.000",
    "date_modified": "2025-09-08T15:36:42.000",
    "request_status": "Pending",
    "responsible_agency": "Sewerage & Water Board",
    "final_address": "608 Second St",
    "address_councildis": "B",
    "status": "Pending",
    "rowid": "1224764",
    "final_x": "3678737.4987",
    "final_y": "519861.50668",
    "longitude": "-90.07719687638145",
    "latitude": "29.923522269954404",
    "geocoded_column": {
      "latitude": "29.923522269954404",
      "longitude": "-90.07719687638145"
    }
  },
  {
    "service_request": "2025-1224763",
    "request_type": "Property Maintenance",
    "request_reason": "Property Maintenance",
    "date_created": "2025-09-08T15:35:53.000",
    "date_modified": "2025-09-08T15:35:55.000",
    "request_status": "Pending",
    "responsible_agency": "Department of Code Enforcement",
    "final_address": "3326 Florida Ave",
    "address_councildis": "D",
    "status": "Pending",
    "rowid": "1224763",
    "final_x": "3691545.40438",
    "final_y": "541863.019852",
    "longitude": "-90.03598089301528",
    "latitude": "29.983626510420624",
    "geocoded_column": {
      "latitude": "29.983626510420624",
      "longitude": "-90.03598089301528"
    }
  },
  {
    "service_request": "2025-1224762",
    "request_type": "Abandoned Vehicles",
    "request_reason": "Abandoned/Junk Vehicles",
    "date_created": "2025-09-08T15:35:32.000",
    "date_modified": "2025-09-08T15:35:34.000",
    "request_status": "Pending",
    "responsible_agency": "Department of Public Works",
    "final_address": "600 BLK N Bernadotte St",
    "address_councildis": "A",
    "status": "Pending",
    "rowid": "1224762",
    "final_x": "3670007.62681",
    "final_y": "541628.456229",
    "longitude": "-90.10401675462182",
    "latitude": "29.983634481622715",
    "geocoded_column": {
      "latitude": "29.983634481622715",
      "longitude": "-90.10401675462182"
    }
  },
  {
    "service_request": "2025-1224761",
    "request_type": "Property Maintenance",
    "request_reason": "Property Maintenance",
    "date_created": "2025-09-08T15:35:03.000",
    "date_modified": "2025-09-08T15:35:05.000",
    "request_status": "Pending",
    "responsible_agency": "Department of Code Enforcement",
    "final_address": "3320 Florida Ave",
    "address_councildis": "D",
    "status": "Pending",
    "rowid": "1224761",
    "final_x": "3691546.09385",
    "final_y": "541764.603148",
    "longitude": "-90.03598223485801",
    "latitude": "29.983355878317607",
    "geocoded_column": {
      "latitude": "29.983355878317607",
      "longitude": "-90.03598223485801"
    }
  },
  {
    "service_request": "2025-1224760",
    "request_type": "Parks & Parkways",
    "request_reason": "Request Grass Cutting Service (City Owned Property)",
    "date_created": "2025-09-08T15:34:57.000",
    "date_modified": "2025-09-08T15:34:58.000",
    "request_status": "Pending",
    "responsible_agency": "Department of Parks & Parkway",
    "final_address": "BEHRMAN HWY & TULLIS DR",
    "address_councildis": "C",
    "status": "Pending",
    "rowid": "1224760",
    "final_x": "3697481.2",
    "final_y": "514235.98",
    "longitude": "-90.01823411181259",
    "latitude": "29.90747566580172",
    "geocoded_column": {
      "latitude": "29.90747566580172",
      "longitude": "-90.01823411181259"
    }
  },
  {
    "service_request": "2025-1224759",
    "request_type": "Mosquito, Termite & Rodent Control",
    "request_reason": "Rodent Complaint (Mice & Rats)",
    "date_created": "2025-09-08T15:34:27.000",
    "date_modified": "2025-09-08T15:34:29.000",
    "request_status": "Pending",
    "responsible_agency": "Mosquito, Termite & Rodent Control Board",
    "final_address": "608 Second St",
    "address_councildis": "B",
    "status": "Pending",
    "rowid": "1224759",
    "final_x": "3678737.4987",
    "final_y": "519861.50668",
    "longitude": "-90.07719687638145",
    "latitude": "29.923522269954404",
    "geocoded_column": {
      "latitude": "29.923522269954404",
      "longitude": "-90.07719687638145"
    }
  },
  {
    "service_request": "2025-1224758",
    "request_type": "Streetlights",
    "request_reason": "Streetlight Outage/Malfunction",
    "date_created": "2025-09-08T15:32:35.000",
    "date_modified": "2025-09-08T15:32:37.000",
    "request_status": "Pending",
    "responsible_agency": "Department of Public Works",
    "final_address": "BEHRMAN HWY & TULLIS DR",
    "address_councildis": "C",
    "status": "Pending",
    "rowid": "1224758",
    "final_x": "3697481.2",
    "final_y": "514235.98",
    "longitude": "-90.01823411181259",
    "latitude": "29.90747566580172",
    "geocoded_column": {
      "latitude": "29.90747566580172",
      "longitude": "-90.01823411181259"
    }
  },
  {
    "service_request": "2025-1224757",
    "request_type": "Abandoned Vehicles",
    "request_reason": "Abandoned/Junk Vehicles",
    "date_created": "2025-09-08T15:31:18.000",
    "date_modified": "2025-09-08T15:31:20.000",
    "request_status": "Pending",
    "responsible_agency": "Department of Public Works",
    "final_address": "1828 State St",
    "address_councildis": "A",
    "status": "Pending",
    "rowid": "1224757",
    "final_x": "3666061.9705",
    "final_y": "523664.995515",
    "longitude": "-90.11708152740485",
    "latitude": "29.93435665998219",
    "geocoded_column": {
      "latitude": "29.93435665998219",
      "longitude": "-90.11708152740485"
    }
  },
  {
    "service_request": "2025-1224756",
    "request_type": "Property Maintenance",
    "request_reason": "Property Maintenance",
    "date_created": "2025-09-08T15:30:50.000",
    "date_modified": "2025-09-08T15:30:51.000",
    "request_status": "Pending",
    "responsible_agency": "Department of Code Enforcement",
    "final_address": "2643 N Galvez St",
    "address_councildis": "D",
    "status": "Pending",
    "rowid": "1224756",
    "final_x": "3688300.29711",
    "final_y": "540208.434059",
    "longitude": "-90.04628933468753",
    "latitude": "29.979177615486957",
    "geocoded_column": {
      "latitude": "29.979177615486957",
      "longitude": "-90.04628933468753"
    }
  },
  {
    "service_request": "2025-1224755",
    "request_type": "Trash/Recycling",
    "request_reason": "Replace Trash Cart",
    "date_created": "2025-09-08T15:30:29.000",
    "date_modified": "2025-09-08T15:30:31.000",
    "request_status": "Pending",
    "responsible_agency": "Department of Sanitation",
    "final_address": "1567 Maura Pl",
    "address_councildis": "C",
    "status": "Assigned to Contractor",
    "contractor": "Richards Disposal",
    "rowid": "1224755",
    "final_x": "3699194.83517",
    "final_y": "525179.729725",
    "longitude": "-90.01242753696253",
    "latitude": "29.93751304349365",
    "geocoded_column": {
      "latitude": "29.93751304349365",
      "longitude": "-90.01242753696253"
    }
  },
  {
    "service_request": "2025-1224754",
    "request_type": "Trash/Recycling",
    "request_reason": "Request a Large Item Pick Up",
    "date_created": "2025-09-08T15:29:46.000",
    "date_modified": "2025-09-08T15:29:48.000",
    "request_status": "Pending",
    "responsible_agency": "Department of Sanitation",
    "final_address": "10220 Brookfield Dr",
    "address_councildis": "E",
    "status": "Assigned to Contractor",
    "contractor": "Waste Pro",
    "rowid": "1224754",
    "final_x": "3710276.59096",
    "final_y": "562967.53456",
    "longitude": "-89.97602884490662",
    "latitude": "30.041059313955582",
    "geocoded_column": {
      "latitude": "30.041059313955582",
      "longitude": "-89.97602884490662"
    }
  },
  {
    "service_request": "2025-1224753",
    "request_type": "Trash/Recycling",
    "request_reason": "Repair Trash Cart",
    "date_created": "2025-09-08T15:29:30.000",
    "date_modified": "2025-09-08T15:29:33.000",
    "request_status": "Pending",
    "responsible_agency": "Department of Sanitation",
    "final_address": "4122 DHemecourt St",
    "address_councildis": "A",
    "status": "Assigned to Contractor",
    "contractor": "IV Waste",
    "rowid": "1224753",
    "final_x": "3669554.6283",
    "final_y": "536980.235976",
    "longitude": "-90.1056048762217",
    "latitude": "29.970866801527446",
    "geocoded_column": {
      "latitude": "29.970866801527446",
      "longitude": "-90.1056048762217"
    }
  },
  {
    "service_request": "2025-1224752",
    "request_type": "Trash/Recycling",
    "request_reason": "Repair Trash Cart",
    "date_created": "2025-09-08T15:28:32.000",
    "date_modified": "2025-09-08T15:28:33.000",
    "request_status": "Pending",
    "responsible_agency": "Department of Sanitation",
    "final_address": "4120 DHemecourt St",
    "address_councildis": "A",
    "status": "Assigned to Contractor",
    "contractor": "IV Waste",
    "rowid": "1224752",
    "final_x": "3669567.3001",
    "final_y": "536971.430216",
    "longitude": "-90.10556515494237",
    "latitude": "29.97084221530115",
    "geocoded_column": {
      "latitude": "29.97084221530115",
      "longitude": "-90.10556515494237"
    }
  },
  {
    "service_request": "2025-1224751",
    "request_type": "Street and Traffic Signs",
    "request_reason": "Stop Sign Missing or Damaged",
    "date_created": "2025-09-08T15:27:39.000",
    "date_modified": "2025-09-08T15:28:35.000",
    "request_status": "Pending",
    "responsible_agency": "Department of Public Works",
    "final_address": "WILLOW ST & PALMER AVE",
    "address_councildis": "A",
    "status": "Pending",
    "rowid": "1224751",
    "final_x": "3666453.2",
    "final_y": "525902.48",
    "longitude": "-90.11577136427563",
    "latitude": "29.940497602067705",
    "geocoded_column": {
      "latitude": "29.940497602067705",
      "longitude": "-90.11577136427563"
    }
  },
  {
    "service_request": "2025-1224750",
    "request_type": "Trash/Recycling",
    "request_reason": "Order Trash Cart",
    "date_created": "2025-09-08T15:25:13.000",
    "date_modified": "2025-09-08T15:25:15.000",
    "request_status": "Pending",
    "responsible_agency": "Department of Sanitation",
    "final_address": "1713 Shepherd St",
    "address_councildis": "C",
    "status": "Assigned to Contractor",
    "contractor": "Richards Disposal",
    "rowid": "1224750",
    "final_x": "3690427.03817",
    "final_y": "523621.393339",
    "longitude": "-90.04016352331185",
    "latitude": "29.933503153850637",
    "geocoded_column": {
      "latitude": "29.933503153850637",
      "longitude": "-90.04016352331185"
    }
  },
  {
    "service_request": "2025-1224749",
    "request_type": "Trash/Recycling",
    "request_reason": "Change Size of Trash Cart",
    "date_created": "2025-09-08T15:24:22.000",
    "date_modified": "2025-09-08T15:24:24.000",
    "request_status": "Pending",
    "responsible_agency": "Department of Sanitation",
    "final_address": "476 Walnut St",
    "address_councildis": "A",
    "status": "Assigned to Contractor",
    "contractor": "IV Waste",
    "rowid": "1224749",
    "final_x": "3662731.71911",
    "final_y": "523406.550843",
    "longitude": "-90.12760367187381",
    "latitude": "29.93374279671342",
    "geocoded_column": {
      "latitude": "29.93374279671342",
      "longitude": "-90.12760367187381"
    }
  },
  {
    "service_request": "2025-1224748",
    "request_type": "Street and Traffic Signs",
    "request_reason": "Additional Signage Request",
    "date_created": "2025-09-08T15:21:25.000",
    "date_modified": "2025-09-08T15:21:27.000",
    "request_status": "Pending",
    "responsible_agency": "Department of Public Works",
    "final_address": "1301 Girod St",
    "address_councildis": "B",
    "status": "Pending",
    "rowid": "1224748",
    "final_x": "3678506.15035",
    "final_y": "529114.017664",
    "longitude": "-90.07760708072342",
    "latitude": "29.94897059910991",
    "geocoded_column": {
      "latitude": "29.94897059910991",
      "longitude": "-90.07760708072342"
    }
  },
  {
    "service_request": "2025-1224747",
    "request_type": "Trash/Recycling",
    "request_reason": "Request a Large Item Pick Up",
    "date_created": "2025-09-08T15:19:09.000",
    "date_modified": "2025-09-08T15:19:11.000",
    "request_status": "Pending",
    "responsible_agency": "Department of Sanitation",
    "final_address": "11400 Curran Rd",
    "address_councildis": "E",
    "status": "Assigned to Contractor",
    "contractor": "Waste Pro",
    "rowid": "1224747",
    "final_x": "3711422.16146",
    "final_y": "566650.698403",
    "longitude": "-89.97227021459479",
    "latitude": "30.051149167532337",
    "geocoded_column": {
      "latitude": "30.051149167532337",
      "longitude": "-89.97227021459479"
    }
  },
  {
    "service_request": "2025-1224746",
    "request_type": "General Services",
    "request_reason": "General Service Request",
    "date_created": "2025-09-08T15:18:31.000",
    "date_modified": "2025-09-08T15:21:32.000",
    "case_close_date": "2025-09-08T10:21:31.000",
    "request_status": "Closed",
    "responsible_agency": "Orleans Parish Communication District",
    "final_address": "3868 Gentilly Blvd",
    "address_councildis": "D",
    "status": "Referred to Risk Management",
    "rowid": "1224746",
    "final_x": "3688287.39855",
    "final_y": "548655.776019",
    "longitude": "-90.04603033513168",
    "latitude": "30.002405172634514",
    "geocoded_column": {
      "latitude": "30.002405172634514",
      "longitude": "-90.04603033513168"
    }
  },
  {
    "service_request": "2025-1224745",
    "request_type": "Trash/Recycling",
    "request_reason": "Request a Large Item Pick Up",
    "date_created": "2025-09-08T15:16:53.000",
    "date_modified": "2025-09-08T15:16:55.000",
    "request_status": "Pending",
    "responsible_agency": "Department of Sanitation",
    "final_address": "2426 Bartholomew St",
    "address_councildis": "D",
    "status": "Assigned to Contractor",
    "contractor": "IV Waste",
    "rowid": "1224745",
    "final_x": "3693027.55261",
    "final_y": "540419.462155",
    "longitude": "-90.03135131121627",
    "latitude": "29.979611019318213",
    "geocoded_column": {
      "latitude": "29.979611019318213",
      "longitude": "-90.03135131121627"
    }
  },
  {
    "service_request": "2025-1224744",
    "request_type": "Trash/Recycling",
    "request_reason": "Order Trash Cart",
    "date_created": "2025-09-08T15:14:35.000",
    "date_modified": "2025-09-08T15:14:37.000",
    "request_status": "Pending",
    "responsible_agency": "Department of Sanitation",
    "final_address": "7826 Sail St",
    "address_councildis": "E",
    "status": "Assigned to Contractor",
    "contractor": "Waste Pro",
    "rowid": "1224744",
    "final_x": "3720026.08825",
    "final_y": "573989.15761",
    "longitude": "-89.94479532990759",
    "latitude": "30.071043044932626",
    "geocoded_column": {
      "latitude": "30.071043044932626",
      "longitude": "-89.94479532990759"
    }
  },
  {
    "service_request": "2025-1224743",
    "request_type": "Property Maintenance",
    "request_reason": "Property Maintenance",
    "date_created": "2025-09-08T15:14:04.000",
    "date_modified": "2025-09-08T15:14:06.000",
    "request_status": "Pending",
    "responsible_agency": "Department of Code Enforcement",
    "final_address": "1925 Burdette St",
    "address_councildis": "A",
    "status": "Pending",
    "rowid": "1224743",
    "final_x": "3664608.24135",
    "final_y": "529546.036609",
    "longitude": "-90.12147456812008",
    "latitude": "29.950569988123323",
    "geocoded_column": {
      "latitude": "29.950569988123323",
      "longitude": "-90.12147456812008"
    }
  },
  {
    "service_request": "2025-1224742",
    "request_type": "Trash/Recycling",
    "request_reason": "Return Recycling Cart",
    "date_created": "2025-09-08T15:13:32.000",
    "date_modified": "2025-09-08T15:13:33.000",
    "request_status": "Pending",
    "responsible_agency": "Department of Sanitation",
    "final_address": "2230 Lark St",
    "address_councildis": "D",
    "status": "Pending",
    "rowid": "1224742",
    "final_x": "3683787.25033",
    "final_y": "557697.781851",
    "longitude": "-90.05992939645691",
    "latitude": "30.02740563228385",
    "geocoded_column": {
      "latitude": "30.02740563228385",
      "longitude": "-90.05992939645691"
    }
  },
  {
    "service_request": "2025-1224741",
    "request_type": "Street and Traffic Signs",
    "request_reason": "Stop Sign Missing or Damaged",
    "date_created": "2025-09-08T15:12:46.000",
    "date_modified": "2025-09-08T15:12:47.000",
    "request_status": "Pending",
    "responsible_agency": "Department of Public Works",
    "final_address": "1600 BLK Howard Ave",
    "address_councildis": "B",
    "status": "Pending",
    "rowid": "1224741",
    "final_x": "3676436.78226",
    "final_y": "529339.495899",
    "longitude": "-90.08413321669052",
    "latitude": "29.949652784514072",
    "geocoded_column": {
      "latitude": "29.949652784514072",
      "longitude": "-90.08413321669052"
    }
  },
  {
    "service_request": "2025-1224740",
    "request_type": "Trash/Recycling",
    "request_reason": "Illegal Dumping",
    "date_created": "2025-09-08T15:12:40.000",
    "date_modified": "2025-09-08T15:12:41.000",
    "request_status": "Pending",
    "responsible_agency": "Department of Sanitation",
    "final_address": "4870 Alcee Fortier Blvd",
    "address_councildis": "E",
    "status": "Pending",
    "rowid": "1224740",
    "final_x": "3730187.8672",
    "final_y": "562667.483488",
    "longitude": "-89.91311503618093",
    "latitude": "30.039570744707778",
    "geocoded_column": {
      "latitude": "30.039570744707778",
      "longitude": "-89.91311503618093"
    }
  },
  {
    "service_request": "2025-1224739",
    "request_type": "Abandoned Vehicles",
    "request_reason": "Abandoned/Junk Vehicles",
    "date_created": "2025-09-08T15:11:49.000",
    "date_modified": "2025-09-08T15:11:50.000",
    "request_status": "Pending",
    "responsible_agency": "Department of Public Works",
    "final_address": "5506 Wingate Dr",
    "address_councildis": "D",
    "status": "Pending",
    "rowid": "1224739",
    "final_x": "3681335.08124",
    "final_y": "553015.930583",
    "longitude": "-90.0678414331408",
    "latitude": "30.014606958258096",
    "geocoded_column": {
      "latitude": "30.014606958258096",
      "longitude": "-90.0678414331408"
    }
  },
  {
    "service_request": "2025-1224738",
    "request_type": "Property Maintenance",
    "request_reason": "Property Maintenance",
    "date_created": "2025-09-08T15:11:39.000",
    "date_modified": "2025-09-08T15:11:40.000",
    "request_status": "Pending",
    "responsible_agency": "Department of Code Enforcement",
    "final_address": "2033 Evergreen Ave",
    "address_councildis": "C",
    "status": "Pending",
    "rowid": "1224738",
    "final_x": "3688091.86031",
    "final_y": "524328.56998",
    "longitude": "-90.0475104769165",
    "latitude": "29.935519910445137",
    "geocoded_column": {
      "latitude": "29.935519910445137",
      "longitude": "-90.0475104769165"
    }
  },
  {
    "service_request": "2025-1224737",
    "request_type": "Trash/Recycling",
    "request_reason": "Replace Trash Cart",
    "date_created": "2025-09-08T15:11:23.000",
    "date_modified": "2025-09-08T15:11:24.000",
    "request_status": "Pending",
    "responsible_agency": "Department of Sanitation",
    "final_address": "2230 Lark St",
    "address_councildis": "D",
    "status": "Assigned to Contractor",
    "contractor": "IV Waste",
    "rowid": "1224737",
    "final_x": "3683787.25033",
    "final_y": "557697.781851",
    "longitude": "-90.05992939645691",
    "latitude": "30.02740563228385",
    "geocoded_column": {
      "latitude": "30.02740563228385",
      "longitude": "-90.05992939645691"
    }
  },
  {
    "service_request": "2025-1224736",
    "request_type": "Trash/Recycling",
    "request_reason": "Repair Trash Cart",
    "date_created": "2025-09-08T15:10:59.000",
    "date_modified": "2025-09-08T15:11:01.000",
    "request_status": "Pending",
    "responsible_agency": "Department of Sanitation",
    "final_address": "1504 St Roch Ave",
    "address_councildis": "C",
    "status": "Assigned to Contractor",
    "contractor": "IV Waste",
    "rowid": "1224736",
    "final_x": "3686287.40623",
    "final_y": "537955.469385",
    "longitude": "-90.05272634063952",
    "latitude": "29.97304476837389",
    "geocoded_column": {
      "latitude": "29.97304476837389",
      "longitude": "-90.05272634063952"
    }
  },
  {
    "service_request": "2025-1224735",
    "request_type": "Trash/Recycling",
    "request_reason": "Repair Trash Cart",
    "date_created": "2025-09-08T15:10:32.000",
    "date_modified": "2025-09-08T15:10:35.000",
    "request_status": "Pending",
    "responsible_agency": "Department of Sanitation",
    "final_address": "2921 St Philip St",
    "address_councildis": "A",
    "status": "Assigned to Contractor",
    "contractor": "IV Waste",
    "rowid": "1224735",
    "final_x": "3676538.01851",
    "final_y": "538553.623497",
    "longitude": "-90.0834962304986",
    "latitude": "29.974985489473788",
    "geocoded_column": {
      "latitude": "29.974985489473788",
      "longitude": "-90.0834962304986"
    }
  },
  {
    "service_request": "2025-1224734",
    "request_type": "Roads and Streets",
    "request_reason": "Abandoned Service Cut",
    "date_created": "2025-09-08T15:10:22.000",
    "date_modified": "2025-09-08T15:10:24.000",
    "request_status": "Pending",
    "responsible_agency": "Department of Public Works",
    "final_address": "8226 Green St",
    "address_councildis": "A",
    "status": "Pending",
    "rowid": "1224734",
    "final_x": "3662696.01754",
    "final_y": "530026.305025",
    "longitude": "-90.12749645540003",
    "latitude": "29.95194604227871",
    "geocoded_column": {
      "latitude": "29.95194604227871",
      "longitude": "-90.12749645540003"
    }
  },
  {
    "service_request": "2025-1224733",
    "request_type": "Trash/Recycling",
    "request_reason": "Request a Large Item Pick Up",
    "date_created": "2025-09-08T15:08:35.000",
    "date_modified": "2025-09-08T15:08:37.000",
    "request_status": "Pending",
    "responsible_agency": "Department of Sanitation",
    "final_address": "7202 Yorktown Dr",
    "address_councildis": "E",
    "status": "Assigned to Contractor",
    "contractor": "Waste Pro",
    "rowid": "1224733",
    "final_x": "3705791.21259",
    "final_y": "561229.176542",
    "longitude": "-89.99026848468745",
    "latitude": "30.036424844457965",
    "geocoded_column": {
      "latitude": "30.036424844457965",
      "longitude": "-89.99026848468745"
    }
  },
  {
    "service_request": "2025-1224732",
    "request_type": "Roads and Streets",
    "request_reason": "Debris in Driving Lanes",
    "date_created": "2025-09-08T15:08:21.000",
    "date_modified": "2025-09-08T15:08:23.000",
    "request_status": "Pending",
    "responsible_agency": "Department of Public Works",
    "final_address": "926 Toulouse St",
    "address_councildis": "C",
    "status": "Pending",
    "rowid": "1224732",
    "final_x": "3681505.43279",
    "final_y": "532644.076228",
    "longitude": "-90.06801397143775",
    "latitude": "29.958586345646566",
    "geocoded_column": {
      "latitude": "29.958586345646566",
      "longitude": "-90.06801397143775"
    }
  },
  {
    "service_request": "2025-1224731",
    "request_type": "Trash/Recycling",
    "request_reason": "Request a Large Item Pick Up",
    "date_created": "2025-09-08T15:06:16.000",
    "date_modified": "2025-09-08T15:06:17.000",
    "request_status": "Pending",
    "responsible_agency": "Department of Sanitation",
    "final_address": "137 S Hennessey St",
    "address_councildis": "A",
    "status": "Assigned to Contractor",
    "contractor": "IV Waste",
    "rowid": "1224731",
    "final_x": "3670038.24705",
    "final_y": "538698.561033",
    "longitude": "-90.10401932270256",
    "latitude": "29.975577360066254",
    "geocoded_column": {
      "latitude": "29.975577360066254",
      "longitude": "-90.10401932270256"
    }
  },
  {
    "service_request": "2025-1224730",
    "request_type": "Trash/Recycling",
    "request_reason": "Request a Large Item Pick Up",
    "date_created": "2025-09-08T14:55:02.000",
    "date_modified": "2025-09-08T14:55:05.000",
    "request_status": "Pending",
    "responsible_agency": "Department of Sanitation",
    "final_address": "8740 Gervais St",
    "address_councildis": "E",
    "status": "Assigned to Contractor",
    "contractor": "Waste Pro",
    "rowid": "1224730",
    "final_x": "3704511.19358",
    "final_y": "562978.60592",
    "longitude": "-89.99424896301402",
    "latitude": "30.041276277827922",
    "geocoded_column": {
      "latitude": "30.041276277827922",
      "longitude": "-89.99424896301402"
    }
  },
  {
    "service_request": "2025-1224729",
    "request_type": "Property Maintenance",
    "request_reason": "Property Maintenance",
    "date_created": "2025-09-08T14:54:45.000",
    "date_modified": "2025-09-08T14:54:47.000",
    "request_status": "Pending",
    "responsible_agency": "Department of Code Enforcement",
    "final_address": "1356 St Denis St",
    "address_councildis": "D",
    "status": "Pending",
    "rowid": "1224729",
    "final_x": "3677868.97845",
    "final_y": "545702.750992",
    "longitude": "-90.07904555838036",
    "latitude": "29.994603119213743",
    "geocoded_column": {
      "latitude": "29.994603119213743",
      "longitude": "-90.07904555838036"
    }
  },
  {
    "service_request": "2025-1224728",
    "request_type": "Trash/Recycling",
    "request_reason": "Order Second Trash Cart",
    "date_created": "2025-09-08T14:54:36.000",
    "date_modified": "2025-09-08T14:55:35.000",
    "request_status": "Pending",
    "responsible_agency": "Department of Sanitation",
    "final_address": "4506 Viola St",
    "address_councildis": "E",
    "status": "Assigned to Contractor",
    "contractor": "Waste Pro",
    "rowid": "1224728",
    "final_x": "3704078.4241",
    "final_y": "553586.807895",
    "longitude": "-89.99596308483818",
    "latitude": "30.015466383336648",
    "geocoded_column": {
      "latitude": "30.015466383336648",
      "longitude": "-89.99596308483818"
    }
  },
  {
    "service_request": "2025-1224727",
    "request_type": "Trash/Recycling",
    "request_reason": "Repair Trash Cart",
    "date_created": "2025-09-08T14:53:55.000",
    "date_modified": "2025-09-08T14:53:56.000",
    "request_status": "Pending",
    "responsible_agency": "Department of Sanitation",
    "final_address": "4506 Viola St",
    "address_councildis": "E",
    "status": "Assigned to Contractor",
    "contractor": "Waste Pro",
    "rowid": "1224727",
    "final_x": "3704078.4241",
    "final_y": "553586.807895",
    "longitude": "-89.99596308483818",
    "latitude": "30.015466383336648",
    "geocoded_column": {
      "latitude": "30.015466383336648",
      "longitude": "-89.99596308483818"
    }
  },
  {
    "service_request": "2025-1224726",
    "request_type": "Trash/Recycling",
    "request_reason": "Request a Large Item Pick Up",
    "date_created": "2025-09-08T14:52:56.000",
    "date_modified": "2025-09-08T14:52:57.000",
    "request_status": "Pending",
    "responsible_agency": "Department of Sanitation",
    "final_address": "7417 Edward St",
    "address_councildis": "E",
    "status": "Assigned to Contractor",
    "contractor": "Waste Pro",
    "rowid": "1224726",
    "final_x": "3701341.07677",
    "final_y": "560392.794142",
    "longitude": "-90.00436237458305",
    "latitude": "30.034267790793006",
    "geocoded_column": {
      "latitude": "30.034267790793006",
      "longitude": "-90.00436237458305"
    }
  },
  {
    "service_request": "2025-1224725",
    "request_type": "Drainage",
    "request_reason": "Drainage Manhole Cover Missing or Damaged",
    "date_created": "2025-09-08T14:51:28.000",
    "date_modified": "2025-09-08T14:51:29.000",
    "request_status": "Pending",
    "responsible_agency": "Sewerage & Water Board",
    "final_address": "MAPLE ST & S CARROLLTON AVE",
    "address_councildis": "A",
    "status": "Pending",
    "rowid": "1224725",
    "final_x": "3661040.4",
    "final_y": "527309.98",
    "longitude": "-90.13281400328965",
    "latitude": "29.944524820534618",
    "geocoded_column": {
      "latitude": "29.944524820534618",
      "longitude": "-90.13281400328965"
    }
  },
  {
    "service_request": "2025-1224724",
    "request_type": "Trash/Recycling",
    "request_reason": "Request a Large Item Pick Up",
    "date_created": "2025-09-08T14:49:35.000",
    "date_modified": "2025-09-08T14:49:36.000",
    "request_status": "Pending",
    "responsible_agency": "Department of Sanitation",
    "final_address": "4218 Annunciation St",
    "address_councildis": "B",
    "status": "Assigned to Contractor",
    "contractor": "IV Waste",
    "rowid": "1224724",
    "final_x": "3671719.62254",
    "final_y": "517771.153078",
    "longitude": "-90.09942081109605",
    "latitude": "29.91798414097997",
    "geocoded_column": {
      "latitude": "29.91798414097997",
      "longitude": "-90.09942081109605"
    }
  },
  {
    "service_request": "2025-1224723",
    "request_type": "Trash/Recycling",
    "request_reason": "Repair Trash Cart",
    "date_created": "2025-09-08T14:47:21.000",
    "date_modified": "2025-09-08T14:47:23.000",
    "request_status": "Pending",
    "responsible_agency": "Department of Sanitation",
    "final_address": "418 Girod St",
    "address_councildis": "B",
    "status": "Assigned to Contractor",
    "contractor": "IV Waste",
    "rowid": "1224723",
    "final_x": "3681563.71074",
    "final_y": "528259.404288",
    "longitude": "-90.06798284235923",
    "latitude": "29.946528210240025",
    "geocoded_column": {
      "latitude": "29.946528210240025",
      "longitude": "-90.06798284235923"
    }
  },
  {
    "service_request": "2025-1224722",
    "request_type": "Trash/Recycling",
    "request_reason": "Request a Large Item Pick Up",
    "date_created": "2025-09-08T14:46:49.000",
    "date_modified": "2025-09-08T14:46:50.000",
    "request_status": "Pending",
    "responsible_agency": "Department of Sanitation",
    "final_address": "2 Avoyelles Pl",
    "address_councildis": "E",
    "status": "Assigned to Contractor",
    "contractor": "Waste Pro",
    "rowid": "1224722",
    "final_x": "3725591.07571",
    "final_y": "564267.342817",
    "longitude": "-89.92758004233558",
    "latitude": "30.04412555349645",
    "geocoded_column": {
      "latitude": "30.04412555349645",
      "longitude": "-89.92758004233558"
    }
  },
  {
    "service_request": "2025-1224721",
    "request_type": "Mosquito, Termite & Rodent Control",
    "request_reason": "Non-Rodent Complaint (Possums & Snakes)",
    "date_created": "2025-09-08T14:46:25.000",
    "date_modified": "2025-09-08T14:46:26.000",
    "request_status": "Pending",
    "responsible_agency": "Mosquito, Termite & Rodent Control Board",
    "final_address": "3030 Baudin St",
    "address_councildis": "B",
    "status": "Pending",
    "rowid": "1224721",
    "final_x": "3673145.68507",
    "final_y": "534718.272454",
    "longitude": "-90.09434108763625",
    "latitude": "29.964540876764026",
    "geocoded_column": {
      "latitude": "29.964540876764026",
      "longitude": "-90.09434108763625"
    }
  },
  {
    "service_request": "2025-1224720",
    "request_type": "Trash/Recycling",
    "request_reason": "Damaged Caused By Contractor",
    "date_created": "2025-09-08T14:45:02.000",
    "date_modified": "2025-09-08T14:45:04.000",
    "request_status": "Pending",
    "responsible_agency": "Department of Sanitation",
    "final_address": "1130 Third St",
    "address_councildis": "B",
    "status": "Assigned to Contractor",
    "contractor": "IV Waste",
    "rowid": "1224720",
    "final_x": "3677401.18536",
    "final_y": "521353.852345",
    "longitude": "-90.08136365249929",
    "latitude": "29.927665949682126",
    "geocoded_column": {
      "latitude": "29.927665949682126",
      "longitude": "-90.08136365249929"
    }
  },
  {
    "service_request": "2025-1224719",
    "request_type": "Trash/Recycling",
    "request_reason": "Illegal Dumping",
    "date_created": "2025-09-08T14:44:09.000",
    "date_modified": "2025-09-08T14:44:11.000",
    "request_status": "Pending",
    "responsible_agency": "Department of Sanitation",
    "final_address": "2100 BLK Piety St",
    "address_councildis": "D",
    "status": "Pending",
    "rowid": "1224719",
    "final_x": "3690824.29384",
    "final_y": "539741.807771",
    "longitude": "-90.03833425493335",
    "latitude": "29.977816364411183",
    "geocoded_column": {
      "latitude": "29.977816364411183",
      "longitude": "-90.03833425493335"
    }
  },
  {
    "service_request": "2025-1224718",
    "request_type": "Property Maintenance",
    "request_reason": "Property Maintenance",
    "date_created": "2025-09-08T14:43:39.000",
    "date_modified": "2025-09-08T14:43:40.000",
    "request_status": "Pending",
    "responsible_agency": "Department of Code Enforcement",
    "final_address": "3424 Sullen Pl",
    "address_councildis": "C",
    "status": "Pending",
    "rowid": "1224718",
    "final_x": "3707753.13707",
    "final_y": "518125.126006",
    "longitude": "-89.98567055738548",
    "latitude": "29.917841309586105",
    "geocoded_column": {
      "latitude": "29.917841309586105",
      "longitude": "-89.98567055738548"
    }
  },
  {
    "service_request": "2025-1224717",
    "request_type": "Trash/Recycling",
    "request_reason": "Request a Large Item Pick Up",
    "date_created": "2025-09-08T14:43:23.000",
    "date_modified": "2025-09-08T14:43:25.000",
    "request_status": "Pending",
    "responsible_agency": "Department of Sanitation",
    "final_address": "7950 Arcadia Ln",
    "address_councildis": "E",
    "status": "Assigned to Contractor",
    "contractor": "Waste Pro",
    "rowid": "1224717",
    "final_x": "3711729.18302",
    "final_y": "567986.627237",
    "longitude": "-89.9712496382031",
    "latitude": "30.054812397331297",
    "geocoded_column": {
      "latitude": "30.054812397331297",
      "longitude": "-89.9712496382031"
    }
  },
  {
    "service_request": "2025-1224716",
    "request_type": "Trash/Recycling",
    "request_reason": "Order Recycling Cart",
    "date_created": "2025-09-08T14:40:18.000",
    "date_modified": "2025-09-08T14:40:19.000",
    "request_status": "Pending",
    "responsible_agency": "Department of Sanitation",
    "final_address": "8740 Gervais St",
    "address_councildis": "E",
    "status": "Pending",
    "rowid": "1224716",
    "final_x": "3704511.19358",
    "final_y": "562978.60592",
    "longitude": "-89.99424896301402",
    "latitude": "30.041276277827922",
    "geocoded_column": {
      "latitude": "30.041276277827922",
      "longitude": "-89.99424896301402"
    }
  },
  {
    "service_request": "2025-1224715",
    "request_type": "Trash/Recycling",
    "request_reason": "Order Recycling Cart",
    "date_created": "2025-09-08T14:40:02.000",
    "date_modified": "2025-09-08T14:40:03.000",
    "request_status": "Pending",
    "responsible_agency": "Department of Sanitation",
    "final_address": "6409 Bertha Dr",
    "address_councildis": "D",
    "status": "Pending",
    "rowid": "1224715",
    "final_x": "3678038.88264",
    "final_y": "556814.342298",
    "longitude": "-90.0781243474933",
    "latitude": "30.02515089887317",
    "geocoded_column": {
      "latitude": "30.02515089887317",
      "longitude": "-90.0781243474933"
    }
  },
  {
    "service_request": "2025-1224714",
    "request_type": "Property Maintenance",
    "request_reason": "Property Maintenance",
    "date_created": "2025-09-08T14:39:16.000",
    "date_modified": "2025-09-08T14:39:17.000",
    "request_status": "Pending",
    "responsible_agency": "Department of Code Enforcement",
    "final_address": "2339 Columbus St",
    "address_councildis": "D",
    "status": "Pending",
    "rowid": "1224714",
    "final_x": "3679541.41608",
    "final_y": "538938.082698",
    "longitude": "-90.07399738606703",
    "latitude": "29.975952199380924",
    "geocoded_column": {
      "latitude": "29.975952199380924",
      "longitude": "-90.07399738606703"
    }
  },
  {
    "service_request": "2025-1224713",
    "request_type": "Trash/Recycling",
    "request_reason": "Order Trash Cart",
    "date_created": "2025-09-08T14:37:45.000",
    "date_modified": "2025-09-08T14:37:47.000",
    "request_status": "Pending",
    "responsible_agency": "Department of Sanitation",
    "final_address": "8740 Gervais St",
    "address_councildis": "E",
    "status": "Assigned to Contractor",
    "contractor": "Waste Pro",
    "rowid": "1224713",
    "final_x": "3704511.19358",
    "final_y": "562978.60592",
    "longitude": "-89.99424896301402",
    "latitude": "30.041276277827922",
    "geocoded_column": {
      "latitude": "30.041276277827922",
      "longitude": "-89.99424896301402"
    }
  },
  {
    "service_request": "2025-1224712",
    "request_type": "Trash/Recycling",
    "request_reason": "Request a Large Item Pick Up",
    "date_created": "2025-09-08T14:36:21.000",
    "date_modified": "2025-09-08T14:36:24.000",
    "request_status": "Pending",
    "responsible_agency": "Department of Sanitation",
    "final_address": "7629 Lacombe St",
    "address_councildis": "E",
    "status": "Assigned to Contractor",
    "contractor": "Waste Pro",
    "rowid": "1224712",
    "final_x": "3709762.79749",
    "final_y": "565207.854306",
    "longitude": "-89.9775688232869",
    "latitude": "30.04723601966383",
    "geocoded_column": {
      "latitude": "30.04723601966383",
      "longitude": "-89.9775688232869"
    }
  },
  {
    "service_request": "2025-1224711",
    "request_type": "Roads and Streets",
    "request_reason": "Pothole",
    "date_created": "2025-09-08T14:36:04.000",
    "date_modified": "2025-09-08T14:36:05.000",
    "request_status": "Pending",
    "responsible_agency": "Department of Public Works",
    "final_address": "6200 BLK Clara St",
    "address_councildis": "A",
    "status": "Pending",
    "rowid": "1224711",
    "final_x": "3666184.13905",
    "final_y": "525645.237539",
    "longitude": "-90.11662946134557",
    "latitude": "29.939798126437974",
    "geocoded_column": {
      "latitude": "29.939798126437974",
      "longitude": "-90.11662946134557"
    }
  },
  {
    "service_request": "2025-1224710",
    "request_type": "Trash/Recycling",
    "request_reason": "Request a Large Item Pick Up",
    "date_created": "2025-09-08T14:33:18.000",
    "date_modified": "2025-09-08T14:33:20.000",
    "request_status": "Pending",
    "responsible_agency": "Department of Sanitation",
    "final_address": "12021 E Barrington Dr",
    "address_councildis": "E",
    "status": "Assigned to Contractor",
    "contractor": "Waste Pro",
    "rowid": "1224710",
    "final_x": "3714694.86821",
    "final_y": "566127.617571",
    "longitude": "-89.96194617379786",
    "latitude": "30.049603613661116",
    "geocoded_column": {
      "latitude": "30.049603613661116",
      "longitude": "-89.96194617379786"
    }
  },
  {
    "service_request": "2025-1224709",
    "request_type": "Property Maintenance",
    "request_reason": "Property Maintenance",
    "date_created": "2025-09-08T14:32:34.000",
    "date_modified": "2025-09-08T14:32:36.000",
    "request_status": "Pending",
    "responsible_agency": "Department of Code Enforcement",
    "final_address": "4516 S Robertson St",
    "address_councildis": "B",
    "status": "Pending",
    "rowid": "1224709",
    "final_x": "3669948.49806",
    "final_y": "524303.036476",
    "longitude": "-90.10479024132798",
    "latitude": "29.935997061313838",
    "geocoded_column": {
      "latitude": "29.935997061313838",
      "longitude": "-90.10479024132798"
    }
  },
  {
    "service_request": "2025-1224708",
    "request_type": "Trash/Recycling",
    "request_reason": "Request a Large Item Pick Up",
    "date_created": "2025-09-08T14:31:58.000",
    "date_modified": "2025-09-08T14:32:54.000",
    "request_status": "Pending",
    "responsible_agency": "Department of Sanitation",
    "final_address": "7801 Freret St",
    "address_councildis": "A",
    "status": "Assigned to Contractor",
    "contractor": "IV Waste",
    "rowid": "1224708",
    "final_x": "3662318.45223",
    "final_y": "527160.405695",
    "longitude": "-90.12878376246688",
    "latitude": "29.9440766578488",
    "geocoded_column": {
      "latitude": "29.9440766578488",
      "longitude": "-90.12878376246688"
    }
  },
  {
    "service_request": "2025-1224707",
    "request_type": "Trash/Recycling",
    "request_reason": "Repair Trash Cart",
    "date_created": "2025-09-08T14:31:10.000",
    "date_modified": "2025-09-08T14:31:11.000",
    "request_status": "Pending",
    "responsible_agency": "Department of Sanitation",
    "final_address": "5471 Provincial Pl",
    "address_councildis": "E",
    "status": "Assigned to Contractor",
    "contractor": "Waste Pro",
    "rowid": "1224707",
    "final_x": "3726437.94329",
    "final_y": "564034.928417",
    "longitude": "-89.92491263156525",
    "latitude": "30.043457915904213",
    "geocoded_column": {
      "latitude": "30.043457915904213",
      "longitude": "-89.92491263156525"
    }
  },
  {
    "service_request": "2025-1224706",
    "request_type": "Trash/Recycling",
    "request_reason": "Request a Large Item Pick Up",
    "date_created": "2025-09-08T14:29:47.000",
    "date_modified": "2025-09-08T14:29:48.000",
    "request_status": "Pending",
    "responsible_agency": "Department of Sanitation",
    "final_address": "7331 Weaver Ave",
    "address_councildis": "E",
    "status": "Assigned to Contractor",
    "contractor": "Waste Pro",
    "rowid": "1224706",
    "final_x": "3707954.10859",
    "final_y": "563486.026016",
    "longitude": "-89.98334932934162",
    "latitude": "30.042560399069004",
    "geocoded_column": {
      "latitude": "30.042560399069004",
      "longitude": "-89.98334932934162"
    }
  },
  {
    "service_request": "2025-1224705",
    "request_type": "Streetlights",
    "request_reason": "Streetlight Outage/Malfunction",
    "date_created": "2025-09-08T14:27:35.000",
    "date_modified": "2025-09-08T14:27:36.000",
    "request_status": "Pending",
    "responsible_agency": "Department of Public Works",
    "final_address": "1131 S Gayoso St",
    "address_councildis": "B",
    "status": "Pending",
    "rowid": "1224705",
    "final_x": "3671308.23431",
    "final_y": "531698.893571",
    "longitude": "-90.10024624514753",
    "latitude": "29.9562930920876",
    "geocoded_column": {
      "latitude": "29.9562930920876",
      "longitude": "-90.10024624514753"
    }
  },
  {
    "service_request": "2025-1224704",
    "request_type": "Roads and Streets",
    "request_reason": "Sidewalk Damaged or Missing",
    "date_created": "2025-09-08T14:27:25.000",
    "date_modified": "2025-09-08T14:27:26.000",
    "request_status": "Pending",
    "responsible_agency": "Department of Public Works",
    "final_address": "5834 Franklin Ave",
    "address_councildis": "D",
    "status": "Pending",
    "rowid": "1224704",
    "final_x": "3686373.06722",
    "final_y": "554726.24956",
    "longitude": "-90.0518634601461",
    "latitude": "30.01915575180221",
    "geocoded_column": {
      "latitude": "30.01915575180221",
      "longitude": "-90.0518634601461"
    }
  },
  {
    "service_request": "2025-1224703",
    "request_type": "Trash/Recycling",
    "request_reason": "Request a Large Item Pick Up",
    "date_created": "2025-09-08T14:27:03.000",
    "date_modified": "2025-09-08T14:27:05.000",
    "request_status": "Pending",
    "responsible_agency": "Department of Sanitation",
    "final_address": "806 Opelousas Ave",
    "address_councildis": "C",
    "status": "Assigned to Contractor",
    "contractor": "Richards Disposal",
    "rowid": "1224703",
    "final_x": "3687901.85539",
    "final_y": "529190.67392",
    "longitude": "-90.0479381307274",
    "latitude": "29.94889490713998",
    "geocoded_column": {
      "latitude": "29.94889490713998",
      "longitude": "-90.0479381307274"
    }
  },
  {
    "service_request": "2025-1224702",
    "request_type": "Trash/Recycling",
    "request_reason": "Request a Large Item Pick Up",
    "date_created": "2025-09-08T14:23:02.000",
    "date_modified": "2025-09-08T14:23:03.000",
    "request_status": "Pending",
    "responsible_agency": "Department of Sanitation",
    "final_address": "5712 Wilton Dr",
    "address_councildis": "D",
    "status": "Assigned to Contractor",
    "contractor": "IV Waste",
    "rowid": "1224702",
    "final_x": "3681772.22799",
    "final_y": "553889.627927",
    "longitude": "-90.06642974299265",
    "latitude": "30.016996025621957",
    "geocoded_column": {
      "latitude": "30.016996025621957",
      "longitude": "-90.06642974299265"
    }
  },
  {
    "service_request": "2025-1224701",
    "request_type": "Trash/Recycling",
    "request_reason": "Replace Recycling Cart",
    "date_created": "2025-09-08T14:22:13.000",
    "date_modified": "2025-09-08T14:22:15.000",
    "request_status": "Pending",
    "responsible_agency": "Department of Sanitation",
    "final_address": "2954 Fortin St",
    "address_councildis": "A",
    "status": "Pending",
    "rowid": "1224701",
    "final_x": "3677328.44014",
    "final_y": "540901.057547",
    "longitude": "-90.08091884114711",
    "latitude": "29.981416394248384",
    "geocoded_column": {
      "latitude": "29.981416394248384",
      "longitude": "-90.08091884114711"
    }
  },
  {
    "service_request": "2025-1224700",
    "request_type": "Trash/Recycling",
    "request_reason": "Request a Large Item Pick Up",
    "date_created": "2025-09-08T14:20:52.000",
    "date_modified": "2025-09-08T14:20:55.000",
    "request_status": "Pending",
    "responsible_agency": "Department of Sanitation",
    "final_address": "2606 St Peter St",
    "address_councildis": "D",
    "status": "Assigned to Contractor",
    "contractor": "IV Waste",
    "rowid": "1224700",
    "final_x": "3677008.42491",
    "final_y": "536542.153223",
    "longitude": "-90.08207993702594",
    "latitude": "29.969440516987362",
    "geocoded_column": {
      "latitude": "29.969440516987362",
      "longitude": "-90.08207993702594"
    }
  },
  {
    "service_request": "2025-1224699",
    "request_type": "Abandoned Vehicles",
    "request_reason": "Abandoned/Junk Vehicles",
    "date_created": "2025-09-08T14:18:03.000",
    "date_modified": "2025-09-08T14:18:05.000",
    "request_status": "Pending",
    "responsible_agency": "Department of Public Works",
    "final_address": "1732 Amelia St",
    "address_councildis": "B",
    "status": "Pending",
    "rowid": "1224699",
    "final_x": "3672925.24206",
    "final_y": "521756.221114",
    "longitude": "-90.09547943424315",
    "latitude": "29.928906048573502",
    "geocoded_column": {
      "latitude": "29.928906048573502",
      "longitude": "-90.09547943424315"
    }
  },
  {
    "service_request": "2025-1224698",
    "request_type": "Abandoned Vehicles",
    "request_reason": "Abandoned/Junk Vehicles",
    "date_created": "2025-09-08T14:17:12.000",
    "date_modified": "2025-09-08T14:17:14.000",
    "request_status": "Pending",
    "responsible_agency": "Department of Public Works",
    "final_address": "1730 Amelia St",
    "address_councildis": "B",
    "status": "Pending",
    "rowid": "1224698",
    "final_x": "3672959.44987",
    "final_y": "521718.007673",
    "longitude": "-90.09537275017189",
    "latitude": "29.92879995773924",
    "geocoded_column": {
      "latitude": "29.92879995773924",
      "longitude": "-90.09537275017189"
    }
  },
  {
    "service_request": "2025-1224697",
    "request_type": "Trash/Recycling",
    "request_reason": "Request a Large Item Pick Up",
    "date_created": "2025-09-08T14:15:02.000",
    "date_modified": "2025-09-08T14:15:04.000",
    "request_status": "Pending",
    "responsible_agency": "Department of Sanitation",
    "final_address": "1704 Laharpe St",
    "address_councildis": "D",
    "status": "Assigned to Contractor",
    "contractor": "IV Waste",
    "rowid": "1224697",
    "final_x": "3681587.22069",
    "final_y": "537716.64628",
    "longitude": "-90.06757876554049",
    "latitude": "29.972531689454602",
    "geocoded_column": {
      "latitude": "29.972531689454602",
      "longitude": "-90.06757876554049"
    }
  },
  {
    "service_request": "2025-1224696",
    "request_type": "Trash/Recycling",
    "request_reason": "Request a Large Item Pick Up",
    "date_created": "2025-09-08T14:07:03.000",
    "date_modified": "2025-09-08T14:07:04.000",
    "request_status": "Pending",
    "responsible_agency": "Department of Sanitation",
    "final_address": "4015 Laurel St",
    "address_councildis": "B",
    "status": "Assigned to Contractor",
    "contractor": "IV Waste",
    "rowid": "1224696",
    "final_x": "3672445.63054",
    "final_y": "518227.869558",
    "longitude": "-90.09711364287236",
    "latitude": "29.919218448809023",
    "geocoded_column": {
      "latitude": "29.919218448809023",
      "longitude": "-90.09711364287236"
    }
  },
  {
    "service_request": "2025-1224694",
    "request_type": "Healthy Homes",
    "request_reason": "Healthy Homes",
    "date_created": "2025-09-08T14:03:56.000",
    "date_modified": "2025-09-08T14:03:58.000",
    "request_status": "Pending",
    "responsible_agency": "Department of Code Enforcement",
    "final_address": "4918 Haik Dr",
    "address_councildis": "D",
    "status": "Pending",
    "rowid": "1224694",
    "final_x": "3681923.22946",
    "final_y": "550797.418837",
    "longitude": "-90.06606069612111",
    "latitude": "30.008488980809023",
    "geocoded_column": {
      "latitude": "30.008488980809023",
      "longitude": "-90.06606069612111"
    }
  },