[
  {
    "service_request": "2022-888727",
    "request_type": "Traffic Signals/Signs/Striping/Streetlights",
    "request_reason": "Request for Traffic Calming due to Speeding",
    "date_created": "2022-06-04T01:32:17.000",
    "date_modified": "2022-06-04T01:32:17.000",
    "request_status": "Pending",
    "responsible_agency": "Department of Public Works",
    "final_address": "10001 Flossmoor Dr",
    "address_councildis": "E",
    "status": "Pending",
    "rowid": "888727",
    "final_x": "3709214.14545",
    "final_y": "563424.249632",
    "longitude": "-89.97936945701574",
    "latitude": "30.042349659710577",
    "geocoded_column": {
      "latitude": "30.042349659710577",
      "longitude": "-89.97936945701574"
    }
  },
  {
    "service_request": "2022-888726",
    "request_type": "Abandoned Vehicles",
    "request_reason": "Abandoned/Junk Vehicles",
    "date_created": "2022-06-04T01:28:42.000",
    "date_modified": "2022-06-04T01:28:42.000",
    "request_status": "Pending",
    "responsible_agency": "Department of Public Works",
    "final_address": "10100 Flossmoor Dr",
    "address_councildis": "E",
    "status": "Pending",
    "rowid": "888726",
    "final_x": "3709501.43902",
    "final_y": "563413.76944",
    "longitude": "-89.9784618974459",
    "latitude": "30.042311505955645",
    "geocoded_column": {
      "latitude": "30.042311505955645",
      "longitude": "-89.9784618974459"
    }
  },
  {
    "service_request": "2022-888725",
    "request_type": "Trash/Recycling",
    "request_reason": "Request a Large Item Pick Up",
    "date_created": "2022-06-04T01:18:50.000",
    "date_modified": "2022-06-04T01:18:50.000",
    "request_status": "Pending",
    "responsible_agency": "Department of Sanitation",
    "final_address": "3920 S Pin Oak Ave",
    "address_councildis": "C",
    "status": "Assigned to Contractor",
    "contractor": "Richards Disposal",
    "rowid": "888725",
    "final_x": "3704935.83217",
    "final_y": "513637.39877",
    "longitude": "-89.99472864771663",
    "latitude": "29.905592410816674",
    "geocoded_column": {
      "latitude": "29.905592410816674",
      "longitude": "-89.99472864771663"
    }
  },
  {
    "service_request": "2022-888723",
    "request_type": "Property Maintenance",
    "request_reason": "Property Maintenance",
    "date_created": "2022-06-04T00:40:07.000",
    "date_modified": "2022-06-04T00:40:07.000",
    "request_status": "Pending",
    "responsible_agency": "Department of Code Enforcement",
    "final_address": "4111 N Johnson St",
    "address_councildis": "D",
    "status": "Pending",
    "rowid": "888723",
    "final_x": "3693066.1032",
    "final_y": "538639.382089",
    "longitude": "-90.0312934395675",
    "latitude": "29.974715230839656",
    "geocoded_column": {
      "latitude": "29.974715230839656",
      "longitude": "-90.0312934395675"
    }
  },
  {
    "service_request": "2022-888722",
    "request_type": "Property Maintenance",
    "request_reason": "Property Maintenance",
    "date_created": "2022-06-04T00:11:36.000",
    "date_modified": "2022-06-04T00:11:36.000",
    "request_status": "Pending",
    "responsible_agency": "Department of Code Enforcement",
    "final_address": "2100 Pauger St",
    "address_councildis": "C",
    "status": "Pending",
    "rowid": "888722",
    "final_x": "3683749.16642",
    "final_y": "537355.849096",
    "longitude": "-90.06076361815185",
    "latitude": "29.97147377824326",
    "geocoded_column": {
      "latitude": "29.97147377824326",
      "longitude": "-90.06076361815185"
    }
  },
  {
    "service_request": "2022-888721",
    "request_type": "Roads/Drainage",
    "request_reason": "Street Flooding / Drainage",
    "date_created": "2022-06-03T23:01:56.000",
    "date_modified": "2022-06-03T23:01:56.000",
    "request_status": "Pending",
    "responsible_agency": "Department of Public Works",
    "final_address": "5900 Vicksburg St",
    "address_councildis": "A",
    "status": "Pending",
    "rowid": "888721",
    "final_x": "3668722.67745",
    "final_y": "546662.869137",
    "longitude": "-90.10790526063029",
    "latitude": "29.997515235745485",
    "geocoded_column": {
      "latitude": "29.997515235745485",
      "longitude": "-90.10790526063029"
    }
  },
  {
    "service_request": "2022-888720",
    "request_type": "Abandoned Vehicles",
    "request_reason": "Abandoned/Junk Vehicles",
    "date_created": "2022-06-03T22:47:00.000",
    "date_modified": "2022-06-03T22:47:00.000",
    "request_status": "Pending",
    "responsible_agency": "Department of Public Works",
    "final_address": "5616 N Dorgenois St",
    "address_councildis": "E",
    "status": "Pending",
    "rowid": "888720",
    "final_x": "3699599.06621",
    "final_y": "538901.431242",
    "longitude": "-90.01065129834431",
    "latitude": "29.97523003274961",
    "geocoded_column": {
      "latitude": "29.97523003274961",
      "longitude": "-90.01065129834431"
    }
  },
  {
    "service_request": "2022-888719",
    "request_type": "Trash/Recycling",
    "request_reason": "Missed Trash Pick-Up",
    "date_created": "2022-06-03T22:29:33.000",
    "date_modified": "2022-06-03T22:29:34.000",
    "request_status": "Pending",
    "responsible_agency": "Department of Sanitation",
    "final_address": "6500 Louisville St",
    "address_councildis": "A",
    "status": "Assigned to Contractor",
    "contractor": "Metro Disposal",
    "rowid": "888719",
    "final_x": "3667965.9266",
    "final_y": "550836.002197",
    "longitude": "-90.11015509603054",
    "latitude": "30.009012134258366",
    "geocoded_column": {
      "latitude": "30.009012134258366",
      "longitude": "-90.11015509603054"
    }
  },
  {
    "service_request": "2022-888718",
    "request_type": "Health Related Questions",
    "request_reason": "Noise Ordinance Complaint",
    "date_created": "2022-06-03T21:52:33.000",
    "date_modified": "2022-06-03T21:52:33.000",
    "request_status": "Pending",
    "responsible_agency": "Health Department",
    "final_address": "8111 Lomond Rd, New Orleans, Louisiana, 70126",
    "address_councildis": "E",
    "status": "Pending",
    "rowid": "888718",
    "final_x": "3702570.04663",
    "final_y": "561598.305119",
    "longitude": "-90.0004343782748",
    "latitude": "30.03754322492026",
    "geocoded_column": {
      "latitude": "30.03754322492026",
      "longitude": "-90.0004343782748"
    }
  },
  {
    "service_request": "2022-888717",
    "request_type": "Property Maintenance",
    "request_reason": "Property Maintenance",
    "date_created": "2022-06-03T21:24:49.000",
    "date_modified": "2022-06-03T21:24:49.000",
    "request_status": "Pending",
    "responsible_agency": "Department of Code Enforcement",
    "final_address": "3201 Rue Parc Fontaine",
    "address_councildis": "C",
    "status": "Pending",
    "rowid": "888717",
    "final_x": "3700081.13136",
    "final_y": "518907.818039",
    "longitude": "-90.00985815966307",
    "latitude": "29.920239327415114",
    "geocoded_column": {
      "latitude": "29.920239327415114",
      "longitude": "-90.00985815966307"
    }
  },
  {
    "service_request": "2022-888716",
    "request_type": "Health Related Questions",
    "request_reason": "Noise Ordinance Complaint",
    "date_created": "2022-06-03T21:09:41.000",
    "date_modified": "2022-06-03T21:09:41.000",
    "request_status": "Pending",
    "responsible_agency": "Health Department",
    "final_address": "8111 Lomond Rd, New Orleans, Louisiana, 70126",
    "address_councildis": "E",
    "status": "Pending",
    "rowid": "888716",
    "final_x": "3702570.04663",
    "final_y": "561598.305119",
    "longitude": "-90.0004343782748",
    "latitude": "30.03754322492026",
    "geocoded_column": {
      "latitude": "30.03754322492026",
      "longitude": "-90.0004343782748"
    }
  },
  {
    "service_request": "2022-888715",
    "request_type": "Health Related Questions",
    "request_reason": "Noise Ordinance Complaint",
    "date_created": "2022-06-03T21:07:43.000",
    "date_modified": "2022-06-03T21:07:43.000",
    "request_status": "Pending",
    "responsible_agency": "Health Department",
    "final_address": "8111 Lomond Rd, New Orleans, Louisiana, 70126",
    "address_councildis": "E",
    "status": "Pending",
    "rowid": "888715",
    "final_x": "3702570.04663",
    "final_y": "561598.305119",
    "longitude": "-90.0004343782748",
    "latitude": "30.03754322492026",
    "geocoded_column": {
      "latitude": "30.03754322492026",
      "longitude": "-90.0004343782748"
    }
  },
  {
    "service_request": "2022-888714",
    "request_type": "Traffic Signals/Signs/Striping/Streetlights",
    "request_reason": "Street Light Outage/Malfunction",
    "date_created": "2022-06-03T20:14:39.000",
    "date_modified": "2022-06-03T20:14:40.000",
    "request_status": "Pending",
    "responsible_agency": "Department of Public Works",
    "final_address": "707 Union St",
    "address_councildis": "B",
    "status": "Pending",
    "contractor": "Royal Engineering",
    "rowid": "888714",
    "final_x": "3680742.68091",
    "final_y": "529976.011137",
    "longitude": "-90.0705153922159",
    "latitude": "29.951273207038554",
    "geocoded_column": {
      "latitude": "29.951273207038554",
      "longitude": "-90.0705153922159"
    }
  },
  {
    "service_request": "2022-888713",
    "request_type": "Trash/Recycling",
    "request_reason": "Illegal Dumping",
    "date_created": "2022-06-03T19:36:01.000",
    "date_modified": "2022-06-03T19:36:01.000",
    "request_status": "Pending",
    "responsible_agency": "Department of Sanitation",
    "final_address": "922 Sumner St",
    "address_councildis": "C",
    "status": "Pending",
    "rowid": "888713",
    "final_x": "3691189.33897",
    "final_y": "527996.225471",
    "longitude": "-90.03760081344676",
    "latitude": "29.94550877140637",
    "geocoded_column": {
      "latitude": "29.94550877140637",
      "longitude": "-90.03760081344676"
    }
  },
  {
    "service_request": "2022-888712",
    "request_type": "Trash/Recycling",
    "request_reason": "Replace Recycling Cart",
    "date_created": "2022-06-03T19:29:04.000",
    "date_modified": "2022-06-03T19:29:04.000",
    "request_status": "Pending",
    "responsible_agency": "Department of Sanitation",
    "final_address": "5128 Camp St",
    "address_councildis": "B",
    "status": "Pending",
    "rowid": "888712",
    "final_x": "3668101.47629",
    "final_y": "518891.259255",
    "longitude": "-90.11080363710376",
    "latitude": "29.921170718745874",
    "geocoded_column": {
      "latitude": "29.921170718745874",
      "longitude": "-90.11080363710376"
    }
  },
  {
    "service_request": "2022-888711",
    "request_type": "Trash/Recycling",
    "request_reason": "Order Recycling Cart",
    "date_created": "2022-06-03T19:18:26.000",
    "date_modified": "2022-06-03T19:18:26.000",
    "request_status": "Pending",
    "responsible_agency": "Department of Sanitation",
    "final_address": "1315 N Roman St",
    "address_councildis": "D",
    "status": "Pending",
    "rowid": "888711",
    "final_x": "3680569.44635",
    "final_y": "536923.817096",
    "longitude": "-90.07082066628843",
    "latitude": "29.970382557099843",
    "geocoded_column": {
      "latitude": "29.970382557099843",
      "longitude": "-90.07082066628843"
    }
  },
  {
    "service_request": "2022-888710",
    "request_type": "Trash/Recycling",
    "request_reason": "Order Trash Cart",
    "date_created": "2022-06-03T19:18:04.000",
    "date_modified": "2022-06-03T19:18:05.000",
    "request_status": "Pending",
    "responsible_agency": "Department of Sanitation",
    "final_address": "4217 Clara St",
    "address_councildis": "B",
    "status": "Assigned to Contractor",
    "contractor": "Richards Disposal",
    "rowid": "888710",
    "final_x": "3671019.01473",
    "final_y": "525182.090685",
    "longitude": "-90.10138074965683",
    "latitude": "29.938382572296398",
    "geocoded_column": {
      "latitude": "29.938382572296398",
      "longitude": "-90.10138074965683"
    }
  },
  {
    "service_request": "2022-888709",
    "request_type": "Trash/Recycling",
    "request_reason": "Order Trash Cart",
    "date_created": "2022-06-03T19:17:12.000",
    "date_modified": "2022-06-03T19:17:12.000",
    "request_status": "Pending",
    "responsible_agency": "Department of Sanitation",
    "final_address": "1315 N Roman St",
    "address_councildis": "D",
    "status": "Assigned to Contractor",
    "contractor": "Richards Disposal",
    "rowid": "888709",
    "final_x": "3680569.44635",
    "final_y": "536923.817096",
    "longitude": "-90.07082066628843",
    "latitude": "29.970382557099843",
    "geocoded_column": {
      "latitude": "29.970382557099843",
      "longitude": "-90.07082066628843"
    }
  },
  {
    "service_request": "2022-888708",
    "request_type": "Trash/Recycling",
    "request_reason": "Start Trash Service",
    "date_created": "2022-06-03T19:15:48.000",
    "date_modified": "2022-06-03T19:15:48.000",
    "request_status": "Pending",
    "responsible_agency": "Department of Sanitation",
    "final_address": "1315 N Roman St",
    "address_councildis": "D",
    "status": "Assigned to Contractor",
    "contractor": "Richards Disposal",
    "rowid": "888708",
    "final_x": "3680569.44635",
    "final_y": "536923.817096",
    "longitude": "-90.07082066628843",
    "latitude": "29.970382557099843",
    "geocoded_column": {
      "latitude": "29.970382557099843",
      "longitude": "-90.07082066628843"
    }
  },
  {
    "service_request": "2022-888707",
    "request_type": "Trash/Recycling",
    "request_reason": "Illegal Dumping",
    "date_created": "2022-06-03T19:14:46.000",
    "date_modified": "2022-06-03T19:14:46.000",
    "request_status": "Pending",
    "responsible_agency": "Department of Sanitation",
    "final_address": "1900 Newton St",
    "address_councildis": "C",
    "status": "Pending",
    "rowid": "888707",
    "final_x": "3691168.78825",
    "final_y": "527850.126335",
    "longitude": "-90.03767091444506",
    "latitude": "29.9451076879333",
    "geocoded_column": {
      "latitude": "29.9451076879333",
      "longitude": "-90.03767091444506"
    }
  },
  {
    "service_request": "2022-888706",
    "request_type": "Trash/Recycling",
    "request_reason": "Request a Large Item Pick Up",
    "date_created": "2022-06-03T19:11:16.000",
    "date_modified": "2022-06-03T19:11:17.000",
    "request_status": "Pending",
    "responsible_agency": "Department of Sanitation",
    "final_address": "1483 Mithra St",
    "address_councildis": "D",
    "status": "Assigned to Contractor",
    "contractor": "Metro Disposal",
    "rowid": "888706",
    "final_x": "3678251.28699",
    "final_y": "552237.18831",
    "longitude": "-90.07761168288313",
    "latitude": "30.012558984414742",
    "geocoded_column": {
      "latitude": "30.012558984414742",
      "longitude": "-90.07761168288313"
    }
  },
  {
    "service_request": "2022-888705",
    "request_type": "Traffic Signals/Signs/Striping/Streetlights",
    "request_reason": "Street Light Outage/Malfunction",
    "date_created": "2022-06-03T18:53:58.000",
    "date_modified": "2022-06-03T18:53:59.000",
    "request_status": "Pending",
    "responsible_agency": "Department of Public Works",
    "final_address": "5500 Canal Blvd",
    "address_councildis": "A",
    "status": "Pending",
    "contractor": "Royal Engineering",
    "rowid": "888705",
    "final_x": "3668033.61556",
    "final_y": "543841.005774",
    "longitude": "-90.1101771505373",
    "latitude": "29.98977632484482",
    "geocoded_column": {
      "latitude": "29.98977632484482",
      "longitude": "-90.1101771505373"
    }
  },
  {
    "service_request": "2022-888704",
    "request_type": "Roads/Drainage",
    "request_reason": "Pothole",
    "date_created": "2022-06-03T18:45:48.000",
    "date_modified": "2022-06-03T18:45:48.000",
    "request_status": "Pending",
    "responsible_agency": "Department of Public Works",
    "final_address": "600 Seguin St",
    "address_councildis": "C",
    "status": "Pending",
    "rowid": "888704",
    "final_x": "3686736.8319",
    "final_y": "529622.623937",
    "longitude": "-90.05160134763385",
    "latitude": "29.95011850662509",
    "geocoded_column": {
      "latitude": "29.95011850662509",
      "longitude": "-90.05160134763385"
    }
  },
  {
    "service_request": "2022-888703",
    "request_type": "Trash/Recycling",
    "request_reason": "Request a Large Item Pick Up",
    "date_created": "2022-06-03T18:37:23.000",
    "date_modified": "2022-06-03T18:37:23.000",
    "request_status": "Pending",
    "responsible_agency": "Department of Sanitation",
    "final_address": "1768 N Broad St",
    "address_councildis": "D",
    "status": "Assigned to Contractor",
    "contractor": "Metro Disposal",
    "rowid": "888703",
    "final_x": "3679961.58427",
    "final_y": "541156.590796",
    "longitude": "-90.07259328168652",
    "latitude": "29.982039622548225",
    "geocoded_column": {
      "latitude": "29.982039622548225",
      "longitude": "-90.07259328168652"
    }
  },
  {
    "service_request": "2022-888701",
    "request_type": "Safety & Permits",
    "request_reason": "Licenses & Permits",
    "date_created": "2022-06-03T18:27:31.000",
    "date_modified": "2022-06-03T18:27:32.000",
    "request_status": "Pending",
    "responsible_agency": "Safety and Permits",
    "final_address": "2636 Palmyra St",
    "address_councildis": "B",
    "status": "Pending",
    "rowid": "888701",
    "final_x": "3675048.0619",
    "final_y": "534280.243461",
    "longitude": "-90.08834854412282",
    "latitude": "29.963279746116076",
    "geocoded_column": {
      "latitude": "29.963279746116076",
      "longitude": "-90.08834854412282"
    }
  },
  {
    "service_request": "2022-888700",
    "request_type": "Roads/Drainage",
    "request_reason": "Pothole",
    "date_created": "2022-06-03T18:27:09.000",
    "date_modified": "2022-06-03T18:27:09.000",
    "request_status": "Pending",
    "responsible_agency": "Department of Public Works",
    "final_address": "7520 Plum St",
    "address_councildis": "A",
    "status": "Pending",
    "rowid": "888700",
    "final_x": "3663731.46778",
    "final_y": "527196.452607",
    "longitude": "-90.12432125733751",
    "latitude": "29.944134855675344",
    "geocoded_column": {
      "latitude": "29.944134855675344",
      "longitude": "-90.12432125733751"
    }
  },
  {
    "service_request": "2022-888699",
    "request_type": "Trash/Recycling",
    "request_reason": "MIssed Recycling Pick-Up",
    "date_created": "2022-06-03T18:13:42.000",
    "date_modified": "2022-06-03T18:13:43.000",
    "request_status": "Pending",
    "responsible_agency": "Department of Sanitation",
    "final_address": "1220 Leonidas St",
    "address_councildis": "A",
    "status": "Assigned to Contractor",
    "contractor": "Richards Disposal",
    "rowid": "888699",
    "final_x": "3660741.74854",
    "final_y": "529732.308737",
    "longitude": "-90.13367686638833",
    "latitude": "29.951194051621812",
    "geocoded_column": {
      "latitude": "29.951194051621812",
      "longitude": "-90.13367686638833"
    }
  },
  {
    "service_request": "2022-888698",
    "request_type": "Trash/Recycling",
    "request_reason": "Order Trash Cart",
    "date_created": "2022-06-03T18:03:54.000",
    "date_modified": "2022-06-03T18:03:55.000",
    "request_status": "Pending",
    "responsible_agency": "Department of Sanitation",
    "final_address": "2129 Jefferson Ave",
    "address_councildis": "B",
    "status": "Assigned to Contractor",
    "contractor": "Richards Disposal",
    "rowid": "888698",
    "final_x": "3667910.90868",
    "final_y": "523565.762299",
    "longitude": "-90.11124780441708",
    "latitude": "29.934029707040676",
    "geocoded_column": {
      "latitude": "29.934029707040676",
      "longitude": "-90.11124780441708"
    }
  },
  {
    "service_request": "2022-888697",
    "request_type": "Roads/Drainage",
    "request_reason": "Debris in Roadway",
    "date_created": "2022-06-03T18:03:20.000",
    "date_modified": "2022-06-03T18:03:20.000",
    "request_status": "Pending",
    "responsible_agency": "Department of Public Works",
    "final_address": "3747 Socrates St",
    "address_councildis": "C",
    "status": "Pending",
    "rowid": "888697",
    "final_x": "3697863.49719",
    "final_y": "526062.162302",
    "longitude": "-90.01659862727692",
    "latitude": "29.939981560261483",
    "geocoded_column": {
      "latitude": "29.939981560261483",
      "longitude": "-90.01659862727692"
    }
  },
  {
    "service_request": "2022-888696",
    "request_type": "Roads/Drainage",
    "request_reason": "Pothole",
    "date_created": "2022-06-03T18:03:08.000",
    "date_modified": "2022-06-03T18:03:08.000",
    "request_status": "Pending",
    "responsible_agency": "Department of Public Works",
    "final_address": "600 Seguin St",
    "address_councildis": "C",
    "status": "Pending",
    "rowid": "888696",
    "final_x": "3686736.8319",
    "final_y": "529622.623937",
    "longitude": "-90.05160134763385",
    "latitude": "29.95011850662509",
    "geocoded_column": {
      "latitude": "29.95011850662509",
      "longitude": "-90.05160134763385"
    }
  },
  {
    "service_request": "2022-888695",
    "request_type": "Trash/Recycling",
    "request_reason": "Illegal Dumping",
    "date_created": "2022-06-03T17:50:23.000",
    "date_modified": "2022-06-03T17:50:23.000",
    "request_status": "Pending",
    "responsible_agency": "Department of Sanitation",
    "final_address": "1135 Jackson Ave",
    "address_councildis": "B",
    "status": "Pending",
    "rowid": "888695",
    "final_x": "3678712.56354",
    "final_y": "522358.362298",
    "longitude": "-90.0771891837501",
    "latitude": "29.93038856012703",
    "geocoded_column": {
      "latitude": "29.93038856012703",
      "longitude": "-90.0771891837501"
    }
  },
  {
    "service_request": "2022-888694",
    "request_type": "Trash/Recycling",
    "request_reason": "MIssed Recycling Pick-Up",
    "date_created": "2022-06-03T17:48:34.000",
    "date_modified": "2022-06-03T17:48:35.000",
    "request_status": "Pending",
    "responsible_agency": "Department of Sanitation",
    "final_address": "84 Versailles Blvd",
    "address_councildis": "B",
    "status": "Assigned to Contractor",
    "contractor": "Richards Disposal",
    "rowid": "888694",
    "final_x": "3667970.13671",
    "final_y": "530890.569666",
    "longitude": "-90.11081410716558",
    "latitude": "29.954168819515687",
    "geocoded_column": {
      "latitude": "29.954168819515687",
      "longitude": "-90.11081410716558"
    }
  },
  {
    "service_request": "2022-888692",
    "request_type": "Trash/Recycling",
    "request_reason": "Repair Trash Cart",
    "date_created": "2022-06-03T17:38:18.000",
    "date_modified": "2022-06-03T17:38:19.000",
    "request_status": "Pending",
    "responsible_agency": "Department of Sanitation",
    "final_address": "547 Joseph St",
    "address_councildis": "A",
    "status": "Assigned to Contractor",
    "contractor": "Richards Disposal",
    "rowid": "888692",
    "final_x": "3666020.94228",
    "final_y": "518253.075894",
    "longitude": "-90.1173923582711",
    "latitude": "29.919476787431154",
    "geocoded_column": {
      "latitude": "29.919476787431154",
      "longitude": "-90.1173923582711"
    }
  },
  {
    "service_request": "2022-888691",
    "request_type": "Safety & Permits",
    "request_reason": "Construction permit",
    "date_created": "2022-06-03T17:33:46.000",
    "date_modified": "2022-06-03T17:33:46.000",
    "request_status": "Pending",
    "responsible_agency": "Department of Code Enforcement",
    "final_address": "6237 Cambridge St",
    "address_councildis": "C",
    "status": "Pending",
    "rowid": "888691",
    "final_x": "3707216.62238",
    "final_y": "518346.88287",
    "longitude": "-89.98735580155179",
    "latitude": "29.918468403769133",
    "geocoded_column": {
      "latitude": "29.918468403769133",
      "longitude": "-89.98735580155179"
    }
  },
  {
    "service_request": "2022-888690",
    "request_type": "Trash/Recycling",
    "request_reason": "Request a Large Item Pick Up",
    "date_created": "2022-06-03T17:32:14.000",
    "date_modified": "2022-06-03T17:32:15.000",
    "request_status": "Pending",
    "responsible_agency": "Department of Sanitation",
    "final_address": "6023 Franklin Ave",
    "address_councildis": "D",
    "status": "Assigned to Contractor",
    "contractor": "Metro Disposal",
    "rowid": "888690",
    "final_x": "3686489.40079",
    "final_y": "555424.886553",
    "longitude": "-90.05147119201342",
    "latitude": "30.02107316728389",
    "geocoded_column": {
      "latitude": "30.02107316728389",
      "longitude": "-90.05147119201342"
    }
  },
  {
    "service_request": "2022-888689",
    "request_type": "Trash/Recycling",
    "request_reason": "Missed Trash Pick-Up",
    "date_created": "2022-06-03T17:30:28.000",
    "date_modified": "2022-06-03T17:30:30.000",
    "request_status": "Pending",
    "responsible_agency": "Department of Sanitation",
    "final_address": "914 Joseph St",
    "address_councildis": "A",
    "status": "Assigned to Contractor",
    "contractor": "Richards Disposal",
    "rowid": "888689",
    "final_x": "3666178.67098",
    "final_y": "519337.603511",
    "longitude": "-90.11685814215248",
    "latitude": "29.922454294764094",
    "geocoded_column": {
      "latitude": "29.922454294764094",
      "longitude": "-90.11685814215248"
    }
  },
  {
    "service_request": "2022-888688",
    "request_type": "Parks & Parkways",
    "request_reason": "Request Tree Service (Right of Way/Public Property)",
    "date_created": "2022-06-03T17:16:55.000",
    "date_modified": "2022-06-03T21:43:07.000",
    "request_status": "Pending",
    "responsible_agency": "Department of Parks & Parkway",
    "final_address": "4913 Laurel St",
    "address_councildis": "B",
    "status": "Pending",
    "rowid": "888688",
    "final_x": "3668846.86804",
    "final_y": "517875.829878",
    "longitude": "-90.1084850230638",
    "latitude": "29.91835671966076",
    "geocoded_column": {
      "latitude": "29.91835671966076",
      "longitude": "-90.1084850230638"
    }
  },
  {
    "service_request": "2022-888687",
    "request_type": "Trash/Recycling",
    "request_reason": "Repair Trash Cart",
    "date_created": "2022-06-03T17:11:04.000",
    "date_modified": "2022-06-03T17:11:05.000",
    "request_status": "Pending",
    "responsible_agency": "Department of Sanitation",
    "final_address": "5825 S Robertson St",
    "address_councildis": "A",
    "status": "Assigned to Contractor",
    "contractor": "Richards Disposal",
    "rowid": "888687",
    "final_x": "3666780.60321",
    "final_y": "524780.603324",
    "longitude": "-90.11477536170202",
    "latitude": "29.937403231002165",
    "geocoded_column": {
      "latitude": "29.937403231002165",
      "longitude": "-90.11477536170202"
    }
  },
  {
    "service_request": "2022-888686",
    "request_type": "Abandoned Vehicles",
    "request_reason": "Abandoned/Junk Vehicles",
    "date_created": "2022-06-03T17:06:45.000",
    "date_modified": "2022-06-03T17:08:23.000",
    "request_status": "Pending",
    "responsible_agency": "Department of Public Works",
    "final_address": "2319 Leon C Simon Dr",
    "address_councildis": "D",
    "status": "Pending",
    "rowid": "888686",
    "final_x": "3684306.5558",
    "final_y": "557096.97065",
    "longitude": "-90.05830956242299",
    "latitude": "30.025737745407405",
    "geocoded_column": {
      "latitude": "30.025737745407405",
      "longitude": "-90.05830956242299"
    }
  },
  {
    "service_request": "2022-888685",
    "request_type": "Abandoned Vehicles",
    "request_reason": "Abandoned/Junk Vehicles",
    "date_created": "2022-06-03T17:02:26.000",
    "date_modified": "2022-06-03T17:02:26.000",
    "request_status": "Pending",
    "responsible_agency": "Department of Public Works",
    "final_address": "6321 West End Blvd",
    "address_councildis": "A",
    "status": "Pending",
    "rowid": "888685",
    "final_x": "3666671.42458",
    "final_y": "549629.887059",
    "longitude": "-90.1142854155421",
    "latitude": "30.005733670340742",
    "geocoded_column": {
      "latitude": "30.005733670340742",
      "longitude": "-90.1142854155421"
    }
  },
  {
    "service_request": "2022-888684",
    "request_type": "Trash/Recycling",
    "request_reason": "Missed Trash Pick-Up",
    "date_created": "2022-06-03T17:01:28.000",
    "date_modified": "2022-06-03T17:01:28.000",
    "request_status": "Pending",
    "responsible_agency": "Department of Sanitation",
    "final_address": "1228 Gallier St",
    "address_councildis": "C",
    "status": "Assigned to Contractor",
    "contractor": "Metro Disposal",
    "rowid": "888684",
    "final_x": "3690574.97276",
    "final_y": "536246.590471",
    "longitude": "-90.03924636760223",
    "latitude": "29.968213498292172",
    "geocoded_column": {
      "latitude": "29.968213498292172",
      "longitude": "-90.03924636760223"
    }
  },
  {
    "service_request": "2022-888683",
    "request_type": "Property Maintenance",
    "request_reason": "Property Maintenance",
    "date_created": "2022-06-03T17:00:43.000",
    "date_modified": "2022-06-03T17:00:43.000",
    "request_status": "Pending",
    "responsible_agency": "Department of Code Enforcement",
    "final_address": "919 Verret St",
    "address_councildis": "C",
    "status": "Pending",
    "rowid": "888683",
    "final_x": "3687144.44386",
    "final_y": "528159.129088",
    "longitude": "-90.05036606771684",
    "latitude": "29.94608185141582",
    "geocoded_column": {
      "latitude": "29.94608185141582",
      "longitude": "-90.05036606771684"
    }
  },
  {
    "service_request": "2022-888682",
    "request_type": "Trash/Recycling",
    "request_reason": "Request a Large Item Pick Up",
    "date_created": "2022-06-03T16:59:18.000",
    "date_modified": "2022-06-03T16:59:19.000",
    "request_status": "Pending",
    "responsible_agency": "Department of Sanitation",
    "final_address": "8834 Palm St, New Orleans, Louisiana, 70118",
    "address_councildis": "A",
    "status": "Assigned to Contractor",
    "contractor": "Richards Disposal",
    "rowid": "888682",
    "final_x": "3665658.17287",
    "final_y": "536523.688711",
    "longitude": "-90.11792571810764",
    "latitude": "29.969725668794226",
    "geocoded_column": {
      "latitude": "29.969725668794226",
      "longitude": "-90.11792571810764"
    }
  },
  {
    "service_request": "2022-888681",
    "request_type": "Traffic Signals/Signs/Striping/Streetlights",
    "request_reason": "Traffic Sign Missing/Damaged",
    "date_created": "2022-06-03T16:58:20.000",
    "date_modified": "2022-06-03T16:58:20.000",
    "request_status": "Pending",
    "responsible_agency": "Department of Public Works",
    "final_address": "214 Magazine St",
    "address_councildis": "B",
    "status": "Pending",
    "rowid": "888681",
    "final_x": "3681705.38236",
    "final_y": "529791.664769",
    "longitude": "-90.06748208901224",
    "latitude": "29.950737108186207",
    "geocoded_column": {
      "latitude": "29.950737108186207",
      "longitude": "-90.06748208901224"
    }
  },
  {
    "service_request": "2022-888680",
    "request_type": "Abandoned Vehicles",
    "request_reason": "Abandoned/Junk Vehicles",
    "date_created": "2022-06-03T16:50:35.000",
    "date_modified": "2022-06-03T16:51:37.000",
    "request_status": "Pending",
    "responsible_agency": "Department of Public Works",
    "final_address": "S PETERS ST & GIROD ST",
    "address_councildis": "B",
    "status": "Pending",
    "rowid": "888680",
    "final_x": "3682238.4",
    "final_y": "528120.18",
    "longitude": "-90.06585747244843",
    "latitude": "29.946124886391708",
    "geocoded_column": {
      "latitude": "29.946124886391708",
      "longitude": "-90.06585747244843"
    }
  },
  {
    "service_request": "2022-888679",
    "request_type": "Trash/Recycling",
    "request_reason": "Missed Trash Pick-Up",
    "date_created": "2022-06-03T16:49:13.000",
    "date_modified": "2022-06-03T16:49:14.000",
    "request_status": "Pending",
    "responsible_agency": "Department of Sanitation",
    "final_address": "2015 State St",
    "address_councildis": "A",
    "status": "Assigned to Contractor",
    "contractor": "Richards Disposal",
    "rowid": "888679",
    "final_x": "3666393.45767",
    "final_y": "524150.65478",
    "longitude": "-90.11601873945807",
    "latitude": "29.935682388949466",
    "geocoded_column": {
      "latitude": "29.935682388949466",
      "longitude": "-90.11601873945807"
    }
  },
  {
    "service_request": "2022-888678",
    "request_type": "Roads/Drainage",
    "request_reason": "Man hole cover issue",
    "date_created": "2022-06-03T16:39:25.000",
    "date_modified": "2022-06-03T16:39:25.000",
    "request_status": "Pending",
    "responsible_agency": "Department of Public Works",
    "final_address": "900 Perdido St",
    "address_councildis": "B",
    "status": "Pending",
    "rowid": "888678",
    "final_x": "3679904.90651",
    "final_y": "529938.874689",
    "longitude": "-90.07316195918962",
    "latitude": "29.951196455396516",
    "geocoded_column": {
      "latitude": "29.951196455396516",
      "longitude": "-90.07316195918962"
    }
  },
  {
    "service_request": "2022-888677",
    "request_type": "Property Maintenance",
    "request_reason": "Property Maintenance",
    "date_created": "2022-06-03T16:23:12.000",
    "date_modified": "2022-06-03T16:23:12.000",
    "request_status": "Pending",
    "responsible_agency": "Department of Code Enforcement",
    "final_address": "4500 Knight Dr",
    "address_councildis": "E",
    "status": "Pending",
    "rowid": "888677",
    "final_x": "3708208.46872",
    "final_y": "554065.377304",
    "longitude": "-89.98289634790018",
    "latitude": "30.016649074471946",
    "geocoded_column": {
      "latitude": "30.016649074471946",
      "longitude": "-89.98289634790018"
    }
  },
  {
    "service_request": "2022-888676",
    "request_type": "Trash/Recycling",
    "request_reason": "Missed Trash Pick-Up",
    "date_created": "2022-06-03T16:21:59.000",
    "date_modified": "2022-06-03T16:21:59.000",
    "request_status": "Pending",
    "responsible_agency": "Department of Sanitation",
    "final_address": "3821 Moweaner White Mauldin St",
    "address_councildis": "D",
    "status": "Assigned to Contractor",
    "contractor": "Metro Disposal",
    "rowid": "888676",
    "final_x": "3693026.9567",
    "final_y": "545885.85832",
    "longitude": "-90.03115698669347",
    "latitude": "29.99464165170976",
    "geocoded_column": {
      "latitude": "29.99464165170976",
      "longitude": "-90.03115698669347"
    }
  },
  {
    "service_request": "2022-888675",
    "request_type": "Traffic Signals/Signs/Striping/Streetlights",
    "request_reason": "Street Light Knocked Down/Leaning",
    "date_created": "2022-06-03T16:14:38.000",
    "date_modified": "2022-06-03T16:14:38.000",
    "request_status": "Pending",
    "responsible_agency": "Department of Public Works",
    "final_address": "730 Julia St",
    "address_councildis": "B",
    "status": "Pending",
    "contractor": "Royal Engineering",
    "rowid": "888675",
    "final_x": "3680225.15407",
    "final_y": "528028.325951",
    "longitude": "-90.07221717120586",
    "latitude": "29.9459333988802",
    "geocoded_column": {
      "latitude": "29.9459333988802",
      "longitude": "-90.07221717120586"
    }
  },
  {
    "service_request": "2022-888674",
    "request_type": "Trash/Recycling",
    "request_reason": "Request a Large Item Pick Up",
    "date_created": "2022-06-03T16:12:08.000",
    "date_modified": "2022-06-03T16:12:09.000",
    "request_status": "Pending",
    "responsible_agency": "Department of Sanitation",
    "final_address": "2600 Peniston St",
    "address_councildis": "B",
    "status": "Assigned to Contractor",
    "contractor": "Richards Disposal",
    "rowid": "888674",
    "final_x": "3671998.31943",
    "final_y": "524609.143932",
    "longitude": "-90.09830847794787",
    "latitude": "29.93677816698696",
    "geocoded_column": {
      "latitude": "29.93677816698696",
      "longitude": "-90.09830847794787"
    }
  },
  {
    "service_request": "2022-888673",
    "request_type": "Abandoned Vehicles",
    "request_reason": "Abandoned/Junk Vehicles",
    "date_created": "2022-06-03T16:08:45.000",
    "date_modified": "2022-06-03T16:08:45.000",
    "request_status": "Pending",
    "responsible_agency": "Department of Public Works",
    "final_address": "119 S Salcedo St",
    "address_councildis": "B",
    "status": "Pending",
    "rowid": "888673",
    "final_x": "3673911.01947",
    "final_y": "535915.570759",
    "longitude": "-90.09188324961089",
    "latitude": "29.9678102666138",
    "geocoded_column": {
      "latitude": "29.9678102666138",
      "longitude": "-90.09188324961089"
    }
  },
  {
    "service_request": "2022-888672",
    "request_type": "Trash/Recycling",
    "request_reason": "Order Recycling Cart",
    "date_created": "2022-06-03T16:06:56.000",
    "date_modified": "2022-06-03T16:06:56.000",
    "request_status": "Pending",
    "responsible_agency": "Department of Sanitation",
    "final_address": "609 Atlantic Ave",
    "address_councildis": "C",
    "status": "Pending",
    "rowid": "888672",
    "final_x": "3688738.73487",
    "final_y": "529342.818625",
    "longitude": "-90.04529034914393",
    "latitude": "29.949287412424077",
    "geocoded_column": {
      "latitude": "29.949287412424077",
      "longitude": "-90.04529034914393"
    }
  },
  {
    "service_request": "2022-888671",
    "request_type": "Roads/Drainage",
    "request_reason": "Pothole",
    "date_created": "2022-06-03T16:06:20.000",
    "date_modified": "2022-06-03T16:06:20.000",
    "request_status": "Pending",
    "responsible_agency": "Department of Public Works",
    "final_address": "5231 Wickfield Dr",
    "address_councildis": "D",
    "status": "Pending",
    "rowid": "888671",
    "final_x": "3681407.79477",
    "final_y": "551829.879382",
    "longitude": "-90.06765308670941",
    "latitude": "30.011343538970138",
    "geocoded_column": {
      "latitude": "30.011343538970138",
      "longitude": "-90.06765308670941"
    }
  },
  {
    "service_request": "2022-888670",
    "request_type": "Trash/Recycling",
    "request_reason": "Order Recycling Cart",
    "date_created": "2022-06-03T16:04:37.000",
    "date_modified": "2022-06-03T16:04:38.000",
    "request_status": "Pending",
    "responsible_agency": "Department of Sanitation",
    "final_address": "1471 Mithra St",
    "address_councildis": "D",
    "status": "Pending",
    "contractor": "Metro Disposal",
    "rowid": "888670",
    "final_x": "3678096.9611",
    "final_y": "552226.23439",
    "longitude": "-90.07809964656164",
    "latitude": "30.012533514500436",
    "geocoded_column": {
      "latitude": "30.012533514500436",
      "longitude": "-90.07809964656164"
    }
  },
  {
    "service_request": "2022-888668",
    "request_type": "Trash/Recycling",
    "request_reason": "Order Trash Cart",
    "date_created": "2022-06-03T16:01:25.000",
    "date_modified": "2022-06-03T16:01:25.000",
    "request_status": "Pending",
    "responsible_agency": "Department of Sanitation",
    "final_address": "1471 Mithra St",
    "address_councildis": "D",
    "status": "Assigned to Contractor",
    "contractor": "Metro Disposal",
    "rowid": "888668",
    "final_x": "3678096.9611",
    "final_y": "552226.23439",
    "longitude": "-90.07809964656164",
    "latitude": "30.012533514500436",
    "geocoded_column": {
      "latitude": "30.012533514500436",
      "longitude": "-90.07809964656164"
    }
  },
  {
    "service_request": "2022-888667",
    "request_type": "Trash/Recycling",
    "request_reason": "Request a Large Item Pick Up",
    "date_created": "2022-06-03T15:58:41.000",
    "date_modified": "2022-06-03T15:58:42.000",
    "request_status": "Pending",
    "responsible_agency": "Department of Sanitation",
    "final_address": "4953 Little John Dr",
    "address_councildis": "E",
    "status": "Assigned to Contractor",
    "contractor": "Metro Disposal",
    "rowid": "888667",
    "final_x": "3717206.86277",
    "final_y": "558013.104795",
    "longitude": "-89.95431546698579",
    "latitude": "30.02720908484698",
    "geocoded_column": {
      "latitude": "30.02720908484698",
      "longitude": "-89.95431546698579"
    }
  },
  {
    "service_request": "2022-888666",
    "request_type": "Traffic Signals/Signs/Striping/Streetlights",
    "request_reason": "Traffic Sign Missing/Damaged",
    "date_created": "2022-06-03T15:57:52.000",
    "date_modified": "2022-06-03T15:57:52.000",
    "request_status": "Pending",
    "responsible_agency": "Department of Public Works",
    "final_address": "600 Carondelet St",
    "address_councildis": "B",
    "status": "Pending",
    "rowid": "888666",
    "final_x": "3680235.16879",
    "final_y": "528927.008512",
    "longitude": "-90.07215432080176",
    "latitude": "29.94840417190896",
    "geocoded_column": {
      "latitude": "29.94840417190896",
      "longitude": "-90.07215432080176"
    }
  },
  {
    "service_request": "2022-888665",
    "request_type": "Trash/Recycling",
    "request_reason": "Return Recycling Cart",
    "date_created": "2022-06-03T15:56:45.000",
    "date_modified": "2022-06-03T15:56:45.000",
    "request_status": "Pending",
    "responsible_agency": "Department of Sanitation",
    "final_address": "1838 Octavia St",
    "address_councildis": "A",
    "status": "Pending",
    "rowid": "888665",
    "final_x": "3667187.14247",
    "final_y": "522656.13401",
    "longitude": "-90.11356328362578",
    "latitude": "29.93154972488452",
    "geocoded_column": {
      "latitude": "29.93154972488452",
      "longitude": "-90.11356328362578"
    }
  },
  {
    "service_request": "2022-888664",
    "request_type": "Property Maintenance",
    "request_reason": "Property Maintenance",
    "date_created": "2022-06-03T15:54:36.000",
    "date_modified": "2022-06-03T15:54:36.000",
    "request_status": "Pending",
    "responsible_agency": "Department of Code Enforcement",
    "final_address": "730 St Maurice Ave",
    "address_councildis": "E",
    "status": "Pending",
    "rowid": "888664",
    "final_x": "3699335.85156",
    "final_y": "532043.604163",
    "longitude": "-90.01173240492076",
    "latitude": "29.95638181763483",
    "geocoded_column": {
      "latitude": "29.95638181763483",
      "longitude": "-90.01173240492076"
    }
  },
  {
    "service_request": "2022-888663",
    "request_type": "Trash/Recycling",
    "request_reason": "Missed Trash Pick-Up",
    "date_created": "2022-06-03T15:52:57.000",
    "date_modified": "2022-06-03T15:52:58.000",
    "request_status": "Pending",
    "responsible_agency": "Department of Sanitation",
    "final_address": "3900 BLK State Street Dr",
    "address_councildis": "B",
    "status": "Assigned to Contractor",
    "contractor": "Richards Disposal",
    "rowid": "888663",
    "final_x": "3668200.57006",
    "final_y": "530258.745044",
    "longitude": "-90.11010778678163",
    "latitude": "29.95242474642864",
    "geocoded_column": {
      "latitude": "29.95242474642864",
      "longitude": "-90.11010778678163"
    }
  },
  {
    "service_request": "2022-888662",
    "request_type": "Trash/Recycling",
    "request_reason": "Missed Trash Pick-Up",
    "date_created": "2022-06-03T15:52:54.000",
    "date_modified": "2022-06-03T15:52:55.000",
    "request_status": "Pending",
    "responsible_agency": "Department of Sanitation",
    "final_address": "3211 Dauphine St",
    "address_councildis": "C",
    "status": "Assigned to Contractor",
    "contractor": "Metro Disposal",
    "rowid": "888662",
    "final_x": "3689386.37654",
    "final_y": "534719.157574",
    "longitude": "-90.04305431053771",
    "latitude": "29.96405044937224",
    "geocoded_column": {
      "latitude": "29.96405044937224",
      "longitude": "-90.04305431053771"
    }
  },
  {
    "service_request": "2022-888661",
    "request_type": "Abandoned Vehicles",
    "request_reason": "Abandoned/Junk Vehicles",
    "date_created": "2022-06-03T15:52:41.000",
    "date_modified": "2022-06-03T15:52:42.000",
    "request_status": "Pending",
    "responsible_agency": "Department of Public Works",
    "final_address": "9114 Dixon St",
    "address_councildis": "A",
    "status": "Pending",
    "rowid": "888661",
    "final_x": "3665700.1634",
    "final_y": "537903.008713",
    "longitude": "-90.11774689600438",
    "latitude": "29.97351711554177",
    "geocoded_column": {
      "latitude": "29.97351711554177",
      "longitude": "-90.11774689600438"
    }
  },
  {
    "service_request": "2022-888660",
    "request_type": "Trash/Recycling",
    "request_reason": "Order Recycling Cart",
    "date_created": "2022-06-03T15:52:06.000",
    "date_modified": "2022-06-03T15:52:06.000",
    "request_status": "Pending",
    "responsible_agency": "Department of Sanitation",
    "final_address": "6354 General Diaz St, New Orleans, Louisiana, 70124",
    "address_councildis": "A",
    "status": "Pending",
    "rowid": "888660",
    "final_x": "3669660.64558",
    "final_y": "549647.487956",
    "longitude": "-90.10484115485754",
    "latitude": "30.00569428367538",
    "geocoded_column": {
      "latitude": "30.00569428367538",
      "longitude": "-90.10484115485754"
    }
  },
  {
    "service_request": "2022-888659",
    "request_type": "Trash/Recycling",
    "request_reason": "Order Trash Cart",
    "date_created": "2022-06-03T15:51:16.000",
    "date_modified": "2022-06-03T15:51:17.000",
    "request_status": "Pending",
    "responsible_agency": "Department of Sanitation",
    "final_address": "6354 General Diaz St, New Orleans, Louisiana, 70124",
    "address_councildis": "A",
    "status": "Assigned to Contractor",
    "contractor": "Metro Disposal",
    "rowid": "888659",
    "final_x": "3669660.64558",
    "final_y": "549647.487956",
    "longitude": "-90.10484115485754",
    "latitude": "30.00569428367538",
    "geocoded_column": {
      "latitude": "30.00569428367538",
      "longitude": "-90.10484115485754"
    }
  },
  {
    "service_request": "2022-888657",
    "request_type": "Trash/Recycling",
    "request_reason": "Missed Trash Pick-Up",
    "date_created": "2022-06-03T15:50:19.000",
    "date_modified": "2022-06-03T15:50:20.000",
    "request_status": "Pending",
    "responsible_agency": "Department of Sanitation",
    "final_address": "524 Webster St",
    "address_councildis": "A",
    "status": "Assigned to Contractor",
    "contractor": "Richards Disposal",
    "rowid": "888657",
    "final_x": "3663805.97069",
    "final_y": "518664.821111",
    "longitude": "-90.12437023669355",
    "latitude": "29.920673403342576",
    "geocoded_column": {
      "latitude": "29.920673403342576",
      "longitude": "-90.12437023669355"
    }
  },
  {
    "service_request": "2022-888656",
    "request_type": "Trash/Recycling",
    "request_reason": "Order Recycling Cart",
    "date_created": "2022-06-03T15:50:13.000",
    "date_modified": "2022-06-03T15:50:13.000",
    "request_status": "Pending",
    "responsible_agency": "Department of Sanitation",
    "final_address": "5533 Woodlawn Pl",
    "address_councildis": "A",
    "status": "Pending",
    "rowid": "888656",
    "final_x": "3667527.8978",
    "final_y": "544322.138255",
    "longitude": "-90.11175837724667",
    "latitude": "29.991114108923803",
    "geocoded_column": {
      "latitude": "29.991114108923803",
      "longitude": "-90.11175837724667"
    }
  },
  {
    "service_request": "2022-888655",
    "request_type": "Trash/Recycling",
    "request_reason": "Repair Trash Cart",
    "date_created": "2022-06-03T15:44:01.000",
    "date_modified": "2022-06-03T15:44:02.000",
    "request_status": "Pending",
    "responsible_agency": "Department of Sanitation",
    "final_address": "644 N Pierce St",
    "address_councildis": "A",
    "status": "Assigned to Contractor",
    "contractor": "Richards Disposal",
    "rowid": "888655",
    "final_x": "3672861.62728",
    "final_y": "539713.813898",
    "longitude": "-90.09506764243277",
    "latitude": "29.978285369062704",
    "geocoded_column": {
      "latitude": "29.978285369062704",
      "longitude": "-90.09506764243277"
    }
  },
  {
    "service_request": "2022-888653",
    "request_type": "Property Maintenance",
    "request_reason": "Property Maintenance",
    "date_created": "2022-06-03T15:41:36.000",
    "date_modified": "2022-06-03T15:41:37.000",
    "request_status": "Pending",
    "responsible_agency": "Department of Code Enforcement",
    "final_address": "1675 N Rocheblave St",
    "address_councildis": "D",
    "status": "Pending",
    "rowid": "888653",
    "final_x": "3680304.73429",
    "final_y": "540046.503947",
    "longitude": "-90.07154805925944",
    "latitude": "29.97897688390957",
    "geocoded_column": {
      "latitude": "29.97897688390957",
      "longitude": "-90.07154805925944"
    }
  },
  {
    "service_request": "2022-888652",
    "request_type": "Trash/Recycling",
    "request_reason": "Request a Large Item Pick Up",
    "date_created": "2022-06-03T15:40:00.000",
    "date_modified": "2022-06-03T15:40:01.000",
    "request_status": "Pending",
    "responsible_agency": "Department of Sanitation",
    "final_address": "4540 Eastview Dr",
    "address_councildis": "E",
    "status": "Assigned to Contractor",
    "contractor": "Metro Disposal",
    "rowid": "888652",
    "final_x": "3705120.20964",
    "final_y": "554057.718616",
    "longitude": "-89.9926541413906",
    "latitude": "30.01672773236545",
    "geocoded_column": {
      "latitude": "30.01672773236545",
      "longitude": "-89.9926541413906"
    }
  },
  {
    "service_request": "2022-888651",
    "request_type": "Trash/Recycling",
    "request_reason": "Repair Trash Cart",
    "date_created": "2022-06-03T15:39:52.000",
    "date_modified": "2022-06-03T15:39:52.000",
    "request_status": "Pending",
    "responsible_agency": "Department of Sanitation",
    "final_address": "1504 Piety St",
    "address_councildis": "D",
    "status": "Assigned to Contractor",
    "contractor": "Metro Disposal",
    "rowid": "888651",
    "final_x": "3690192.30985",
    "final_y": "537349.859336",
    "longitude": "-90.04041551535113",
    "latitude": "29.971258977004357",
    "geocoded_column": {
      "latitude": "29.971258977004357",
      "longitude": "-90.04041551535113"
    }
  },
  {
    "service_request": "2022-888650",
    "request_type": "Trash/Recycling",
    "request_reason": "Request a Large Item Pick Up",
    "date_created": "2022-06-03T15:37:23.000",
    "date_modified": "2022-06-03T15:37:24.000",
    "request_status": "Pending",
    "responsible_agency": "Department of Sanitation",
    "final_address": "253 Pine St",
    "address_councildis": "A",
    "status": "Assigned to Contractor",
    "contractor": "Richards Disposal",
    "rowid": "888650",
    "final_x": "3661493.77888",
    "final_y": "522988.368251",
    "longitude": "-90.13152565661873",
    "latitude": "29.932628686486552",
    "geocoded_column": {
      "latitude": "29.932628686486552",
      "longitude": "-90.13152565661873"
    }
  },
  {
    "service_request": "2022-888649",
    "request_type": "Trash/Recycling",
    "request_reason": "Dead Animal Pick Up",
    "date_created": "2022-06-03T15:35:57.000",
    "date_modified": "2022-06-03T15:35:58.000",
    "request_status": "Pending",
    "responsible_agency": "Department of Sanitation",
    "final_address": "621 S Cortez St",
    "address_councildis": "B",
    "status": "Assigned to Contractor",
    "contractor": "Richards Disposal",
    "rowid": "888649",
    "final_x": "3670739.18139",
    "final_y": "535904.309639",
    "longitude": "-90.10190041574366",
    "latitude": "29.967873413109746",
    "geocoded_column": {
      "latitude": "29.967873413109746",
      "longitude": "-90.10190041574366"
    }
  },
  {
    "service_request": "2022-888648",
    "request_type": "Abandoned Vehicles",
    "request_reason": "Abandoned/Junk Vehicles",
    "date_created": "2022-06-03T15:34:45.000",
    "date_modified": "2022-06-03T15:36:34.000",
    "request_status": "Pending",
    "responsible_agency": "Department of Public Works",
    "final_address": "2700 BLK Wisteria St",
    "address_councildis": "D",
    "status": "Pending",
    "rowid": "888648",
    "final_x": "3687964.19195",
    "final_y": "548459.749981",
    "longitude": "-90.04705833408445",
    "latitude": "30.001876152485135",
    "geocoded_column": {
      "latitude": "30.001876152485135",
      "longitude": "-90.04705833408445"
    }
  },
  {
    "service_request": "2022-888647",
    "request_type": "Trash/Recycling",
    "request_reason": "Missed Trash Pick-Up",
    "date_created": "2022-06-03T15:33:37.000",
    "date_modified": "2022-06-03T15:33:38.000",
    "request_status": "Pending",
    "responsible_agency": "Department of Sanitation",
    "final_address": "2714 Palmer Ave",
    "address_councildis": "A",
    "status": "Assigned to Contractor",
    "contractor": "Richards Disposal",
    "rowid": "888647",
    "final_x": "3666711.39905",
    "final_y": "526656.182462",
    "longitude": "-90.11493088157681",
    "latitude": "29.942562494858546",
    "geocoded_column": {
      "latitude": "29.942562494858546",
      "longitude": "-90.11493088157681"
    }
  },
  {
    "service_request": "2022-888646",
    "request_type": "Trash/Recycling",
    "request_reason": "Order Recycling Cart",
    "date_created": "2022-06-03T15:32:33.000",
    "date_modified": "2022-06-03T15:32:33.000",
    "request_status": "Pending",
    "responsible_agency": "Department of Sanitation",
    "final_address": "71 English Turn Dr, New Orleans, Louisiana, 70131",
    "address_councildis": "C",
    "status": "Pending",
    "rowid": "888646",
    "final_x": "3722018.36486",
    "final_y": "512715.684721",
    "longitude": "-89.94085120480615",
    "latitude": "29.902498241928182",
    "geocoded_column": {
      "latitude": "29.902498241928182",
      "longitude": "-89.94085120480615"
    }
  },
  {
    "service_request": "2022-888645",
    "request_type": "Abandoned Vehicles",
    "request_reason": "Abandoned/Junk Vehicles",
    "date_created": "2022-06-03T15:30:40.000",
    "date_modified": "2022-06-03T15:30:40.000",
    "request_status": "Pending",
    "responsible_agency": "Department of Public Works",
    "final_address": "2400 BLK Decatur St",
    "address_councildis": "C",
    "status": "Pending",
    "rowid": "888645",
    "final_x": "3686128.6638",
    "final_y": "534230.723977",
    "longitude": "-90.053359084317",
    "latitude": "29.962807891291785",
    "geocoded_column": {
      "latitude": "29.962807891291785",
      "longitude": "-90.053359084317"
    }
  },
  {
    "service_request": "2022-888644",
    "request_type": "Safety & Permits",
    "request_reason": "Licenses & Permits",
    "date_created": "2022-06-03T15:22:28.000",
    "date_modified": "2022-06-03T15:22:28.000",
    "request_status": "Pending",
    "responsible_agency": "Safety and Permits",
    "status": "Pending",
    "rowid": "888644",
    "longitude": "0.0",
    "latitude": "0.0",
    "geocoded_column": {
      "latitude": "0.0",
      "longitude": "0.0"
    }
  },
  {
    "service_request": "2022-888643",
    "request_type": "Trash/Recycling",
    "request_reason": "Order Trash Cart",
    "date_created": "2022-06-03T15:20:54.000",
    "date_modified": "2022-06-03T15:38:23.000",
    "request_status": "Pending",
    "responsible_agency": "Department of Sanitation",
    "final_address": "New Orleans,LA",
    "address_councildis": "C",
    "status": "Assigned to Contractor",
    "contractor": "Richards Disposal",
    "rowid": "888643",
    "final_x": "3698427.21943",
    "final_y": "523399.158267",
    "longitude": "-90.01491562021187",
    "latitude": "29.932641397182852",
    "geocoded_column": {
      "latitude": "29.932641397182852",
      "longitude": "-90.01491562021187"
    }
  },
  {
    "service_request": "2022-888642",
    "request_type": "Trash/Recycling",
    "request_reason": "Order Recycling Cart",
    "date_created": "2022-06-03T15:19:41.000",
    "date_modified": "2022-06-03T15:19:41.000",
    "request_status": "Pending",
    "responsible_agency": "Department of Sanitation",
    "final_address": "11247 Willow Dr",
    "address_councildis": "C",
    "status": "Pending",
    "rowid": "888642",
    "final_x": "3725921.12032",
    "final_y": "514781.819251",
    "longitude": "-89.92845448648133",
    "latitude": "29.90804837929013",
    "geocoded_column": {
      "latitude": "29.90804837929013",
      "longitude": "-89.92845448648133"
    }
  },
  {
    "service_request": "2022-888641",
    "request_type": "Roads/Drainage",
    "request_reason": "Damaged Sidewalk",
    "date_created": "2022-06-03T15:18:15.000",
    "date_modified": "2022-06-03T15:18:15.000",
    "request_status": "Pending",
    "responsible_agency": "Department of Public Works",
    "final_address": "3623 General Ogden St",
    "address_councildis": "A",
    "status": "Pending",
    "rowid": "888641",
    "final_x": "3665813.44487",
    "final_y": "536741.520455",
    "longitude": "-90.11742805318607",
    "latitude": "29.970320104222235",
    "geocoded_column": {
      "latitude": "29.970320104222235",
      "longitude": "-90.11742805318607"
    }
  },
  {
    "service_request": "2022-888640",
    "request_type": "Roads/Drainage",
    "request_reason": "Pothole",
    "date_created": "2022-06-03T15:16:28.000",
    "date_modified": "2022-06-03T15:16:28.000",
    "request_status": "Pending",
    "responsible_agency": "Department of Public Works",
    "final_address": "500 Canal St",
    "address_councildis": "B",
    "status": "Pending",
    "rowid": "888640",
    "final_x": "3681620.18831",
    "final_y": "530215.835265",
    "longitude": "-90.06773629521233",
    "latitude": "29.95190602147896",
    "geocoded_column": {
      "latitude": "29.95190602147896",
      "longitude": "-90.06773629521233"
    }
  },
  {
    "service_request": "2022-888639",
    "request_type": "Trash/Recycling",
    "request_reason": "Request a Large Item Pick Up",
    "date_created": "2022-06-03T15:15:28.000",
    "date_modified": "2022-06-03T15:15:29.000",
    "request_status": "Pending",
    "responsible_agency": "Department of Sanitation",
    "final_address": "5515 Wimbledon Ct",
    "address_councildis": "C",
    "status": "Assigned to Contractor",
    "contractor": "Richards Disposal",
    "rowid": "888639",
    "final_x": "3704417.65527",
    "final_y": "519026.183927",
    "longitude": "-89.99616556214815",
    "latitude": "29.920426355117772",
    "geocoded_column": {
      "latitude": "29.920426355117772",
      "longitude": "-89.99616556214815"
    }
  },
  {
    "service_request": "2022-888638",
    "request_type": "Trash/Recycling",
    "request_reason": "Request a Large Item Pick Up",
    "date_created": "2022-06-03T15:11:10.000",
    "date_modified": "2022-06-03T15:12:28.000",
    "request_status": "Pending",
    "responsible_agency": "Department of Sanitation",
    "final_address": "11041 Willowbrae Dr",
    "address_councildis": "E",
    "status": "Assigned to Contractor",
    "contractor": "Metro Disposal",
    "rowid": "888638",
    "final_x": "3711541.80075",
    "final_y": "564780.067554",
    "longitude": "-89.97196232363352",
    "latitude": "30.04600178137426",
    "geocoded_column": {
      "latitude": "30.04600178137426",
      "longitude": "-89.97196232363352"
    }
  },
  {
    "service_request": "2022-888636",
    "request_type": "Roads/Drainage",
    "request_reason": "Damaged Sidewalk",
    "date_created": "2022-06-03T15:06:05.000",
    "date_modified": "2022-06-03T15:06:05.000",
    "request_status": "Pending",
    "responsible_agency": "Department of Public Works",
    "final_address": "1121 General Pershing St",
    "address_councildis": "B",
    "status": "Pending",
    "rowid": "888636",
    "final_x": "3671407.31361",
    "final_y": "519739.194616",
    "longitude": "-90.10033975672683",
    "latitude": "29.923404873376775",
    "geocoded_column": {
      "latitude": "29.923404873376775",
      "longitude": "-90.10033975672683"
    }
  },
  {
    "service_request": "2022-888635",
    "request_type": "Abandoned Vehicles",
    "request_reason": "Abandoned/Junk Vehicles",
    "date_created": "2022-06-03T15:05:35.000",
    "date_modified": "2022-06-03T15:05:36.000",
    "request_status": "Pending",
    "responsible_agency": "Department of Public Works",
    "final_address": "3900 BLK Cleveland Ave",
    "address_councildis": "A",
    "status": "Pending",
    "rowid": "888635",
    "final_x": "3671372.35604",
    "final_y": "537600.442631",
    "longitude": "-90.09984316370314",
    "latitude": "29.972518482348892",
    "geocoded_column": {
      "latitude": "29.972518482348892",
      "longitude": "-90.09984316370314"
    }
  },
  {
    "service_request": "2022-888634",
    "request_type": "Trash/Recycling",
    "request_reason": "Request a Large Item Pick Up",
    "date_created": "2022-06-03T15:04:55.000",
    "date_modified": "2022-06-03T15:04:55.000",
    "request_status": "Pending",
    "responsible_agency": "Department of Sanitation",
    "final_address": "3633 Gentilly Blvd",
    "address_councildis": "D",
    "status": "Assigned to Contractor",
    "contractor": "Metro Disposal",
    "rowid": "888634",
    "final_x": "3686258.44412",
    "final_y": "548970.597075",
    "longitude": "-90.05242892381821",
    "latitude": "30.003333337013014",
    "geocoded_column": {
      "latitude": "30.003333337013014",
      "longitude": "-90.05242892381821"
    }
  },
  {
    "service_request": "2022-888633",
    "request_type": "Trash/Recycling",
    "request_reason": "Missed Trash Pick-Up",
    "date_created": "2022-06-03T15:04:07.000",
    "date_modified": "2022-06-03T15:04:08.000",
    "request_status": "Pending",
    "responsible_agency": "Department of Sanitation",
    "final_address": "3821 Nashville Ave",
    "address_councildis": "A",
    "status": "Assigned to Contractor",
    "contractor": "Richards Disposal",
    "rowid": "888633",
    "final_x": "3668602.59034",
    "final_y": "529578.385153",
    "longitude": "-90.10886134343815",
    "latitude": "29.950542172263155",
    "geocoded_column": {
      "latitude": "29.950542172263155",
      "longitude": "-90.10886134343815"
    }
  },
  {
    "service_request": "2022-888631",
    "request_type": "Trash/Recycling",
    "request_reason": "Missed Trash Pick-Up",
    "date_created": "2022-06-03T15:00:43.000",
    "date_modified": "2022-06-03T15:00:44.000",
    "request_status": "Pending",
    "responsible_agency": "Department of Sanitation",
    "final_address": "700 Block of Jefferson Ave, New Orleans, Louisiana, 70115",
    "status": "Assigned to Contractor",
    "rowid": "888631",
    "longitude": "0.0",
    "latitude": "0.0",
    "geocoded_column": {
      "latitude": "0.0",
      "longitude": "0.0"
    }
  },
  {
    "service_request": "2022-888629",
    "request_type": "Trash/Recycling",
    "request_reason": "MIssed Recycling Pick-Up",
    "date_created": "2022-06-03T14:59:48.000",
    "date_modified": "2022-06-03T14:59:49.000",
    "request_status": "Pending",
    "responsible_agency": "Department of Sanitation",
    "final_address": "1401 Terpsichore St",
    "address_councildis": "B",
    "status": "Assigned to Contractor",
    "contractor": "Richards Disposal",
    "rowid": "888629",
    "final_x": "3679812.38626",
    "final_y": "524863.905212",
    "longitude": "-90.07363025788041",
    "latitude": "29.937244778901164",
    "geocoded_column": {
      "latitude": "29.937244778901164",
      "longitude": "-90.07363025788041"
    }
  },
  {
    "service_request": "2022-888628",
    "request_type": "Trash/Recycling",
    "request_reason": "Request a Large Item Pick Up",
    "date_created": "2022-06-03T14:59:12.000",
    "date_modified": "2022-06-03T15:00:55.000",
    "request_status": "Pending",
    "responsible_agency": "Department of Sanitation",
    "final_address": "4931 Lennox Blvd",
    "address_councildis": "C",
    "status": "Assigned to Contractor",
    "contractor": "Richards Disposal",
    "rowid": "888628",
    "final_x": "3700599.47889",
    "final_y": "512107.815217",
    "longitude": "-90.00847017220299",
    "latitude": "29.901525153493413",
    "geocoded_column": {
      "latitude": "29.901525153493413",
      "longitude": "-90.00847017220299"
    }
  },
  {
    "service_request": "2022-888627",
    "request_type": "Trash/Recycling",
    "request_reason": "Missed Trash Pick-Up",
    "date_created": "2022-06-03T14:57:58.000",
    "date_modified": "2022-06-03T14:57:59.000",
    "request_status": "Pending",
    "responsible_agency": "Department of Sanitation",
    "final_address": "2717 Valence St",
    "address_councildis": "B",
    "status": "Assigned to Contractor",
    "contractor": "Richards Disposal",
    "rowid": "888627",
    "final_x": "3669385.23354",
    "final_y": "524783.170428",
    "longitude": "-90.10655225693151",
    "latitude": "29.93733386883671",
    "geocoded_column": {
      "latitude": "29.93733386883671",
      "longitude": "-90.10655225693151"
    }
  },
  {
    "service_request": "2022-888626",
    "request_type": "Property Maintenance",
    "request_reason": "Property Maintenance",
    "date_created": "2022-06-03T14:56:30.000",
    "date_modified": "2022-06-03T15:02:12.000",
    "request_status": "Pending",
    "responsible_agency": "Department of Code Enforcement",
    "final_address": "4943 Coronado Dr",
    "address_councildis": "E",
    "rowid": "888626",
    "final_x": "3714073.95448",
    "final_y": "557646.443803",
    "longitude": "-89.96422891170783",
    "latitude": "30.026304213752567",
    "geocoded_column": {
      "latitude": "30.026304213752567",
      "longitude": "-89.96422891170783"
    }
  },
  {
    "service_request": "2022-888625",
    "request_type": "Trash/Recycling",
    "request_reason": "Request a Large Item Pick Up",
    "date_created": "2022-06-03T14:55:42.000",
    "date_modified": "2022-06-03T14:55:42.000",
    "request_status": "Pending",
    "responsible_agency": "Department of Sanitation",
    "final_address": "2914 Cleveland Ave",
    "address_councildis": "B",
    "status": "Assigned to Contractor",
    "contractor": "Richards Disposal",
    "rowid": "888625",
    "final_x": "3674175.20769",
    "final_y": "535418.615558",
    "longitude": "-90.09106594884085",
    "latitude": "29.966435934485773",
    "geocoded_column": {
      "latitude": "29.966435934485773",
      "longitude": "-90.09106594884085"
    }
  },
  {
    "service_request": "2022-888624",
    "request_type": "Abandoned Vehicles",
    "request_reason": "Abandoned/Junk Vehicles",
    "date_created": "2022-06-03T14:55:29.000",
    "date_modified": "2022-06-03T14:55:30.000",
    "request_status": "Pending",
    "responsible_agency": "Department of Public Works",
    "final_address": "2019 Pelopidas St",
    "address_councildis": "D",
    "status": "Pending",
    "rowid": "888624",
    "final_x": "3682757.31637",
    "final_y": "548093.556882",
    "longitude": "-90.06352021936252",
    "latitude": "30.001028942643444",
    "geocoded_column": {
      "latitude": "30.001028942643444",
      "longitude": "-90.06352021936252"
    }
  },
  {
    "service_request": "2022-888623",
    "request_type": "Trash/Recycling",
    "request_reason": "Missed Trash Pick-Up",
    "date_created": "2022-06-03T14:54:56.000",
    "date_modified": "2022-06-03T14:54:56.000",
    "request_status": "Pending",
    "responsible_agency": "Department of Sanitation",
    "final_address": "2500 BLK First St",
    "address_councildis": "B",
    "status": "Assigned to Contractor",
    "contractor": "Richards Disposal",
    "rowid": "888623",
    "final_x": "3675046.35984",
    "final_y": "526096.293396",
    "longitude": "-90.08863465607536",
    "latitude": "29.940776654786987",
    "geocoded_column": {
      "latitude": "29.940776654786987",
      "longitude": "-90.08863465607536"
    }
  },
  {
    "service_request": "2022-888622",
    "request_type": "Trash/Recycling",
    "request_reason": "Replace Recycling Cart",
    "date_created": "2022-06-03T14:51:09.000",
    "date_modified": "2022-06-03T14:51:09.000",
    "request_status": "Pending",
    "responsible_agency": "Department of Sanitation",
    "final_address": "7320 Hurst St",
    "address_councildis": "A",
    "status": "Pending",
    "rowid": "888622",
    "final_x": "3661819.1513",
    "final_y": "523847.623483",
    "longitude": "-90.13047000182155",
    "latitude": "29.934981980100186",
    "geocoded_column": {
      "latitude": "29.934981980100186",
      "longitude": "-90.13047000182155"
    }
  },
  {
    "service_request": "2022-888621",
    "request_type": "Trash/Recycling",
    "request_reason": "Request a Large Item Pick Up",
    "date_created": "2022-06-03T14:50:37.000",
    "date_modified": "2022-06-03T14:50:38.000",
    "request_status": "Pending",
    "responsible_agency": "Department of Sanitation",
    "final_address": "1823 General Collins Ave",
    "address_councildis": "C",
    "status": "Assigned to Contractor",
    "contractor": "Richards Disposal",
    "rowid": "888621",
    "final_x": "3698455.43786",
    "final_y": "524136.661756",
    "longitude": "-90.01479974622758",
    "latitude": "29.93466838424428",
    "geocoded_column": {
      "latitude": "29.93466838424428",
      "longitude": "-90.01479974622758"
    }
  },
  {
    "service_request": "2022-888620",
    "request_type": "Trash/Recycling",
    "request_reason": "Request a Large Item Pick Up",
    "date_created": "2022-06-03T14:49:39.000",
    "date_modified": "2022-06-03T14:49:39.000",
    "request_status": "Pending",
    "responsible_agency": "Department of Sanitation",
    "final_address": "7608 Primrose Dr",
    "address_councildis": "E",
    "status": "Assigned to Contractor",
    "contractor": "Metro Disposal",
    "rowid": "888620",
    "final_x": "3701699.08868",
    "final_y": "561163.977374",
    "longitude": "-90.00320272683656",
    "latitude": "30.03637682201858",
    "geocoded_column": {
      "latitude": "30.03637682201858",
      "longitude": "-90.00320272683656"
    }
  },
  {
    "service_request": "2022-888619",
    "request_type": "Trash/Recycling",
    "request_reason": "Replace Trash Cart",
    "date_created": "2022-06-03T14:46:09.000",
    "date_modified": "2022-06-03T14:46:09.000",
    "request_status": "Pending",
    "responsible_agency": "Department of Sanitation",
    "final_address": "1115 Dante St",
    "address_councildis": "A",
    "status": "Assigned to Contractor",
    "contractor": "Richards Disposal",
    "rowid": "888619",
    "final_x": "3661343.14701",
    "final_y": "528684.622592",
    "longitude": "-90.13181262669113",
    "latitude": "29.948295923621295",
    "geocoded_column": {
      "latitude": "29.948295923621295",
      "longitude": "-90.13181262669113"
    }
  },
  {
    "service_request": "2022-888618",
    "request_type": "Trash/Recycling",
    "request_reason": "MIssed Recycling Pick-Up",
    "date_created": "2022-06-03T14:44:29.000",
    "date_modified": "2022-06-03T14:44:30.000",
    "request_status": "Pending",
    "responsible_agency": "Department of Sanitation",
    "final_address": "215 Alonzo St",
    "address_councildis": "A",
    "status": "Assigned to Contractor",
    "contractor": "Richards Disposal",
    "rowid": "888618",
    "final_x": "3664554.32506",
    "final_y": "517189.431861",
    "longitude": "-90.12205724789747",
    "latitude": "29.91659481058094",
    "geocoded_column": {
      "latitude": "29.91659481058094",
      "longitude": "-90.12205724789747"
    }
  },
  {
    "service_request": "2022-888617",
    "request_type": "Trash/Recycling",
    "request_reason": "Start Trash Service",
    "date_created": "2022-06-03T14:42:38.000",
    "date_modified": "2022-06-03T14:42:39.000",
    "request_status": "Pending",
    "responsible_agency": "Department of Sanitation",
    "final_address": "1039 Poland Ave, New Orleans, Louisiana, 70117",
    "address_councildis": "C",
    "status": "Assigned to Contractor",
    "contractor": "Metro Disposal",
    "rowid": "888617",
    "final_x": "3693067.72304",
    "final_y": "534830.334982",
    "longitude": "-90.03142500790615",
    "latitude": "29.96424165041297",
    "geocoded_column": {
      "latitude": "29.96424165041297",
      "longitude": "-90.03142500790615"
    }
  },
  {
    "service_request": "2022-888616",
    "request_type": "Trash/Recycling",
    "request_reason": "Missed Trash Pick-Up",
    "date_created": "2022-06-03T14:41:38.000",
    "date_modified": "2022-06-03T14:41:39.000",
    "request_status": "Pending",
    "responsible_agency": "Department of Sanitation",
    "final_address": "1215 Exposition Blvd",
    "address_councildis": "A",
    "status": "Assigned to Contractor",
    "contractor": "Richards Disposal",
    "rowid": "888616",
    "final_x": "3663816.01651",
    "final_y": "521202.414841",
    "longitude": "-90.12425400556319",
    "latitude": "29.927650700319177",
    "geocoded_column": {
      "latitude": "29.927650700319177",
      "longitude": "-90.12425400556319"
    }
  },
  {
    "service_request": "2022-888615",
    "request_type": "Trash/Recycling",
    "request_reason": "Return Trash Cart",
    "date_created": "2022-06-03T14:38:24.000",
    "date_modified": "2022-06-03T14:38:25.000",
    "request_status": "Pending",
    "responsible_agency": "Department of Sanitation",
    "final_address": "9412 Palm St",
    "address_councildis": "A",
    "status": "Assigned to Contractor",
    "contractor": "Richards Disposal",
    "rowid": "888615",
    "final_x": "3664141.7881",
    "final_y": "537883.779977",
    "longitude": "-90.12266923646682",
    "latitude": "29.973509609122008",
    "geocoded_column": {
      "latitude": "29.973509609122008",
      "longitude": "-90.12266923646682"
    }
  },
  {
    "service_request": "2022-888614",
    "request_type": "Abandoned Vehicles",
    "request_reason": "Abandoned/Junk Vehicles",
    "date_created": "2022-06-03T14:37:58.000",
    "date_modified": "2022-06-03T14:37:58.000",
    "request_status": "Pending",
    "responsible_agency": "Department of Public Works",
    "final_address": "5209 Perrier St",
    "address_councildis": "B",
    "status": "Pending",
    "rowid": "888614",
    "final_x": "3667984.57537",
    "final_y": "519962.996856",
    "longitude": "-90.11113655805326",
    "latitude": "29.9241210876722",
    "geocoded_column": {
      "latitude": "29.9241210876722",
      "longitude": "-90.11113655805326"
    }
  },
  {
    "service_request": "2022-888613",
    "request_type": "Trash/Recycling",
    "request_reason": "Request a Large Item Pick Up",
    "date_created": "2022-06-03T14:35:01.000",
    "date_modified": "2022-06-03T14:35:02.000",
    "request_status": "Pending",
    "responsible_agency": "Department of Sanitation",
    "final_address": "9122 Forshey St",
    "address_councildis": "A",
    "status": "Assigned to Contractor",
    "contractor": "Richards Disposal",
    "rowid": "888613",
    "final_x": "3664237.90298",
    "final_y": "536393.898119",
    "longitude": "-90.12241541020055",
    "latitude": "29.96941013471971",
    "geocoded_column": {
      "latitude": "29.96941013471971",
      "longitude": "-90.12241541020055"
    }
  },
  {
    "service_request": "2022-888612",
    "request_type": "Roads/Drainage",
    "request_reason": "Pothole",
    "date_created": "2022-06-03T14:34:03.000",
    "date_modified": "2022-06-03T14:42:29.000",
    "request_status": "Pending",
    "responsible_agency": "Department of Public Works",
    "final_address": "New Orleans,LA",
    "address_councildis": "A",
    "rowid": "888612",
    "final_x": "3665251.95034",
    "final_y": "554163.290072",
    "longitude": "-90.1186180504778",
    "latitude": "30.018240395380584",
    "geocoded_column": {
      "latitude": "30.018240395380584",
      "longitude": "-90.1186180504778"
    }
  },
  {
    "service_request": "2022-888611",
    "request_type": "Trash/Recycling",
    "request_reason": "Order Trash Cart",
    "date_created": "2022-06-03T14:33:42.000",
    "date_modified": "2022-06-03T14:33:43.000",
    "request_status": "Pending",
    "responsible_agency": "Department of Sanitation",
    "final_address": "1902 Bayou Rd, New Orleans, Louisiana, 70116",
    "address_councildis": "D",
    "status": "Assigned to Contractor",
    "contractor": "Richards Disposal",
    "rowid": "888611",
    "final_x": "3680439.93",
    "final_y": "536768.050312",
    "longitude": "-90.071235111548",
    "latitude": "29.969958175248518",
    "geocoded_column": {
      "latitude": "29.969958175248518",
      "longitude": "-90.071235111548"
    }
  },
  {
    "service_request": "2022-888608",
    "request_type": "Parks & Parkways",
    "request_reason": "Request Tree Service (Right of Way/Public Property)",
    "date_created": "2022-06-03T14:33:09.000",
    "date_modified": "2022-06-03T14:33:10.000",
    "request_status": "Pending",
    "responsible_agency": "Department of Parks & Parkway",
    "final_address": "1121 General Pershing St",
    "address_councildis": "B",
    "status": "Pending",
    "rowid": "888608",
    "final_x": "3671407.31361",
    "final_y": "519739.194616",
    "longitude": "-90.10033975672683",
    "latitude": "29.923404873376775",
    "geocoded_column": {
      "latitude": "29.923404873376775",
      "longitude": "-90.10033975672683"
    }
  },
  {
    "service_request": "2022-888606",
    "request_type": "Trash/Recycling",
    "request_reason": "Missed Trash Pick-Up",
    "date_created": "2022-06-03T14:20:01.000",
    "date_modified": "2022-06-03T14:20:02.000",
    "request_status": "Pending",
    "responsible_agency": "Department of Sanitation",
    "final_address": "4133 Vincennes Pl",
    "address_councildis": "B",
    "status": "Assigned to Contractor",
    "contractor": "Richards Disposal",
    "rowid": "888606",
    "final_x": "3668690.06023",
    "final_y": "530771.10797",
    "longitude": "-90.10854490304123",
    "latitude": "29.953819199199952",
    "geocoded_column": {
      "latitude": "29.953819199199952",
      "longitude": "-90.10854490304123"
    }
  },
  {
    "service_request": "2022-888605",
    "request_type": "Roads/Drainage",
    "request_reason": "Alley Way",
    "date_created": "2022-06-03T14:17:51.000",
    "date_modified": "2022-06-03T14:22:05.000",
    "request_status": "Pending",
    "responsible_agency": "Department of Public Works",
    "final_address": "6400 Canal Blvd",
    "address_councildis": "A",
    "status": "Inspected",
    "rowid": "888605",
    "final_x": "3668597.5321",
    "final_y": "550144.633428",
    "longitude": "-90.10818299140703",
    "latitude": "30.007092557754174",
    "geocoded_column": {
      "latitude": "30.007092557754174",
      "longitude": "-90.10818299140703"
    }
  },
  {
    "service_request": "2022-888604",
    "request_type": "Trash/Recycling",
    "request_reason": "Order Recycling Cart",
    "date_created": "2022-06-03T14:17:12.000",
    "date_modified": "2022-06-03T14:17:12.000",
    "request_status": "Pending",
    "responsible_agency": "Department of Sanitation",
    "final_address": "510 Upperline St, New Orleans, Louisiana, 70115",
    "address_councildis": "B",
    "status": "Pending",
    "rowid": "888604",
    "final_x": "3669125.61754",
    "final_y": "524015.583804",
    "longitude": "-90.1073978112331",
    "latitude": "29.9352308928375",
    "geocoded_column": {
      "latitude": "29.9352308928375",
      "longitude": "-90.1073978112331"
    }
  },
  {
    "service_request": "2022-888603",
    "request_type": "Roads/Drainage",
    "request_reason": "Leaking Hydrant",
    "date_created": "2022-06-03T14:16:00.000",
    "date_modified": "2022-06-03T14:16:01.000",
    "request_status": "Pending",
    "responsible_agency": "Department of Public Works",
    "final_address": "1801 Willow St",
    "address_councildis": "B",
    "status": "Pending",
    "rowid": "888603",
    "final_x": "3675238.57883",
    "final_y": "527763.826495",
    "longitude": "-90.08797056689869",
    "latitude": "29.945356079094662",
    "geocoded_column": {
      "latitude": "29.945356079094662",
      "longitude": "-90.08797056689869"
    }
  },
  {
    "service_request": "2022-888602",
    "request_type": "Traffic Signals/Signs/Striping/Streetlights",
    "request_reason": "Street Light Outage/Malfunction",
    "date_created": "2022-06-03T14:06:25.000",
    "date_modified": "2022-06-03T14:06:26.000",
    "request_status": "Pending",
    "responsible_agency": "Department of Public Works",
    "final_address": "4430 Burgundy St",
    "address_councildis": "C",
    "status": "Pending",
    "contractor": "Royal Engineering",
    "rowid": "888602",
    "final_x": "3693057.12681",
    "final_y": "534086.308037",
    "longitude": "-90.03148516446547",
    "latitude": "29.962196169161007",
    "geocoded_column": {
      "latitude": "29.962196169161007",
      "longitude": "-90.03148516446547"
    }
  },
  {
    "service_request": "2022-888601",
    "request_type": "Traffic Signals/Signs/Striping/Streetlights",
    "request_reason": "Street Light Outage/Malfunction",
    "date_created": "2022-06-03T14:02:03.000",
    "date_modified": "2022-06-03T14:02:04.000",
    "request_status": "Pending",
    "responsible_agency": "Department of Public Works",
    "final_address": "800 Royal St",
    "address_councildis": "C",
    "status": "Pending",
    "contractor": "Royal Engineering",
    "rowid": "888601",
    "final_x": "3682814.15509",
    "final_y": "532767.737924",
    "longitude": "-90.06387704805003",
    "latitude": "29.958886570506237",
    "geocoded_column": {
      "latitude": "29.958886570506237",
      "longitude": "-90.06387704805003"
    }
  },
  {
    "service_request": "2022-888600",
    "request_type": "Trash/Recycling",
    "request_reason": "Illegal Dumping",
    "date_created": "2022-06-03T14:01:38.000",
    "date_modified": "2022-06-03T14:01:38.000",
    "request_status": "Pending",
    "responsible_agency": "Department of Sanitation",
    "final_address": "5825 Tullis Dr",
    "address_councildis": "C",
    "status": "Pending",
    "rowid": "888600",
    "final_x": "3705662.28107",
    "final_y": "512920.931825",
    "longitude": "-89.99246240992088",
    "latitude": "29.903599016032263",
    "geocoded_column": {
      "latitude": "29.903599016032263",
      "longitude": "-89.99246240992088"
    }
  },
  {
    "service_request": "2022-888599",
    "request_type": "Traffic Signals/Signs/Striping/Streetlights",
    "request_reason": "Street Light Outage/Malfunction",
    "date_created": "2022-06-03T14:00:25.000",
    "date_modified": "2022-06-03T14:00:26.000",
    "request_status": "Pending",
    "responsible_agency": "Department of Public Works",
    "final_address": "4227 Paris Ave",
    "address_councildis": "D",
    "status": "Pending",
    "contractor": "Royal Engineering",
    "rowid": "888599",
    "final_x": "3679608.98363",
    "final_y": "547810.923346",
    "longitude": "-90.07347587427674",
    "latitude": "30.000347359293652",
    "geocoded_column": {
      "latitude": "30.000347359293652",
      "longitude": "-90.07347587427674"
    }
  },
  {
    "service_request": "2022-888598",
    "request_type": "Abandoned Vehicles",
    "request_reason": "Abandoned/Junk Vehicles",
    "date_created": "2022-06-03T13:56:38.000",
    "date_modified": "2022-06-03T13:56:38.000",
    "request_status": "Pending",
    "responsible_agency": "Department of Public Works",
    "final_address": "DIXON ST & HAMILTON ST",
    "address_councildis": "A",
    "status": "Pending",
    "rowid": "888598",
    "final_x": "3665818.5",
    "final_y": "537850.88",
    "longitude": "-90.1173749097371",
    "latitude": "29.97337032650915",
    "geocoded_column": {
      "latitude": "29.97337032650915",
      "longitude": "-90.1173749097371"
    }
  },
  {
    "service_request": "2022-888597",
    "request_type": "Trash/Recycling",
    "request_reason": "Request a Large Item Pick Up",
    "date_created": "2022-06-03T13:54:24.000",
    "date_modified": "2022-06-03T13:54:28.000",
    "request_status": "Pending",
    "responsible_agency": "Department of Sanitation",
    "final_address": "5001 S Tonti St",
    "address_councildis": "A",
    "status": "Assigned to Contractor",
    "contractor": "Richards Disposal",
    "rowid": "888597",
    "final_x": "3668908.37511",
    "final_y": "528023.610559",
    "longitude": "-90.10794832995936",
    "latitude": "29.94625806040864",
    "geocoded_column": {
      "latitude": "29.94625806040864",
      "longitude": "-90.10794832995936"
    }
  },
  {
    "service_request": "2022-888596",
    "request_type": "Trash/Recycling",
    "request_reason": "Request a Large Item Pick Up",
    "date_created": "2022-06-03T13:53:58.000",
    "date_modified": "2022-06-03T13:53:59.000",
    "request_status": "Pending",
    "responsible_agency": "Department of Sanitation",
    "final_address": "3912 Jena St",
    "address_councildis": "B",
    "status": "Assigned to Contractor",
    "contractor": "Richards Disposal",
    "rowid": "888596",
    "final_x": "3669593.5307",
    "final_y": "528815.30688",
    "longitude": "-90.10575826968777",
    "latitude": "29.948414801928795",
    "geocoded_column": {
      "latitude": "29.948414801928795",
      "longitude": "-90.10575826968777"
    }
  },
  {
    "service_request": "2022-888595",
    "request_type": "Trash/Recycling",
    "request_reason": "Repair Trash Cart",
    "date_created": "2022-06-03T13:53:58.000",
    "date_modified": "2022-06-03T13:53:59.000",
    "request_status": "Pending",
    "responsible_agency": "Department of Sanitation",
    "final_address": "1233 Seventh St",
    "address_councildis": "B",
    "status": "Assigned to Contractor",
    "contractor": "Richards Disposal",
    "rowid": "888595",
    "final_x": "3676057.31093",
    "final_y": "520945.804409",
    "longitude": "-90.08561997132745",
    "latitude": "29.926584256394158",
    "geocoded_column": {
      "latitude": "29.926584256394158",
      "longitude": "-90.08561997132745"
    }
  },
  {
    "service_request": "2022-888594",
    "request_type": "Trash/Recycling",
    "request_reason": "Repair Trash Cart",
    "date_created": "2022-06-03T13:53:19.000",
    "date_modified": "2022-06-03T13:53:20.000",
    "request_status": "Pending",
    "responsible_agency": "Department of Sanitation",
    "final_address": "1235 Seventh St",
    "address_councildis": "B",
    "status": "Assigned to Contractor",
    "contractor": "Richards Disposal",
    "rowid": "888594",
    "final_x": "3676047.19323",
    "final_y": "520962.667129",
    "longitude": "-90.08565133053692",
    "latitude": "29.92663092634757",
    "geocoded_column": {
      "latitude": "29.92663092634757",
      "longitude": "-90.08565133053692"
    }
  },
  {
    "service_request": "2022-888593",
    "request_type": "Roads/Drainage",
    "request_reason": "Damaged Sidewalk",
    "date_created": "2022-06-03T13:52:50.000",
    "date_modified": "2022-06-03T13:52:51.000",
    "request_status": "Pending",
    "responsible_agency": "Department of Public Works",
    "final_address": "GALAHAD DR & HAMMOND ST",
    "address_councildis": "E",
    "status": "Pending",
    "rowid": "888593",
    "final_x": "3707172.4",
    "final_y": "555889.48",
    "longitude": "-89.98610209374533",
    "latitude": "30.021698184300472",
    "geocoded_column": {
      "latitude": "30.021698184300472",
      "longitude": "-89.98610209374533"
    }
  },
  {
    "service_request": "2022-888592",
    "request_type": "Property Maintenance",
    "request_reason": "Property Maintenance",
    "date_created": "2022-06-03T13:52:33.000",
    "date_modified": "2022-06-03T13:57:50.000",
    "case_close_date": "2022-06-03T08:57:50.000",
    "request_status": "Closed",
    "responsible_agency": "Department of Code Enforcement",
    "final_address": "3820 Napoleon Ave",
    "address_councildis": "B",
    "status": "Referred to Code Enforcement",
    "rowid": "888592",
    "final_x": "3669911.35822",
    "final_y": "528620.084544",
    "longitude": "-90.10476136227909",
    "latitude": "29.94786863787977",
    "geocoded_column": {
      "latitude": "29.94786863787977",
      "longitude": "-90.10476136227909"
    }
  },
  {
    "service_request": "2022-888591",
    "request_type": "Roads/Drainage",
    "request_reason": "Pothole",
    "date_created": "2022-06-03T13:49:51.000",
    "date_modified": "2022-06-03T13:49:51.000",
    "request_status": "Pending",
    "responsible_agency": "Department of Public Works",
    "final_address": "WALLACE DR & STEPHEN GIRARD AVE",
    "address_councildis": "D",
    "status": "Pending",
    "rowid": "888591",
    "final_x": "3681649.8",
    "final_y": "548537.78",
    "longitude": "-90.06700344197121",
    "latitude": "30.002284098330833",
    "geocoded_column": {
      "latitude": "30.002284098330833",
      "longitude": "-90.06700344197121"
    }
  },
  {
    "service_request": "2022-888590",
    "request_type": "Traffic Signals/Signs/Striping/Streetlights",
    "request_reason": "Street Light Outage/Malfunction",
    "date_created": "2022-06-03T13:45:19.000",
    "date_modified": "2022-06-03T13:45:19.000",
    "request_status": "Pending",
    "responsible_agency": "Department of Public Works",
    "final_address": "342 Slidell St",
    "address_councildis": "C",
    "status": "Pending",
    "contractor": "Royal Engineering",
    "rowid": "888590",
    "final_x": "3686452.78268",
    "final_y": "528721.44384",
    "longitude": "-90.0525300284556",
    "latitude": "29.9476493020406",
    "geocoded_column": {
      "latitude": "29.9476493020406",
      "longitude": "-90.0525300284556"
    }
  },
  {
    "service_request": "2022-888589",
    "request_type": "Trash/Recycling",
    "request_reason": "Order Trash Cart",
    "date_created": "2022-06-03T13:44:57.000",
    "date_modified": "2022-06-03T13:44:57.000",
    "request_status": "Pending",
    "responsible_agency": "Department of Sanitation",
    "final_address": "810 St Ann St",
    "address_councildis": "C",
    "status": "Assigned to Contractor",
    "contractor": "Empire Services",
    "rowid": "888589",
    "final_x": "3682385.81084",
    "final_y": "533033.832644",
    "longitude": "-90.06522035036042",
    "latitude": "29.95963128187457",
    "geocoded_column": {
      "latitude": "29.95963128187457",
      "longitude": "-90.06522035036042"
    }
  },
  {
    "service_request": "2022-888588",
    "request_type": "Trash/Recycling",
    "request_reason": "Order Trash Cart",
    "date_created": "2022-06-03T13:44:44.000",
    "date_modified": "2022-06-03T13:44:44.000",
    "request_status": "Pending",
    "responsible_agency": "Department of Sanitation",
    "final_address": "808 St Ann St",
    "address_councildis": "C",
    "status": "Assigned to Contractor",
    "contractor": "Empire Services",
    "rowid": "888588",
    "final_x": "3682399.5501",
    "final_y": "533024.832132",
    "longitude": "-90.06517727952374",
    "latitude": "29.959606115436234",
    "geocoded_column": {
      "latitude": "29.959606115436234",
      "longitude": "-90.06517727952374"
    }
  },
  {
    "service_request": "2022-888587",
    "request_type": "Trash/Recycling",
    "request_reason": "Request a Large Item Pick Up",
    "date_created": "2022-06-03T13:36:27.000",
    "date_modified": "2022-06-03T13:36:27.000",
    "request_status": "Pending",
    "responsible_agency": "Department of Sanitation",
    "final_address": "6147 Catina St",
    "address_councildis": "A",
    "status": "Assigned to Contractor",
    "contractor": "Metro Disposal",
    "rowid": "888587",
    "final_x": "3666919.95674",
    "final_y": "548690.012819",
    "longitude": "-90.11353185175822",
    "latitude": "30.003142069477814",
    "geocoded_column": {
      "latitude": "30.003142069477814",
      "longitude": "-90.11353185175822"
    }
  },
  {
    "service_request": "2022-888586",
    "request_type": "Trash/Recycling",
    "request_reason": "Replace Trash Cart",
    "date_created": "2022-06-03T13:34:57.000",
    "date_modified": "2022-06-03T13:34:58.000",
    "request_status": "Pending",
    "responsible_agency": "Department of Sanitation",
    "final_address": "1429 7th St, New Orleans, Louisiana, 70115",
    "status": "Assigned to Contractor",
    "rowid": "888586",
    "longitude": "0.0",
    "latitude": "0.0",
    "geocoded_column": {
      "latitude": "0.0",
      "longitude": "0.0"
    }
  },
  {
    "service_request": "2022-888585",
    "request_type": "Abandoned Vehicles",
    "request_reason": "Abandoned/Junk Vehicles",
    "date_created": "2022-06-03T13:34:35.000",
    "date_modified": "2022-06-03T13:34:35.000",
    "request_status": "Pending",
    "responsible_agency": "Department of Public Works",
    "final_address": "1116 N White St",
    "address_councildis": "A",
    "status": "Pending",
    "rowid": "888585",
    "final_x": "3677296.14331",
    "final_y": "538865.613961",
    "longitude": "-90.08109110794436",
    "latitude": "29.9758205965483",
    "geocoded_column": {
      "latitude": "29.9758205965483",
      "longitude": "-90.08109110794436"
    }
  },
  {
    "service_request": "2022-888584",
    "request_type": "Roads/Drainage",
    "request_reason": "Street Flooding / Drainage",
    "date_created": "2022-06-03T13:34:08.000",
    "date_modified": "2022-06-03T13:34:08.000",
    "request_status": "Pending",
    "responsible_agency": "Department of Public Works",
    "final_address": "OLD GENTILLY RD & HESSER ST",
    "address_councildis": "E",
    "status": "Pending",
    "rowid": "888584",
    "final_x": "3697222.3",
    "final_y": "550699.68",
    "longitude": "-90.0177298874517",
    "latitude": "30.00774611289624",
    "geocoded_column": {
      "latitude": "30.00774611289624",
      "longitude": "-90.0177298874517"
    }
  },
  {
    "service_request": "2022-888583",
    "request_type": "Trash/Recycling",
    "request_reason": "Replace Trash Cart",
    "date_created": "2022-06-03T13:32:59.000",
    "date_modified": "2022-06-03T13:33:00.000",
    "request_status": "Pending",
    "responsible_agency": "Department of Sanitation",
    "final_address": "6033 Constance St",
    "address_councildis": "A",
    "status": "Assigned to Contractor",
    "contractor": "Richards Disposal",
    "rowid": "888583",
    "final_x": "3664363.58964",
    "final_y": "519071.465143",
    "longitude": "-90.12259652040207",
    "latitude": "29.92177535821986",
    "geocoded_column": {
      "latitude": "29.92177535821986",
      "longitude": "-90.12259652040207"
    }
  },
  {
    "service_request": "2022-888582",
    "request_type": "Property Maintenance",
    "request_reason": "Property Maintenance",
    "date_created": "2022-06-03T13:29:43.000",
    "date_modified": "2022-06-03T13:34:34.000",
    "case_close_date": "2022-06-03T08:34:34.000",
    "request_status": "Closed",
    "responsible_agency": "Department of Code Enforcement",
    "final_address": "4926 Lurline St",
    "address_councildis": "E",
    "status": "Referred to Code Enforcement",
    "rowid": "888582",
    "final_x": "3711786.74488",
    "final_y": "557230.436571",
    "longitude": "-89.97147177334558",
    "latitude": "30.025235303169012",
    "geocoded_column": {
      "latitude": "30.025235303169012",
      "longitude": "-89.97147177334558"
    }
  },
  {
    "service_request": "2022-888581",
    "request_type": "Traffic Signals/Signs/Striping/Streetlights",
    "request_reason": "Striping/Road Surface Markings",
    "date_created": "2022-06-03T13:29:19.000",
    "date_modified": "2022-06-03T13:29:19.000",
    "request_status": "Pending",
    "responsible_agency": "Department of Public Works",
    "final_address": "2832 General Meyer Ave",
    "address_councildis": "C",
    "status": "Pending",
    "rowid": "888581",
    "final_x": "3694464.40381",
    "final_y": "527283.997567",
    "longitude": "-90.02728605283228",
    "latitude": "29.943448151236865",
    "geocoded_column": {
      "latitude": "29.943448151236865",
      "longitude": "-90.02728605283228"
    }
  },
  {
    "service_request": "2022-888580",
    "request_type": "Law Enforcement Services",
    "request_reason": "Off Duty Officer for Hire",
    "date_created": "2022-06-03T13:28:26.000",
    "date_modified": "2022-06-03T13:28:26.000",
    "request_status": "Pending",
    "responsible_agency": "Office of Police Secondary Employment",
    "status": "Pending",
    "rowid": "888580",
    "longitude": "0.0",
    "latitude": "0.0",
    "geocoded_column": {
      "latitude": "0.0",
      "longitude": "0.0"
    }
  },
  {
    "service_request": "2022-888579",
    "request_type": "Roads/Drainage",
    "request_reason": "Catch Basin - Clogged",
    "date_created": "2022-06-03T13:27:12.000",
    "date_modified": "2022-06-03T13:27:12.000",
    "request_status": "Pending",
    "responsible_agency": "Department of Public Works",
    "final_address": "5880 Old Gentilly Rd",
    "address_councildis": "E",
    "status": "Pending",
    "rowid": "888579",
    "final_x": "3696377.71933",
    "final_y": "550396.853652",
    "longitude": "-90.02040911416847",
    "latitude": "30.00694008979785",
    "geocoded_column": {
      "latitude": "30.00694008979785",
      "longitude": "-90.02040911416847"
    }
  },
  {
    "service_request": "2022-888578",
    "request_type": "Abandoned Vehicles",
    "request_reason": "Abandoned/Junk Vehicles",
    "date_created": "2022-06-03T13:27:10.000",
    "date_modified": "2022-06-03T13:27:10.000",
    "request_status": "Pending",
    "responsible_agency": "Department of Public Works",
    "final_address": "829 Decatur St",
    "address_councildis": "C",
    "status": "Pending",
    "rowid": "888578",
    "final_x": "3683524.43714",
    "final_y": "532527.373316",
    "longitude": "-90.06164258358501",
    "latitude": "29.958203993590512",
    "geocoded_column": {
      "latitude": "29.958203993590512",
      "longitude": "-90.06164258358501"
    }
  },
  {
    "service_request": "2022-888576",
    "request_type": "Property Maintenance",
    "request_reason": "Property Maintenance",
    "date_created": "2022-06-03T13:18:57.000",
    "date_modified": "2022-06-03T13:36:52.000",
    "case_close_date": "2022-06-03T08:36:52.000",
    "request_status": "Closed",
    "responsible_agency": "Department of Code Enforcement",
    "final_address": "1910 Mardi Gras Blvd",
    "address_councildis": "C",
    "status": "Referred to Code Enforcement",
    "rowid": "888576",
    "final_x": "3691461.07395",
    "final_y": "525022.447229",
    "longitude": "-90.03684909695573",
    "latitude": "29.937323446875766",
    "geocoded_column": {
      "latitude": "29.937323446875766",
      "longitude": "-90.03684909695573"
    }
  },
  {
    "service_request": "2022-888575",
    "request_type": "Roads/Drainage",
    "request_reason": "Alley Way",
    "date_created": "2022-06-03T13:17:48.000",
    "date_modified": "2022-06-03T13:22:35.000",
    "request_status": "Pending",
    "responsible_agency": "Department of Public Works",
    "final_address": "615 Filmore Ave",
    "address_councildis": "A",
    "status": "Inspected",
    "rowid": "888575",
    "final_x": "3668644.56494",
    "final_y": "552124.981334",
    "longitude": "-90.10796749446133",
    "latitude": "30.01253643746281",
    "geocoded_column": {
      "latitude": "30.01253643746281",
      "longitude": "-90.10796749446133"
    }
  },