[
  {
    "service_request": "2022-918759",
    "request_type": "Trash/Recycling",
    "request_reason": "Missed Trash Pick-Up",
    "date_created": "2022-09-13T01:17:13.000",
    "date_modified": "2022-09-13T01:17:14.000",
    "request_status": "Pending",
    "responsible_agency": "Department of Sanitation",
    "final_address": "3100 N Rampart St",
    "address_councildis": "C",
    "status": "Assigned to Contractor",
    "contractor": "Metro Disposal",
    "rowid": "918759",
    "final_x": "3688911.80579",
    "final_y": "535529.622022",
    "longitude": "-90.04452417098848",
    "latitude": "29.96629362910606",
    "geocoded_column": {
      "latitude": "29.96629362910606",
      "longitude": "-90.04452417098848"
    }
  },
  {
    "service_request": "2022-918758",
    "request_type": "Roads/Drainage",
    "request_reason": "Pothole",
    "date_created": "2022-09-12T23:51:48.000",
    "date_modified": "2022-09-12T23:51:48.000",
    "request_status": "Pending",
    "responsible_agency": "Department of Public Works",
    "final_address": "7535 Hampson St",
    "address_councildis": "A",
    "status": "Pending",
    "rowid": "918758",
    "final_x": "3662198.31757",
    "final_y": "525877.183613",
    "longitude": "-90.12920563887415",
    "latitude": "29.940551677644386",
    "geocoded_column": {
      "latitude": "29.940551677644386",
      "longitude": "-90.12920563887415"
    }
  },
  {
    "service_request": "2022-918757",
    "request_type": "Safety & Permits",
    "request_reason": "Short term Rental (Enforcement)",
    "date_created": "2022-09-12T23:25:07.000",
    "date_modified": "2022-09-12T23:25:07.000",
    "request_status": "Pending",
    "responsible_agency": "Safety and Permits",
    "status": "Pending",
    "rowid": "918757",
    "longitude": "0.0",
    "latitude": "0.0",
    "geocoded_column": {
      "latitude": "0.0",
      "longitude": "0.0"
    }
  },
  {
    "service_request": "2022-918756",
    "request_type": "Trash/Recycling",
    "request_reason": "Missed Trash Pick-Up",
    "date_created": "2022-09-12T23:18:27.000",
    "date_modified": "2022-09-12T23:18:28.000",
    "request_status": "Pending",
    "responsible_agency": "Department of Sanitation",
    "final_address": "3074 Sullen Pl",
    "address_councildis": "C",
    "status": "Assigned to Contractor",
    "contractor": "Richards Disposal",
    "rowid": "918756",
    "final_x": "3707853.14174",
    "final_y": "519162.005111",
    "longitude": "-89.98531639739093",
    "latitude": "29.92068913125304",
    "geocoded_column": {
      "latitude": "29.92068913125304",
      "longitude": "-89.98531639739093"
    }
  },
  {
    "service_request": "2022-918755",
    "request_type": "Property Maintenance",
    "request_reason": "Property Maintenance",
    "date_created": "2022-09-12T23:12:30.000",
    "date_modified": "2022-09-12T23:12:30.000",
    "request_status": "Pending",
    "responsible_agency": "Department of Code Enforcement",
    "final_address": "4908 Burgundy St",
    "address_councildis": "E",
    "status": "Pending",
    "rowid": "918755",
    "final_x": "3695256.99651",
    "final_y": "533585.143109",
    "longitude": "-90.02455641255439",
    "latitude": "29.960749234713667",
    "geocoded_column": {
      "latitude": "29.960749234713667",
      "longitude": "-90.02455641255439"
    }
  },
  {
    "service_request": "2022-918754",
    "request_type": "Abandoned Vehicles",
    "request_reason": "Abandoned/Junk Vehicles",
    "date_created": "2022-09-12T22:43:12.000",
    "date_modified": "2022-09-12T22:43:12.000",
    "request_status": "Pending",
    "responsible_agency": "Department of Public Works",
    "final_address": "4906 Burgundy St",
    "address_councildis": "E",
    "status": "Pending",
    "rowid": "918754",
    "final_x": "3695244.3928",
    "final_y": "533588.743813",
    "longitude": "-90.02459608256262",
    "latitude": "29.960759531212037",
    "geocoded_column": {
      "latitude": "29.960759531212037",
      "longitude": "-90.02459608256262"
    }
  },
  {
    "service_request": "2022-918753",
    "request_type": "Property Maintenance",
    "request_reason": "Property Maintenance",
    "date_created": "2022-09-12T22:10:25.000",
    "date_modified": "2022-09-12T22:10:25.000",
    "request_status": "Pending",
    "responsible_agency": "Department of Code Enforcement",
    "final_address": "5200 Crowder Blvd",
    "address_councildis": "E",
    "status": "Pending",
    "rowid": "918753",
    "final_x": "3706110.3098",
    "final_y": "556875.952794",
    "longitude": "-89.9894214322073",
    "latitude": "30.024444895091882",
    "geocoded_column": {
      "latitude": "30.024444895091882",
      "longitude": "-89.9894214322073"
    }
  },
  {
    "service_request": "2022-918752",
    "request_type": "Property Maintenance",
    "request_reason": "Property Maintenance",
    "date_created": "2022-09-12T22:07:57.000",
    "date_modified": "2022-09-12T22:07:57.000",
    "request_status": "Pending",
    "responsible_agency": "Department of Code Enforcement",
    "final_address": "8500 Lake Forest Blvd",
    "address_councildis": "E",
    "status": "Pending",
    "rowid": "918752",
    "final_x": "3705935.25847",
    "final_y": "557946.256603",
    "longitude": "-89.98993490824265",
    "latitude": "30.02739345806355",
    "geocoded_column": {
      "latitude": "30.02739345806355",
      "longitude": "-89.98993490824265"
    }
  },
  {
    "service_request": "2022-918751",
    "request_type": "Trash/Recycling",
    "request_reason": "Replace Trash Cart",
    "date_created": "2022-09-12T22:01:16.000",
    "date_modified": "2022-09-12T22:01:17.000",
    "request_status": "Pending",
    "responsible_agency": "Department of Sanitation",
    "final_address": "New Orleans,LA",
    "status": "Assigned to Contractor",
    "rowid": "918751",
    "longitude": "0.0",
    "latitude": "0.0",
    "geocoded_column": {
      "latitude": "0.0",
      "longitude": "0.0"
    }
  },
  {
    "service_request": "2022-918750",
    "request_type": "Trash/Recycling",
    "request_reason": "Missed Trash Pick-Up",
    "date_created": "2022-09-12T21:37:28.000",
    "date_modified": "2022-09-12T21:37:29.000",
    "request_status": "Pending",
    "responsible_agency": "Department of Sanitation",
    "final_address": "2247 Milton St",
    "address_councildis": "D",
    "status": "Assigned to Contractor",
    "contractor": "Metro Disposal",
    "rowid": "918750",
    "final_x": "3684411.53103",
    "final_y": "546738.144977",
    "longitude": "-90.05834207379013",
    "latitude": "29.997251536647575",
    "geocoded_column": {
      "latitude": "29.997251536647575",
      "longitude": "-90.05834207379013"
    }
  },
  {
    "service_request": "2022-918749",
    "request_type": "Trash/Recycling",
    "request_reason": "Missed Trash Pick-Up",
    "date_created": "2022-09-12T21:37:07.000",
    "date_modified": "2022-09-12T21:37:08.000",
    "request_status": "Pending",
    "responsible_agency": "Department of Sanitation",
    "final_address": "621 Franklin Ave",
    "address_councildis": "C",
    "status": "Assigned to Contractor",
    "contractor": "Metro Disposal",
    "rowid": "918749",
    "final_x": "3686738.68508",
    "final_y": "534799.206022",
    "longitude": "-90.05141263618002",
    "latitude": "29.96435226874111",
    "geocoded_column": {
      "latitude": "29.96435226874111",
      "longitude": "-90.05141263618002"
    }
  },
  {
    "service_request": "2022-918748",
    "request_type": "Trash/Recycling",
    "request_reason": "Missed Trash Pick-Up",
    "date_created": "2022-09-12T21:32:03.000",
    "date_modified": "2022-09-12T21:32:03.000",
    "request_status": "Pending",
    "responsible_agency": "Department of Sanitation",
    "final_address": "6038 St Roch Ave",
    "address_councildis": "D",
    "status": "Assigned to Contractor",
    "contractor": "Metro Disposal",
    "rowid": "918748",
    "final_x": "3684849.52105",
    "final_y": "555387.567513",
    "longitude": "-90.05665405152598",
    "latitude": "30.02102089510698",
    "geocoded_column": {
      "latitude": "30.02102089510698",
      "longitude": "-90.05665405152598"
    }
  },
  {
    "service_request": "2022-918747",
    "request_type": "Trash/Recycling",
    "request_reason": "Request a Large Item Pick Up",
    "date_created": "2022-09-12T21:11:35.000",
    "date_modified": "2022-09-12T21:11:36.000",
    "request_status": "Pending",
    "responsible_agency": "Department of Sanitation",
    "final_address": "24 Versailles Blvd",
    "address_councildis": "A",
    "status": "Assigned to Contractor",
    "contractor": "Richards Disposal",
    "rowid": "918747",
    "final_x": "3667153.17639",
    "final_y": "529473.374721",
    "longitude": "-90.11344139000717",
    "latitude": "29.950295937144958",
    "geocoded_column": {
      "latitude": "29.950295937144958",
      "longitude": "-90.11344139000717"
    }
  },
  {
    "service_request": "2022-918746",
    "request_type": "Traffic Signals/Signs/Striping/Streetlights",
    "request_reason": "Street Light Outage/Malfunction",
    "date_created": "2022-09-12T21:06:17.000",
    "date_modified": "2022-09-12T21:06:18.000",
    "request_status": "Pending",
    "responsible_agency": "Department of Public Works",
    "final_address": "407 Kenilworth St",
    "address_councildis": "A",
    "status": "Pending",
    "contractor": "Legacy Professional Services",
    "rowid": "918746",
    "final_x": "3667403.51098",
    "final_y": "546199.502288",
    "longitude": "-90.11208808353014",
    "latitude": "29.996279862242915",
    "geocoded_column": {
      "latitude": "29.996279862242915",
      "longitude": "-90.11208808353014"
    }
  },
  {
    "service_request": "2022-918745",
    "request_type": "Trash/Recycling",
    "request_reason": "Missed Trash Pick-Up",
    "date_created": "2022-09-12T20:58:59.000",
    "date_modified": "2022-09-12T20:59:00.000",
    "request_status": "Pending",
    "responsible_agency": "Department of Sanitation",
    "final_address": "4902 Franklin Ave",
    "address_councildis": "D",
    "status": "Assigned to Contractor",
    "contractor": "Metro Disposal",
    "rowid": "918745",
    "final_x": "3686710.86524",
    "final_y": "551007.113557",
    "longitude": "-90.05092765448137",
    "latitude": "30.008919102081776",
    "geocoded_column": {
      "latitude": "30.008919102081776",
      "longitude": "-90.05092765448137"
    }
  },
  {
    "service_request": "2022-918744",
    "request_type": "Trash/Recycling",
    "request_reason": "Request a Large Item Pick Up",
    "date_created": "2022-09-12T20:55:21.000",
    "date_modified": "2022-09-12T20:55:22.000",
    "request_status": "Pending",
    "responsible_agency": "Department of Sanitation",
    "final_address": "2233 Marengo St",
    "address_councildis": "B",
    "status": "Assigned to Contractor",
    "contractor": "Richards Disposal",
    "rowid": "918744",
    "final_x": "3671758.07796",
    "final_y": "523411.239099",
    "longitude": "-90.09910766904835",
    "latitude": "29.933491433924548",
    "geocoded_column": {
      "latitude": "29.933491433924548",
      "longitude": "-90.09910766904835"
    }
  },
  {
    "service_request": "2022-918743",
    "request_type": "Trash/Recycling",
    "request_reason": "Missed Trash Pick-Up",
    "date_created": "2022-09-12T20:51:01.000",
    "date_modified": "2022-09-12T20:51:02.000",
    "request_status": "Pending",
    "responsible_agency": "Department of Sanitation",
    "final_address": "3717 Gentilly Blvd",
    "address_councildis": "D",
    "status": "Assigned to Contractor",
    "contractor": "Metro Disposal",
    "rowid": "918743",
    "final_x": "3687102.84822",
    "final_y": "548973.525587",
    "longitude": "-90.04976122380779",
    "latitude": "30.00331540745377",
    "geocoded_column": {
      "latitude": "30.00331540745377",
      "longitude": "-90.04976122380779"
    }
  },
  {
    "service_request": "2022-918742",
    "request_type": "Trash/Recycling",
    "request_reason": "Request a Large Item Pick Up",
    "date_created": "2022-09-12T20:48:54.000",
    "date_modified": "2022-09-12T20:48:54.000",
    "request_status": "Pending",
    "responsible_agency": "Department of Sanitation",
    "final_address": "4902 Franklin Ave",
    "address_councildis": "D",
    "status": "Assigned to Contractor",
    "contractor": "Metro Disposal",
    "rowid": "918742",
    "final_x": "3686710.86524",
    "final_y": "551007.113557",
    "longitude": "-90.05092765448137",
    "latitude": "30.008919102081776",
    "geocoded_column": {
      "latitude": "30.008919102081776",
      "longitude": "-90.05092765448137"
    }
  },
  {
    "service_request": "2022-918741",
    "request_type": "Parks & Parkways",
    "request_reason": "Request Tree Service (Right of Way/Public Property)",
    "date_created": "2022-09-12T20:47:21.000",
    "date_modified": "2022-09-12T20:47:21.000",
    "request_status": "Pending",
    "responsible_agency": "Department of Parks & Parkway",
    "final_address": "1140 Seventh St",
    "address_councildis": "B",
    "status": "Pending",
    "rowid": "918741",
    "final_x": "3676162.14913",
    "final_y": "520609.486648",
    "longitude": "-90.08530058909707",
    "latitude": "29.925656352017338",
    "geocoded_column": {
      "latitude": "29.925656352017338",
      "longitude": "-90.08530058909707"
    }
  },
  {
    "service_request": "2022-918740",
    "request_type": "Trash/Recycling",
    "request_reason": "Missed Trash Pick-Up",
    "date_created": "2022-09-12T20:45:18.000",
    "date_modified": "2022-09-12T20:45:19.000",
    "request_status": "Pending",
    "responsible_agency": "Department of Sanitation",
    "final_address": "4902 Franklin Ave",
    "address_councildis": "D",
    "status": "Assigned to Contractor",
    "contractor": "Metro Disposal",
    "rowid": "918740",
    "final_x": "3686710.86524",
    "final_y": "551007.113557",
    "longitude": "-90.05092765448137",
    "latitude": "30.008919102081776",
    "geocoded_column": {
      "latitude": "30.008919102081776",
      "longitude": "-90.05092765448137"
    }
  },
  {
    "service_request": "2022-918739",
    "request_type": "Abandoned Vehicles",
    "request_reason": "Abandoned/Junk Vehicles",
    "date_created": "2022-09-12T20:41:19.000",
    "date_modified": "2022-09-12T20:41:19.000",
    "request_status": "Pending",
    "responsible_agency": "Department of Public Works",
    "final_address": "7170 Edgefield Dr",
    "address_councildis": "E",
    "status": "Pending",
    "rowid": "918739",
    "final_x": "3718252.47833",
    "final_y": "569722.662246",
    "longitude": "-89.9505649386037",
    "latitude": "30.059370945131455",
    "geocoded_column": {
      "latitude": "30.059370945131455",
      "longitude": "-89.9505649386037"
    }
  },
  {
    "service_request": "2022-918738",
    "request_type": "Property Maintenance",
    "request_reason": "Property Maintenance",
    "date_created": "2022-09-12T20:38:30.000",
    "date_modified": "2022-09-12T20:38:30.000",
    "request_status": "Pending",
    "responsible_agency": "Department of Code Enforcement",
    "final_address": "1403 St Roch Ave",
    "address_councildis": "C",
    "status": "Pending",
    "rowid": "918738",
    "final_x": "3686470.8582",
    "final_y": "537577.645768",
    "longitude": "-90.05216030648705",
    "latitude": "29.972000246785218",
    "geocoded_column": {
      "latitude": "29.972000246785218",
      "longitude": "-90.05216030648705"
    }
  },
  {
    "service_request": "2022-918737",
    "request_type": "Trash/Recycling",
    "request_reason": "Missed Trash Pick-Up",
    "date_created": "2022-09-12T20:37:25.000",
    "date_modified": "2022-09-12T20:37:26.000",
    "request_status": "Pending",
    "responsible_agency": "Department of Sanitation",
    "final_address": "1434 St Roch Ave",
    "address_councildis": "C",
    "status": "Assigned to Contractor",
    "contractor": "Metro Disposal",
    "rowid": "918737",
    "final_x": "3686310.72425",
    "final_y": "537820.846153",
    "longitude": "-90.05265744990949",
    "latitude": "29.972673884997143",
    "geocoded_column": {
      "latitude": "29.972673884997143",
      "longitude": "-90.05265744990949"
    }
  },
  {
    "service_request": "2022-918736",
    "request_type": "Traffic Signals/Signs/Striping/Streetlights",
    "request_reason": "Street Light Outage/Malfunction",
    "date_created": "2022-09-12T20:35:08.000",
    "date_modified": "2022-09-12T20:35:08.000",
    "request_status": "Pending",
    "responsible_agency": "Department of Public Works",
    "final_address": "8015 Ebbtide Dr",
    "address_councildis": "E",
    "status": "Pending",
    "contractor": "Legacy Professional Services",
    "rowid": "918736",
    "final_x": "3701980.99306",
    "final_y": "562361.502047",
    "longitude": "-90.00226789702086",
    "latitude": "30.039660545430923",
    "geocoded_column": {
      "latitude": "30.039660545430923",
      "longitude": "-90.00226789702086"
    }
  },
  {
    "service_request": "2022-918735",
    "request_type": "Trash/Recycling",
    "request_reason": "Missed Trash Pick-Up",
    "date_created": "2022-09-12T20:34:47.000",
    "date_modified": "2022-09-12T20:34:47.000",
    "request_status": "Pending",
    "responsible_agency": "Department of Sanitation",
    "final_address": "305 S Pierce St",
    "address_councildis": "A",
    "status": "Assigned to Contractor",
    "contractor": "Richards Disposal",
    "rowid": "918735",
    "final_x": "3670912.3419",
    "final_y": "537382.580808",
    "longitude": "-90.10130337214864",
    "latitude": "29.971933044081446",
    "geocoded_column": {
      "latitude": "29.971933044081446",
      "longitude": "-90.10130337214864"
    }
  },
  {
    "service_request": "2022-918734",
    "request_type": "Trash/Recycling",
    "request_reason": "Missed Trash Pick-Up",
    "date_created": "2022-09-12T20:34:11.000",
    "date_modified": "2022-09-12T20:34:11.000",
    "request_status": "Pending",
    "responsible_agency": "Department of Sanitation",
    "final_address": "307 S Pierce St",
    "address_councildis": "A",
    "status": "Assigned to Contractor",
    "contractor": "Richards Disposal",
    "rowid": "918734",
    "final_x": "3670901.54734",
    "final_y": "537369.43956",
    "longitude": "-90.10133790940915",
    "latitude": "29.971897229209855",
    "geocoded_column": {
      "latitude": "29.971897229209855",
      "longitude": "-90.10133790940915"
    }
  },
  {
    "service_request": "2022-918733",
    "request_type": "Traffic Signals/Signs/Striping/Streetlights",
    "request_reason": "Request for Traffic Calming due to Speeding",
    "date_created": "2022-09-12T20:31:03.000",
    "date_modified": "2022-09-12T20:31:03.000",
    "request_status": "Pending",
    "responsible_agency": "Department of Public Works",
    "final_address": "1313 Congress St",
    "address_councildis": "D",
    "status": "Pending",
    "rowid": "918733",
    "final_x": "3690963.90492",
    "final_y": "536422.512263",
    "longitude": "-90.03801182735657",
    "latitude": "29.968685137644492",
    "geocoded_column": {
      "latitude": "29.968685137644492",
      "longitude": "-90.03801182735657"
    }
  },
  {
    "service_request": "2022-918732",
    "request_type": "Abandoned Vehicles",
    "request_reason": "Abandoned/Junk Vehicles",
    "date_created": "2022-09-12T20:20:38.000",
    "date_modified": "2022-09-12T20:20:38.000",
    "request_status": "Pending",
    "responsible_agency": "Department of Public Works",
    "final_address": "910 Hagan St",
    "address_councildis": "A",
    "status": "Pending",
    "rowid": "918732",
    "final_x": "3675199.97134",
    "final_y": "539107.027978",
    "longitude": "-90.08770313195913",
    "latitude": "29.976547225714835",
    "geocoded_column": {
      "latitude": "29.976547225714835",
      "longitude": "-90.08770313195913"
    }
  },
  {
    "service_request": "2022-918731",
    "request_type": "Trash/Recycling",
    "request_reason": "Missed Trash Pick-Up",
    "date_created": "2022-09-12T20:16:11.000",
    "date_modified": "2022-09-12T20:16:12.000",
    "request_status": "Pending",
    "responsible_agency": "Department of Sanitation",
    "final_address": "2025 Almonaster Ave",
    "address_councildis": "D",
    "status": "Assigned to Contractor",
    "contractor": "Metro Disposal",
    "rowid": "918731",
    "final_x": "3688067.44668",
    "final_y": "540027.970187",
    "longitude": "-90.04703116346818",
    "latitude": "29.97868859321199",
    "geocoded_column": {
      "latitude": "29.97868859321199",
      "longitude": "-90.04703116346818"
    }
  },
  {
    "service_request": "2022-918730",
    "request_type": "Traffic Signals/Signs/Striping/Streetlights",
    "request_reason": "Street Light Outage/Malfunction",
    "date_created": "2022-09-12T20:14:56.000",
    "date_modified": "2022-09-12T20:14:57.000",
    "request_status": "Pending",
    "responsible_agency": "Department of Public Works",
    "final_address": "789 Harrison Ave",
    "address_councildis": "A",
    "status": "Pending",
    "contractor": "Legacy Professional Services",
    "rowid": "918730",
    "final_x": "3669333.1458",
    "final_y": "549321.749139",
    "longitude": "-90.10588682848493",
    "latitude": "30.004808266233592",
    "geocoded_column": {
      "latitude": "30.004808266233592",
      "longitude": "-90.10588682848493"
    }
  },
  {
    "service_request": "2022-918729",
    "request_type": "Trash/Recycling",
    "request_reason": "Missed Trash Pick-Up",
    "date_created": "2022-09-12T20:13:03.000",
    "date_modified": "2022-09-12T20:13:04.000",
    "request_status": "Pending",
    "responsible_agency": "Department of Sanitation",
    "final_address": "1528 St Philip St",
    "address_councildis": "C",
    "status": "Assigned to Contractor",
    "contractor": "Richards Disposal",
    "rowid": "918729",
    "final_x": "3680772.24552",
    "final_y": "535182.214022",
    "longitude": "-90.07024083428946",
    "latitude": "29.96558760095176",
    "geocoded_column": {
      "latitude": "29.96558760095176",
      "longitude": "-90.07024083428946"
    }
  },
  {
    "service_request": "2022-918727",
    "request_type": "Trash/Recycling",
    "request_reason": "Missed Trash Pick-Up",
    "date_created": "2022-09-12T20:04:18.000",
    "date_modified": "2022-09-12T20:04:19.000",
    "request_status": "Pending",
    "responsible_agency": "Department of Sanitation",
    "final_address": "3616 Marigny St",
    "address_councildis": "D",
    "status": "Assigned to Contractor",
    "contractor": "Metro Disposal",
    "rowid": "918727",
    "final_x": "3684548.35772",
    "final_y": "546045.663184",
    "longitude": "-90.05793419285122",
    "latitude": "29.995343272601282",
    "geocoded_column": {
      "latitude": "29.995343272601282",
      "longitude": "-90.05793419285122"
    }
  },
  {
    "service_request": "2022-918726",
    "request_type": "Trash/Recycling",
    "request_reason": "Missed Trash Pick-Up",
    "date_created": "2022-09-12T19:51:34.000",
    "date_modified": "2022-09-12T19:51:35.000",
    "request_status": "Pending",
    "responsible_agency": "Department of Sanitation",
    "final_address": "228 S Scott St",
    "address_councildis": "A",
    "status": "Assigned to Contractor",
    "contractor": "Richards Disposal",
    "rowid": "918726",
    "final_x": "3671403.54267",
    "final_y": "537257.894728",
    "longitude": "-90.09975631715963",
    "latitude": "29.971575667962984",
    "geocoded_column": {
      "latitude": "29.971575667962984",
      "longitude": "-90.09975631715963"
    }
  },
  {
    "service_request": "2022-918724",
    "request_type": "Traffic Signals/Signs/Striping/Streetlights",
    "request_reason": "Street Light Outage/Malfunction",
    "date_created": "2022-09-12T19:46:02.000",
    "date_modified": "2022-09-12T19:46:03.000",
    "request_status": "Pending",
    "responsible_agency": "Department of Public Works",
    "final_address": "5573 Rosemary Pl",
    "address_councildis": "A",
    "status": "Pending",
    "contractor": "Legacy Professional Services",
    "rowid": "918724",
    "final_x": "3667205.3378",
    "final_y": "544618.575375",
    "longitude": "-90.11276729845154",
    "latitude": "29.991938661266854",
    "geocoded_column": {
      "latitude": "29.991938661266854",
      "longitude": "-90.11276729845154"
    }
  },
  {
    "service_request": "2022-918723",
    "request_type": "Trash/Recycling",
    "request_reason": "Request a Large Item Pick Up",
    "date_created": "2022-09-12T19:45:53.000",
    "date_modified": "2022-09-12T19:45:53.000",
    "request_status": "Pending",
    "responsible_agency": "Department of Sanitation",
    "final_address": "2812 Banks St, New Orleans, Louisiana, 70119",
    "address_councildis": "B",
    "status": "Assigned to Contractor",
    "contractor": "Richards Disposal",
    "rowid": "918723",
    "final_x": "3674003.11067",
    "final_y": "534537.857349",
    "longitude": "-90.09163957067788",
    "latitude": "29.96401927509005",
    "geocoded_column": {
      "latitude": "29.96401927509005",
      "longitude": "-90.09163957067788"
    }
  },
  {
    "service_request": "2022-918722",
    "request_type": "Trash/Recycling",
    "request_reason": "Replace Trash Cart",
    "date_created": "2022-09-12T19:42:55.000",
    "date_modified": "2022-09-12T19:42:56.000",
    "request_status": "Pending",
    "responsible_agency": "Department of Sanitation",
    "final_address": "2343 N Claiborne Ave",
    "address_councildis": "D",
    "status": "Assigned to Contractor",
    "contractor": "Metro Disposal",
    "rowid": "918722",
    "final_x": "3686014.57513",
    "final_y": "538270.117385",
    "longitude": "-90.05357689417272",
    "latitude": "29.97391832169293",
    "geocoded_column": {
      "latitude": "29.97391832169293",
      "longitude": "-90.05357689417272"
    }
  },
  {
    "service_request": "2022-918721",
    "request_type": "Trash/Recycling",
    "request_reason": "Replace Trash Cart",
    "date_created": "2022-09-12T19:41:37.000",
    "date_modified": "2022-09-12T19:41:37.000",
    "request_status": "Pending",
    "responsible_agency": "Department of Sanitation",
    "final_address": "1613 Spain St",
    "address_councildis": "D",
    "status": "Assigned to Contractor",
    "contractor": "Metro Disposal",
    "rowid": "918721",
    "final_x": "3686007.81455",
    "final_y": "538357.241801",
    "longitude": "-90.05359517242844",
    "latitude": "29.974158090948645",
    "geocoded_column": {
      "latitude": "29.974158090948645",
      "longitude": "-90.05359517242844"
    }
  },
  {
    "service_request": "2022-918720",
    "request_type": "Trash/Recycling",
    "request_reason": "Replace Trash Cart",
    "date_created": "2022-09-12T19:40:00.000",
    "date_modified": "2022-09-12T19:40:00.000",
    "request_status": "Pending",
    "responsible_agency": "Department of Sanitation",
    "final_address": "2347 N Claiborne Ave",
    "address_councildis": "D",
    "status": "Assigned to Contractor",
    "contractor": "Metro Disposal",
    "rowid": "918720",
    "final_x": "3686060.05225",
    "final_y": "538277.770057",
    "longitude": "-90.05343299762539",
    "latitude": "29.973937967176425",
    "geocoded_column": {
      "latitude": "29.973937967176425",
      "longitude": "-90.05343299762539"
    }
  },
  {
    "service_request": "2022-918719",
    "request_type": "Property Maintenance",
    "request_reason": "Property Maintenance",
    "date_created": "2022-09-12T19:39:51.000",
    "date_modified": "2022-09-12T19:39:51.000",
    "request_status": "Pending",
    "responsible_agency": "Department of Code Enforcement",
    "final_address": "New Orleans, Louisiana",
    "status": "Pending",
    "rowid": "918719",
    "longitude": "0.0",
    "latitude": "0.0",
    "geocoded_column": {
      "latitude": "0.0",
      "longitude": "0.0"
    }
  },
  {
    "service_request": "2022-918718",
    "request_type": "Trash/Recycling",
    "request_reason": "Missed Trash Pick-Up",
    "date_created": "2022-09-12T19:37:13.000",
    "date_modified": "2022-09-12T19:37:13.000",
    "request_status": "Pending",
    "responsible_agency": "Department of Sanitation",
    "final_address": "4956 Venus St",
    "address_councildis": "D",
    "status": "Assigned to Contractor",
    "contractor": "Metro Disposal",
    "rowid": "918718",
    "final_x": "3686336.67478",
    "final_y": "551460.660949",
    "longitude": "-90.05209382123702",
    "latitude": "30.010177701662567",
    "geocoded_column": {
      "latitude": "30.010177701662567",
      "longitude": "-90.05209382123702"
    }
  },
  {
    "service_request": "2022-918716",
    "request_type": "Trash/Recycling",
    "request_reason": "Repair Trash Cart",
    "date_created": "2022-09-12T19:24:08.000",
    "date_modified": "2022-09-12T19:24:08.000",
    "request_status": "Pending",
    "responsible_agency": "Department of Sanitation",
    "final_address": "3014 St Thomas St",
    "address_councildis": "B",
    "status": "Assigned to Contractor",
    "contractor": "Richards Disposal",
    "rowid": "918716",
    "final_x": "3677285.06971",
    "final_y": "518757.117047",
    "longitude": "-90.08181973439937",
    "latitude": "29.920529256861116",
    "geocoded_column": {
      "latitude": "29.920529256861116",
      "longitude": "-90.08181973439937"
    }
  },
  {
    "service_request": "2022-918715",
    "request_type": "Trash/Recycling",
    "request_reason": "Missed Trash Pick-Up",
    "date_created": "2022-09-12T19:14:05.000",
    "date_modified": "2022-09-12T19:14:19.000",
    "request_status": "Pending",
    "responsible_agency": "Department of Sanitation",
    "final_address": "2250 N Derbigny St, New Orleans, Louisiana, 70117",
    "address_councildis": "D",
    "status": "Assigned to Contractor",
    "contractor": "Metro Disposal",
    "rowid": "918715",
    "final_x": "3685372.84143",
    "final_y": "538527.865289",
    "longitude": "-90.05559455116278",
    "latitude": "29.974646730395623",
    "geocoded_column": {
      "latitude": "29.974646730395623",
      "longitude": "-90.05559455116278"
    }
  },
  {
    "service_request": "2022-918714",
    "request_type": "Trash/Recycling",
    "request_reason": "MIssed Recycling Pick-Up",
    "date_created": "2022-09-12T19:12:58.000",
    "date_modified": "2022-09-12T19:12:59.000",
    "request_status": "Pending",
    "responsible_agency": "Department of Sanitation",
    "final_address": "326 Olivier St",
    "address_councildis": "C",
    "status": "Assigned to Contractor",
    "contractor": "Richards Disposal",
    "rowid": "918714",
    "final_x": "3687331.04246",
    "final_y": "530538.149122",
    "longitude": "-90.04969276657363",
    "latitude": "29.952617597522817",
    "geocoded_column": {
      "latitude": "29.952617597522817",
      "longitude": "-90.04969276657363"
    }
  },
  {
    "service_request": "2022-918713",
    "request_type": "Trash/Recycling",
    "request_reason": "Missed Trash Pick-Up",
    "date_created": "2022-09-12T19:04:10.000",
    "date_modified": "2022-09-12T19:04:11.000",
    "request_status": "Pending",
    "responsible_agency": "Department of Sanitation",
    "final_address": "3111 Sullen Pl",
    "address_councildis": "C",
    "status": "Assigned to Contractor",
    "contractor": "Richards Disposal",
    "rowid": "918713",
    "final_x": "3707735.68836",
    "final_y": "519289.151735",
    "longitude": "-89.98568241996712",
    "latitude": "29.92104253899222",
    "geocoded_column": {
      "latitude": "29.92104253899222",
      "longitude": "-89.98568241996712"
    }
  },
  {
    "service_request": "2022-918712",
    "request_type": "Trash/Recycling",
    "request_reason": "Request a Large Item Pick Up",
    "date_created": "2022-09-12T19:02:18.000",
    "date_modified": "2022-09-12T19:02:19.000",
    "request_status": "Pending",
    "responsible_agency": "Department of Sanitation",
    "final_address": "921 Pine St",
    "address_councildis": "A",
    "status": "Assigned to Contractor",
    "contractor": "Richards Disposal",
    "rowid": "918712",
    "final_x": "3663459.79795",
    "final_y": "525909.695037",
    "longitude": "-90.12522183366815",
    "latitude": "29.940604562377427",
    "geocoded_column": {
      "latitude": "29.940604562377427",
      "longitude": "-90.12522183366815"
    }
  },
  {
    "service_request": "2022-918711",
    "request_type": "Traffic Signals/Signs/Striping/Streetlights",
    "request_reason": "Request for Stop Sign",
    "date_created": "2022-09-12T18:56:16.000",
    "date_modified": "2022-09-12T18:56:16.000",
    "request_status": "Pending",
    "responsible_agency": "Department of Public Works",
    "final_address": "DALE ST & SELMA ST",
    "address_councildis": "E",
    "status": "Pending",
    "rowid": "918711",
    "final_x": "3699562.9",
    "final_y": "553619.98",
    "longitude": "-90.01022875706074",
    "latitude": "30.015701735051568",
    "geocoded_column": {
      "latitude": "30.015701735051568",
      "longitude": "-90.01022875706074"
    }
  },
  {
    "service_request": "2022-918710",
    "request_type": "Trash/Recycling",
    "request_reason": "Replace Trash Cart",
    "date_created": "2022-09-12T18:55:01.000",
    "date_modified": "2022-09-12T18:55:02.000",
    "request_status": "Pending",
    "responsible_agency": "Department of Sanitation",
    "final_address": "4719 Camelot Dr",
    "address_councildis": "E",
    "status": "Assigned to Contractor",
    "contractor": "Metro Disposal",
    "rowid": "918710",
    "final_x": "3708459.53124",
    "final_y": "555468.107417",
    "longitude": "-89.98205083754154",
    "latitude": "30.02049789933478",
    "geocoded_column": {
      "latitude": "30.02049789933478",
      "longitude": "-89.98205083754154"
    }
  },
  {
    "service_request": "2022-918709",
    "request_type": "Property Maintenance",
    "request_reason": "Property Maintenance",
    "date_created": "2022-09-12T18:52:32.000",
    "date_modified": "2022-09-12T18:52:33.000",
    "request_status": "Pending",
    "responsible_agency": "Department of Code Enforcement",
    "final_address": "1330 France St",
    "address_councildis": "D",
    "status": "Pending",
    "rowid": "918709",
    "final_x": "3692595.24067",
    "final_y": "536148.997703",
    "longitude": "-90.03286980016354",
    "latitude": "29.96788226063104",
    "geocoded_column": {
      "latitude": "29.96788226063104",
      "longitude": "-90.03286980016354"
    }
  },
  {
    "service_request": "2022-918708",
    "request_type": "Trash/Recycling",
    "request_reason": "Missed Trash Pick-Up",
    "date_created": "2022-09-12T18:50:32.000",
    "date_modified": "2022-09-12T18:50:33.000",
    "request_status": "Pending",
    "responsible_agency": "Department of Sanitation",
    "final_address": "4911 Elysian Fields Ave",
    "address_councildis": "D",
    "status": "Assigned to Contractor",
    "contractor": "Metro Disposal",
    "rowid": "918708",
    "final_x": "3683994.38332",
    "final_y": "550867.850069",
    "longitude": "-90.05951479922668",
    "latitude": "30.00861949397602",
    "geocoded_column": {
      "latitude": "30.00861949397602",
      "longitude": "-90.05951479922668"
    }
  },
  {
    "service_request": "2022-918707",
    "request_type": "Roads/Drainage",
    "request_reason": "Street Flooding / Drainage",
    "date_created": "2022-09-12T18:41:58.000",
    "date_modified": "2022-09-12T18:41:58.000",
    "request_status": "Pending",
    "responsible_agency": "Department of Public Works",
    "final_address": "2224 N Prieur St",
    "address_councildis": "D",
    "status": "Pending",
    "rowid": "918707",
    "final_x": "3685047.53653",
    "final_y": "539234.544138",
    "longitude": "-90.05659707399515",
    "latitude": "29.97659982031186",
    "geocoded_column": {
      "latitude": "29.97659982031186",
      "longitude": "-90.05659707399515"
    }
  },
  {
    "service_request": "2022-918706",
    "request_type": "Trash/Recycling",
    "request_reason": "Missed Trash Pick-Up",
    "date_created": "2022-09-12T18:36:01.000",
    "date_modified": "2022-09-12T18:37:21.000",
    "request_status": "Pending",
    "responsible_agency": "Department of Sanitation",
    "final_address": "New Orleans,LA",
    "address_councildis": "B",
    "status": "Assigned to Contractor",
    "contractor": "Richards Disposal",
    "rowid": "918706",
    "final_x": "3670761.73291",
    "final_y": "535872.0058",
    "longitude": "-90.10183029358444",
    "latitude": "29.96778392194519",
    "geocoded_column": {
      "latitude": "29.96778392194519",
      "longitude": "-90.10183029358444"
    }
  },
  {
    "service_request": "2022-918705",
    "request_type": "Trash/Recycling",
    "request_reason": "Replace Trash Cart",
    "date_created": "2022-09-12T18:34:44.000",
    "date_modified": "2022-09-12T18:34:44.000",
    "request_status": "Pending",
    "responsible_agency": "Department of Sanitation",
    "final_address": "3426 Elysian Fields Ave",
    "address_councildis": "D",
    "status": "Assigned to Contractor",
    "contractor": "Metro Disposal",
    "rowid": "918705",
    "final_x": "3684164.91036",
    "final_y": "545384.37512",
    "longitude": "-90.059168692222",
    "latitude": "29.99353669643361",
    "geocoded_column": {
      "latitude": "29.99353669643361",
      "longitude": "-90.059168692222"
    }
  },
  {
    "service_request": "2022-918704",
    "request_type": "Trash/Recycling",
    "request_reason": "Missed Trash Pick-Up",
    "date_created": "2022-09-12T18:33:06.000",
    "date_modified": "2022-09-12T18:33:07.000",
    "request_status": "Pending",
    "responsible_agency": "Department of Sanitation",
    "final_address": "3530 Gentilly Blvd",
    "address_councildis": "D",
    "status": "Assigned to Contractor",
    "contractor": "Metro Disposal",
    "rowid": "918704",
    "final_x": "3685829.58473",
    "final_y": "548704.449491",
    "longitude": "-90.05379314312758",
    "latitude": "30.002614702567044",
    "geocoded_column": {
      "latitude": "30.002614702567044",
      "longitude": "-90.05379314312758"
    }
  },
  {
    "service_request": "2022-918703",
    "request_type": "Trash/Recycling",
    "request_reason": "Missed Trash Pick-Up",
    "date_created": "2022-09-12T18:31:38.000",
    "date_modified": "2022-09-12T18:31:39.000",
    "request_status": "Pending",
    "responsible_agency": "Department of Sanitation",
    "final_address": "3527 Lang St, New Orleans, Louisiana, 70131",
    "address_councildis": "C",
    "status": "Assigned to Contractor",
    "contractor": "Richards Disposal",
    "rowid": "918703",
    "final_x": "3701904.90397",
    "final_y": "517978.875894",
    "longitude": "-90.00413543126241",
    "latitude": "29.917627007376346",
    "geocoded_column": {
      "latitude": "29.917627007376346",
      "longitude": "-90.00413543126241"
    }
  },
  {
    "service_request": "2022-918702",
    "request_type": "Roads/Drainage",
    "request_reason": "Pothole",
    "date_created": "2022-09-12T18:31:26.000",
    "date_modified": "2022-09-12T18:31:26.000",
    "request_status": "Pending",
    "responsible_agency": "Department of Public Works",
    "final_address": "2731 Clover St",
    "address_councildis": "D",
    "status": "Pending",
    "rowid": "918702",
    "final_x": "3688144.39388",
    "final_y": "546809.386641",
    "longitude": "-90.04654760810544",
    "latitude": "29.997332688002984",
    "geocoded_column": {
      "latitude": "29.997332688002984",
      "longitude": "-90.04654760810544"
    }
  },
  {
    "service_request": "2022-918701",
    "request_type": "Trash/Recycling",
    "request_reason": "Missed Trash Pick-Up",
    "date_created": "2022-09-12T18:27:34.000",
    "date_modified": "2022-09-12T18:27:35.000",
    "request_status": "Pending",
    "responsible_agency": "Department of Sanitation",
    "final_address": "2731 Clover St",
    "address_councildis": "D",
    "status": "Assigned to Contractor",
    "contractor": "Metro Disposal",
    "rowid": "918701",
    "final_x": "3688144.39388",
    "final_y": "546809.386641",
    "longitude": "-90.04654760810544",
    "latitude": "29.997332688002984",
    "geocoded_column": {
      "latitude": "29.997332688002984",
      "longitude": "-90.04654760810544"
    }
  },
  {
    "service_request": "2022-918700",
    "request_type": "Trash/Recycling",
    "request_reason": "Missed Trash Pick-Up",
    "date_created": "2022-09-12T18:25:58.000",
    "date_modified": "2022-09-12T18:25:59.000",
    "request_status": "Pending",
    "responsible_agency": "Department of Sanitation",
    "final_address": "2546 Dumaine St",
    "address_councildis": "D",
    "status": "Assigned to Contractor",
    "contractor": "Richards Disposal",
    "rowid": "918700",
    "final_x": "3677637.75342",
    "final_y": "537106.053896",
    "longitude": "-90.08007298761224",
    "latitude": "29.97097213989023",
    "geocoded_column": {
      "latitude": "29.97097213989023",
      "longitude": "-90.08007298761224"
    }
  },
  {
    "service_request": "2022-918699",
    "request_type": "Trash/Recycling",
    "request_reason": "Replace Trash Cart",
    "date_created": "2022-09-12T18:25:14.000",
    "date_modified": "2022-09-12T18:25:14.000",
    "request_status": "Pending",
    "responsible_agency": "Department of Sanitation",
    "final_address": "4645 Dart St",
    "address_councildis": "B",
    "status": "Assigned to Contractor",
    "contractor": "Richards Disposal",
    "rowid": "918699",
    "final_x": "3669037.74407",
    "final_y": "531768.785923",
    "longitude": "-90.10741335358227",
    "latitude": "29.95655226222345",
    "geocoded_column": {
      "latitude": "29.95655226222345",
      "longitude": "-90.10741335358227"
    }
  },
  {
    "service_request": "2022-918698",
    "request_type": "Trash/Recycling",
    "request_reason": "Missed Trash Pick-Up",
    "date_created": "2022-09-12T18:22:06.000",
    "date_modified": "2022-09-12T18:22:06.000",
    "case_close_date": "2021-12-20T18:00:00.000",
    "request_status": "Pending",
    "responsible_agency": "Department of Sanitation",
    "final_address": "2229 Orleans Ave",
    "address_councildis": "D",
    "status": "Assigned to Contractor",
    "contractor": "Richards Disposal",
    "rowid": "918698",
    "final_x": "3678287.69544",
    "final_y": "535962.923271",
    "longitude": "-90.07805993526978",
    "latitude": "29.967809358835197",
    "geocoded_column": {
      "latitude": "29.967809358835197",
      "longitude": "-90.07805993526978"
    }
  },
  {
    "service_request": "2022-918697",
    "request_type": "Roads/Drainage",
    "request_reason": "Pothole",
    "date_created": "2022-09-12T18:21:06.000",
    "date_modified": "2022-09-12T18:21:06.000",
    "request_status": "Pending",
    "responsible_agency": "Department of Public Works",
    "final_address": "5115 Conti St Apt C",
    "address_councildis": "A",
    "status": "Pending",
    "rowid": "918697",
    "final_x": "3668760.98023",
    "final_y": "541658.807116",
    "longitude": "-90.10795331296332",
    "latitude": "29.98375465306206",
    "geocoded_column": {
      "latitude": "29.98375465306206",
      "longitude": "-90.10795331296332"
    }
  },
  {
    "service_request": "2022-918696",
    "request_type": "Abandoned Vehicles",
    "request_reason": "Abandoned/Junk Vehicles",
    "date_created": "2022-09-12T18:14:55.000",
    "date_modified": "2022-09-12T18:14:55.000",
    "request_status": "Pending",
    "responsible_agency": "Department of Public Works",
    "final_address": "2000 Washington Ave",
    "address_councildis": "B",
    "status": "Pending",
    "rowid": "918696",
    "final_x": "3675074.94984",
    "final_y": "523743.753211",
    "longitude": "-90.08862507482198",
    "latitude": "29.93430708458823",
    "geocoded_column": {
      "latitude": "29.93430708458823",
      "longitude": "-90.08862507482198"
    }
  },
  {
    "service_request": "2022-918695",
    "request_type": "Trash/Recycling",
    "request_reason": "Illegal Dumping",
    "date_created": "2022-09-12T18:14:30.000",
    "date_modified": "2022-09-12T18:14:30.000",
    "request_status": "Pending",
    "responsible_agency": "Department of Sanitation",
    "final_address": "6767 Cindy Pl",
    "address_councildis": "E",
    "status": "Pending",
    "rowid": "918695",
    "final_x": "3707153.72964",
    "final_y": "559011.4751",
    "longitude": "-89.98604509728212",
    "latitude": "30.03028305565097",
    "geocoded_column": {
      "latitude": "30.03028305565097",
      "longitude": "-89.98604509728212"
    }
  },
  {
    "service_request": "2022-918694",
    "request_type": "Trash/Recycling",
    "request_reason": "MIssed Recycling Pick-Up",
    "date_created": "2022-09-12T18:12:56.000",
    "date_modified": "2022-09-12T18:12:57.000",
    "request_status": "Pending",
    "responsible_agency": "Department of Sanitation",
    "final_address": "128 S Scott St",
    "address_councildis": "A",
    "status": "Assigned to Contractor",
    "contractor": "Richards Disposal",
    "rowid": "918694",
    "final_x": "3671627.00603",
    "final_y": "537557.52404",
    "longitude": "-90.09904039180304",
    "latitude": "29.972392930638364",
    "geocoded_column": {
      "latitude": "29.972392930638364",
      "longitude": "-90.09904039180304"
    }
  },
  {
    "service_request": "2022-918693",
    "request_type": "Trash/Recycling",
    "request_reason": "Illegal Dumping",
    "date_created": "2022-09-12T18:12:39.000",
    "date_modified": "2022-09-12T18:12:39.000",
    "request_status": "Pending",
    "responsible_agency": "Department of Sanitation",
    "final_address": "6745 Cindy Pl",
    "address_councildis": "E",
    "status": "Pending",
    "rowid": "918693",
    "final_x": "3707238.61336",
    "final_y": "558887.255388",
    "longitude": "-89.98578148275335",
    "latitude": "30.029938755583267",
    "geocoded_column": {
      "latitude": "30.029938755583267",
      "longitude": "-89.98578148275335"
    }
  },
  {
    "service_request": "2022-918692",
    "request_type": "Trash/Recycling",
    "request_reason": "Missed Trash Pick-Up",
    "date_created": "2022-09-12T18:12:20.000",
    "date_modified": "2022-09-12T18:12:21.000",
    "request_status": "Pending",
    "responsible_agency": "Department of Sanitation",
    "final_address": "128 S Scott St",
    "address_councildis": "A",
    "status": "Assigned to Contractor",
    "contractor": "Richards Disposal",
    "rowid": "918692",
    "final_x": "3671627.00603",
    "final_y": "537557.52404",
    "longitude": "-90.09904039180304",
    "latitude": "29.972392930638364",
    "geocoded_column": {
      "latitude": "29.972392930638364",
      "longitude": "-90.09904039180304"
    }
  },
  {
    "service_request": "2022-918691",
    "request_type": "Traffic Signals/Signs/Striping/Streetlights",
    "request_reason": "Street Light Outage/Malfunction",
    "date_created": "2022-09-12T18:09:40.000",
    "date_modified": "2022-09-12T18:09:46.000",
    "request_status": "Pending",
    "responsible_agency": "Department of Public Works",
    "final_address": "SYMMES AVE & QUEISSER ST",
    "address_councildis": "E",
    "status": "Pending",
    "contractor": "Legacy Professional Services",
    "rowid": "918691",
    "final_x": "3708235.6",
    "final_y": "563915.48",
    "longitude": "-89.98244371160074",
    "latitude": "30.0437321042509",
    "geocoded_column": {
      "latitude": "30.0437321042509",
      "longitude": "-89.98244371160074"
    }
  },
  {
    "service_request": "2022-918690",
    "request_type": "Abandoned Vehicles",
    "request_reason": "Abandoned/Junk Vehicles",
    "date_created": "2022-09-12T18:08:27.000",
    "date_modified": "2022-09-12T18:08:27.000",
    "request_status": "Pending",
    "responsible_agency": "Department of Public Works",
    "final_address": "2000 Washington Ave",
    "address_councildis": "B",
    "status": "Pending",
    "rowid": "918690",
    "final_x": "3675074.94984",
    "final_y": "523743.753211",
    "longitude": "-90.08862507482198",
    "latitude": "29.93430708458823",
    "geocoded_column": {
      "latitude": "29.93430708458823",
      "longitude": "-90.08862507482198"
    }
  },
  {
    "service_request": "2022-918689",
    "request_type": "Property Maintenance",
    "request_reason": "Property Maintenance",
    "date_created": "2022-09-12T18:08:19.000",
    "date_modified": "2022-09-12T18:08:19.000",
    "request_status": "Pending",
    "responsible_agency": "Department of Code Enforcement",
    "final_address": "5730 Bundy Rd",
    "address_councildis": "E",
    "status": "Pending",
    "rowid": "918689",
    "final_x": "3707982.92158",
    "final_y": "558775.281052",
    "longitude": "-89.98343366067516",
    "latitude": "30.029606780724826",
    "geocoded_column": {
      "latitude": "30.029606780724826",
      "longitude": "-89.98343366067516"
    }
  },
  {
    "service_request": "2022-918688",
    "request_type": "Abandoned Vehicles",
    "request_reason": "Abandoned/Junk Vehicles",
    "date_created": "2022-09-12T18:06:54.000",
    "date_modified": "2022-09-12T18:06:54.000",
    "request_status": "Pending",
    "responsible_agency": "Department of Public Works",
    "final_address": "6700 Bundy Rd",
    "address_councildis": "E",
    "status": "Pending",
    "rowid": "918688",
    "final_x": "3707873.14872",
    "final_y": "559000.702684",
    "longitude": "-89.9837721485914",
    "latitude": "30.030230157086496",
    "geocoded_column": {
      "latitude": "30.030230157086496",
      "longitude": "-89.9837721485914"
    }
  },
  {
    "service_request": "2022-918687",
    "request_type": "Traffic Signals/Signs/Striping/Streetlights",
    "request_reason": "Request for Stop Sign",
    "date_created": "2022-09-12T18:04:06.000",
    "date_modified": "2022-09-12T18:04:06.000",
    "request_status": "Pending",
    "responsible_agency": "Department of Public Works",
    "final_address": "6857 Cindy Pl Apt A",
    "address_councildis": "E",
    "status": "Pending",
    "rowid": "918687",
    "final_x": "3706843.15556",
    "final_y": "559648.816221",
    "longitude": "-89.98700284146078",
    "latitude": "30.03204553093373",
    "geocoded_column": {
      "latitude": "30.03204553093373",
      "longitude": "-89.98700284146078"
    }
  },
  {
    "service_request": "2022-918686",
    "request_type": "Property Maintenance",
    "request_reason": "Property Maintenance",
    "date_created": "2022-09-12T18:00:44.000",
    "date_modified": "2022-09-12T18:00:44.000",
    "request_status": "Pending",
    "responsible_agency": "Department of Code Enforcement",
    "final_address": "7853 Briarwood Dr",
    "address_councildis": "E",
    "status": "Pending",
    "rowid": "918686",
    "final_x": "3716704.75423",
    "final_y": "572053.06116",
    "longitude": "-89.95536854354144",
    "latitude": "30.065829838149345",
    "geocoded_column": {
      "latitude": "30.065829838149345",
      "longitude": "-89.95536854354144"
    }
  },
  {
    "service_request": "2022-918685",
    "request_type": "Trash/Recycling",
    "request_reason": "Missed Trash Pick-Up",
    "date_created": "2022-09-12T17:59:39.000",
    "date_modified": "2022-09-12T17:59:40.000",
    "request_status": "Pending",
    "responsible_agency": "Department of Sanitation",
    "final_address": "3010 Toulouse St",
    "address_councildis": "A",
    "status": "Assigned to Contractor",
    "contractor": "Richards Disposal",
    "rowid": "918685",
    "final_x": "3675346.55656",
    "final_y": "537355.780296",
    "longitude": "-90.08730031650387",
    "latitude": "29.97172750979894",
    "geocoded_column": {
      "latitude": "29.97172750979894",
      "longitude": "-90.08730031650387"
    }
  },
  {
    "service_request": "2022-918684",
    "request_type": "Abandoned Vehicles",
    "request_reason": "Abandoned/Junk Vehicles",
    "date_created": "2022-09-12T17:58:27.000",
    "date_modified": "2022-09-12T17:58:27.000",
    "request_status": "Pending",
    "responsible_agency": "Department of Public Works",
    "final_address": "13731 Curran Rd",
    "address_councildis": "E",
    "status": "Pending",
    "rowid": "918684",
    "final_x": "3717681.08761",
    "final_y": "571578.01988",
    "longitude": "-89.95230035868781",
    "latitude": "30.064491353354878",
    "geocoded_column": {
      "latitude": "30.064491353354878",
      "longitude": "-89.95230035868781"
    }
  },
  {
    "service_request": "2022-918683",
    "request_type": "Abandoned Vehicles",
    "request_reason": "Abandoned/Junk Vehicles",
    "date_created": "2022-09-12T17:57:12.000",
    "date_modified": "2022-09-12T17:57:12.000",
    "request_status": "Pending",
    "responsible_agency": "Department of Public Works",
    "final_address": "13731 Curran Rd",
    "address_councildis": "E",
    "status": "Pending",
    "rowid": "918683",
    "final_x": "3717681.08761",
    "final_y": "571578.01988",
    "longitude": "-89.95230035868781",
    "latitude": "30.064491353354878",
    "geocoded_column": {
      "latitude": "30.064491353354878",
      "longitude": "-89.95230035868781"
    }
  },
  {
    "service_request": "2022-918682",
    "request_type": "Trash/Recycling",
    "request_reason": "Illegal Dumping",
    "date_created": "2022-09-12T17:54:16.000",
    "date_modified": "2022-09-12T17:54:16.000",
    "request_status": "Pending",
    "responsible_agency": "Department of Sanitation",
    "final_address": "13123 N Interstate 10 Service Rd",
    "address_councildis": "E",
    "status": "Pending",
    "rowid": "918682",
    "final_x": "3718298.12172",
    "final_y": "567913.663269",
    "longitude": "-89.9504896729805",
    "latitude": "30.054395433243684",
    "geocoded_column": {
      "latitude": "30.054395433243684",
      "longitude": "-89.9504896729805"
    }
  },
  {
    "service_request": "2022-918681",
    "request_type": "Trash/Recycling",
    "request_reason": "Illegal Dumping",
    "date_created": "2022-09-12T17:53:58.000",
    "date_modified": "2022-09-12T17:53:58.000",
    "request_status": "Pending",
    "responsible_agency": "Department of Sanitation",
    "final_address": "2363 Magazine St",
    "address_councildis": "B",
    "status": "Pending",
    "rowid": "918681",
    "final_x": "3678106.95451",
    "final_y": "521572.361593",
    "longitude": "-90.07912815807917",
    "latitude": "29.928245556221768",
    "geocoded_column": {
      "latitude": "29.928245556221768",
      "longitude": "-90.07912815807917"
    }
  },
  {
    "service_request": "2022-918680",
    "request_type": "Trash/Recycling",
    "request_reason": "Return Trash Cart",
    "date_created": "2022-09-12T17:51:58.000",
    "date_modified": "2022-09-12T17:51:59.000",
    "request_status": "Pending",
    "responsible_agency": "Department of Sanitation",
    "final_address": "1204 Chartres St",
    "address_councildis": "C",
    "status": "Assigned to Contractor",
    "contractor": "Empire Services",
    "rowid": "918680",
    "final_x": "3684005.17481",
    "final_y": "533709.341061",
    "longitude": "-90.0600830747842",
    "latitude": "29.96143932040929",
    "geocoded_column": {
      "latitude": "29.96143932040929",
      "longitude": "-90.0600830747842"
    }
  },
  {
    "service_request": "2022-918679",
    "request_type": "Abandoned Vehicles",
    "request_reason": "Abandoned/Junk Vehicles",
    "date_created": "2022-09-12T17:48:35.000",
    "date_modified": "2022-09-12T17:48:35.000",
    "request_status": "Pending",
    "responsible_agency": "Department of Public Works",
    "final_address": "5800 Providence Pl",
    "address_councildis": "D",
    "status": "Pending",
    "rowid": "918679",
    "final_x": "3688163.43087",
    "final_y": "554608.906008",
    "longitude": "-90.0462107081652",
    "latitude": "30.018777923546228",
    "geocoded_column": {
      "latitude": "30.018777923546228",
      "longitude": "-90.0462107081652"
    }
  },
  {
    "service_request": "2022-918678",
    "request_type": "Trash/Recycling",
    "request_reason": "Order Trash Cart",
    "date_created": "2022-09-12T17:37:17.000",
    "date_modified": "2022-09-12T17:37:34.000",
    "request_status": "Pending",
    "responsible_agency": "Department of Sanitation",
    "final_address": "3537 Elysian Fields Ave",
    "address_councildis": "D",
    "contractor": "Metro Disposal",
    "rowid": "918678",
    "final_x": "3684395.66242",
    "final_y": "545856.656016",
    "longitude": "-90.05842318454025",
    "latitude": "29.994828242854215",
    "geocoded_column": {
      "latitude": "29.994828242854215",
      "longitude": "-90.05842318454025"
    }
  },
  {
    "service_request": "2022-918677",
    "request_type": "Trash/Recycling",
    "request_reason": "Replace Trash Cart",
    "date_created": "2022-09-12T17:32:53.000",
    "date_modified": "2022-09-12T17:32:54.000",
    "request_status": "Pending",
    "responsible_agency": "Department of Sanitation",
    "final_address": "3019 Cadiz St",
    "address_councildis": "B",
    "status": "Assigned to Contractor",
    "contractor": "Richards Disposal",
    "rowid": "918677",
    "final_x": "3669624.25998",
    "final_y": "526023.47603",
    "longitude": "-90.10575568214868",
    "latitude": "29.940737269623835",
    "geocoded_column": {
      "latitude": "29.940737269623835",
      "longitude": "-90.10575568214868"
    }
  },
  {
    "service_request": "2022-918675",
    "request_type": "Trash/Recycling",
    "request_reason": "Missed Trash Pick-Up",
    "date_created": "2022-09-12T17:24:54.000",
    "date_modified": "2022-09-12T17:24:54.000",
    "request_status": "Pending",
    "responsible_agency": "Department of Sanitation",
    "final_address": "2425 Burgundy St",
    "address_councildis": "C",
    "status": "Assigned to Contractor",
    "contractor": "Metro Disposal",
    "rowid": "918675",
    "final_x": "3686046.42217",
    "final_y": "535693.762439",
    "longitude": "-90.05356719146813",
    "latitude": "29.966833265917185",
    "geocoded_column": {
      "latitude": "29.966833265917185",
      "longitude": "-90.05356719146813"
    }
  },
  {
    "service_request": "2022-918674",
    "request_type": "Trash/Recycling",
    "request_reason": "Missed Trash Pick-Up",
    "date_created": "2022-09-12T17:00:59.000",
    "date_modified": "2022-09-12T17:00:59.000",
    "request_status": "Pending",
    "responsible_agency": "Department of Sanitation",
    "final_address": "1311 Ursulines Ave, New Orleans, Louisiana, 70116",
    "address_councildis": "C",
    "status": "Assigned to Contractor",
    "contractor": "Richards Disposal",
    "rowid": "918674",
    "final_x": "3681633.93327",
    "final_y": "535076.034822",
    "longitude": "-90.06752336565486",
    "latitude": "29.96526949845662",
    "geocoded_column": {
      "latitude": "29.96526949845662",
      "longitude": "-90.06752336565486"
    }
  },
  {
    "service_request": "2022-918673",
    "request_type": "Trash/Recycling",
    "request_reason": "Missed Trash Pick-Up",
    "date_created": "2022-09-12T16:51:39.000",
    "date_modified": "2022-09-12T16:51:39.000",
    "request_status": "Pending",
    "responsible_agency": "Department of Sanitation",
    "final_address": "1315 St Philip St",
    "address_councildis": "C",
    "status": "Assigned to Contractor",
    "contractor": "Richards Disposal",
    "rowid": "918673",
    "final_x": "3681397.48066",
    "final_y": "534793.39239",
    "longitude": "-90.06827992481632",
    "latitude": "29.96449950885333",
    "geocoded_column": {
      "latitude": "29.96449950885333",
      "longitude": "-90.06827992481632"
    }
  },
  {
    "service_request": "2022-918671",
    "request_type": "Trash/Recycling",
    "request_reason": "Missed Trash Pick-Up",
    "date_created": "2022-09-12T16:50:07.000",
    "date_modified": "2022-09-12T16:50:07.000",
    "request_status": "Pending",
    "responsible_agency": "Department of Sanitation",
    "final_address": "2549 Myrtle St",
    "address_councildis": "D",
    "status": "Assigned to Contractor",
    "contractor": "Metro Disposal",
    "rowid": "918671",
    "final_x": "3686947.17436",
    "final_y": "546087.70536",
    "longitude": "-90.05035509893007",
    "latitude": "29.995385238531842",
    "geocoded_column": {
      "latitude": "29.995385238531842",
      "longitude": "-90.05035509893007"
    }
  },
  {
    "service_request": "2022-918670",
    "request_type": "Trash/Recycling",
    "request_reason": "Order Recycling Cart",
    "date_created": "2022-09-12T16:46:36.000",
    "date_modified": "2022-09-12T16:46:37.000",
    "request_status": "Pending",
    "responsible_agency": "Department of Sanitation",
    "final_address": "864 Taft Pl",
    "address_councildis": "A",
    "status": "Pending",
    "rowid": "918670",
    "final_x": "3673865.71252",
    "final_y": "539894.536586",
    "longitude": "-90.09189018940845",
    "latitude": "29.978752420619713",
    "geocoded_column": {
      "latitude": "29.978752420619713",
      "longitude": "-90.09189018940845"
    }
  },
  {
    "service_request": "2022-918669",
    "request_type": "Trash/Recycling",
    "request_reason": "Start Trash Service",
    "date_created": "2022-09-12T16:45:25.000",
    "date_modified": "2022-09-12T16:45:25.000",
    "request_status": "Pending",
    "responsible_agency": "Department of Sanitation",
    "final_address": "864 Taft Pl",
    "address_councildis": "A",
    "status": "Assigned to Contractor",
    "contractor": "Richards Disposal",
    "rowid": "918669",
    "final_x": "3673865.71252",
    "final_y": "539894.536586",
    "longitude": "-90.09189018940845",
    "latitude": "29.978752420619713",
    "geocoded_column": {
      "latitude": "29.978752420619713",
      "longitude": "-90.09189018940845"
    }
  },
  {
    "service_request": "2022-918668",
    "request_type": "Trash/Recycling",
    "request_reason": "Missed Trash Pick-Up",
    "date_created": "2022-09-12T16:45:21.000",
    "date_modified": "2022-09-12T16:45:22.000",
    "case_close_date": "2022-04-21T19:00:00.000",
    "request_status": "Pending",
    "responsible_agency": "Department of Sanitation",
    "final_address": "6223 Rhodes Ave",
    "address_councildis": "C",
    "status": "Assigned to Contractor",
    "contractor": "Richards Disposal",
    "rowid": "918668",
    "final_x": "3707152.36804",
    "final_y": "519335.079735",
    "longitude": "-89.98752198095922",
    "latitude": "29.921187676389614",
    "geocoded_column": {
      "latitude": "29.921187676389614",
      "longitude": "-89.98752198095922"
    }
  },
  {
    "service_request": "2022-918667",
    "request_type": "Trash/Recycling",
    "request_reason": "Order Trash Cart",
    "date_created": "2022-09-12T16:45:13.000",
    "date_modified": "2022-09-12T16:45:14.000",
    "request_status": "Pending",
    "responsible_agency": "Department of Sanitation",
    "final_address": "864 Taft Pl",
    "address_councildis": "A",
    "status": "Assigned to Contractor",
    "contractor": "Richards Disposal",
    "rowid": "918667",
    "final_x": "3673865.71252",
    "final_y": "539894.536586",
    "longitude": "-90.09189018940845",
    "latitude": "29.978752420619713",
    "geocoded_column": {
      "latitude": "29.978752420619713",
      "longitude": "-90.09189018940845"
    }
  },
  {
    "service_request": "2022-918666",
    "request_type": "Trash/Recycling",
    "request_reason": "Missed Trash Pick-Up",
    "date_created": "2022-09-12T16:39:58.000",
    "date_modified": "2022-09-12T16:39:58.000",
    "request_status": "Pending",
    "responsible_agency": "Department of Sanitation",
    "final_address": "1205 Carondelet St",
    "address_councildis": "B",
    "status": "Assigned to Contractor",
    "contractor": "Richards Disposal",
    "rowid": "918666",
    "final_x": "3679238.02216",
    "final_y": "526592.049726",
    "longitude": "-90.07538366460663",
    "latitude": "29.94201395389839",
    "geocoded_column": {
      "latitude": "29.94201395389839",
      "longitude": "-90.07538366460663"
    }
  },
  {
    "service_request": "2022-918665",
    "request_type": "Abandoned Vehicles",
    "request_reason": "Abandoned/Junk Vehicles",
    "date_created": "2022-09-12T16:39:57.000",
    "date_modified": "2022-09-12T16:39:57.000",
    "request_status": "Pending",
    "responsible_agency": "Department of Public Works",
    "final_address": "2641 Gravier St",
    "address_councildis": "B",
    "status": "Pending",
    "rowid": "918665",
    "final_x": "3674250.80289",
    "final_y": "533262.792708",
    "longitude": "-90.09090103955914",
    "latitude": "29.960505892584525",
    "geocoded_column": {
      "latitude": "29.960505892584525",
      "longitude": "-90.09090103955914"
    }
  },
  {
    "service_request": "2022-918664",
    "request_type": "Roads/Drainage",
    "request_reason": "Pothole",
    "date_created": "2022-09-12T16:36:28.000",
    "date_modified": "2022-09-12T16:36:28.000",
    "request_status": "Pending",
    "responsible_agency": "Department of Public Works",
    "final_address": "8142 Freret St, New Orleans, Louisiana, 70118",
    "address_councildis": "A",
    "status": "Pending",
    "rowid": "918664",
    "final_x": "3661232.56077",
    "final_y": "528041.615359",
    "longitude": "-90.13218307730409",
    "latitude": "29.946531047215746",
    "geocoded_column": {
      "latitude": "29.946531047215746",
      "longitude": "-90.13218307730409"
    }
  },
  {
    "service_request": "2022-918663",
    "request_type": "Trash/Recycling",
    "request_reason": "Missed Trash Pick-Up",
    "date_created": "2022-09-12T16:35:56.000",
    "date_modified": "2022-09-12T16:35:57.000",
    "request_status": "Pending",
    "responsible_agency": "Department of Sanitation",
    "final_address": "333 Vallette St",
    "address_councildis": "C",
    "status": "Assigned to Contractor",
    "contractor": "Richards Disposal",
    "rowid": "918663",
    "final_x": "3687463.11324",
    "final_y": "530492.91213",
    "longitude": "-90.0492773483636",
    "latitude": "29.95248914242164",
    "geocoded_column": {
      "latitude": "29.95248914242164",
      "longitude": "-90.0492773483636"
    }
  },
  {
    "service_request": "2022-918662",
    "request_type": "Mosquito, Termite & Rodent Control",
    "request_reason": "Rodent Complaint (Rats)",
    "date_created": "2022-09-12T16:34:00.000",
    "date_modified": "2022-09-12T16:34:01.000",
    "request_status": "Pending",
    "responsible_agency": "Mosquito, Termite & Rodent Control Board",
    "final_address": "2625 Ursulines Ave",
    "address_councildis": "D",
    "status": "Pending",
    "rowid": "918662",
    "final_x": "3677934.43125",
    "final_y": "538019.394057",
    "longitude": "-90.07910446724452",
    "latitude": "29.97347458667208",
    "geocoded_column": {
      "latitude": "29.97347458667208",
      "longitude": "-90.07910446724452"
    }
  },
  {
    "service_request": "2022-918661",
    "request_type": "Trash/Recycling",
    "request_reason": "Request a Large Item Pick Up",
    "date_created": "2022-09-12T16:25:46.000",
    "date_modified": "2022-09-12T16:25:46.000",
    "request_status": "Pending",
    "responsible_agency": "Department of Sanitation",
    "final_address": "1524 Port St",
    "address_councildis": "C",
    "status": "Assigned to Contractor",
    "contractor": "Metro Disposal",
    "rowid": "918661",
    "final_x": "3687816.01564",
    "final_y": "538060.539017",
    "longitude": "-90.04789498377589",
    "latitude": "29.973286609464438",
    "geocoded_column": {
      "latitude": "29.973286609464438",
      "longitude": "-90.04789498377589"
    }
  },
  {
    "service_request": "2022-918660",
    "request_type": "Traffic Signals/Signs/Striping/Streetlights",
    "request_reason": "Street Light Outage/Malfunction",
    "date_created": "2022-09-12T16:25:17.000",
    "date_modified": "2022-09-12T16:25:18.000",
    "request_status": "Pending",
    "responsible_agency": "Department of Public Works",
    "final_address": "MARTIN LUTHER KING JR BLVD & S GALVEZ ST",
    "address_councildis": "B",
    "status": "Pending",
    "contractor": "Legacy Professional Services",
    "rowid": "918660",
    "final_x": "3673629.4",
    "final_y": "529094.68",
    "longitude": "-90.09300578218549",
    "latitude": "29.94906347988848",
    "geocoded_column": {
      "latitude": "29.94906347988848",
      "longitude": "-90.09300578218549"
    }
  },
  {
    "service_request": "2022-918659",
    "request_type": "Trash/Recycling",
    "request_reason": "Order Trash Cart",
    "date_created": "2022-09-12T16:25:10.000",
    "date_modified": "2022-09-12T16:25:11.000",
    "request_status": "Pending",
    "responsible_agency": "Department of Sanitation",
    "final_address": "1524 Port St",
    "address_councildis": "C",
    "status": "Assigned to Contractor",
    "contractor": "Metro Disposal",
    "rowid": "918659",
    "final_x": "3687816.01564",
    "final_y": "538060.539017",
    "longitude": "-90.04789498377589",
    "latitude": "29.973286609464438",
    "geocoded_column": {
      "latitude": "29.973286609464438",
      "longitude": "-90.04789498377589"
    }
  },
  {
    "service_request": "2022-918658",
    "request_type": "Trash/Recycling",
    "request_reason": "Missed Trash Pick-Up",
    "date_created": "2022-09-12T16:24:31.000",
    "date_modified": "2022-09-12T16:24:32.000",
    "request_status": "Pending",
    "responsible_agency": "Department of Sanitation",
    "final_address": "1524 Port St",
    "address_councildis": "C",
    "status": "Assigned to Contractor",
    "contractor": "Metro Disposal",
    "rowid": "918658",
    "final_x": "3687816.01564",
    "final_y": "538060.539017",
    "longitude": "-90.04789498377589",
    "latitude": "29.973286609464438",
    "geocoded_column": {
      "latitude": "29.973286609464438",
      "longitude": "-90.04789498377589"
    }
  },
  {
    "service_request": "2022-918657",
    "request_type": "Traffic Signals/Signs/Striping/Streetlights",
    "request_reason": "Street Light Outage/Malfunction",
    "date_created": "2022-09-12T16:23:21.000",
    "date_modified": "2022-09-12T16:23:22.000",
    "request_status": "Pending",
    "responsible_agency": "Department of Public Works",
    "final_address": "2ND ST & S DORGENOIS ST",
    "address_councildis": "B",
    "status": "Pending",
    "contractor": "Legacy Professional Services",
    "rowid": "918657",
    "final_x": "3672271.9",
    "final_y": "529749.38",
    "longitude": "-90.09726971155449",
    "latitude": "29.95090402417081",
    "geocoded_column": {
      "latitude": "29.95090402417081",
      "longitude": "-90.09726971155449"
    }
  },
  {
    "service_request": "2022-918656",
    "request_type": "Property Maintenance",
    "request_reason": "Property Maintenance",
    "date_created": "2022-09-12T16:20:04.000",
    "date_modified": "2022-09-12T16:20:05.000",
    "request_status": "Pending",
    "responsible_agency": "Department of Code Enforcement",
    "final_address": "7801 Bass St",
    "address_councildis": "E",
    "status": "Pending",
    "rowid": "918656",
    "final_x": "3720082.01599",
    "final_y": "573745.982698",
    "longitude": "-89.9446278446755",
    "latitude": "30.070372553100313",
    "geocoded_column": {
      "latitude": "30.070372553100313",
      "longitude": "-89.9446278446755"
    }
  },
  {
    "service_request": "2022-918655",
    "request_type": "Trash/Recycling",
    "request_reason": "Missed Trash Pick-Up",
    "date_created": "2022-09-12T16:19:23.000",
    "date_modified": "2022-09-12T16:19:23.000",
    "request_status": "Pending",
    "responsible_agency": "Department of Sanitation",
    "final_address": "2821 St Peter St",
    "address_councildis": "A",
    "status": "Assigned to Contractor",
    "contractor": "Richards Disposal",
    "rowid": "918655",
    "final_x": "3676075.24507",
    "final_y": "537345.791304",
    "longitude": "-90.08499934779233",
    "latitude": "29.971678234926454",
    "geocoded_column": {
      "latitude": "29.971678234926454",
      "longitude": "-90.08499934779233"
    }
  },
  {
    "service_request": "2022-918654",
    "request_type": "Trash/Recycling",
    "request_reason": "MIssed Recycling Pick-Up",
    "date_created": "2022-09-12T16:18:48.000",
    "date_modified": "2022-09-12T16:18:48.000",
    "request_status": "Pending",
    "responsible_agency": "Department of Sanitation",
    "final_address": "9204 Edinburgh St",
    "address_councildis": "A",
    "status": "Assigned to Contractor",
    "contractor": "Richards Disposal",
    "rowid": "918654",
    "final_x": "3664560.55732",
    "final_y": "537046.577288",
    "longitude": "-90.12137463593447",
    "latitude": "29.971195406696545",
    "geocoded_column": {
      "latitude": "29.971195406696545",
      "longitude": "-90.12137463593447"
    }
  },
  {
    "service_request": "2022-918653",
    "request_type": "Trash/Recycling",
    "request_reason": "Request a Large Item Pick Up",
    "date_created": "2022-09-12T16:18:33.000",
    "date_modified": "2022-09-12T16:18:34.000",
    "request_status": "Pending",
    "responsible_agency": "Department of Sanitation",
    "final_address": "2403 St Charles Ave",
    "address_councildis": "B",
    "status": "Assigned to Contractor",
    "contractor": "Richards Disposal",
    "rowid": "918653",
    "final_x": "3676877.13621",
    "final_y": "523246.707387",
    "longitude": "-90.08295274640982",
    "latitude": "29.932886418152176",
    "geocoded_column": {
      "latitude": "29.932886418152176",
      "longitude": "-90.08295274640982"
    }
  },
  {
    "service_request": "2022-918652",
    "request_type": "Trash/Recycling",
    "request_reason": "Request a Large Item Pick Up",
    "date_created": "2022-09-12T16:18:08.000",
    "date_modified": "2022-09-12T16:52:08.000",
    "request_status": "Pending",
    "responsible_agency": "Department of Sanitation",
    "final_address": "New Orleans,LA",
    "address_councildis": "B",
    "status": "Assigned to Contractor",
    "contractor": "Richards Disposal",
    "rowid": "918652",
    "final_x": "3675977.69371",
    "final_y": "521402.860025",
    "longitude": "-90.08585559349683",
    "latitude": "29.927843394865334",
    "geocoded_column": {
      "latitude": "29.927843394865334",
      "longitude": "-90.08585559349683"
    }
  },
  {
    "service_request": "2022-918651",
    "request_type": "Trash/Recycling",
    "request_reason": "MIssed Recycling Pick-Up",
    "date_created": "2022-09-12T16:14:56.000",
    "date_modified": "2022-09-12T16:14:57.000",
    "request_status": "Pending",
    "responsible_agency": "Department of Sanitation",
    "final_address": "1831 Audubon St",
    "address_councildis": "A",
    "status": "Assigned to Contractor",
    "contractor": "Richards Disposal",
    "rowid": "918651",
    "final_x": "3665785.82298",
    "final_y": "528303.803392",
    "longitude": "-90.11779796714376",
    "latitude": "29.94711995113553",
    "geocoded_column": {
      "latitude": "29.94711995113553",
      "longitude": "-90.11779796714376"
    }
  },
  {
    "service_request": "2022-918650",
    "request_type": "Trash/Recycling",
    "request_reason": "MIssed Recycling Pick-Up",
    "date_created": "2022-09-12T16:14:39.000",
    "date_modified": "2022-09-12T16:14:39.000",
    "request_status": "Pending",
    "responsible_agency": "Department of Sanitation",
    "final_address": "3631 Bennett St",
    "address_councildis": "C",
    "status": "Assigned to Contractor",
    "contractor": "Richards Disposal",
    "rowid": "918650",
    "final_x": "3710254.77041",
    "final_y": "516816.242101",
    "longitude": "-89.97782323039242",
    "latitude": "29.914161196958837",
    "geocoded_column": {
      "latitude": "29.914161196958837",
      "longitude": "-89.97782323039242"
    }
  },
  {
    "service_request": "2022-918649",
    "request_type": "Trash/Recycling",
    "request_reason": "Missed Trash Pick-Up",
    "date_created": "2022-09-12T16:08:07.000",
    "date_modified": "2022-09-12T16:08:08.000",
    "request_status": "Pending",
    "responsible_agency": "Department of Sanitation",
    "final_address": "429 S Scott St",
    "address_councildis": "B",
    "status": "Assigned to Contractor",
    "contractor": "Richards Disposal",
    "rowid": "918649",
    "final_x": "3670856.55707",
    "final_y": "536683.374727",
    "longitude": "-90.10150328922718",
    "latitude": "29.97001211167112",
    "geocoded_column": {
      "latitude": "29.97001211167112",
      "longitude": "-90.10150328922718"
    }
  },
  {
    "service_request": "2022-918648",
    "request_type": "Trash/Recycling",
    "request_reason": "Missed Trash Pick-Up",
    "date_created": "2022-09-12T16:07:11.000",
    "date_modified": "2022-09-12T16:07:12.000",
    "request_status": "Pending",
    "responsible_agency": "Department of Sanitation",
    "final_address": "424 S Scott St",
    "address_councildis": "B",
    "status": "Assigned to Contractor",
    "contractor": "Richards Disposal",
    "rowid": "918648",
    "final_x": "3670912.50043",
    "final_y": "536628.220615",
    "longitude": "-90.10132848690701",
    "latitude": "29.969858802583985",
    "geocoded_column": {
      "latitude": "29.969858802583985",
      "longitude": "-90.10132848690701"
    }
  },
  {
    "service_request": "2022-918647",
    "request_type": "Trash/Recycling",
    "request_reason": "Missed Trash Pick-Up",
    "date_created": "2022-09-12T16:06:40.000",
    "date_modified": "2022-09-12T16:06:41.000",
    "request_status": "Pending",
    "responsible_agency": "Department of Sanitation",
    "final_address": "418 S Scott St",
    "address_councildis": "B",
    "status": "Assigned to Contractor",
    "contractor": "Richards Disposal",
    "rowid": "918647",
    "final_x": "3670952.65121",
    "final_y": "536682.005383",
    "longitude": "-90.1011998601443",
    "latitude": "29.970005505535237",
    "geocoded_column": {
      "latitude": "29.970005505535237",
      "longitude": "-90.1011998601443"
    }
  },
  {
    "service_request": "2022-918646",
    "request_type": "Trash/Recycling",
    "request_reason": "Missed Trash Pick-Up",
    "date_created": "2022-09-12T16:06:09.000",
    "date_modified": "2022-09-12T16:06:10.000",
    "request_status": "Pending",
    "responsible_agency": "Department of Sanitation",
    "final_address": "416 S Scott St",
    "address_councildis": "B",
    "status": "Assigned to Contractor",
    "contractor": "Richards Disposal",
    "rowid": "918646",
    "final_x": "3670963.49076",
    "final_y": "536693.355847",
    "longitude": "-90.10116524222146",
    "latitude": "29.970036394995805",
    "geocoded_column": {
      "latitude": "29.970036394995805",
      "longitude": "-90.10116524222146"
    }
  },
  {
    "service_request": "2022-918645",
    "request_type": "Trash/Recycling",
    "request_reason": "Missed Trash Pick-Up",
    "date_created": "2022-09-12T16:05:43.000",
    "date_modified": "2022-09-12T16:05:44.000",
    "request_status": "Pending",
    "responsible_agency": "Department of Sanitation",
    "final_address": "420 S Scott St",
    "address_councildis": "B",
    "status": "Assigned to Contractor",
    "contractor": "Richards Disposal",
    "rowid": "918645",
    "final_x": "3670951.27905",
    "final_y": "536653.228103",
    "longitude": "-90.10120517082653",
    "latitude": "29.969926418255515",
    "geocoded_column": {
      "latitude": "29.969926418255515",
      "longitude": "-90.10120517082653"
    }
  },
  {
    "service_request": "2022-918644",
    "request_type": "Trash/Recycling",
    "request_reason": "Missed Trash Pick-Up",
    "date_created": "2022-09-12T16:05:14.000",
    "date_modified": "2022-09-12T16:05:14.000",
    "request_status": "Pending",
    "responsible_agency": "Department of Sanitation",
    "final_address": "422 S Scott St",
    "address_councildis": "B",
    "status": "Assigned to Contractor",
    "contractor": "Richards Disposal",
    "rowid": "918644",
    "final_x": "3670939.61243",
    "final_y": "536640.728071",
    "longitude": "-90.10124243970867",
    "latitude": "29.96989239231165",
    "geocoded_column": {
      "latitude": "29.96989239231165",
      "longitude": "-90.10124243970867"
    }
  },
  {
    "service_request": "2022-918643",
    "request_type": "Abandoned Vehicles",
    "request_reason": "Abandoned/Junk Vehicles",
    "date_created": "2022-09-12T15:58:53.000",
    "date_modified": "2022-09-12T15:58:54.000",
    "request_status": "Pending",
    "responsible_agency": "Department of Public Works",
    "final_address": "1729 Marengo St",
    "address_councildis": "B",
    "status": "Pending",
    "rowid": "918643",
    "final_x": "3671955.42676",
    "final_y": "521615.296057",
    "longitude": "-90.09854574673298",
    "latitude": "29.928547322475016",
    "geocoded_column": {
      "latitude": "29.928547322475016",
      "longitude": "-90.09854574673298"
    }
  },
  {
    "service_request": "2022-918642",
    "request_type": "Trash/Recycling",
    "request_reason": "Repair Trash Cart",
    "date_created": "2022-09-12T15:57:14.000",
    "date_modified": "2022-09-12T15:57:15.000",
    "request_status": "Pending",
    "responsible_agency": "Department of Sanitation",
    "final_address": "5923 Campus Blvd",
    "address_councildis": "D",
    "status": "Assigned to Contractor",
    "contractor": "Metro Disposal",
    "rowid": "918642",
    "final_x": "3688676.10377",
    "final_y": "555209.056089",
    "longitude": "-90.04456952144173",
    "latitude": "30.0204122686402",
    "geocoded_column": {
      "latitude": "30.0204122686402",
      "longitude": "-90.04456952144173"
    }
  },
  {
    "service_request": "2022-918641",
    "request_type": "Trash/Recycling",
    "request_reason": "Order Trash Cart",
    "date_created": "2022-09-12T15:54:41.000",
    "date_modified": "2022-09-12T15:54:42.000",
    "request_status": "Pending",
    "responsible_agency": "Department of Sanitation",
    "final_address": "1467 Mithra St",
    "address_councildis": "D",
    "status": "Assigned to Contractor",
    "contractor": "Metro Disposal",
    "rowid": "918641",
    "final_x": "3678045.46517",
    "final_y": "552222.308502",
    "longitude": "-90.07826248107278",
    "latitude": "30.0125242707525",
    "geocoded_column": {
      "latitude": "30.0125242707525",
      "longitude": "-90.07826248107278"
    }
  },
  {
    "service_request": "2022-918640",
    "request_type": "Traffic Signals/Signs/Striping/Streetlights",
    "request_reason": "Street Light Outage/Malfunction",
    "date_created": "2022-09-12T15:53:56.000",
    "date_modified": "2022-09-12T15:53:57.000",
    "request_status": "Pending",
    "responsible_agency": "Department of Public Works",
    "final_address": "7551 Dominique Pl",
    "address_councildis": "E",
    "status": "Pending",
    "contractor": "Legacy Professional Services",
    "rowid": "918640",
    "final_x": "3725467.55577",
    "final_y": "570135.617895",
    "longitude": "-89.9277429094619",
    "latitude": "30.06026501745676",
    "geocoded_column": {
      "latitude": "30.06026501745676",
      "longitude": "-89.9277429094619"
    }
  },
  {
    "service_request": "2022-918639",
    "request_type": "Trash/Recycling",
    "request_reason": "Request a Large Item Pick Up",
    "date_created": "2022-09-12T15:52:19.000",
    "date_modified": "2022-09-12T15:52:20.000",
    "request_status": "Pending",
    "responsible_agency": "Department of Sanitation",
    "final_address": "1233 Esplanade Ave",
    "address_councildis": "C",
    "status": "Assigned to Contractor",
    "contractor": "Metro Disposal",
    "rowid": "918639",
    "final_x": "3682417.56232",
    "final_y": "535789.505799",
    "longitude": "-90.06502376816086",
    "latitude": "29.96720747182911",
    "geocoded_column": {
      "latitude": "29.96720747182911",
      "longitude": "-90.06502376816086"
    }
  },
  {
    "service_request": "2022-918638",
    "request_type": "Abandoned Vehicles",
    "request_reason": "Abandoned/Junk Vehicles",
    "date_created": "2022-09-12T15:48:11.000",
    "date_modified": "2022-09-12T15:50:17.000",
    "request_status": "Pending",
    "responsible_agency": "Department of Public Works",
    "final_address": "1300 BLK Saint Denis St",
    "address_councildis": "D",
    "status": "Pending",
    "rowid": "918638",
    "final_x": "3677587.55949",
    "final_y": "545714.103897",
    "longitude": "-90.07993413462998",
    "latitude": "29.994642803101318",
    "geocoded_column": {
      "latitude": "29.994642803101318",
      "longitude": "-90.07993413462998"
    }
  },
  {
    "service_request": "2022-918637",
    "request_type": "Trash/Recycling",
    "request_reason": "Order Trash Cart",
    "date_created": "2022-09-12T15:42:13.000",
    "date_modified": "2022-09-12T15:42:15.000",
    "request_status": "Pending",
    "responsible_agency": "Department of Sanitation",
    "final_address": "7701 Gannon Rd",
    "address_councildis": "E",
    "status": "Assigned to Contractor",
    "contractor": "Metro Disposal",
    "rowid": "918637",
    "final_x": "3716197.96799",
    "final_y": "570288.952167",
    "longitude": "-89.95703752584129",
    "latitude": "30.06099601951705",
    "geocoded_column": {
      "latitude": "30.06099601951705",
      "longitude": "-89.95703752584129"
    }
  },
  {
    "service_request": "2022-918636",
    "request_type": "Trash/Recycling",
    "request_reason": "Replace Trash Cart",
    "date_created": "2022-09-12T15:42:09.000",
    "date_modified": "2022-09-12T15:42:09.000",
    "request_status": "Pending",
    "responsible_agency": "Department of Sanitation",
    "final_address": "7610 Freret St",
    "address_councildis": "A",
    "status": "Assigned to Contractor",
    "contractor": "Richards Disposal",
    "rowid": "918636",
    "final_x": "3662718.18362",
    "final_y": "526693.31795",
    "longitude": "-90.1275372118559",
    "latitude": "29.942780755119312",
    "geocoded_column": {
      "latitude": "29.942780755119312",
      "longitude": "-90.1275372118559"
    }
  },
  {
    "service_request": "2022-918635",
    "request_type": "Safety & Permits",
    "request_reason": "Licenses & Permits",
    "date_created": "2022-09-12T15:40:49.000",
    "date_modified": "2022-09-12T15:40:49.000",
    "request_status": "Pending",
    "responsible_agency": "Safety and Permits",
    "final_address": "400 Bourbon St",
    "address_councildis": "C",
    "status": "Pending",
    "rowid": "918635",
    "final_x": "3681659.9908",
    "final_y": "531830.966787",
    "longitude": "-90.0675542815721",
    "latitude": "29.956345877254606",
    "geocoded_column": {
      "latitude": "29.956345877254606",
      "longitude": "-90.0675542815721"
    }
  },
  {
    "service_request": "2022-918634",
    "request_type": "Trash/Recycling",
    "request_reason": "Missed Trash Pick-Up",
    "date_created": "2022-09-12T15:38:48.000",
    "date_modified": "2022-09-12T15:38:49.000",
    "request_status": "Pending",
    "responsible_agency": "Department of Sanitation",
    "final_address": "340 Elmira Ave",
    "address_councildis": "C",
    "status": "Assigned to Contractor",
    "contractor": "Richards Disposal",
    "rowid": "918634",
    "final_x": "3688272.79503",
    "final_y": "530419.90829",
    "longitude": "-90.04672333726965",
    "latitude": "29.95226343309295",
    "geocoded_column": {
      "latitude": "29.95226343309295",
      "longitude": "-90.04672333726965"
    }
  },
  {
    "service_request": "2022-918633",
    "request_type": "Trash/Recycling",
    "request_reason": "Missed Trash Pick-Up",
    "date_created": "2022-09-12T15:38:33.000",
    "date_modified": "2022-09-12T15:38:34.000",
    "request_status": "Pending",
    "responsible_agency": "Department of Sanitation",
    "final_address": "338 Elmira Ave",
    "address_councildis": "C",
    "status": "Assigned to Contractor",
    "contractor": "Richards Disposal",
    "rowid": "918633",
    "final_x": "3688272.96521",
    "final_y": "530431.684802",
    "longitude": "-90.04672238239118",
    "latitude": "29.952295809200677",
    "geocoded_column": {
      "latitude": "29.952295809200677",
      "longitude": "-90.04672238239118"
    }
  },
  {
    "service_request": "2022-918632",
    "request_type": "Traffic Signals/Signs/Striping/Streetlights",
    "request_reason": "Street Light Outage/Malfunction",
    "date_created": "2022-09-12T15:35:47.000",
    "date_modified": "2022-09-12T15:35:48.000",
    "request_status": "Pending",
    "responsible_agency": "Department of Public Works",
    "final_address": "I 10 W & POYDRAS ST",
    "address_councildis": "B",
    "status": "Pending",
    "contractor": "Legacy Professional Services",
    "rowid": "918632",
    "final_x": "3676309.1",
    "final_y": "531059.58",
    "longitude": "-90.08447717436844",
    "latitude": "29.954386269156128",
    "geocoded_column": {
      "latitude": "29.954386269156128",
      "longitude": "-90.08447717436844"
    }
  },
  {
    "service_request": "2022-918631",
    "request_type": "Traffic Signals/Signs/Striping/Streetlights",
    "request_reason": "Street Light Outage/Malfunction",
    "date_created": "2022-09-12T15:35:41.000",
    "date_modified": "2022-09-12T15:35:42.000",
    "request_status": "Pending",
    "responsible_agency": "Department of Public Works",
    "final_address": "2225 Milan St",
    "address_councildis": "B",
    "status": "Pending",
    "contractor": "Legacy Professional Services",
    "rowid": "918631",
    "final_x": "3671400.94222",
    "final_y": "523297.261691",
    "longitude": "-90.10023900135293",
    "latitude": "29.933188605517135",
    "geocoded_column": {
      "latitude": "29.933188605517135",
      "longitude": "-90.10023900135293"
    }
  },
  {
    "service_request": "2022-918630",
    "request_type": "Trash/Recycling",
    "request_reason": "Missed Trash Pick-Up",
    "date_created": "2022-09-12T15:34:33.000",
    "date_modified": "2022-09-12T15:34:33.000",
    "request_status": "Pending",
    "responsible_agency": "Department of Sanitation",
    "final_address": "23 Allard Blvd",
    "address_councildis": "A",
    "status": "Assigned to Contractor",
    "contractor": "Richards Disposal",
    "rowid": "918630",
    "final_x": "3672847.7035",
    "final_y": "541204.103436",
    "longitude": "-90.09506075316591",
    "latitude": "29.98238356979744",
    "geocoded_column": {
      "latitude": "29.98238356979744",
      "longitude": "-90.09506075316591"
    }
  },
  {
    "service_request": "2022-918629",
    "request_type": "Trash/Recycling",
    "request_reason": "Missed Trash Pick-Up",
    "date_created": "2022-09-12T15:32:09.000",
    "date_modified": "2022-09-12T15:32:10.000",
    "request_status": "Pending",
    "responsible_agency": "Department of Sanitation",
    "final_address": "2526 Painters St",
    "address_councildis": "D",
    "status": "Assigned to Contractor",
    "contractor": "Metro Disposal",
    "rowid": "918629",
    "final_x": "3687042.23522",
    "final_y": "541872.737228",
    "longitude": "-90.05020391125892",
    "latitude": "29.983792655222697",
    "geocoded_column": {
      "latitude": "29.983792655222697",
      "longitude": "-90.05020391125892"
    }
  },
  {
    "service_request": "2022-918627",
    "request_type": "Traffic Signals/Signs/Striping/Streetlights",
    "request_reason": "Street Light Outage/Malfunction",
    "date_created": "2022-09-12T15:27:41.000",
    "date_modified": "2022-09-12T15:27:42.000",
    "request_status": "Pending",
    "responsible_agency": "Department of Public Works",
    "final_address": "118 City Park Ave",
    "address_councildis": "A",
    "status": "Pending",
    "contractor": "Legacy Professional Services",
    "rowid": "918627",
    "final_x": "3667651.43245",
    "final_y": "540854.232907",
    "longitude": "-90.1114849682831",
    "latitude": "29.98157492613766",
    "geocoded_column": {
      "latitude": "29.98157492613766",
      "longitude": "-90.1114849682831"
    }
  },
  {
    "service_request": "2022-918626",
    "request_type": "Traffic Signals/Signs/Striping/Streetlights",
    "request_reason": "Street Light Outage/Malfunction",
    "date_created": "2022-09-12T15:26:31.000",
    "date_modified": "2022-09-12T15:26:32.000",
    "request_status": "Pending",
    "responsible_agency": "Department of Public Works",
    "final_address": "872 Florida Blvd",
    "address_councildis": "A",
    "status": "Pending",
    "contractor": "Legacy Professional Services",
    "rowid": "918626",
    "final_x": "3669432.45006",
    "final_y": "545189.497743",
    "longitude": "-90.1057129689375",
    "latitude": "29.99344308199599",
    "geocoded_column": {
      "latitude": "29.99344308199599",
      "longitude": "-90.1057129689375"
    }
  },
  {
    "service_request": "2022-918625",
    "request_type": "Traffic Signals/Signs/Striping/Streetlights",
    "request_reason": "Street Light Outage/Malfunction",
    "date_created": "2022-09-12T15:25:40.000",
    "date_modified": "2022-09-12T15:25:41.000",
    "request_status": "Pending",
    "responsible_agency": "Department of Public Works",
    "final_address": "872 Florida Blvd",
    "address_councildis": "A",
    "status": "Pending",
    "contractor": "Legacy Professional Services",
    "rowid": "918625",
    "final_x": "3669432.45006",
    "final_y": "545189.497743",
    "longitude": "-90.1057129689375",
    "latitude": "29.99344308199599",
    "geocoded_column": {
      "latitude": "29.99344308199599",
      "longitude": "-90.1057129689375"
    }
  },
  {
    "service_request": "2022-918624",
    "request_type": "Traffic Signals/Signs/Striping/Streetlights",
    "request_reason": "Additional signage",
    "date_created": "2022-09-12T15:25:24.000",
    "date_modified": "2022-09-12T15:25:24.000",
    "request_status": "Pending",
    "responsible_agency": "Department of Public Works",
    "final_address": "3000 BLK Magazine St",
    "address_councildis": "B",
    "status": "Pending",
    "rowid": "918624",
    "final_x": "3676243.62746",
    "final_y": "520290.735125",
    "longitude": "-90.08505434811329",
    "latitude": "29.924777447993332",
    "geocoded_column": {
      "latitude": "29.924777447993332",
      "longitude": "-90.08505434811329"
    }
  },
  {
    "service_request": "2022-918623",
    "request_type": "Roads/Drainage",
    "request_reason": "Alley Way",
    "date_created": "2022-09-12T15:22:23.000",
    "date_modified": "2022-09-12T15:22:23.000",
    "request_status": "Pending",
    "responsible_agency": "Department of Public Works",
    "final_address": "6837 General Haig St",
    "address_councildis": "A",
    "status": "Pending",
    "rowid": "918623",
    "final_x": "3671139.24699",
    "final_y": "552735.448022",
    "longitude": "-90.10006490373311",
    "latitude": "30.014141413228277",
    "geocoded_column": {
      "latitude": "30.014141413228277",
      "longitude": "-90.10006490373311"
    }
  },
  {
    "service_request": "2022-918621",
    "request_type": "Roads/Drainage",
    "request_reason": "Street Subsidence (Sinking)",
    "date_created": "2022-09-12T15:20:42.000",
    "date_modified": "2022-09-12T15:20:43.000",
    "request_status": "Pending",
    "responsible_agency": "Department of Public Works",
    "final_address": "POYDRAS ST & POYDRAS EXIT & S CLAIBORNE AVE",
    "address_councildis": "B",
    "status": "Pending",
    "rowid": "918621",
    "final_x": "3676976.22",
    "final_y": "530785.22",
    "longitude": "-90.082380129555",
    "latitude": "29.95361186141607",
    "geocoded_column": {
      "latitude": "29.95361186141607",
      "longitude": "-90.082380129555"
    }
  },
  {
    "service_request": "2022-918620",
    "request_type": "Abandoned Vehicles",
    "request_reason": "Abandoned/Junk Vehicles",
    "date_created": "2022-09-12T15:17:50.000",
    "date_modified": "2022-09-12T15:17:51.000",
    "request_status": "Pending",
    "responsible_agency": "Department of Public Works",
    "final_address": "7557 Forest Glen Rd",
    "address_councildis": "E",
    "status": "Pending",
    "rowid": "918620",
    "final_x": "3709883.88331",
    "final_y": "564738.65789",
    "longitude": "-89.97720368037342",
    "latitude": "30.045941978280243",
    "geocoded_column": {
      "latitude": "30.045941978280243",
      "longitude": "-89.97720368037342"
    }
  },
  {
    "service_request": "2022-918619",
    "request_type": "Health Related Questions",
    "request_reason": "Noise Ordinance Complaint",
    "date_created": "2022-09-12T15:16:27.000",
    "date_modified": "2022-09-12T15:16:27.000",
    "request_status": "Pending",
    "responsible_agency": "Health Department",
    "final_address": "7400 Lakeshore Dr",
    "address_councildis": "D",
    "status": "Pending",
    "rowid": "918619",
    "final_x": "3666808.79802",
    "final_y": "556202.373082",
    "longitude": "-90.11363039460369",
    "latitude": "30.023801679293893",
    "geocoded_column": {
      "latitude": "30.023801679293893",
      "longitude": "-90.11363039460369"
    }
  },
  {
    "service_request": "2022-918618",
    "request_type": "Traffic Signals/Signs/Striping/Streetlights",
    "request_reason": "Street Light Outage/Malfunction",
    "date_created": "2022-09-12T15:15:37.000",
    "date_modified": "2022-09-12T15:15:38.000",
    "request_status": "Pending",
    "responsible_agency": "Department of Public Works",
    "final_address": "872 Florida Blvd",
    "address_councildis": "A",
    "status": "Pending",
    "contractor": "Legacy Professional Services",
    "rowid": "918618",
    "final_x": "3669432.45006",
    "final_y": "545189.497743",
    "longitude": "-90.1057129689375",
    "latitude": "29.99344308199599",
    "geocoded_column": {
      "latitude": "29.99344308199599",
      "longitude": "-90.1057129689375"
    }
  },
  {
    "service_request": "2022-918617",
    "request_type": "Trash/Recycling",
    "request_reason": "Request a Large Item Pick Up",
    "date_created": "2022-09-12T15:13:08.000",
    "date_modified": "2022-09-12T15:13:09.000",
    "request_status": "Pending",
    "responsible_agency": "Department of Sanitation",
    "final_address": "3229 Jefferson Ave",
    "address_councildis": "B",
    "status": "Assigned to Contractor",
    "contractor": "Richards Disposal",
    "rowid": "918617",
    "final_x": "3668715.27303",
    "final_y": "527165.536127",
    "longitude": "-90.1085869803501",
    "latitude": "29.943904311116032",
    "geocoded_column": {
      "latitude": "29.943904311116032",
      "longitude": "-90.1085869803501"
    }
  },
  {
    "service_request": "2022-918616",
    "request_type": "Trash/Recycling",
    "request_reason": "Illegal Dumping",
    "date_created": "2022-09-12T15:12:04.000",
    "date_modified": "2022-09-12T15:12:04.000",
    "request_status": "Pending",
    "responsible_agency": "Department of Sanitation",
    "final_address": "3400 BLK dHemecourt St",
    "address_councildis": "B",
    "status": "Pending",
    "rowid": "918616",
    "final_x": "3671802.10058",
    "final_y": "535315.965901",
    "longitude": "-90.09856369800438",
    "latitude": "29.96622421258213",
    "geocoded_column": {
      "latitude": "29.96622421258213",
      "longitude": "-90.09856369800438"
    }
  },