[
  {
    "service_request": "2023-1025030",
    "request_type": "Traffic Signals/Signs/Striping/Streetlights",
    "request_reason": "Street Light Outage/Malfunction",
    "date_created": "2023-08-10T01:23:29.000",
    "date_modified": "2023-08-10T01:23:29.000",
    "request_status": "Pending",
    "responsible_agency": "Department of Public Works",
    "final_address": "2500 BLK Lapeyrouse St",
    "address_councildis": "D",
    "status": "Assigned to Contractor",
    "contractor": "Legacy Professional Services",
    "rowid": "1025030",
    "final_x": "3679449.57578",
    "final_y": "539883.127699",
    "longitude": "-90.07425464719503",
    "latitude": "29.978553521337183",
    "geocoded_column": {
      "latitude": "29.978553521337183",
      "longitude": "-90.07425464719503"
    }
  },
  {
    "service_request": "2023-1025029",
    "request_type": "Trash/Recycling",
    "request_reason": "Order Trash Cart",
    "date_created": "2023-08-09T23:48:34.000",
    "date_modified": "2023-08-09T23:48:34.000",
    "request_status": "Pending",
    "responsible_agency": "Department of Sanitation",
    "final_address": "6029 Wickfield Dr",
    "address_councildis": "D",
    "status": "Assigned to Contractor",
    "contractor": "IV Waste",
    "rowid": "1025029",
    "final_x": "3681042.09551",
    "final_y": "554948.816344",
    "longitude": "-90.06869972332015",
    "latitude": "30.019930584593375",
    "geocoded_column": {
      "latitude": "30.019930584593375",
      "longitude": "-90.06869972332015"
    }
  },
  {
    "service_request": "2023-1025028",
    "request_type": "Roads/Drainage",
    "request_reason": "Pothole",
    "date_created": "2023-08-09T23:31:37.000",
    "date_modified": "2023-08-09T23:31:37.000",
    "request_status": "Pending",
    "responsible_agency": "Department of Public Works",
    "final_address": "1315 Milan St",
    "address_councildis": "B",
    "status": "Pending",
    "rowid": "1025028",
    "final_x": "3671703.18324",
    "final_y": "520260.436728",
    "longitude": "-90.09938808639757",
    "latitude": "29.924829365152263",
    "geocoded_column": {
      "latitude": "29.924829365152263",
      "longitude": "-90.09938808639757"
    }
  },
  {
    "service_request": "2023-1025027",
    "request_type": "Roads/Drainage",
    "request_reason": "Pothole",
    "date_created": "2023-08-09T23:15:42.000",
    "date_modified": "2023-08-09T23:15:42.000",
    "request_status": "Pending",
    "responsible_agency": "Department of Public Works",
    "final_address": "1422 General Pershing St",
    "address_councildis": "B",
    "status": "Pending",
    "rowid": "1025027",
    "final_x": "3671239.44116",
    "final_y": "520532.324984",
    "longitude": "-90.10084273889387",
    "latitude": "29.925590694745555",
    "geocoded_column": {
      "latitude": "29.925590694745555",
      "longitude": "-90.10084273889387"
    }
  },
  {
    "service_request": "2023-1025026",
    "request_type": "Roads/Drainage",
    "request_reason": "Pothole",
    "date_created": "2023-08-09T23:14:04.000",
    "date_modified": "2023-08-09T23:14:04.000",
    "request_status": "Pending",
    "responsible_agency": "Department of Public Works",
    "final_address": "1422 General Pershing St",
    "address_councildis": "B",
    "status": "Pending",
    "rowid": "1025026",
    "final_x": "3671239.44116",
    "final_y": "520532.324984",
    "longitude": "-90.10084273889387",
    "latitude": "29.925590694745555",
    "geocoded_column": {
      "latitude": "29.925590694745555",
      "longitude": "-90.10084273889387"
    }
  },
  {
    "service_request": "2023-1025025",
    "request_type": "Roads/Drainage",
    "request_reason": "Man hole cover issue",
    "date_created": "2023-08-09T23:11:08.000",
    "date_modified": "2023-08-09T23:11:08.000",
    "request_status": "Pending",
    "responsible_agency": "Department of Public Works",
    "final_address": "2343 N Claiborne Ave",
    "address_councildis": "D",
    "status": "Pending",
    "rowid": "1025025",
    "final_x": "3686014.57513",
    "final_y": "538270.117385",
    "longitude": "-90.05357689417272",
    "latitude": "29.97391832169293",
    "geocoded_column": {
      "latitude": "29.97391832169293",
      "longitude": "-90.05357689417272"
    }
  },
  {
    "service_request": "2023-1025024",
    "request_type": "Trash/Recycling",
    "request_reason": "MIssed Recycling Pick-Up",
    "date_created": "2023-08-09T23:01:27.000",
    "date_modified": "2023-08-09T23:01:28.000",
    "request_status": "Pending",
    "responsible_agency": "Department of Sanitation",
    "final_address": "4622 Conti St",
    "address_councildis": "A",
    "status": "Assigned to Contractor",
    "contractor": "Richards Disposal",
    "rowid": "1025024",
    "final_x": "3669940.52295",
    "final_y": "540635.219083",
    "longitude": "-90.10426235527699",
    "latitude": "29.980905396650964",
    "geocoded_column": {
      "latitude": "29.980905396650964",
      "longitude": "-90.10426235527699"
    }
  },
  {
    "service_request": "2023-1025023",
    "request_type": "Traffic Signals/Signs/Striping/Streetlights",
    "request_reason": "Traffic Signal Malfunctioning/Damaged",
    "date_created": "2023-08-09T22:53:46.000",
    "date_modified": "2023-08-09T22:54:19.000",
    "request_status": "Pending",
    "responsible_agency": "Department of Public Works",
    "final_address": "GENERAL MEYER AVE & KABEL DR",
    "address_councildis": "C",
    "status": "Pending",
    "rowid": "1025023",
    "final_x": "3700839.5",
    "final_y": "523835.28",
    "longitude": "-90.00728436873588",
    "latitude": "29.933764040385416",
    "geocoded_column": {
      "latitude": "29.933764040385416",
      "longitude": "-90.00728436873588"
    }
  },
  {
    "service_request": "2023-1025022",
    "request_type": "Roads/Drainage",
    "request_reason": "Pothole",
    "date_created": "2023-08-09T22:51:34.000",
    "date_modified": "2023-08-09T22:51:34.000",
    "request_status": "Pending",
    "responsible_agency": "Department of Public Works",
    "final_address": "4315 Pitt St",
    "address_councildis": "B",
    "status": "Pending",
    "rowid": "1025022",
    "final_x": "3671135.74062",
    "final_y": "520647.281017",
    "longitude": "-90.10116618834792",
    "latitude": "29.92590985375874",
    "geocoded_column": {
      "latitude": "29.92590985375874",
      "longitude": "-90.10116618834792"
    }
  },
  {
    "service_request": "2023-1025021",
    "request_type": "Traffic Signals/Signs/Striping/Streetlights",
    "request_reason": "Street Name Sign Damaged or Missing",
    "date_created": "2023-08-09T22:44:17.000",
    "date_modified": "2023-08-09T22:44:17.000",
    "request_status": "Pending",
    "responsible_agency": "Department of Public Works",
    "final_address": "6500 BLK Wales St",
    "address_councildis": "E",
    "status": "Pending",
    "rowid": "1025021",
    "final_x": "3697098.36364",
    "final_y": "560148.212496",
    "longitude": "-90.01777871754265",
    "latitude": "30.033729906247967",
    "geocoded_column": {
      "latitude": "30.033729906247967",
      "longitude": "-90.01777871754265"
    }
  },
  {
    "service_request": "2023-1025020",
    "request_type": "Traffic Signals/Signs/Striping/Streetlights",
    "request_reason": "Street Light Outage/Malfunction",
    "date_created": "2023-08-09T22:34:38.000",
    "date_modified": "2023-08-09T22:34:38.000",
    "request_status": "Pending",
    "responsible_agency": "Department of Public Works",
    "final_address": "6500 BLK Wales St",
    "address_councildis": "E",
    "status": "Assigned to Contractor",
    "contractor": "Legacy Professional Services",
    "rowid": "1025020",
    "final_x": "3697098.36364",
    "final_y": "560148.212496",
    "longitude": "-90.01777871754265",
    "latitude": "30.033729906247967",
    "geocoded_column": {
      "latitude": "30.033729906247967",
      "longitude": "-90.01777871754265"
    }
  },
  {
    "service_request": "2023-1025019",
    "request_type": "Traffic Signals/Signs/Striping/Streetlights",
    "request_reason": "Street Light Outage/Malfunction",
    "date_created": "2023-08-09T22:06:00.000",
    "date_modified": "2023-08-09T22:06:00.000",
    "request_status": "Pending",
    "responsible_agency": "Department of Public Works",
    "final_address": "3500 BLK Rue Nichole",
    "address_councildis": "C",
    "status": "Assigned to Contractor",
    "contractor": "Legacy Professional Services",
    "rowid": "1025019",
    "final_x": "3703992.54473",
    "final_y": "517235.702193",
    "longitude": "-89.99757331071167",
    "latitude": "29.91551678149029",
    "geocoded_column": {
      "latitude": "29.91551678149029",
      "longitude": "-89.99757331071167"
    }
  },
  {
    "service_request": "2023-1025018",
    "request_type": "Roads/Drainage",
    "request_reason": "Pothole",
    "date_created": "2023-08-09T22:01:32.000",
    "date_modified": "2023-08-09T22:01:32.000",
    "request_status": "Pending",
    "responsible_agency": "Department of Public Works",
    "final_address": "1302 Constantinople St",
    "address_councildis": "B",
    "status": "Pending",
    "rowid": "1025018",
    "final_x": "3672316.43828",
    "final_y": "520252.107512",
    "longitude": "-90.09745252227002",
    "latitude": "29.924788289127164",
    "geocoded_column": {
      "latitude": "29.924788289127164",
      "longitude": "-90.09745252227002"
    }
  },
  {
    "service_request": "2023-1025017",
    "request_type": "Trash/Recycling",
    "request_reason": "Missed Trash Pick-Up",
    "date_created": "2023-08-09T21:03:00.000",
    "date_modified": "2023-08-09T21:44:01.000",
    "request_status": "Pending",
    "responsible_agency": "Department of Sanitation",
    "final_address": "New Orleans,LA",
    "status": "Assigned to Contractor",
    "rowid": "1025017",
    "longitude": "0.0",
    "latitude": "0.0",
    "geocoded_column": {
      "latitude": "0.0",
      "longitude": "0.0"
    }
  },
  {
    "service_request": "2023-1025016",
    "request_type": "Abandoned Vehicles",
    "request_reason": "Vehicle Blocking Your Driveway",
    "date_created": "2023-08-09T20:53:25.000",
    "date_modified": "2023-08-09T20:53:25.000",
    "request_status": "Pending",
    "responsible_agency": "Department of Public Works",
    "final_address": "334 Elmira Ave",
    "address_councildis": "C",
    "status": "Pending",
    "rowid": "1025016",
    "final_x": "3688274.44284",
    "final_y": "530462.374146",
    "longitude": "-90.04671662865009",
    "latitude": "29.952380148730654",
    "geocoded_column": {
      "latitude": "29.952380148730654",
      "longitude": "-90.04671662865009"
    }
  },
  {
    "service_request": "2023-1025015",
    "request_type": "Traffic Signals/Signs/Striping/Streetlights",
    "request_reason": "Street Light Outage/Malfunction",
    "date_created": "2023-08-09T20:52:02.000",
    "date_modified": "2023-08-09T20:52:02.000",
    "request_status": "Pending",
    "responsible_agency": "Department of Public Works",
    "final_address": "7301 Restgate Rd",
    "address_councildis": "E",
    "status": "Assigned to Contractor",
    "contractor": "Legacy Professional Services",
    "rowid": "1025015",
    "final_x": "3710589.65694",
    "final_y": "563611.912929",
    "longitude": "-89.97501531593832",
    "latitude": "30.042820895860814",
    "geocoded_column": {
      "latitude": "30.042820895860814",
      "longitude": "-89.97501531593832"
    }
  },
  {
    "service_request": "2023-1025014",
    "request_type": "Property Maintenance",
    "request_reason": "Property Maintenance",
    "date_created": "2023-08-09T20:51:29.000",
    "date_modified": "2023-08-09T20:51:29.000",
    "request_status": "Pending",
    "responsible_agency": "Department of Code Enforcement",
    "final_address": "20845 Old Spanish Trl",
    "address_councildis": "E",
    "status": "Pending",
    "rowid": "1025014",
    "final_x": "3763374.02934",
    "final_y": "572433.025321",
    "longitude": "-89.80782880130361",
    "latitude": "30.065248787006055",
    "geocoded_column": {
      "latitude": "30.065248787006055",
      "longitude": "-89.80782880130361"
    }
  },
  {
    "service_request": "2023-1025013",
    "request_type": "Property Maintenance",
    "request_reason": "Property Maintenance",
    "date_created": "2023-08-09T20:47:36.000",
    "date_modified": "2023-08-09T20:47:36.000",
    "request_status": "Pending",
    "responsible_agency": "Department of Code Enforcement",
    "final_address": "4740 San Marco Rd",
    "address_councildis": "E",
    "status": "Pending",
    "rowid": "1025013",
    "final_x": "3763526.61213",
    "final_y": "572637.687721",
    "longitude": "-89.80733786701484",
    "latitude": "30.065805927622986",
    "geocoded_column": {
      "latitude": "30.065805927622986",
      "longitude": "-89.80733786701484"
    }
  },
  {
    "service_request": "2023-1025012",
    "request_type": "Traffic Signals/Signs/Striping/Streetlights",
    "request_reason": "Street Light Outage/Malfunction",
    "date_created": "2023-08-09T20:47:23.000",
    "date_modified": "2023-08-09T20:48:26.000",
    "request_status": "Pending",
    "responsible_agency": "Department of Public Works",
    "final_address": "8200 BLK Palm St",
    "address_councildis": "A",
    "status": "Assigned to Contractor",
    "contractor": "Legacy Professional Services",
    "rowid": "1025012",
    "final_x": "3667319.70732",
    "final_y": "535055.399165",
    "longitude": "-90.11272781935429",
    "latitude": "29.96563979530219",
    "geocoded_column": {
      "latitude": "29.96563979530219",
      "longitude": "-90.11272781935429"
    }
  },
  {
    "service_request": "2023-1025011",
    "request_type": "Traffic Signals/Signs/Striping/Streetlights",
    "request_reason": "Street Light Outage/Malfunction",
    "date_created": "2023-08-09T20:46:07.000",
    "date_modified": "2023-08-09T20:46:08.000",
    "request_status": "Pending",
    "responsible_agency": "Department of Public Works",
    "final_address": "3500 BLK Cambronne St",
    "address_councildis": "A",
    "status": "Assigned to Contractor",
    "contractor": "Legacy Professional Services",
    "rowid": "1025011",
    "final_x": "3666803.25527",
    "final_y": "535287.414121",
    "longitude": "-90.11435096611407",
    "latitude": "29.966292876780916",
    "geocoded_column": {
      "latitude": "29.966292876780916",
      "longitude": "-90.11435096611407"
    }
  },
  {
    "service_request": "2023-1025010",
    "request_type": "Property Maintenance",
    "request_reason": "Property Maintenance",
    "date_created": "2023-08-09T20:43:26.000",
    "date_modified": "2023-08-09T20:43:26.000",
    "request_status": "Pending",
    "responsible_agency": "Department of Code Enforcement",
    "final_address": "20845 Old Spanish Trl",
    "address_councildis": "E",
    "status": "Pending",
    "rowid": "1025010",
    "final_x": "3763374.02934",
    "final_y": "572433.025321",
    "longitude": "-89.80782880130361",
    "latitude": "30.065248787006055",
    "geocoded_column": {
      "latitude": "30.065248787006055",
      "longitude": "-89.80782880130361"
    }
  },
  {
    "service_request": "2023-1025009",
    "request_type": "Roads/Drainage",
    "request_reason": "Debris in Roadway",
    "date_created": "2023-08-09T20:29:28.000",
    "date_modified": "2023-08-09T20:29:28.000",
    "request_status": "Pending",
    "responsible_agency": "Department of Public Works",
    "status": "Pending",
    "rowid": "1025009",
    "longitude": "0.0",
    "latitude": "0.0",
    "geocoded_column": {
      "latitude": "0.0",
      "longitude": "0.0"
    }
  },
  {
    "service_request": "2023-1025008",
    "request_type": "Traffic Signals/Signs/Striping/Streetlights",
    "request_reason": "Street Light Outage/Malfunction",
    "date_created": "2023-08-09T20:25:41.000",
    "date_modified": "2023-08-09T20:25:41.000",
    "request_status": "Pending",
    "responsible_agency": "Department of Public Works",
    "final_address": "6320 Pontchartrain Blvd",
    "address_councildis": "A",
    "status": "Assigned to Contractor",
    "contractor": "Legacy Professional Services",
    "rowid": "1025008",
    "final_x": "3666148.44897",
    "final_y": "549763.467348",
    "longitude": "-90.1159331386901",
    "latitude": "30.006116258144914",
    "geocoded_column": {
      "latitude": "30.006116258144914",
      "longitude": "-90.1159331386901"
    }
  },
  {
    "service_request": "2023-1025007",
    "request_type": "Abandoned Vehicles",
    "request_reason": "Abandoned/Junk Vehicles",
    "date_created": "2023-08-09T20:20:56.000",
    "date_modified": "2023-08-09T20:20:56.000",
    "request_status": "Pending",
    "responsible_agency": "Department of Public Works",
    "final_address": "1406 Hendee St",
    "address_councildis": "C",
    "status": "Pending",
    "rowid": "1025007",
    "final_x": "3690772.90153",
    "final_y": "526151.018366",
    "longitude": "-90.03898144669314",
    "latitude": "29.940448025259418",
    "geocoded_column": {
      "latitude": "29.940448025259418",
      "longitude": "-90.03898144669314"
    }
  },
  {
    "service_request": "2023-1025006",
    "request_type": "Mosquito, Termite & Rodent Control",
    "request_reason": "Non-Rodent Complaint (Mice, Possums, Snakes)",
    "date_created": "2023-08-09T19:59:53.000",
    "date_modified": "2023-08-09T19:59:54.000",
    "request_status": "Pending",
    "responsible_agency": "Mosquito, Termite & Rodent Control Board",
    "final_address": "1825 Seventh St",
    "address_councildis": "B",
    "status": "Pending",
    "rowid": "1025006",
    "final_x": "3674744.12705",
    "final_y": "522898.942779",
    "longitude": "-90.08969842039133",
    "latitude": "29.9319940078531",
    "geocoded_column": {
      "latitude": "29.9319940078531",
      "longitude": "-90.08969842039133"
    }
  },
  {
    "service_request": "2023-1025005",
    "request_type": "Health Related Request",
    "request_reason": "Noise Ordinance Complaint",
    "date_created": "2023-08-09T19:59:20.000",
    "date_modified": "2023-08-09T19:59:20.000",
    "request_status": "Pending",
    "responsible_agency": "Health Department",
    "final_address": "315 Decatur St, New Orleans, Louisiana, 70130",
    "address_councildis": "C",
    "status": "Pending",
    "rowid": "1025005",
    "final_x": "3682332.13967",
    "final_y": "530970.484162",
    "longitude": "-90.06546192627788",
    "latitude": "29.953959408807965",
    "geocoded_column": {
      "latitude": "29.953959408807965",
      "longitude": "-90.06546192627788"
    }
  },
  {
    "service_request": "2023-1025004",
    "request_type": "Abandoned Vehicles",
    "request_reason": "Abandoned/Junk Vehicles",
    "date_created": "2023-08-09T19:36:46.000",
    "date_modified": "2023-08-09T19:36:46.000",
    "request_status": "Pending",
    "responsible_agency": "Department of Public Works",
    "final_address": "6300 BLK Vicksburg St",
    "address_councildis": "A",
    "status": "Pending",
    "rowid": "1025004",
    "final_x": "3669085.55549",
    "final_y": "549647.845702",
    "longitude": "-90.10665798957268",
    "latitude": "30.005712208371374",
    "geocoded_column": {
      "latitude": "30.005712208371374",
      "longitude": "-90.10665798957268"
    }
  },
  {
    "service_request": "2023-1025003",
    "request_type": "Abandoned Vehicles",
    "request_reason": "Abandoned/Junk Vehicles",
    "date_created": "2023-08-09T19:34:39.000",
    "date_modified": "2023-08-09T19:34:39.000",
    "request_status": "Pending",
    "responsible_agency": "Department of Public Works",
    "final_address": "20845 Old Spanish Trl",
    "address_councildis": "E",
    "status": "Pending",
    "rowid": "1025003",
    "final_x": "3763374.02934",
    "final_y": "572433.025321",
    "longitude": "-89.80782880130361",
    "latitude": "30.065248787006055",
    "geocoded_column": {
      "latitude": "30.065248787006055",
      "longitude": "-89.80782880130361"
    }
  },
  {
    "service_request": "2023-1025002",
    "request_type": "Trash/Recycling",
    "request_reason": "Request a Large Item Pick Up",
    "date_created": "2023-08-09T19:28:29.000",
    "date_modified": "2023-08-09T19:28:30.000",
    "request_status": "Pending",
    "responsible_agency": "Department of Sanitation",
    "final_address": "4911 Gawain Dr",
    "address_councildis": "E",
    "status": "Assigned to Contractor",
    "contractor": "Waste Pro",
    "rowid": "1025002",
    "final_x": "3706945.23755",
    "final_y": "556487.572698",
    "longitude": "-89.98679765275841",
    "latitude": "30.02335004873773",
    "geocoded_column": {
      "latitude": "30.02335004873773",
      "longitude": "-89.98679765275841"
    }
  },
  {
    "service_request": "2023-1025001",
    "request_type": "Mosquito, Termite & Rodent Control",
    "request_reason": "Non-Rodent Complaint (Mice, Possums, Snakes)",
    "date_created": "2023-08-09T19:27:07.000",
    "date_modified": "2023-08-09T19:27:07.000",
    "request_status": "Pending",
    "responsible_agency": "Mosquito, Termite & Rodent Control Board",
    "final_address": "1835 General Pershing St Unit 6",
    "address_councildis": "B",
    "status": "Pending",
    "rowid": "1025001",
    "final_x": "3671200.50926",
    "final_y": "521900.454778",
    "longitude": "-90.10091918454172",
    "latitude": "29.929353765041725",
    "geocoded_column": {
      "latitude": "29.929353765041725",
      "longitude": "-90.10091918454172"
    }
  },
  {
    "service_request": "2023-1025000",
    "request_type": "Abandoned Vehicles",
    "request_reason": "Vehicle Blocking Your Driveway",
    "date_created": "2023-08-09T19:17:48.000",
    "date_modified": "2023-08-09T19:17:48.000",
    "request_status": "Pending",
    "responsible_agency": "Department of Public Works",
    "final_address": "8817 Plum St",
    "address_councildis": "A",
    "status": "Pending",
    "rowid": "1025000",
    "final_x": "3660280.96326",
    "final_y": "530433.171842",
    "longitude": "-90.13510866426407",
    "latitude": "29.95313445761062",
    "geocoded_column": {
      "latitude": "29.95313445761062",
      "longitude": "-90.13510866426407"
    }
  },
  {
    "service_request": "2023-1024999",
    "request_type": "Abandoned Vehicles",
    "request_reason": "Abandoned/Junk Vehicles",
    "date_created": "2023-08-09T19:14:40.000",
    "date_modified": "2023-08-09T19:14:40.000",
    "request_status": "Pending",
    "responsible_agency": "Department of Public Works",
    "final_address": "1300 Touro St",
    "address_councildis": "C",
    "status": "Pending",
    "rowid": "1024999",
    "final_x": "3684133.78306",
    "final_y": "537008.460936",
    "longitude": "-90.0595611405639",
    "latitude": "29.970506830565938",
    "geocoded_column": {
      "latitude": "29.970506830565938",
      "longitude": "-90.0595611405639"
    }
  },
  {
    "service_request": "2023-1024998",
    "request_type": "Trash/Recycling",
    "request_reason": "Request a Large Item Pick Up",
    "date_created": "2023-08-09T19:14:32.000",
    "date_modified": "2023-08-09T19:14:33.000",
    "request_status": "Pending",
    "responsible_agency": "Department of Sanitation",
    "final_address": "2130 Cadiz St",
    "address_councildis": "B",
    "status": "Assigned to Contractor",
    "contractor": "Richards Disposal",
    "rowid": "1024998",
    "final_x": "3669861.75393",
    "final_y": "522823.514683",
    "longitude": "-90.10511416227455",
    "latitude": "29.931931408997904",
    "geocoded_column": {
      "latitude": "29.931931408997904",
      "longitude": "-90.10511416227455"
    }
  },
  {
    "service_request": "2023-1024997",
    "request_type": "Traffic Signals/Signs/Striping/Streetlights",
    "request_reason": "Street Name Sign Damaged or Missing",
    "date_created": "2023-08-09T18:50:12.000",
    "date_modified": "2023-08-09T18:50:12.000",
    "request_status": "Pending",
    "responsible_agency": "Department of Public Works",
    "final_address": "MANDEVILLE ST & ABUNDANCE ST",
    "address_councildis": "D",
    "status": "Pending",
    "rowid": "1024997",
    "final_x": "3685183.3",
    "final_y": "543731.78",
    "longitude": "-90.05600995708967",
    "latitude": "29.988961471448945",
    "geocoded_column": {
      "latitude": "29.988961471448945",
      "longitude": "-90.05600995708967"
    }
  },
  {
    "service_request": "2023-1024996",
    "request_type": "Property Maintenance",
    "request_reason": "Property Maintenance",
    "date_created": "2023-08-09T18:45:43.000",
    "date_modified": "2023-08-09T18:45:44.000",
    "request_status": "Pending",
    "responsible_agency": "Department of Code Enforcement",
    "final_address": "2661 Abundance St",
    "address_councildis": "D",
    "status": "Pending",
    "rowid": "1024996",
    "final_x": "3687917.74396",
    "final_y": "543988.167758",
    "longitude": "-90.04736360539033",
    "latitude": "29.989582347445936",
    "geocoded_column": {
      "latitude": "29.989582347445936",
      "longitude": "-90.04736360539033"
    }
  },
  {
    "service_request": "2023-1024994",
    "request_type": "Trash/Recycling",
    "request_reason": "Missed Trash Pick-Up",
    "date_created": "2023-08-09T18:18:48.000",
    "date_modified": "2023-08-09T18:18:48.000",
    "request_status": "Pending",
    "responsible_agency": "Department of Sanitation",
    "final_address": "360 Lowerline St",
    "address_councildis": "A",
    "status": "Assigned to Contractor",
    "contractor": "Richards Disposal",
    "rowid": "1024994",
    "final_x": "3661588.76826",
    "final_y": "523852.834811",
    "longitude": "-90.13119715018104",
    "latitude": "29.93500295763582",
    "geocoded_column": {
      "latitude": "29.93500295763582",
      "longitude": "-90.13119715018104"
    }
  },
  {
    "service_request": "2023-1024993",
    "request_type": "Abandoned Vehicles",
    "request_reason": "Abandoned/Junk Vehicles",
    "date_created": "2023-08-09T18:09:37.000",
    "date_modified": "2023-08-09T18:09:37.000",
    "request_status": "Pending",
    "responsible_agency": "Department of Public Works",
    "final_address": "3127 Martin Luther King, Jr. Blvd",
    "address_councildis": "B",
    "status": "Pending",
    "rowid": "1024993",
    "final_x": "3674610.52782",
    "final_y": "528548.446272",
    "longitude": "-90.08992664475367",
    "latitude": "29.947532278911957",
    "geocoded_column": {
      "latitude": "29.947532278911957",
      "longitude": "-90.08992664475367"
    }
  },
  {
    "service_request": "2023-1024992",
    "request_type": "Roads/Drainage",
    "request_reason": "Pothole",
    "date_created": "2023-08-09T18:08:54.000",
    "date_modified": "2023-08-09T18:08:54.000",
    "request_status": "Pending",
    "responsible_agency": "Department of Public Works",
    "final_address": "1023 Clouet St",
    "address_councildis": "C",
    "status": "Pending",
    "rowid": "1024992",
    "final_x": "3688971.66857",
    "final_y": "535753.253959",
    "longitude": "-90.04432718136394",
    "latitude": "29.966906687195287",
    "geocoded_column": {
      "latitude": "29.966906687195287",
      "longitude": "-90.04432718136394"
    }
  },
  {
    "service_request": "2023-1024991",
    "request_type": "Abandoned Vehicles",
    "request_reason": "Abandoned/Junk Vehicles",
    "date_created": "2023-08-09T17:57:28.000",
    "date_modified": "2023-08-09T17:57:28.000",
    "request_status": "Pending",
    "responsible_agency": "Department of Public Works",
    "final_address": "S SCOTT ST & ULLOA ST",
    "address_councildis": "B",
    "status": "Pending",
    "rowid": "1024991",
    "final_x": "3670356.3",
    "final_y": "535949.68",
    "longitude": "-90.10310803214243",
    "latitude": "29.968009475219407",
    "geocoded_column": {
      "latitude": "29.968009475219407",
      "longitude": "-90.10310803214243"
    }
  },
  {
    "service_request": "2023-1024990",
    "request_type": "Trash/Recycling",
    "request_reason": "Illegal Dumping",
    "date_created": "2023-08-09T17:56:00.000",
    "date_modified": "2023-08-09T17:56:01.000",
    "request_status": "Pending",
    "responsible_agency": "Department of Sanitation",
    "final_address": "3711 Clara St",
    "address_councildis": "B",
    "status": "Pending",
    "rowid": "1024990",
    "final_x": "3671971.77543",
    "final_y": "525357.090813",
    "longitude": "-90.09836682907198",
    "latitude": "29.93883556481152",
    "geocoded_column": {
      "latitude": "29.93883556481152",
      "longitude": "-90.09836682907198"
    }
  },
  {
    "service_request": "2023-1024989",
    "request_type": "Trash/Recycling",
    "request_reason": "Order Trash Cart",
    "date_created": "2023-08-09T17:55:48.000",
    "date_modified": "2023-08-09T17:55:49.000",
    "request_status": "Pending",
    "responsible_agency": "Department of Sanitation",
    "final_address": "4713 W Adams Ct",
    "address_councildis": "E",
    "status": "Assigned to Contractor",
    "contractor": "Waste Pro",
    "rowid": "1024989",
    "final_x": "3718625.94501",
    "final_y": "556830.923354",
    "longitude": "-89.94987645240471",
    "latitude": "30.02391152323858",
    "geocoded_column": {
      "latitude": "30.02391152323858",
      "longitude": "-89.94987645240471"
    }
  },
  {
    "service_request": "2023-1024988",
    "request_type": "Traffic Signals/Signs/Striping/Streetlights",
    "request_reason": "Disabled Parking Sign ",
    "date_created": "2023-08-09T17:54:14.000",
    "date_modified": "2023-08-09T17:54:14.000",
    "request_status": "Pending",
    "responsible_agency": "Department of Public Works",
    "status": "Pending",
    "rowid": "1024988",
    "longitude": "0.0",
    "latitude": "0.0",
    "geocoded_column": {
      "latitude": "0.0",
      "longitude": "0.0"
    }
  },
  {
    "service_request": "2023-1024987",
    "request_type": "Abandoned Vehicles",
    "request_reason": "Vehicle Blocking Your Driveway",
    "date_created": "2023-08-09T17:50:56.000",
    "date_modified": "2023-08-09T17:50:56.000",
    "request_status": "Pending",
    "responsible_agency": "Department of Public Works",
    "final_address": "1000 Elysian Fields Ave, New Orleans, Louisiana, 70117",
    "address_councildis": "C",
    "status": "Pending",
    "rowid": "1024987",
    "final_x": "3684949.99791",
    "final_y": "535971.320263",
    "longitude": "-90.05701992842498",
    "latitude": "29.967630079782495",
    "geocoded_column": {
      "latitude": "29.967630079782495",
      "longitude": "-90.05701992842498"
    }
  },
  {
    "service_request": "2023-1024986",
    "request_type": "Traffic Signals/Signs/Striping/Streetlights",
    "request_reason": "Traffic Sign Missing/Damaged",
    "date_created": "2023-08-09T17:49:55.000",
    "date_modified": "2023-08-09T17:49:56.000",
    "request_status": "Pending",
    "responsible_agency": "Department of Public Works",
    "final_address": "CADIZ ST & S CLAIBORNE AVE",
    "address_councildis": "B",
    "status": "Pending",
    "rowid": "1024986",
    "final_x": "3669610.6",
    "final_y": "525722.58",
    "longitude": "-90.10580898622591",
    "latitude": "29.939910305291694",
    "geocoded_column": {
      "latitude": "29.939910305291694",
      "longitude": "-90.10580898622591"
    }
  },
  {
    "service_request": "2023-1024985",
    "request_type": "Property Maintenance",
    "request_reason": "Property Maintenance",
    "date_created": "2023-08-09T17:47:56.000",
    "date_modified": "2023-08-09T17:47:56.000",
    "request_status": "Pending",
    "responsible_agency": "Department of Code Enforcement",
    "final_address": "538 S Pierce St",
    "address_councildis": "B",
    "status": "Pending",
    "rowid": "1024985",
    "final_x": "3670376.40244",
    "final_y": "536458.956615",
    "longitude": "-90.10302727902595",
    "latitude": "29.969409221812786",
    "geocoded_column": {
      "latitude": "29.969409221812786",
      "longitude": "-90.10302727902595"
    }
  },
  {
    "service_request": "2023-1024984",
    "request_type": "Roads/Drainage",
    "request_reason": "Pothole",
    "date_created": "2023-08-09T17:44:04.000",
    "date_modified": "2023-08-09T17:44:04.000",
    "request_status": "Pending",
    "responsible_agency": "Department of Public Works",
    "final_address": "3629 Prytania St",
    "address_councildis": "B",
    "status": "Pending",
    "rowid": "1024984",
    "final_x": "3673410.74836",
    "final_y": "520712.326393",
    "longitude": "-90.09398242884356",
    "latitude": "29.926021243402264",
    "geocoded_column": {
      "latitude": "29.926021243402264",
      "longitude": "-90.09398242884356"
    }
  },
  {
    "service_request": "2023-1024983",
    "request_type": "Trash/Recycling",
    "request_reason": "Replace Trash Cart",
    "date_created": "2023-08-09T17:43:43.000",
    "date_modified": "2023-08-09T17:43:44.000",
    "request_status": "Pending",
    "responsible_agency": "Department of Sanitation",
    "final_address": "54 Fontainebleau Dr",
    "address_councildis": "A",
    "status": "Assigned to Contractor",
    "contractor": "Richards Disposal",
    "rowid": "1024983",
    "final_x": "3666292.69831",
    "final_y": "531108.259522",
    "longitude": "-90.1161035014854",
    "latitude": "29.95481649954296",
    "geocoded_column": {
      "latitude": "29.95481649954296",
      "longitude": "-90.1161035014854"
    }
  },
  {
    "service_request": "2023-1024982",
    "request_type": "Safety & Permits",
    "request_reason": "Licenses & Permits",
    "date_created": "2023-08-09T17:40:19.000",
    "date_modified": "2023-08-09T17:40:19.000",
    "request_status": "Pending",
    "responsible_agency": "Safety and Permits",
    "status": "Pending",
    "rowid": "1024982",
    "longitude": "0.0",
    "latitude": "0.0",
    "geocoded_column": {
      "latitude": "0.0",
      "longitude": "0.0"
    }
  },
  {
    "service_request": "2023-1024981",
    "request_type": "Trash/Recycling",
    "request_reason": "Repair Trash Cart",
    "date_created": "2023-08-09T17:36:15.000",
    "date_modified": "2023-08-09T17:36:15.000",
    "request_status": "Pending",
    "responsible_agency": "Department of Sanitation",
    "final_address": "3913 Clematis St",
    "address_councildis": "D",
    "status": "Assigned to Contractor",
    "contractor": "IV Waste",
    "rowid": "1024981",
    "final_x": "3685749.95689",
    "final_y": "547223.657745",
    "longitude": "-90.05409692360178",
    "latitude": "29.998545504241488",
    "geocoded_column": {
      "latitude": "29.998545504241488",
      "longitude": "-90.05409692360178"
    }
  },
  {
    "service_request": "2023-1024980",
    "request_type": "Traffic Signals/Signs/Striping/Streetlights",
    "request_reason": "Street Light Outage/Malfunction",
    "date_created": "2023-08-09T17:32:36.000",
    "date_modified": "2023-08-09T17:32:36.000",
    "request_status": "Pending",
    "responsible_agency": "Department of Public Works",
    "final_address": "2017 General Meyer Ave",
    "address_councildis": "C",
    "status": "Assigned to Contractor",
    "contractor": "Legacy Professional Services",
    "rowid": "1024980",
    "final_x": "3691903.44432",
    "final_y": "527712.900095",
    "longitude": "-90.03535629353564",
    "latitude": "29.944707500666283",
    "geocoded_column": {
      "latitude": "29.944707500666283",
      "longitude": "-90.03535629353564"
    }
  },
  {
    "service_request": "2023-1024979",
    "request_type": "Trash/Recycling",
    "request_reason": "Request a Large Item Pick Up",
    "date_created": "2023-08-09T17:31:25.000",
    "date_modified": "2023-08-09T17:31:25.000",
    "request_status": "Pending",
    "responsible_agency": "Department of Sanitation",
    "final_address": "5724 Wingate Dr",
    "address_councildis": "D",
    "status": "Assigned to Contractor",
    "contractor": "IV Waste",
    "rowid": "1024979",
    "final_x": "3681219.18626",
    "final_y": "553987.10524",
    "longitude": "-90.0681737248157",
    "latitude": "30.01728085443889",
    "geocoded_column": {
      "latitude": "30.01728085443889",
      "longitude": "-90.0681737248157"
    }
  },
  {
    "service_request": "2023-1024978",
    "request_type": "Trash/Recycling",
    "request_reason": "Missed Trash Pick-Up",
    "date_created": "2023-08-09T17:29:01.000",
    "date_modified": "2023-08-09T17:29:02.000",
    "request_status": "Pending",
    "responsible_agency": "Department of Sanitation",
    "final_address": "2427 Prentiss Ave",
    "address_councildis": "D",
    "status": "Assigned to Contractor",
    "contractor": "IV Waste",
    "rowid": "1024978",
    "final_x": "3685336.40559",
    "final_y": "554045.01244",
    "longitude": "-90.05516295817948",
    "latitude": "30.01731443807443",
    "geocoded_column": {
      "latitude": "30.01731443807443",
      "longitude": "-90.05516295817948"
    }
  },
  {
    "service_request": "2023-1024977",
    "request_type": "Abandoned Vehicles",
    "request_reason": "Abandoned/Junk Vehicles",
    "date_created": "2023-08-09T17:18:18.000",
    "date_modified": "2023-08-09T17:20:06.000",
    "request_status": "Pending",
    "responsible_agency": "Department of Public Works",
    "final_address": "DIXON ST & HAMILTON ST",
    "address_councildis": "A",
    "status": "Pending",
    "rowid": "1024977",
    "final_x": "3665818.5",
    "final_y": "537850.88",
    "longitude": "-90.1173749097371",
    "latitude": "29.97337032650915",
    "geocoded_column": {
      "latitude": "29.97337032650915",
      "longitude": "-90.1173749097371"
    }
  },
  {
    "service_request": "2023-1024976",
    "request_type": "Trash/Recycling",
    "request_reason": "Missed Trash Pick-Up",
    "date_created": "2023-08-09T17:13:10.000",
    "date_modified": "2023-08-09T17:13:11.000",
    "request_status": "Pending",
    "responsible_agency": "Department of Sanitation",
    "final_address": "12900 BLK McRaven Ct",
    "address_councildis": "E",
    "status": "Assigned to Contractor",
    "contractor": "Waste Pro",
    "rowid": "1024976",
    "final_x": "3716598.1419",
    "final_y": "568224.355793",
    "longitude": "-89.95585105287776",
    "latitude": "30.055306011067252",
    "geocoded_column": {
      "latitude": "30.055306011067252",
      "longitude": "-89.95585105287776"
    }
  },
  {
    "service_request": "2023-1024975",
    "request_type": "Trash/Recycling",
    "request_reason": "Illegal Dumping",
    "date_created": "2023-08-09T17:05:02.000",
    "date_modified": "2023-08-09T17:10:14.000",
    "request_status": "Pending",
    "responsible_agency": "Department of Sanitation",
    "final_address": "2632 Tennessee St",
    "address_councildis": "E",
    "rowid": "1024975",
    "final_x": "3697283.23427",
    "final_y": "540217.934155",
    "longitude": "-90.01791753518746",
    "latitude": "29.978923242027484",
    "geocoded_column": {
      "latitude": "29.978923242027484",
      "longitude": "-90.01791753518746"
    }
  },
  {
    "service_request": "2023-1024974",
    "request_type": "Trash/Recycling",
    "request_reason": "Replace Trash Cart",
    "date_created": "2023-08-09T17:04:31.000",
    "date_modified": "2023-08-09T17:04:42.000",
    "request_status": "Pending",
    "responsible_agency": "Department of Sanitation",
    "final_address": "5026 Annunciation St",
    "address_councildis": "B",
    "rowid": "1024974",
    "final_x": "3668383.53454",
    "final_y": "517470.279478",
    "longitude": "-90.10996119110239",
    "latitude": "29.9172551941002",
    "geocoded_column": {
      "latitude": "29.9172551941002",
      "longitude": "-90.10996119110239"
    }
  },
  {
    "service_request": "2023-1024972",
    "request_type": "Trash/Recycling",
    "request_reason": "Illegal Dumping",
    "date_created": "2023-08-09T17:01:42.000",
    "date_modified": "2023-08-09T17:05:38.000",
    "request_status": "Pending",
    "responsible_agency": "Department of Sanitation",
    "final_address": "2031 Flood St",
    "address_councildis": "E",
    "rowid": "1024972",
    "final_x": "3698722.69732",
    "final_y": "537471.594504",
    "longitude": "-90.01347110249786",
    "latitude": "29.971326284505434",
    "geocoded_column": {
      "latitude": "29.971326284505434",
      "longitude": "-90.01347110249786"
    }
  },
  {
    "service_request": "2023-1024971",
    "request_type": "Trash/Recycling",
    "request_reason": "MIssed Recycling Pick-Up",
    "date_created": "2023-08-09T17:00:34.000",
    "date_modified": "2023-08-09T17:00:35.000",
    "request_status": "Pending",
    "responsible_agency": "Department of Sanitation",
    "final_address": "104 Constitution St, New Orleans, Louisiana, 70114",
    "address_councildis": "C",
    "status": "Assigned to Contractor",
    "contractor": "Richards Disposal",
    "rowid": "1024971",
    "final_x": "3693206.05846",
    "final_y": "528247.77728",
    "longitude": "-90.03122437871811",
    "latitude": "29.946137590915686",
    "geocoded_column": {
      "latitude": "29.946137590915686",
      "longitude": "-90.03122437871811"
    }
  },
  {
    "service_request": "2023-1024970",
    "request_type": "Trash/Recycling",
    "request_reason": "Illegal Dumping",
    "date_created": "2023-08-09T17:00:12.000",
    "date_modified": "2023-08-09T17:00:12.000",
    "request_status": "Pending",
    "responsible_agency": "Department of Sanitation",
    "final_address": "1601 Opelousas Ave",
    "address_councildis": "C",
    "status": "Pending",
    "rowid": "1024970",
    "final_x": "3690285.02608",
    "final_y": "528935.89632",
    "longitude": "-90.04042253606323",
    "latitude": "29.9481206310705",
    "geocoded_column": {
      "latitude": "29.9481206310705",
      "longitude": "-90.04042253606323"
    }
  },
  {
    "service_request": "2023-1024969",
    "request_type": "Traffic Signals/Signs/Striping/Streetlights",
    "request_reason": "Traffic Signal Malfunctioning/Damaged",
    "date_created": "2023-08-09T16:59:43.000",
    "date_modified": "2023-08-09T16:59:43.000",
    "request_status": "Pending",
    "responsible_agency": "Department of Public Works",
    "final_address": "HAYNE BLVD & READ BLVD",
    "address_councildis": "E",
    "status": "Pending",
    "rowid": "1024969",
    "final_x": "3707696.7",
    "final_y": "565936.88",
    "longitude": "-89.98407162807439",
    "latitude": "30.049307603731002",
    "geocoded_column": {
      "latitude": "30.049307603731002",
      "longitude": "-89.98407162807439"
    }
  },
  {
    "service_request": "2023-1024968",
    "request_type": "Trash/Recycling",
    "request_reason": "Replace Trash Cart",
    "date_created": "2023-08-09T16:56:06.000",
    "date_modified": "2023-08-09T16:56:07.000",
    "request_status": "Pending",
    "responsible_agency": "Department of Sanitation",
    "final_address": "2900 OReilly St",
    "address_councildis": "D",
    "status": "Assigned to Contractor",
    "contractor": "IV Waste",
    "rowid": "1024968",
    "final_x": "3679078.33218",
    "final_y": "541994.028812",
    "longitude": "-90.07535397695183",
    "latitude": "29.984368977778487",
    "geocoded_column": {
      "latitude": "29.984368977778487",
      "longitude": "-90.07535397695183"
    }
  },
  {
    "service_request": "2023-1024965",
    "request_type": "Abandoned Vehicles",
    "request_reason": "Abandoned/Junk Vehicles",
    "date_created": "2023-08-09T16:50:51.000",
    "date_modified": "2023-08-09T16:50:51.000",
    "request_status": "Pending",
    "responsible_agency": "Department of Public Works",
    "final_address": "1037 Desire St",
    "address_councildis": "C",
    "status": "Pending",
    "rowid": "1024965",
    "final_x": "3690173.44028",
    "final_y": "535531.81863",
    "longitude": "-90.04053988762786",
    "latitude": "29.96626058967821",
    "geocoded_column": {
      "latitude": "29.96626058967821",
      "longitude": "-90.04053988762786"
    }
  },
  {
    "service_request": "2023-1024964",
    "request_type": "Roads/Drainage",
    "request_reason": "Catch Basin - Broken/Damage",
    "date_created": "2023-08-09T16:48:33.000",
    "date_modified": "2023-08-09T16:48:34.000",
    "request_status": "Pending",
    "responsible_agency": "Department of Public Works",
    "final_address": "1635 N Galvez St",
    "address_councildis": "D",
    "status": "Pending",
    "rowid": "1024964",
    "final_x": "3680915.21128",
    "final_y": "539115.183306",
    "longitude": "-90.06965237980765",
    "latitude": "29.976397576937067",
    "geocoded_column": {
      "latitude": "29.976397576937067",
      "longitude": "-90.06965237980765"
    }
  },
  {
    "service_request": "2023-1024963",
    "request_type": "Property Maintenance",
    "request_reason": "Property Maintenance",
    "date_created": "2023-08-09T16:47:52.000",
    "date_modified": "2023-08-09T16:47:52.000",
    "request_status": "Pending",
    "responsible_agency": "Department of Code Enforcement",
    "final_address": "512 S Salcedo St",
    "address_councildis": "B",
    "status": "Pending",
    "rowid": "1024963",
    "final_x": "3673058.67028",
    "final_y": "534664.720966",
    "longitude": "-90.09461770261194",
    "latitude": "29.964396214975647",
    "geocoded_column": {
      "latitude": "29.964396214975647",
      "longitude": "-90.09461770261194"
    }
  },
  {
    "service_request": "2023-1024962",
    "request_type": "Trash/Recycling",
    "request_reason": "Request a Large Item Pick Up",
    "date_created": "2023-08-09T16:44:07.000",
    "date_modified": "2023-08-09T16:44:07.000",
    "request_status": "Pending",
    "responsible_agency": "Department of Sanitation",
    "final_address": "2636 Somerset Dr",
    "address_councildis": "C",
    "status": "Assigned to Contractor",
    "contractor": "Richards Disposal",
    "rowid": "1024962",
    "final_x": "3702913.53508",
    "final_y": "521208.993273",
    "longitude": "-90.00083320359826",
    "latitude": "29.926476504844373",
    "geocoded_column": {
      "latitude": "29.926476504844373",
      "longitude": "-90.00083320359826"
    }
  },
  {
    "service_request": "2023-1024961",
    "request_type": "Property Maintenance",
    "request_reason": "Property Maintenance",
    "date_created": "2023-08-09T16:43:14.000",
    "date_modified": "2023-08-09T16:43:14.000",
    "request_status": "Pending",
    "responsible_agency": "Department of Code Enforcement",
    "final_address": "2418 Deslonde St",
    "address_councildis": "E",
    "status": "Pending",
    "rowid": "1024961",
    "final_x": "3696750.85187",
    "final_y": "539459.698186",
    "longitude": "-90.01962644903836",
    "latitude": "29.97685516105956",
    "geocoded_column": {
      "latitude": "29.97685516105956",
      "longitude": "-90.01962644903836"
    }
  },
  {
    "service_request": "2023-1024960",
    "request_type": "Traffic Signals/Signs/Striping/Streetlights",
    "request_reason": "Street Name Sign Damaged or Missing",
    "date_created": "2023-08-09T16:38:47.000",
    "date_modified": "2023-08-09T16:38:47.000",
    "request_status": "Pending",
    "responsible_agency": "Department of Public Works",
    "final_address": "2900 BLK Thalia St",
    "address_councildis": "B",
    "status": "Pending",
    "rowid": "1024960",
    "final_x": "3675428.53789",
    "final_y": "528278.970461",
    "longitude": "-90.08735311865996",
    "latitude": "29.9467668764899",
    "geocoded_column": {
      "latitude": "29.9467668764899",
      "longitude": "-90.08735311865996"
    }
  },
  {
    "service_request": "2023-1024959",
    "request_type": "Trash/Recycling",
    "request_reason": "Missed Trash Pick-Up",
    "date_created": "2023-08-09T16:38:09.000",
    "date_modified": "2023-08-09T16:38:09.000",
    "request_status": "Pending",
    "responsible_agency": "Department of Sanitation",
    "final_address": "4600 Gabriel Dr",
    "address_councildis": "E",
    "status": "Assigned to Contractor",
    "contractor": "Waste Pro",
    "rowid": "1024959",
    "final_x": "3708908.6355",
    "final_y": "554789.224664",
    "longitude": "-89.980657139579",
    "latitude": "30.01861666553566",
    "geocoded_column": {
      "latitude": "30.01861666553566",
      "longitude": "-89.980657139579"
    }
  },
  {
    "service_request": "2023-1024958",
    "request_type": "Property Maintenance",
    "request_reason": "Property Maintenance",
    "date_created": "2023-08-09T16:33:54.000",
    "date_modified": "2023-08-09T16:33:54.000",
    "request_status": "Pending",
    "responsible_agency": "Department of Code Enforcement",
    "final_address": "3705 Chestnut St",
    "address_councildis": "B",
    "status": "Pending",
    "rowid": "1024958",
    "final_x": "3673405.40961",
    "final_y": "519895.002744",
    "longitude": "-90.09402718681486",
    "latitude": "29.923774024544958",
    "geocoded_column": {
      "latitude": "29.923774024544958",
      "longitude": "-90.09402718681486"
    }
  },
  {
    "service_request": "2023-1024957",
    "request_type": "Property Maintenance",
    "request_reason": "Property Maintenance",
    "date_created": "2023-08-09T16:30:04.000",
    "date_modified": "2023-08-09T16:30:04.000",
    "request_status": "Pending",
    "responsible_agency": "Department of Code Enforcement",
    "final_address": "7610 Endeavors Ct",
    "address_councildis": "E",
    "status": "Pending",
    "rowid": "1024957",
    "final_x": "3725793.57913",
    "final_y": "571029.139687",
    "longitude": "-89.92667770606445",
    "latitude": "30.06271082335896",
    "geocoded_column": {
      "latitude": "30.06271082335896",
      "longitude": "-89.92667770606445"
    }
  },
  {
    "service_request": "2023-1024956",
    "request_type": "Property Maintenance",
    "request_reason": "Property Maintenance",
    "date_created": "2023-08-09T16:29:44.000",
    "date_modified": "2023-08-09T16:29:44.000",
    "request_status": "Pending",
    "responsible_agency": "Department of Code Enforcement",
    "final_address": "7600 Endeavors Ct",
    "address_councildis": "E",
    "status": "Pending",
    "rowid": "1024956",
    "final_x": "3725841.1959",
    "final_y": "570993.600103",
    "longitude": "-89.92652856926428",
    "latitude": "30.06261149720608",
    "geocoded_column": {
      "latitude": "30.06261149720608",
      "longitude": "-89.92652856926428"
    }
  },
  {
    "service_request": "2023-1024955",
    "request_type": "Property Maintenance",
    "request_reason": "Property Maintenance",
    "date_created": "2023-08-09T16:26:12.000",
    "date_modified": "2023-08-09T16:26:12.000",
    "request_status": "Pending",
    "responsible_agency": "Department of Code Enforcement",
    "final_address": "2043 Delery St",
    "address_councildis": "E",
    "status": "Pending",
    "rowid": "1024955",
    "final_x": "3701902.93949",
    "final_y": "536467.236935",
    "longitude": "-90.00346433380679",
    "latitude": "29.968463555573667",
    "geocoded_column": {
      "latitude": "29.968463555573667",
      "longitude": "-90.00346433380679"
    }
  },
  {
    "service_request": "2023-1024954",
    "request_type": "Trash/Recycling",
    "request_reason": "MIssed Recycling Pick-Up",
    "date_created": "2023-08-09T16:25:54.000",
    "date_modified": "2023-08-09T16:25:54.000",
    "request_status": "Pending",
    "responsible_agency": "Department of Sanitation",
    "final_address": "8610 Hayne Blvd",
    "address_councildis": "E",
    "status": "Assigned to Contractor",
    "contractor": "Waste Pro",
    "rowid": "1024954",
    "final_x": "3703559.38282",
    "final_y": "563615.226977",
    "longitude": "-89.99723354124816",
    "latitude": "30.04305728515729",
    "geocoded_column": {
      "latitude": "30.04305728515729",
      "longitude": "-89.99723354124816"
    }
  },
  {
    "service_request": "2023-1024953",
    "request_type": "Trash/Recycling",
    "request_reason": "Repair Trash Cart",
    "date_created": "2023-08-09T16:25:11.000",
    "date_modified": "2023-08-09T16:25:12.000",
    "request_status": "Pending",
    "responsible_agency": "Department of Sanitation",
    "final_address": "1830 River Oaks Dr",
    "address_councildis": "C",
    "status": "Assigned to Contractor",
    "contractor": "Richards Disposal",
    "rowid": "1024953",
    "final_x": "3701733.05969",
    "final_y": "523917.767804",
    "longitude": "-90.00446044299441",
    "latitude": "29.9339623888208",
    "geocoded_column": {
      "latitude": "29.9339623888208",
      "longitude": "-90.00446044299441"
    }
  },
  {
    "service_request": "2023-1024952",
    "request_type": "Trash/Recycling",
    "request_reason": "Return Recycling Cart",
    "date_created": "2023-08-09T16:22:45.000",
    "date_modified": "2023-08-09T16:22:46.000",
    "request_status": "Pending",
    "responsible_agency": "Department of Sanitation",
    "final_address": "21 Swan St",
    "address_councildis": "D",
    "status": "Pending",
    "rowid": "1024952",
    "final_x": "3673196.04616",
    "final_y": "557606.193691",
    "longitude": "-90.09339991385374",
    "latitude": "30.027473185056678",
    "geocoded_column": {
      "latitude": "30.027473185056678",
      "longitude": "-90.09339991385374"
    }
  },
  {
    "service_request": "2023-1024951",
    "request_type": "Trash/Recycling",
    "request_reason": "Order Recycling Cart",
    "date_created": "2023-08-09T16:18:50.000",
    "date_modified": "2023-08-09T16:18:50.000",
    "request_status": "Pending",
    "responsible_agency": "Department of Sanitation",
    "final_address": "1008 Louisa St",
    "address_councildis": "C",
    "status": "Pending",
    "rowid": "1024951",
    "final_x": "3689442.94204",
    "final_y": "535524.207302",
    "longitude": "-90.0428470503302",
    "latitude": "29.966262303191716",
    "geocoded_column": {
      "latitude": "29.966262303191716",
      "longitude": "-90.0428470503302"
    }
  },
  {
    "service_request": "2023-1024950",
    "request_type": "Trash/Recycling",
    "request_reason": "Request a Large Item Pick Up",
    "date_created": "2023-08-09T16:16:31.000",
    "date_modified": "2023-08-09T16:16:32.000",
    "request_status": "Pending",
    "responsible_agency": "Department of Sanitation",
    "final_address": "4720 Friar Tuck Dr",
    "address_councildis": "E",
    "status": "Assigned to Contractor",
    "contractor": "Waste Pro",
    "rowid": "1024950",
    "final_x": "3717697.67794",
    "final_y": "556823.75145",
    "longitude": "-89.95280983357182",
    "latitude": "30.023922587503108",
    "geocoded_column": {
      "latitude": "30.023922587503108",
      "longitude": "-89.95280983357182"
    }
  },
  {
    "service_request": "2023-1024949",
    "request_type": "Traffic Signals/Signs/Striping/Streetlights",
    "request_reason": "Street Light Outage/Malfunction",
    "date_created": "2023-08-09T16:14:44.000",
    "date_modified": "2023-08-09T16:14:45.000",
    "request_status": "Pending",
    "responsible_agency": "Department of Public Works",
    "final_address": "10101 Deerfield Dr",
    "address_councildis": "E",
    "status": "Assigned to Contractor",
    "contractor": "Legacy Professional Services",
    "rowid": "1024949",
    "final_x": "3709554.35185",
    "final_y": "563314.76784",
    "longitude": "-89.97829837395467",
    "latitude": "30.04203757071828",
    "geocoded_column": {
      "latitude": "30.04203757071828",
      "longitude": "-89.97829837395467"
    }
  },
  {
    "service_request": "2023-1024947",
    "request_type": "Parks & Parkways",
    "request_reason": "Request Tree Service (Right of Way/Public Property)",
    "date_created": "2023-08-09T16:12:26.000",
    "date_modified": "2023-08-09T16:12:26.000",
    "request_status": "Pending",
    "responsible_agency": "Department of Parks & Parkway",
    "final_address": "1714 Audubon St",
    "address_councildis": "A",
    "status": "Pending",
    "rowid": "1024947",
    "final_x": "3665468.74132",
    "final_y": "527969.694527",
    "longitude": "-90.11881029831396",
    "latitude": "29.94621050473401",
    "geocoded_column": {
      "latitude": "29.94621050473401",
      "longitude": "-90.11881029831396"
    }
  },
  {
    "service_request": "2023-1024946",
    "request_type": "Trash/Recycling",
    "request_reason": "MIssed Recycling Pick-Up",
    "date_created": "2023-08-09T16:11:36.000",
    "date_modified": "2023-08-09T16:11:37.000",
    "request_status": "Pending",
    "responsible_agency": "Department of Sanitation",
    "final_address": "5001 Hauck Dr",
    "address_councildis": "E",
    "status": "Assigned to Contractor",
    "contractor": "Waste Pro",
    "rowid": "1024946",
    "final_x": "3714522.35499",
    "final_y": "557804.972827",
    "longitude": "-89.96280604327599",
    "latitude": "30.026725366310885",
    "geocoded_column": {
      "latitude": "30.026725366310885",
      "longitude": "-89.96280604327599"
    }
  },
  {
    "service_request": "2023-1024945",
    "request_type": "Roads/Drainage",
    "request_reason": "Pothole",
    "date_created": "2023-08-09T16:10:20.000",
    "date_modified": "2023-08-09T16:10:20.000",
    "request_status": "Pending",
    "responsible_agency": "Department of Public Works",
    "final_address": "1423 General Pershing St",
    "address_councildis": "B",
    "status": "Pending",
    "rowid": "1024945",
    "final_x": "3671330.69185",
    "final_y": "520571.244024",
    "longitude": "-90.1005533659415",
    "latitude": "29.925695010510914",
    "geocoded_column": {
      "latitude": "29.925695010510914",
      "longitude": "-90.1005533659415"
    }
  },
  {
    "service_request": "2023-1024944",
    "request_type": "Trash/Recycling",
    "request_reason": "Request a Large Item Pick Up",
    "date_created": "2023-08-09T16:03:58.000",
    "date_modified": "2023-08-09T16:03:59.000",
    "request_status": "Pending",
    "responsible_agency": "Department of Sanitation",
    "final_address": "2631 St Ann St A",
    "address_councildis": "D",
    "status": "Assigned to Contractor",
    "contractor": "Richards Disposal",
    "rowid": "1024944",
    "final_x": "3677186.74286",
    "final_y": "537077.16916",
    "longitude": "-90.08149833491261",
    "latitude": "29.970906272855704",
    "geocoded_column": {
      "latitude": "29.970906272855704",
      "longitude": "-90.08149833491261"
    }
  },
  {
    "service_request": "2023-1024943",
    "request_type": "Trash/Recycling",
    "request_reason": "Missed Trash Pick-Up",
    "date_created": "2023-08-09T16:00:43.000",
    "date_modified": "2023-08-09T16:00:44.000",
    "request_status": "Pending",
    "responsible_agency": "Department of Sanitation",
    "final_address": "4951 Eastview Dr",
    "address_councildis": "E",
    "status": "Assigned to Contractor",
    "contractor": "Waste Pro",
    "rowid": "1024943",
    "final_x": "3705050.68702",
    "final_y": "556473.920474",
    "longitude": "-89.99278448775758",
    "latitude": "30.023373591571524",
    "geocoded_column": {
      "latitude": "30.023373591571524",
      "longitude": "-89.99278448775758"
    }
  },
  {
    "service_request": "2023-1024942",
    "request_type": "Roads/Drainage",
    "request_reason": "Catch Basin - Broken/Damage",
    "date_created": "2023-08-09T15:58:30.000",
    "date_modified": "2023-08-09T15:58:30.000",
    "request_status": "Pending",
    "responsible_agency": "Department of Public Works",
    "final_address": "3400 BLK Johnny Jackson Jr Blvd",
    "address_councildis": "D",
    "status": "Pending",
    "rowid": "1024942",
    "final_x": "3691901.14044",
    "final_y": "545100.91746",
    "longitude": "-90.0347413909206",
    "latitude": "29.992518480823648",
    "geocoded_column": {
      "latitude": "29.992518480823648",
      "longitude": "-90.0347413909206"
    }
  },
  {
    "service_request": "2023-1024941",
    "request_type": "Traffic Signals/Signs/Striping/Streetlights",
    "request_reason": "Street Name Sign Damaged or Missing",
    "date_created": "2023-08-09T15:56:21.000",
    "date_modified": "2023-08-09T15:56:22.000",
    "request_status": "Pending",
    "responsible_agency": "Department of Public Works",
    "final_address": "THALIA ST & S DORGENOIS ST",
    "address_councildis": "B",
    "status": "Pending",
    "rowid": "1024941",
    "final_x": "3672536.8",
    "final_y": "530097.18",
    "longitude": "-90.09642143495127",
    "latitude": "29.95185249930991",
    "geocoded_column": {
      "latitude": "29.95185249930991",
      "longitude": "-90.09642143495127"
    }
  },
  {
    "service_request": "2023-1024940",
    "request_type": "Property Maintenance",
    "request_reason": "Property Maintenance",
    "date_created": "2023-08-09T15:54:57.000",
    "date_modified": "2023-08-09T15:54:57.000",
    "request_status": "Pending",
    "responsible_agency": "Department of Code Enforcement",
    "final_address": "8832 Apricot St",
    "address_councildis": "A",
    "status": "Pending",
    "rowid": "1024940",
    "final_x": "3663798.56762",
    "final_y": "534416.141637",
    "longitude": "-90.12386880021981",
    "latitude": "29.963984713975236",
    "geocoded_column": {
      "latitude": "29.963984713975236",
      "longitude": "-90.12386880021981"
    }
  },
  {
    "service_request": "2023-1024939",
    "request_type": "Traffic Signals/Signs/Striping/Streetlights",
    "request_reason": "Street Light Outage/Malfunction",
    "date_created": "2023-08-09T15:53:47.000",
    "date_modified": "2023-08-09T15:53:48.000",
    "request_status": "Pending",
    "responsible_agency": "Department of Public Works",
    "final_address": "2032 Toledano St",
    "address_councildis": "B",
    "status": "Assigned to Contractor",
    "contractor": "Legacy Professional Services",
    "rowid": "1024939",
    "final_x": "3673807.41998",
    "final_y": "523254.166779",
    "longitude": "-90.09264337008615",
    "latitude": "29.93299868010127",
    "geocoded_column": {
      "latitude": "29.93299868010127",
      "longitude": "-90.09264337008615"
    }
  },
  {
    "service_request": "2023-1024938",
    "request_type": "Property Maintenance",
    "request_reason": "Property Maintenance",
    "date_created": "2023-08-09T15:53:16.000",
    "date_modified": "2023-08-09T15:53:16.000",
    "request_status": "Pending",
    "responsible_agency": "Department of Code Enforcement",
    "final_address": "8832 Apricot St",
    "address_councildis": "A",
    "status": "Pending",
    "rowid": "1024938",
    "final_x": "3663798.56762",
    "final_y": "534416.141637",
    "longitude": "-90.12386880021981",
    "latitude": "29.963984713975236",
    "geocoded_column": {
      "latitude": "29.963984713975236",
      "longitude": "-90.12386880021981"
    }
  },
  {
    "service_request": "2023-1024937",
    "request_type": "Abandoned Vehicles",
    "request_reason": "Abandoned/Junk Vehicles",
    "date_created": "2023-08-09T15:50:46.000",
    "date_modified": "2023-08-09T15:53:39.000",
    "request_status": "Pending",
    "responsible_agency": "Department of Public Works",
    "final_address": "2136 Lizardi St",
    "address_councildis": "E",
    "status": "Pending",
    "rowid": "1024937",
    "final_x": "3697586.12163",
    "final_y": "538150.656841",
    "longitude": "-90.01703591220785",
    "latitude": "29.973229411115714",
    "geocoded_column": {
      "latitude": "29.973229411115714",
      "longitude": "-90.01703591220785"
    }
  },
  {
    "service_request": "2023-1024935",
    "request_type": "Property Maintenance",
    "request_reason": "Property Maintenance",
    "date_created": "2023-08-09T15:48:13.000",
    "date_modified": "2023-08-09T15:48:13.000",
    "request_status": "Pending",
    "responsible_agency": "Department of Code Enforcement",
    "final_address": "8832 Apricot St",
    "address_councildis": "A",
    "status": "Pending",
    "rowid": "1024935",
    "final_x": "3663798.56762",
    "final_y": "534416.141637",
    "longitude": "-90.12386880021981",
    "latitude": "29.963984713975236",
    "geocoded_column": {
      "latitude": "29.963984713975236",
      "longitude": "-90.12386880021981"
    }
  },
  {
    "service_request": "2023-1024934",
    "request_type": "Trash/Recycling",
    "request_reason": "Missed Trash Pick-Up",
    "date_created": "2023-08-09T15:43:51.000",
    "date_modified": "2023-08-09T15:44:02.000",
    "request_status": "Pending",
    "responsible_agency": "Department of Sanitation",
    "final_address": "4926 Bundy Rd",
    "address_councildis": "E",
    "status": "Assigned to Contractor",
    "contractor": "Waste Pro",
    "rowid": "1024934",
    "final_x": "3709105.50763",
    "final_y": "556775.463322",
    "longitude": "-89.97996097638757",
    "latitude": "30.024071655208036",
    "geocoded_column": {
      "latitude": "30.024071655208036",
      "longitude": "-89.97996097638757"
    }
  },
  {
    "service_request": "2023-1024933",
    "request_type": "Trash/Recycling",
    "request_reason": "MIssed Recycling Pick-Up",
    "date_created": "2023-08-09T15:43:27.000",
    "date_modified": "2023-08-09T15:43:28.000",
    "request_status": "Pending",
    "responsible_agency": "Department of Sanitation",
    "final_address": "1619 Eighth St",
    "address_councildis": "B",
    "status": "Assigned to Contractor",
    "contractor": "Richards Disposal",
    "rowid": "1024933",
    "final_x": "3674882.57531",
    "final_y": "522130.592506",
    "longitude": "-90.0892876879156",
    "latitude": "29.92987716137391",
    "geocoded_column": {
      "latitude": "29.92987716137391",
      "longitude": "-90.0892876879156"
    }
  },
  {
    "service_request": "2023-1024932",
    "request_type": "Trash/Recycling",
    "request_reason": "Request a Large Item Pick Up",
    "date_created": "2023-08-09T15:40:33.000",
    "date_modified": "2023-08-09T15:40:34.000",
    "request_status": "Pending",
    "responsible_agency": "Department of Sanitation",
    "final_address": "2032 Tennessee St",
    "address_councildis": "E",
    "status": "Assigned to Contractor",
    "contractor": "Waste Pro",
    "rowid": "1024932",
    "final_x": "3696649.94154",
    "final_y": "537961.076553",
    "longitude": "-90.01999940377527",
    "latitude": "29.9727376711972",
    "geocoded_column": {
      "latitude": "29.9727376711972",
      "longitude": "-90.01999940377527"
    }
  },
  {
    "service_request": "2023-1024931",
    "request_type": "Roads/Drainage",
    "request_reason": "Street Subsidence (Sinking)",
    "date_created": "2023-08-09T15:38:09.000",
    "date_modified": "2023-08-09T15:38:09.000",
    "request_status": "Pending",
    "responsible_agency": "Department of Public Works",
    "final_address": "ENCAMPMENT ST & HARRISON AVE",
    "address_councildis": "D",
    "status": "Pending",
    "rowid": "1024931",
    "final_x": "3676514.5",
    "final_y": "547497.88",
    "longitude": "-90.08326232956341",
    "latitude": "29.999579791527488",
    "geocoded_column": {
      "latitude": "29.999579791527488",
      "longitude": "-90.08326232956341"
    }
  },
  {
    "service_request": "2023-1024930",
    "request_type": "Trash/Recycling",
    "request_reason": "Request a Large Item Pick Up",
    "date_created": "2023-08-09T15:37:31.000",
    "date_modified": "2023-08-09T15:37:32.000",
    "request_status": "Pending",
    "responsible_agency": "Department of Sanitation",
    "final_address": "26 Maryland Dr",
    "address_councildis": "A",
    "status": "Assigned to Contractor",
    "contractor": "IV Waste",
    "rowid": "1024930",
    "final_x": "3663585.21235",
    "final_y": "540858.182987",
    "longitude": "-90.1243279112759",
    "latitude": "29.981704384603994",
    "geocoded_column": {
      "latitude": "29.981704384603994",
      "longitude": "-90.1243279112759"
    }
  },
  {
    "service_request": "2023-1024929",
    "request_type": "Trash/Recycling",
    "request_reason": "Request a Large Item Pick Up",
    "date_created": "2023-08-09T15:36:52.000",
    "date_modified": "2023-08-09T15:36:53.000",
    "request_status": "Pending",
    "responsible_agency": "Department of Sanitation",
    "final_address": "2516 N Roman St",
    "address_councildis": "D",
    "status": "Assigned to Contractor",
    "contractor": "IV Waste",
    "rowid": "1024929",
    "final_x": "3687155.84578",
    "final_y": "539031.988426",
    "longitude": "-90.04994556588466",
    "latitude": "29.975978101405186",
    "geocoded_column": {
      "latitude": "29.975978101405186",
      "longitude": "-90.04994556588466"
    }
  },
  {
    "service_request": "2023-1024928",
    "request_type": "Trash/Recycling",
    "request_reason": "Request a Large Item Pick Up",
    "date_created": "2023-08-09T15:35:28.000",
    "date_modified": "2023-08-09T15:35:28.000",
    "request_status": "Pending",
    "responsible_agency": "Department of Sanitation",
    "final_address": "26 Maryland Dr",
    "address_councildis": "A",
    "status": "Assigned to Contractor",
    "contractor": "IV Waste",
    "rowid": "1024928",
    "final_x": "3663585.21235",
    "final_y": "540858.182987",
    "longitude": "-90.1243279112759",
    "latitude": "29.981704384603994",
    "geocoded_column": {
      "latitude": "29.981704384603994",
      "longitude": "-90.1243279112759"
    }
  },
  {
    "service_request": "2023-1024927",
    "request_type": "Trash/Recycling",
    "request_reason": "Repair Trash Cart",
    "date_created": "2023-08-09T15:34:19.000",
    "date_modified": "2023-08-09T15:34:19.000",
    "request_status": "Pending",
    "responsible_agency": "Department of Sanitation",
    "final_address": "5002 Constance St",
    "address_councildis": "B",
    "status": "Assigned to Contractor",
    "contractor": "Richards Disposal",
    "rowid": "1024927",
    "final_x": "3668555.57678",
    "final_y": "518176.730294",
    "longitude": "-90.10939433153351",
    "latitude": "29.91919265967972",
    "geocoded_column": {
      "latitude": "29.91919265967972",
      "longitude": "-90.10939433153351"
    }
  },
  {
    "service_request": "2023-1024926",
    "request_type": "Trash/Recycling",
    "request_reason": "Order Recycling Cart",
    "date_created": "2023-08-09T15:34:06.000",
    "date_modified": "2023-08-09T15:34:07.000",
    "request_status": "Pending",
    "responsible_agency": "Department of Sanitation",
    "final_address": "1705 Wagner St",
    "address_councildis": "C",
    "status": "Pending",
    "rowid": "1024926",
    "final_x": "3690293.08912",
    "final_y": "524724.937276",
    "longitude": "-90.04054708556993",
    "latitude": "29.936541681788825",
    "geocoded_column": {
      "latitude": "29.936541681788825",
      "longitude": "-90.04054708556993"
    }
  },
  {
    "service_request": "2023-1024925",
    "request_type": "Roads/Drainage",
    "request_reason": "Pothole",
    "date_created": "2023-08-09T15:30:58.000",
    "date_modified": "2023-08-09T15:31:52.000",
    "case_close_date": "2023-08-09T10:31:52.000",
    "request_status": "Closed",
    "responsible_agency": "Department of Public Works",
    "final_address": "2239 Napoleon Ave",
    "address_councildis": "B",
    "status": "Resolved",
    "rowid": "1024925",
    "final_x": "3670751.75188",
    "final_y": "523321.799099",
    "longitude": "-90.1022876255168",
    "latitude": "29.933275269435455",
    "geocoded_column": {
      "latitude": "29.933275269435455",
      "longitude": "-90.1022876255168"
    }
  },
  {
    "service_request": "2023-1024924",
    "request_type": "Roads/Drainage",
    "request_reason": "Pothole",
    "date_created": "2023-08-09T15:30:12.000",
    "date_modified": "2023-08-09T15:30:12.000",
    "request_status": "Pending",
    "responsible_agency": "Department of Public Works",
    "final_address": "1312 Milan St",
    "address_councildis": "B",
    "status": "Pending",
    "rowid": "1024924",
    "final_x": "3671625.82823",
    "final_y": "520286.919608",
    "longitude": "-90.09963137110304",
    "latitude": "29.92490447494246",
    "geocoded_column": {
      "latitude": "29.92490447494246",
      "longitude": "-90.09963137110304"
    }
  },
  {
    "service_request": "2023-1024923",
    "request_type": "Roads/Drainage",
    "request_reason": "Man hole cover issue",
    "date_created": "2023-08-09T15:28:01.000",
    "date_modified": "2023-08-09T15:28:01.000",
    "request_status": "Pending",
    "responsible_agency": "Department of Public Works",
    "final_address": "1143 Louisiana Ave",
    "address_councildis": "B",
    "status": "Pending",
    "rowid": "1024923",
    "final_x": "3674969.52846",
    "final_y": "519973.365432",
    "longitude": "-90.08908713978722",
    "latitude": "29.92394288769024",
    "geocoded_column": {
      "latitude": "29.92394288769024",
      "longitude": "-90.08908713978722"
    }
  },
  {
    "service_request": "2023-1024922",
    "request_type": "Abandoned Vehicles",
    "request_reason": "Abandoned/Junk Vehicles",
    "date_created": "2023-08-09T15:26:53.000",
    "date_modified": "2023-08-09T15:26:53.000",
    "request_status": "Pending",
    "responsible_agency": "Department of Public Works",
    "final_address": "1901 Foucher St",
    "address_councildis": "B",
    "status": "Pending",
    "rowid": "1024922",
    "final_x": "3673158.89032",
    "final_y": "522353.161786",
    "longitude": "-90.09472148243546",
    "latitude": "29.930540500320518",
    "geocoded_column": {
      "latitude": "29.930540500320518",
      "longitude": "-90.09472148243546"
    }
  },
  {
    "service_request": "2023-1024921",
    "request_type": "Abandoned Vehicles",
    "request_reason": "Abandoned/Junk Vehicles",
    "date_created": "2023-08-09T15:26:20.000",
    "date_modified": "2023-08-09T15:26:20.000",
    "request_status": "Pending",
    "responsible_agency": "Department of Public Works",
    "final_address": "2026 Amelia St",
    "address_councildis": "B",
    "status": "Pending",
    "rowid": "1024921",
    "final_x": "3672693.84328",
    "final_y": "522771.376698",
    "longitude": "-90.09617531468412",
    "latitude": "29.93170427075589",
    "geocoded_column": {
      "latitude": "29.93170427075589",
      "longitude": "-90.09617531468412"
    }
  },
  {
    "service_request": "2023-1024920",
    "request_type": "Roads/Drainage",
    "request_reason": "Pothole",
    "date_created": "2023-08-09T15:25:46.000",
    "date_modified": "2023-08-09T15:25:46.000",
    "request_status": "Pending",
    "responsible_agency": "Department of Public Works",
    "final_address": "JUMONVILLE ST & HARRISON AVE",
    "address_councildis": "D",
    "status": "Pending",
    "rowid": "1024920",
    "final_x": "3677994.7",
    "final_y": "547601.48",
    "longitude": "-90.07858273983246",
    "latitude": "29.999820169290793",
    "geocoded_column": {
      "latitude": "29.999820169290793",
      "longitude": "-90.07858273983246"
    }
  },
  {
    "service_request": "2023-1024919",
    "request_type": "Roads/Drainage",
    "request_reason": "Damaged Sidewalk",
    "date_created": "2023-08-09T15:22:00.000",
    "date_modified": "2023-08-09T15:22:01.000",
    "request_status": "Pending",
    "responsible_agency": "Department of Public Works",
    "final_address": "1510 Mandolin St",
    "address_councildis": "D",
    "status": "Pending",
    "rowid": "1024919",
    "final_x": "3678923.3549",
    "final_y": "547989.700178",
    "longitude": "-90.07563561755721",
    "latitude": "30.000859642545013",
    "geocoded_column": {
      "latitude": "30.000859642545013",
      "longitude": "-90.07563561755721"
    }
  },
  {
    "service_request": "2023-1024918",
    "request_type": "Trash/Recycling",
    "request_reason": "Repair Trash Cart",
    "date_created": "2023-08-09T15:19:21.000",
    "date_modified": "2023-08-09T15:19:21.000",
    "request_status": "Pending",
    "responsible_agency": "Department of Sanitation",
    "final_address": "3343 Piedmont Dr",
    "address_councildis": "D",
    "status": "Assigned to Contractor",
    "contractor": "IV Waste",
    "rowid": "1024918",
    "final_x": "3686499.80559",
    "final_y": "545312.749967",
    "longitude": "-90.05179566927885",
    "latitude": "29.993268154960735",
    "geocoded_column": {
      "latitude": "29.993268154960735",
      "longitude": "-90.05179566927885"
    }
  },
  {
    "service_request": "2023-1024917",
    "request_type": "Roads/Drainage",
    "request_reason": "Pothole",
    "date_created": "2023-08-09T15:18:33.000",
    "date_modified": "2023-08-09T15:18:33.000",
    "request_status": "Pending",
    "responsible_agency": "Department of Public Works",
    "final_address": "1301 Constantinople St",
    "address_councildis": "B",
    "status": "Pending",
    "rowid": "1024917",
    "final_x": "3672430.66305",
    "final_y": "520250.7726",
    "longitude": "-90.09709199725775",
    "latitude": "29.924781230435865",
    "geocoded_column": {
      "latitude": "29.924781230435865",
      "longitude": "-90.09709199725775"
    }
  },
  {
    "service_request": "2023-1024916",
    "request_type": "Roads/Drainage",
    "request_reason": "Pothole",
    "date_created": "2023-08-09T15:15:47.000",
    "date_modified": "2023-08-09T15:15:47.000",
    "request_status": "Pending",
    "responsible_agency": "Department of Public Works",
    "final_address": "1421 Constantinople St",
    "address_councildis": "B",
    "status": "Pending",
    "rowid": "1024916",
    "final_x": "3672433.24257",
    "final_y": "520667.657465",
    "longitude": "-90.09706965638372",
    "latitude": "29.925927453713577",
    "geocoded_column": {
      "latitude": "29.925927453713577",
      "longitude": "-90.09706965638372"
    }
  },
  {
    "service_request": "2023-1024915",
    "request_type": "Roads/Drainage",
    "request_reason": "Man hole cover issue",
    "date_created": "2023-08-09T15:08:39.000",
    "date_modified": "2023-08-09T15:08:39.000",
    "request_status": "Pending",
    "responsible_agency": "Department of Public Works",
    "final_address": "900 Elmira Ave",
    "address_councildis": "C",
    "status": "Pending",
    "rowid": "1024915",
    "final_x": "3688180.03235",
    "final_y": "528268.05152",
    "longitude": "-90.04709250915396",
    "latitude": "29.94634942738024",
    "geocoded_column": {
      "latitude": "29.94634942738024",
      "longitude": "-90.04709250915396"
    }
  },
  {
    "service_request": "2023-1024913",
    "request_type": "Trash/Recycling",
    "request_reason": "Request a Large Item Pick Up",
    "date_created": "2023-08-09T15:07:08.000",
    "date_modified": "2023-08-09T16:30:19.000",
    "request_status": "Pending",
    "responsible_agency": "Department of Sanitation",
    "final_address": "325 Diana St",
    "address_councildis": "C",
    "status": "Assigned to Contractor",
    "contractor": "Richards Disposal",
    "rowid": "1024913",
    "final_x": "3686446.86114",
    "final_y": "527483.906943",
    "longitude": "-90.05259239908095",
    "latitude": "29.94424667787175",
    "geocoded_column": {
      "latitude": "29.94424667787175",
      "longitude": "-90.05259239908095"
    }
  },
  {
    "service_request": "2023-1024912",
    "request_type": "Abandoned Vehicles",
    "request_reason": "Abandoned/Junk Vehicles",
    "date_created": "2023-08-09T15:06:37.000",
    "date_modified": "2023-08-09T15:06:38.000",
    "request_status": "Pending",
    "responsible_agency": "Department of Public Works",
    "final_address": "4710 Eunice Dr",
    "address_councildis": "E",
    "status": "Pending",
    "rowid": "1024912",
    "final_x": "3710495.22763",
    "final_y": "555529.323289",
    "longitude": "-89.97561642322341",
    "latitude": "30.02060005207667",
    "geocoded_column": {
      "latitude": "30.02060005207667",
      "longitude": "-89.97561642322341"
    }
  },
  {
    "service_request": "2023-1024911",
    "request_type": "Traffic Signals/Signs/Striping/Streetlights",
    "request_reason": "Street Light Outage/Malfunction",
    "date_created": "2023-08-09T15:00:13.000",
    "date_modified": "2023-08-09T15:00:13.000",
    "request_status": "Pending",
    "responsible_agency": "Department of Public Works",
    "final_address": "6517 Brunswick Ct",
    "address_councildis": "C",
    "status": "Assigned to Contractor",
    "contractor": "Legacy Professional Services",
    "rowid": "1024911",
    "final_x": "3708062.04024",
    "final_y": "516888.563509",
    "longitude": "-89.98474146688498",
    "latitude": "29.914431199057827",
    "geocoded_column": {
      "latitude": "29.914431199057827",
      "longitude": "-89.98474146688498"
    }
  },
  {
    "service_request": "2023-1024910",
    "request_type": "Roads/Drainage",
    "request_reason": "Damaged Sidewalk",
    "date_created": "2023-08-09T14:58:47.000",
    "date_modified": "2023-08-09T14:58:47.000",
    "request_status": "Pending",
    "responsible_agency": "Department of Public Works",
    "final_address": "2030 Easter Ln",
    "address_councildis": "C",
    "status": "Pending",
    "rowid": "1024910",
    "final_x": "3699550.56484",
    "final_y": "523873.479036",
    "longitude": "-90.01135205875478",
    "latitude": "29.93391002690575",
    "geocoded_column": {
      "latitude": "29.93391002690575",
      "longitude": "-90.01135205875478"
    }
  },
  {
    "service_request": "2023-1024909",
    "request_type": "Trash/Recycling",
    "request_reason": "Replace Trash Cart",
    "date_created": "2023-08-09T14:58:09.000",
    "date_modified": "2023-08-09T14:58:10.000",
    "request_status": "Pending",
    "responsible_agency": "Department of Sanitation",
    "final_address": "7201 Maple St",
    "address_councildis": "A",
    "status": "Assigned to Contractor",
    "contractor": "Richards Disposal",
    "rowid": "1024909",
    "final_x": "3663330.8169",
    "final_y": "525395.879613",
    "longitude": "-90.12564614816216",
    "latitude": "29.939195472201437",
    "geocoded_column": {
      "latitude": "29.939195472201437",
      "longitude": "-90.12564614816216"
    }
  },
  {
    "service_request": "2023-1024908",
    "request_type": "Trash/Recycling",
    "request_reason": "Replace Trash Cart",
    "date_created": "2023-08-09T14:57:29.000",
    "date_modified": "2023-08-09T14:57:30.000",
    "request_status": "Pending",
    "responsible_agency": "Department of Sanitation",
    "final_address": "800 Broadway St",
    "address_councildis": "A",
    "status": "Assigned to Contractor",
    "contractor": "Richards Disposal",
    "rowid": "1024908",
    "final_x": "3663361.97459",
    "final_y": "525379.090365",
    "longitude": "-90.12554833771547",
    "latitude": "29.93914840409658",
    "geocoded_column": {
      "latitude": "29.93914840409658",
      "longitude": "-90.12554833771547"
    }
  },
  {
    "service_request": "2023-1024907",
    "request_type": "Parks & Parkways",
    "request_reason": "Request Tree Service (Right of Way/Public Property)",
    "date_created": "2023-08-09T14:57:27.000",
    "date_modified": "2023-08-09T14:57:28.000",
    "request_status": "Pending",
    "responsible_agency": "Department of Parks & Parkway",
    "final_address": "2030 Easter Ln",
    "address_councildis": "C",
    "status": "Pending",
    "rowid": "1024907",
    "final_x": "3699550.56484",
    "final_y": "523873.479036",
    "longitude": "-90.01135205875478",
    "latitude": "29.93391002690575",
    "geocoded_column": {
      "latitude": "29.93391002690575",
      "longitude": "-90.01135205875478"
    }
  },
  {
    "service_request": "2023-1024906",
    "request_type": "Abandoned Vehicles",
    "request_reason": "Abandoned/Junk Vehicles",
    "date_created": "2023-08-09T14:52:26.000",
    "date_modified": "2023-08-09T14:52:26.000",
    "request_status": "Pending",
    "responsible_agency": "Department of Public Works",
    "final_address": "3100 Banks St",
    "address_councildis": "B",
    "status": "Pending",
    "rowid": "1024906",
    "final_x": "3673242.86356",
    "final_y": "535116.448326",
    "longitude": "-90.09402060475061",
    "latitude": "29.96563283697744",
    "geocoded_column": {
      "latitude": "29.96563283697744",
      "longitude": "-90.09402060475061"
    }
  },
  {
    "service_request": "2023-1024905",
    "request_type": "Trash/Recycling",
    "request_reason": "Missed Trash Pick-Up",
    "date_created": "2023-08-09T14:51:46.000",
    "date_modified": "2023-08-09T14:51:47.000",
    "request_status": "Pending",
    "responsible_agency": "Department of Sanitation",
    "final_address": "439 S Telemachus St",
    "address_councildis": "B",
    "status": "Assigned to Contractor",
    "contractor": "Richards Disposal",
    "rowid": "1024905",
    "final_x": "3671356.67451",
    "final_y": "536172.642503",
    "longitude": "-90.09994122684584",
    "latitude": "29.968592976708674",
    "geocoded_column": {
      "latitude": "29.968592976708674",
      "longitude": "-90.09994122684584"
    }
  },
  {
    "service_request": "2023-1024904",
    "request_type": "Trash/Recycling",
    "request_reason": "Order Recycling Cart",
    "date_created": "2023-08-09T14:51:39.000",
    "date_modified": "2023-08-09T14:51:39.000",
    "request_status": "Pending",
    "responsible_agency": "Department of Sanitation",
    "final_address": "7595 Kingsport Blvd",
    "address_councildis": "E",
    "status": "Pending",
    "rowid": "1024904",
    "final_x": "3720160.72953",
    "final_y": "572952.350249",
    "longitude": "-89.94440942374578",
    "latitude": "30.06818777560129",
    "geocoded_column": {
      "latitude": "30.06818777560129",
      "longitude": "-89.94440942374578"
    }
  },
  {
    "service_request": "2023-1024903",
    "request_type": "Trash/Recycling",
    "request_reason": "Return Trash Cart",
    "date_created": "2023-08-09T14:50:15.000",
    "date_modified": "2023-08-09T14:50:17.000",
    "request_status": "Pending",
    "responsible_agency": "Department of Sanitation",
    "final_address": "7595 Kingsport Blvd",
    "address_councildis": "E",
    "status": "Assigned to Contractor",
    "contractor": "Waste Pro",
    "rowid": "1024903",
    "final_x": "3720160.72953",
    "final_y": "572952.350249",
    "longitude": "-89.94440942374578",
    "latitude": "30.06818777560129",
    "geocoded_column": {
      "latitude": "30.06818777560129",
      "longitude": "-89.94440942374578"
    }
  },
  {
    "service_request": "2023-1024902",
    "request_type": "Trash/Recycling",
    "request_reason": "MIssed Recycling Pick-Up",
    "date_created": "2023-08-09T14:48:58.000",
    "date_modified": "2023-08-09T14:48:59.000",
    "request_status": "Pending",
    "responsible_agency": "Department of Sanitation",
    "final_address": "7595 Kingsport Blvd",
    "address_councildis": "E",
    "status": "Assigned to Contractor",
    "contractor": "Waste Pro",
    "rowid": "1024902",
    "final_x": "3720160.72953",
    "final_y": "572952.350249",
    "longitude": "-89.94440942374578",
    "latitude": "30.06818777560129",
    "geocoded_column": {
      "latitude": "30.06818777560129",
      "longitude": "-89.94440942374578"
    }
  },
  {
    "service_request": "2023-1024901",
    "request_type": "Trash/Recycling",
    "request_reason": "Replace Trash Cart",
    "date_created": "2023-08-09T14:47:27.000",
    "date_modified": "2023-08-09T14:47:27.000",
    "request_status": "Pending",
    "responsible_agency": "Department of Sanitation",
    "final_address": "514 Chartres St",
    "address_councildis": "C",
    "status": "Assigned to Contractor",
    "contractor": "Empire Services",
    "rowid": "1024901",
    "final_x": "3682488.70556",
    "final_y": "531745.176259",
    "longitude": "-90.06494047780967",
    "latitude": "29.95608478444616",
    "geocoded_column": {
      "latitude": "29.95608478444616",
      "longitude": "-90.06494047780967"
    }
  },
  {
    "service_request": "2023-1024900",
    "request_type": "Traffic Signals/Signs/Striping/Streetlights",
    "request_reason": "Street Light Outage/Malfunction",
    "date_created": "2023-08-09T14:47:22.000",
    "date_modified": "2023-08-09T14:56:40.000",
    "request_status": "Pending",
    "responsible_agency": "Department of Public Works",
    "final_address": "Marais",
    "address_councildis": "E",
    "status": "Assigned to Contractor",
    "contractor": "Legacy Professional Services",
    "rowid": "1024900",
    "final_x": "3700760.91921",
    "final_y": "533164.270788",
    "longitude": "-90.00719158957754",
    "latitude": "29.95941797942126",
    "geocoded_column": {
      "latitude": "29.95941797942126",
      "longitude": "-90.00719158957754"
    }
  },
  {
    "service_request": "2023-1024899",
    "request_type": "Trash/Recycling",
    "request_reason": "Replace Trash Cart",
    "date_created": "2023-08-09T14:45:55.000",
    "date_modified": "2023-08-09T14:45:55.000",
    "request_status": "Pending",
    "responsible_agency": "Department of Sanitation",
    "final_address": "514 Chartres St",
    "address_councildis": "C",
    "status": "Assigned to Contractor",
    "contractor": "Empire Services",
    "rowid": "1024899",
    "final_x": "3682488.70556",
    "final_y": "531745.176259",
    "longitude": "-90.06494047780967",
    "latitude": "29.95608478444616",
    "geocoded_column": {
      "latitude": "29.95608478444616",
      "longitude": "-90.06494047780967"
    }
  },
  {
    "service_request": "2023-1024898",
    "request_type": "Trash/Recycling",
    "request_reason": "Replace Trash Cart",
    "date_created": "2023-08-09T14:45:34.000",
    "date_modified": "2023-08-09T14:45:35.000",
    "request_status": "Pending",
    "responsible_agency": "Department of Sanitation",
    "final_address": "514 Chartres St",
    "address_councildis": "C",
    "status": "Assigned to Contractor",
    "contractor": "Empire Services",
    "rowid": "1024898",
    "final_x": "3682488.70556",
    "final_y": "531745.176259",
    "longitude": "-90.06494047780967",
    "latitude": "29.95608478444616",
    "geocoded_column": {
      "latitude": "29.95608478444616",
      "longitude": "-90.06494047780967"
    }
  },
  {
    "service_request": "2023-1024897",
    "request_type": "Trash/Recycling",
    "request_reason": "Repair Trash Cart",
    "date_created": "2023-08-09T14:42:09.000",
    "date_modified": "2023-08-09T14:42:10.000",
    "request_status": "Pending",
    "responsible_agency": "Department of Sanitation",
    "final_address": "4701 Marigny St",
    "address_councildis": "D",
    "status": "Assigned to Contractor",
    "contractor": "IV Waste",
    "rowid": "1024897",
    "final_x": "3684512.56917",
    "final_y": "550159.0125",
    "longitude": "-90.05790261324752",
    "latitude": "30.006654597983687",
    "geocoded_column": {
      "latitude": "30.006654597983687",
      "longitude": "-90.05790261324752"
    }
  },
  {
    "service_request": "2023-1024896",
    "request_type": "Trash/Recycling",
    "request_reason": "Return Recycling Cart",
    "date_created": "2023-08-09T14:39:59.000",
    "date_modified": "2023-08-09T14:40:00.000",
    "request_status": "Pending",
    "responsible_agency": "Department of Sanitation",
    "final_address": "4831 Bienville Ave",
    "address_councildis": "A",
    "status": "Pending",
    "rowid": "1024896",
    "final_x": "3669142.97671",
    "final_y": "540882.182347",
    "longitude": "-90.10677301836948",
    "latitude": "29.9816079604774",
    "geocoded_column": {
      "latitude": "29.9816079604774",
      "longitude": "-90.10677301836948"
    }
  },
  {
    "service_request": "2023-1024895",
    "request_type": "Roads/Drainage",
    "request_reason": "Accessibility Ramps, Curbs and Sidewalk Repair",
    "date_created": "2023-08-09T14:38:08.000",
    "date_modified": "2023-08-09T14:38:59.000",
    "request_status": "Pending",
    "responsible_agency": "Department of Public Works",
    "final_address": "1600 BLK Martin Luther King, Jr. Blvd",
    "address_councildis": "B",
    "status": "Pending",
    "rowid": "1024895",
    "final_x": "3679005.94412",
    "final_y": "525677.306701",
    "longitude": "-90.07614807133112",
    "latitude": "29.9395057174582",
    "geocoded_column": {
      "latitude": "29.9395057174582",
      "longitude": "-90.07614807133112"
    }
  },
  {
    "service_request": "2023-1024894",
    "request_type": "Trash/Recycling",
    "request_reason": "Return Trash Cart",
    "date_created": "2023-08-09T14:35:51.000",
    "date_modified": "2023-08-09T14:46:29.000",
    "request_status": "Pending",
    "responsible_agency": "Department of Sanitation",
    "final_address": "11338 Will Stutley Dr",
    "address_councildis": "E",
    "status": "Assigned to Contractor",
    "contractor": "Waste Pro",
    "rowid": "1024894",
    "final_x": "3717173.80965",
    "final_y": "558160.592603",
    "longitude": "-89.95441430216992",
    "latitude": "30.02761571105904",
    "geocoded_column": {
      "latitude": "30.02761571105904",
      "longitude": "-89.95441430216992"
    }
  },
  {
    "service_request": "2023-1024893",
    "request_type": "Trash/Recycling",
    "request_reason": "Order Recycling Cart",
    "date_created": "2023-08-09T14:33:38.000",
    "date_modified": "2023-08-09T14:33:38.000",
    "request_status": "Pending",
    "responsible_agency": "Department of Sanitation",
    "final_address": "5343 Pitt St",
    "address_councildis": "B",
    "status": "Pending",
    "rowid": "1024893",
    "final_x": "3667363.43553",
    "final_y": "520555.082104",
    "longitude": "-90.11307738060847",
    "latitude": "29.925767337773024",
    "geocoded_column": {
      "latitude": "29.925767337773024",
      "longitude": "-90.11307738060847"
    }
  },
  {
    "service_request": "2023-1024892",
    "request_type": "Trash/Recycling",
    "request_reason": "Request a Large Item Pick Up",
    "date_created": "2023-08-09T14:27:24.000",
    "date_modified": "2023-08-09T14:27:24.000",
    "request_status": "Pending",
    "responsible_agency": "Department of Sanitation",
    "final_address": "1310 Spain St",
    "address_councildis": "C",
    "status": "Assigned to Contractor",
    "contractor": "IV Waste",
    "rowid": "1024892",
    "final_x": "3686039.13807",
    "final_y": "537228.571656",
    "longitude": "-90.05353605898418",
    "latitude": "29.97105368064212",
    "geocoded_column": {
      "latitude": "29.97105368064212",
      "longitude": "-90.05353605898418"
    }
  },
  {
    "service_request": "2023-1024891",
    "request_type": "Trash/Recycling",
    "request_reason": "Missed Trash Pick-Up",
    "date_created": "2023-08-09T14:20:30.000",
    "date_modified": "2023-08-09T14:20:30.000",
    "request_status": "Pending",
    "responsible_agency": "Department of Sanitation",
    "final_address": "2629 Delachaise St",
    "address_councildis": "B",
    "status": "Assigned to Contractor",
    "contractor": "Richards Disposal",
    "rowid": "1024891",
    "final_x": "3672369.67943",
    "final_y": "524874.655036",
    "longitude": "-90.09712703090274",
    "latitude": "29.937497225155255",
    "geocoded_column": {
      "latitude": "29.937497225155255",
      "longitude": "-90.09712703090274"
    }
  },
  {
    "service_request": "2023-1024890",
    "request_type": "Trash/Recycling",
    "request_reason": "Replace Trash Cart",
    "date_created": "2023-08-09T14:19:30.000",
    "date_modified": "2023-08-09T14:19:30.000",
    "request_status": "Pending",
    "responsible_agency": "Department of Sanitation",
    "final_address": "4701 Marigny St",
    "address_councildis": "D",
    "status": "Assigned to Contractor",
    "contractor": "IV Waste",
    "rowid": "1024890",
    "final_x": "3684512.56917",
    "final_y": "550159.0125",
    "longitude": "-90.05790261324752",
    "latitude": "30.006654597983687",
    "geocoded_column": {
      "latitude": "30.006654597983687",
      "longitude": "-90.05790261324752"
    }
  },
  {
    "service_request": "2023-1024889",
    "request_type": "Trash/Recycling",
    "request_reason": "MIssed Recycling Pick-Up",
    "date_created": "2023-08-09T14:18:21.000",
    "date_modified": "2023-08-09T14:18:21.000",
    "case_close_date": "2023-07-25T19:00:00.000",
    "request_status": "Pending",
    "responsible_agency": "Department of Sanitation",
    "final_address": "13632 N Cavelier Dr",
    "address_councildis": "E",
    "status": "Assigned to Contractor",
    "contractor": "Waste Pro",
    "rowid": "1024889",
    "final_x": "3724085.57651",
    "final_y": "569858.311974",
    "longitude": "-89.93212194469127",
    "latitude": "30.059549083506568",
    "geocoded_column": {
      "latitude": "30.059549083506568",
      "longitude": "-89.93212194469127"
    }
  },
  {
    "service_request": "2023-1024888",
    "request_type": "Property Maintenance",
    "request_reason": "Property Maintenance",
    "date_created": "2023-08-09T14:15:20.000",
    "date_modified": "2023-08-09T14:15:21.000",
    "request_status": "Pending",
    "responsible_agency": "Department of Code Enforcement",
    "final_address": "8850 Bunker Hill Rd",
    "address_councildis": "E",
    "status": "Pending",
    "rowid": "1024888",
    "final_x": "3706456.82481",
    "final_y": "559964.514461",
    "longitude": "-89.98821194961384",
    "latitude": "30.032926052780727",
    "geocoded_column": {
      "latitude": "30.032926052780727",
      "longitude": "-89.98821194961384"
    }
  },
  {
    "service_request": "2023-1024887",
    "request_type": "Property Maintenance",
    "request_reason": "Property Maintenance",
    "date_created": "2023-08-09T14:06:08.000",
    "date_modified": "2023-08-09T14:06:08.000",
    "request_status": "Pending",
    "responsible_agency": "Department of Code Enforcement",
    "final_address": "1433 Clouet St",
    "address_councildis": "C",
    "status": "Pending",
    "rowid": "1024887",
    "final_x": "3689390.10774",
    "final_y": "537395.204808",
    "longitude": "-90.04294736028473",
    "latitude": "29.971408525773334",
    "geocoded_column": {
      "latitude": "29.971408525773334",
      "longitude": "-90.04294736028473"
    }
  },
  {
    "service_request": "2023-1024886",
    "request_type": "Trash/Recycling",
    "request_reason": "Order Trash Cart",
    "date_created": "2023-08-09T14:05:58.000",
    "date_modified": "2023-08-09T14:05:58.000",
    "request_status": "Pending",
    "responsible_agency": "Department of Sanitation",
    "final_address": "1915 Allen St",
    "address_councildis": "D",
    "status": "Assigned to Contractor",
    "contractor": "IV Waste",
    "rowid": "1024886",
    "final_x": "3682570.23925",
    "final_y": "539210.280714",
    "longitude": "-90.06442198194563",
    "latitude": "29.97660877027036",
    "geocoded_column": {
      "latitude": "29.97660877027036",
      "longitude": "-90.06442198194563"
    }
  },
  {
    "service_request": "2023-1024885",
    "request_type": "Safety & Permits",
    "request_reason": "Licenses & Permits",
    "date_created": "2023-08-09T14:01:19.000",
    "date_modified": "2023-08-09T14:01:19.000",
    "request_status": "Pending",
    "responsible_agency": "Safety and Permits",
    "final_address": "1932 Clouet St",
    "address_councildis": "D",
    "status": "Pending",
    "rowid": "1024885",
    "final_x": "3689788.88508",
    "final_y": "539285.353162",
    "longitude": "-90.0416206754551",
    "latitude": "29.976593411673576",
    "geocoded_column": {
      "latitude": "29.976593411673576",
      "longitude": "-90.0416206754551"
    }
  },
  {
    "service_request": "2023-1024884",
    "request_type": "Roads/Drainage",
    "request_reason": "Pothole",
    "date_created": "2023-08-09T14:00:45.000",
    "date_modified": "2023-08-09T14:00:45.000",
    "request_status": "Pending",
    "responsible_agency": "Department of Public Works",
    "final_address": "5800 BLK Franklin Ave",
    "address_councildis": "D",
    "status": "Pending",
    "rowid": "1024884",
    "final_x": "3686433.44173",
    "final_y": "554635.425622",
    "longitude": "-90.05167590778754",
    "latitude": "30.01890416279801",
    "geocoded_column": {
      "latitude": "30.01890416279801",
      "longitude": "-90.05167590778754"
    }
  },