[
  {
    "service_request": "2022-879012",
    "request_type": "Health Related Questions",
    "request_reason": "Noise Ordinance Complaint",
    "date_created": "2022-05-01T01:45:35.000",
    "date_modified": "2022-05-01T01:45:35.000",
    "request_status": "Pending",
    "responsible_agency": "Health Department",
    "final_address": "3300 Banks St",
    "address_councildis": "B",
    "status": "Pending",
    "rowid": "879012",
    "final_x": "3672781.8996",
    "final_y": "535449.689478",
    "longitude": "-90.09546494478445",
    "latitude": "29.96656283903936",
    "geocoded_column": {
      "latitude": "29.96656283903936",
      "longitude": "-90.09546494478445"
    }
  },
  {
    "service_request": "2022-879011",
    "request_type": "Traffic Signals/Signs/Striping/Streetlights",
    "request_reason": "Street Light Outage/Malfunction",
    "date_created": "2022-05-01T00:19:55.000",
    "date_modified": "2022-05-01T00:19:56.000",
    "request_status": "Pending",
    "responsible_agency": "Department of Public Works",
    "final_address": "N CLAIBORNE AVE & FRANKLIN AVE",
    "address_councildis": "C",
    "status": "Pending",
    "contractor": "Royal Engineering",
    "rowid": "879011",
    "final_x": "3687527.2",
    "final_y": "538355.38",
    "longitude": "-90.04879668107014",
    "latitude": "29.974106224369567",
    "geocoded_column": {
      "latitude": "29.974106224369567",
      "longitude": "-90.04879668107014"
    }
  },
  {
    "service_request": "2022-879010",
    "request_type": "Safety & Permits",
    "request_reason": "Licenses & Permits",
    "date_created": "2022-04-30T23:44:52.000",
    "date_modified": "2022-04-30T23:44:52.000",
    "request_status": "Pending",
    "responsible_agency": "Safety and Permits",
    "final_address": "1903 Royal St",
    "address_councildis": "C",
    "status": "Pending",
    "rowid": "879010",
    "final_x": "3684246.69743",
    "final_y": "534726.581894",
    "longitude": "-90.05928467216059",
    "latitude": "29.964229000844334",
    "geocoded_column": {
      "latitude": "29.964229000844334",
      "longitude": "-90.05928467216059"
    }
  },
  {
    "service_request": "2022-879009",
    "request_type": "Trash/Recycling",
    "request_reason": "Replace Trash Cart",
    "date_created": "2022-04-30T23:44:41.000",
    "date_modified": "2022-04-30T23:44:42.000",
    "request_status": "Pending",
    "responsible_agency": "Department of Sanitation",
    "final_address": "1616 Eagle St",
    "address_councildis": "A",
    "status": "Assigned to Contractor",
    "contractor": "Richards Disposal",
    "rowid": "879009",
    "final_x": "3661137.21606",
    "final_y": "531213.124802",
    "longitude": "-90.1323791636624",
    "latitude": "29.955254428871672",
    "geocoded_column": {
      "latitude": "29.955254428871672",
      "longitude": "-90.1323791636624"
    }
  },
  {
    "service_request": "2022-879008",
    "request_type": "Trash/Recycling",
    "request_reason": "Illegal Dumping",
    "date_created": "2022-04-30T23:30:07.000",
    "date_modified": "2022-04-30T23:30:07.000",
    "request_status": "Pending",
    "responsible_agency": "Department of Sanitation",
    "final_address": "3601 Camp St",
    "address_councildis": "B",
    "status": "Pending",
    "rowid": "879008",
    "final_x": "3673955.17684",
    "final_y": "519672.449016",
    "longitude": "-90.09229937761704",
    "latitude": "29.92314571189189",
    "geocoded_column": {
      "latitude": "29.92314571189189",
      "longitude": "-90.09229937761704"
    }
  },
  {
    "service_request": "2022-879007",
    "request_type": "Trash/Recycling",
    "request_reason": "Missed Trash Pick-Up",
    "date_created": "2022-04-30T23:15:21.000",
    "date_modified": "2022-04-30T23:15:22.000",
    "request_status": "Pending",
    "responsible_agency": "Department of Sanitation",
    "final_address": "1607 N Villere St",
    "address_councildis": "C",
    "status": "Assigned to Contractor",
    "contractor": "Metro Disposal",
    "rowid": "879007",
    "final_x": "3682592.50415",
    "final_y": "537323.870856",
    "longitude": "-90.06441764058462",
    "latitude": "29.97142112021534",
    "geocoded_column": {
      "latitude": "29.97142112021534",
      "longitude": "-90.06441764058462"
    }
  },
  {
    "service_request": "2022-879006",
    "request_type": "Law Enforcement Services",
    "request_reason": "Off Duty Officer for Hire",
    "date_created": "2022-04-30T22:57:26.000",
    "date_modified": "2022-04-30T22:57:26.000",
    "request_status": "Pending",
    "responsible_agency": "Office of Police Secondary Employment",
    "final_address": "7849 Read Blvd Apt 12",
    "address_councildis": "E",
    "status": "Pending",
    "rowid": "879006",
    "final_x": "3708429.38795",
    "final_y": "565267.44797",
    "longitude": "-89.98178086429685",
    "latitude": "30.047443191521047",
    "geocoded_column": {
      "latitude": "30.047443191521047",
      "longitude": "-89.98178086429685"
    }
  },
  {
    "service_request": "2022-879005",
    "request_type": "Property Maintenance",
    "request_reason": "Property Maintenance",
    "date_created": "2022-04-30T22:54:12.000",
    "date_modified": "2022-04-30T22:54:12.000",
    "request_status": "Pending",
    "responsible_agency": "Department of Code Enforcement",
    "final_address": "5438 N Prieur St",
    "address_councildis": "E",
    "status": "Pending",
    "rowid": "879005",
    "final_x": "3698340.99421",
    "final_y": "536837.69332",
    "longitude": "-90.01469960594203",
    "latitude": "29.96959536797665",
    "geocoded_column": {
      "latitude": "29.96959536797665",
      "longitude": "-90.01469960594203"
    }
  },
  {
    "service_request": "2022-879004",
    "request_type": "Property Maintenance",
    "request_reason": "Property Maintenance",
    "date_created": "2022-04-30T22:50:14.000",
    "date_modified": "2022-04-30T22:50:14.000",
    "request_status": "Pending",
    "responsible_agency": "Department of Code Enforcement",
    "final_address": "1601 Lesseps St",
    "address_councildis": "D",
    "status": "Pending",
    "rowid": "879004",
    "final_x": "3693225.81776",
    "final_y": "536973.723592",
    "longitude": "-90.03084882061391",
    "latitude": "29.970130271143965",
    "geocoded_column": {
      "latitude": "29.970130271143965",
      "longitude": "-90.03084882061391"
    }
  },
  {
    "service_request": "2022-879002",
    "request_type": "Traffic Signals/Signs/Striping/Streetlights",
    "request_reason": "Street Light Outage/Malfunction",
    "date_created": "2022-04-30T21:04:15.000",
    "date_modified": "2022-04-30T21:04:16.000",
    "request_status": "Pending",
    "responsible_agency": "Department of Public Works",
    "final_address": "1 Virginia Ct",
    "address_councildis": "A",
    "status": "Pending",
    "contractor": "Royal Engineering",
    "rowid": "879002",
    "final_x": "3668704.63207",
    "final_y": "542268.174413",
    "longitude": "-90.10811071061121",
    "latitude": "29.98543186272606",
    "geocoded_column": {
      "latitude": "29.98543186272606",
      "longitude": "-90.10811071061121"
    }
  },
  {
    "service_request": "2022-879000",
    "request_type": "Property Maintenance",
    "request_reason": "Property Maintenance",
    "date_created": "2022-04-30T20:50:15.000",
    "date_modified": "2022-04-30T20:50:15.000",
    "request_status": "Pending",
    "responsible_agency": "Department of Code Enforcement",
    "final_address": "500 S Gayoso St",
    "address_councildis": "B",
    "status": "Pending",
    "rowid": "879000",
    "final_x": "3673379.19099",
    "final_y": "534541.839493",
    "longitude": "-90.09360972003024",
    "latitude": "29.96404880070456",
    "geocoded_column": {
      "latitude": "29.96404880070456",
      "longitude": "-90.09360972003024"
    }
  },
  {
    "service_request": "2022-878999",
    "request_type": "Traffic Signals/Signs/Striping/Streetlights",
    "request_reason": "Traffic Signal Malfunctioning/Damaged",
    "date_created": "2022-04-30T20:19:58.000",
    "date_modified": "2022-04-30T20:19:58.000",
    "request_status": "Pending",
    "responsible_agency": "Department of Public Works",
    "final_address": "FLOOD ST & N PRIEUR ST",
    "address_councildis": "E",
    "status": "Pending",
    "rowid": "878999",
    "final_x": "3698513.3",
    "final_y": "536827.78",
    "longitude": "-90.01415581310995",
    "latitude": "29.96956265650831",
    "geocoded_column": {
      "latitude": "29.96956265650831",
      "longitude": "-90.01415581310995"
    }
  },
  {
    "service_request": "2022-878998",
    "request_type": "Trash/Recycling",
    "request_reason": "Replace Trash Cart",
    "date_created": "2022-04-30T19:57:04.000",
    "date_modified": "2022-04-30T19:57:04.000",
    "request_status": "Pending",
    "responsible_agency": "Department of Sanitation",
    "final_address": "6130 Shetland Dr",
    "address_councildis": "C",
    "status": "Assigned to Contractor",
    "contractor": "Richards Disposal",
    "rowid": "878998",
    "final_x": "3705446.70052",
    "final_y": "520146.164472",
    "longitude": "-89.99287601898611",
    "latitude": "29.923472852565197",
    "geocoded_column": {
      "latitude": "29.923472852565197",
      "longitude": "-89.99287601898611"
    }
  },
  {
    "service_request": "2022-878997",
    "request_type": "Abandoned Vehicles",
    "request_reason": "Abandoned/Junk Vehicles",
    "date_created": "2022-04-30T19:21:24.000",
    "date_modified": "2022-04-30T19:21:24.000",
    "request_status": "Pending",
    "responsible_agency": "Department of Public Works",
    "final_address": "4525 N Robertson St",
    "address_councildis": "D",
    "status": "Pending",
    "rowid": "878997",
    "final_x": "3693985.21923",
    "final_y": "536460.728711",
    "longitude": "-90.02846901275659",
    "latitude": "29.9686959600709",
    "geocoded_column": {
      "latitude": "29.9686959600709",
      "longitude": "-90.02846901275659"
    }
  },
  {
    "service_request": "2022-878996",
    "request_type": "Abandoned Vehicles",
    "request_reason": "Abandoned/Junk Vehicles",
    "date_created": "2022-04-30T19:14:21.000",
    "date_modified": "2022-04-30T19:14:21.000",
    "request_status": "Pending",
    "responsible_agency": "Department of Public Works",
    "final_address": "4525 N Robertson St",
    "address_councildis": "D",
    "status": "Pending",
    "rowid": "878996",
    "final_x": "3693985.21923",
    "final_y": "536460.728711",
    "longitude": "-90.02846901275659",
    "latitude": "29.9686959600709",
    "geocoded_column": {
      "latitude": "29.9686959600709",
      "longitude": "-90.02846901275659"
    }
  },
  {
    "service_request": "2022-878995",
    "request_type": "Abandoned Vehicles",
    "request_reason": "Abandoned/Junk Vehicles",
    "date_created": "2022-04-30T19:09:54.000",
    "date_modified": "2022-04-30T19:09:54.000",
    "request_status": "Pending",
    "responsible_agency": "Department of Public Works",
    "final_address": "4525 N Robertson St",
    "address_councildis": "D",
    "status": "Pending",
    "rowid": "878995",
    "final_x": "3693985.21923",
    "final_y": "536460.728711",
    "longitude": "-90.02846901275659",
    "latitude": "29.9686959600709",
    "geocoded_column": {
      "latitude": "29.9686959600709",
      "longitude": "-90.02846901275659"
    }
  },
  {
    "service_request": "2022-878992",
    "request_type": "Traffic Signals/Signs/Striping/Streetlights",
    "request_reason": "Street Name Sign Damaged or Missing",
    "date_created": "2022-04-30T18:32:07.000",
    "date_modified": "2022-04-30T18:32:08.000",
    "request_status": "Pending",
    "responsible_agency": "Department of Public Works",
    "final_address": "MISTLETOE ST & OLIVE ST",
    "address_councildis": "A",
    "status": "Pending",
    "rowid": "878992",
    "final_x": "3664381.7",
    "final_y": "536787.28",
    "longitude": "-90.12194815169826",
    "latitude": "29.970487625530414",
    "geocoded_column": {
      "latitude": "29.970487625530414",
      "longitude": "-90.12194815169826"
    }
  },
  {
    "service_request": "2022-878991",
    "request_type": "Abandoned Vehicles",
    "request_reason": "Abandoned/Junk Vehicles",
    "date_created": "2022-04-30T18:28:09.000",
    "date_modified": "2022-04-30T18:28:10.000",
    "request_status": "Pending",
    "responsible_agency": "Department of Public Works",
    "final_address": "2573 Peace Ct",
    "address_councildis": "D",
    "status": "Pending",
    "rowid": "878991",
    "final_x": "3686441.82306",
    "final_y": "541081.336972",
    "longitude": "-90.0521282798305",
    "latitude": "29.98163505829067",
    "geocoded_column": {
      "latitude": "29.98163505829067",
      "longitude": "-90.0521282798305"
    }
  },
  {
    "service_request": "2022-878990",
    "request_type": "Parks & Parkways",
    "request_reason": "Request Tree Service (Right of Way/Public Property)",
    "date_created": "2022-04-30T18:24:18.000",
    "date_modified": "2022-04-30T19:00:12.000",
    "request_status": "Pending",
    "responsible_agency": "Department of Parks & Parkway",
    "final_address": "CAMP ST & FELICITY ST & SOPHIE WRIGHT PL",
    "address_councildis": "B",
    "status": "Pending",
    "rowid": "878990",
    "final_x": "3679670.0",
    "final_y": "523372.18",
    "longitude": "-90.0741315340554",
    "latitude": "29.933147330195464",
    "geocoded_column": {
      "latitude": "29.933147330195464",
      "longitude": "-90.0741315340554"
    }
  },
  {
    "service_request": "2022-878989",
    "request_type": "Trash/Recycling",
    "request_reason": "MIssed Recycling Pick-Up",
    "date_created": "2022-04-30T18:22:41.000",
    "date_modified": "2022-04-30T18:22:42.000",
    "request_status": "Pending",
    "responsible_agency": "Department of Sanitation",
    "final_address": "8520 Apricot St, New Orleans, Louisiana, 70118",
    "address_councildis": "A",
    "status": "Assigned to Contractor",
    "contractor": "Richards Disposal",
    "rowid": "878989",
    "final_x": "3664617.87514",
    "final_y": "533671.744773",
    "longitude": "-90.12130635604818",
    "latitude": "29.961914062316268",
    "geocoded_column": {
      "latitude": "29.961914062316268",
      "longitude": "-90.12130635604818"
    }
  },
  {
    "service_request": "2022-878988",
    "request_type": "Traffic Signals/Signs/Striping/Streetlights",
    "request_reason": "Striping/Road Surface Markings",
    "date_created": "2022-04-30T18:02:23.000",
    "date_modified": "2022-04-30T18:02:24.000",
    "request_status": "Pending",
    "responsible_agency": "Department of Public Works",
    "final_address": "I 10 E & LOUISA ST",
    "address_councildis": "D",
    "status": "Pending",
    "rowid": "878988",
    "final_x": "3691600.2",
    "final_y": "548823.48",
    "longitude": "-90.0355588210985",
    "latitude": "30.00276354521156",
    "geocoded_column": {
      "latitude": "30.00276354521156",
      "longitude": "-90.0355588210985"
    }
  },
  {
    "service_request": "2022-878987",
    "request_type": "Property Maintenance",
    "request_reason": "Property Maintenance",
    "date_created": "2022-04-30T17:57:35.000",
    "date_modified": "2022-04-30T17:57:36.000",
    "request_status": "Pending",
    "responsible_agency": "Department of Code Enforcement",
    "final_address": "4767 Charlene Dr",
    "address_councildis": "E",
    "status": "Pending",
    "rowid": "878987",
    "final_x": "3707953.78379",
    "final_y": "555735.276377",
    "longitude": "-89.98363888876929",
    "latitude": "30.021248899856143",
    "geocoded_column": {
      "latitude": "30.021248899856143",
      "longitude": "-89.98363888876929"
    }
  },
  {
    "service_request": "2022-878986",
    "request_type": "Traffic Signals/Signs/Striping/Streetlights",
    "request_reason": "Street Light Knocked Down/Leaning",
    "date_created": "2022-04-30T17:35:38.000",
    "date_modified": "2022-04-30T17:35:39.000",
    "request_status": "Pending",
    "responsible_agency": "Department of Public Works",
    "final_address": "1300 Canal St",
    "address_councildis": "B",
    "status": "Pending",
    "contractor": "Royal Engineering",
    "rowid": "878986",
    "final_x": "3679515.34165",
    "final_y": "531836.453187",
    "longitude": "-90.07432617801176",
    "latitude": "29.956425931975325",
    "geocoded_column": {
      "latitude": "29.956425931975325",
      "longitude": "-90.07432617801176"
    }
  },
  {
    "service_request": "2022-878985",
    "request_type": "Parks & Parkways",
    "request_reason": "Tree Stump (removal, grind)",
    "date_created": "2022-04-30T17:28:11.000",
    "date_modified": "2022-04-30T17:28:11.000",
    "request_status": "Pending",
    "responsible_agency": "Department of Parks & Parkway",
    "final_address": "801 Convention Center Blvd",
    "address_councildis": "B",
    "status": "Pending",
    "rowid": "878985",
    "final_x": "3682575.15752",
    "final_y": "527439.922047",
    "longitude": "-90.0648179919293",
    "latitude": "29.944244158682576",
    "geocoded_column": {
      "latitude": "29.944244158682576",
      "longitude": "-90.0648179919293"
    }
  },
  {
    "service_request": "2022-878984",
    "request_type": "Abandoned Vehicles",
    "request_reason": "Abandoned/Junk Vehicles",
    "date_created": "2022-04-30T17:20:38.000",
    "date_modified": "2022-04-30T17:21:39.000",
    "request_status": "Pending",
    "responsible_agency": "Department of Public Works",
    "final_address": "N ROMAN ST & LOUISA ST",
    "address_councildis": "D",
    "status": "Pending",
    "rowid": "878984",
    "final_x": "3690218.2",
    "final_y": "538487.48",
    "longitude": "-90.04029320792716",
    "latitude": "29.974386228702652",
    "geocoded_column": {
      "latitude": "29.974386228702652",
      "longitude": "-90.04029320792716"
    }
  },
  {
    "service_request": "2022-878982",
    "request_type": "Traffic Signals/Signs/Striping/Streetlights",
    "request_reason": "Street Light Outage/Malfunction",
    "date_created": "2022-04-30T17:15:05.000",
    "date_modified": "2022-04-30T17:15:06.000",
    "request_status": "Pending",
    "responsible_agency": "Department of Public Works",
    "final_address": "300 Poydras St",
    "address_councildis": "B",
    "status": "Pending",
    "contractor": "Royal Engineering",
    "rowid": "878982",
    "final_x": "3682130.82364",
    "final_y": "528855.199296",
    "longitude": "-90.06617146342124",
    "latitude": "29.9481492137223",
    "geocoded_column": {
      "latitude": "29.9481492137223",
      "longitude": "-90.06617146342124"
    }
  },
  {
    "service_request": "2022-878983",
    "request_type": "Traffic Signals/Signs/Striping/Streetlights",
    "request_reason": "Street Light Outage/Malfunction",
    "date_created": "2022-04-30T17:15:05.000",
    "date_modified": "2022-04-30T17:15:06.000",
    "request_status": "Pending",
    "responsible_agency": "Department of Public Works",
    "final_address": "300 Poydras St",
    "address_councildis": "B",
    "status": "Pending",
    "contractor": "Royal Engineering",
    "rowid": "878983",
    "final_x": "3682130.82364",
    "final_y": "528855.199296",
    "longitude": "-90.06617146342124",
    "latitude": "29.9481492137223",
    "geocoded_column": {
      "latitude": "29.9481492137223",
      "longitude": "-90.06617146342124"
    }
  },
  {
    "service_request": "2022-878981",
    "request_type": "Traffic Signals/Signs/Striping/Streetlights",
    "request_reason": "Street Light Outage/Malfunction",
    "date_created": "2022-04-30T17:15:04.000",
    "date_modified": "2022-04-30T17:15:05.000",
    "request_status": "Pending",
    "responsible_agency": "Department of Public Works",
    "final_address": "300 Poydras St",
    "address_councildis": "B",
    "status": "Pending",
    "contractor": "Royal Engineering",
    "rowid": "878981",
    "final_x": "3682130.82364",
    "final_y": "528855.199296",
    "longitude": "-90.06617146342124",
    "latitude": "29.9481492137223",
    "geocoded_column": {
      "latitude": "29.9481492137223",
      "longitude": "-90.06617146342124"
    }
  },
  {
    "service_request": "2022-878980",
    "request_type": "Abandoned Vehicles",
    "request_reason": "Abandoned/Junk Vehicles",
    "date_created": "2022-04-30T17:09:57.000",
    "date_modified": "2022-04-30T17:09:57.000",
    "request_status": "Pending",
    "responsible_agency": "Department of Public Works",
    "final_address": "1809 Short St",
    "address_councildis": "A",
    "status": "Pending",
    "rowid": "878980",
    "final_x": "3663811.80019",
    "final_y": "529673.458817",
    "longitude": "-90.12398508353355",
    "latitude": "29.95094349527792",
    "geocoded_column": {
      "latitude": "29.95094349527792",
      "longitude": "-90.12398508353355"
    }
  },
  {
    "service_request": "2022-878979",
    "request_type": "Trash/Recycling",
    "request_reason": "Dead Animal Pick Up",
    "date_created": "2022-04-30T16:33:29.000",
    "date_modified": "2022-04-30T16:33:53.000",
    "request_status": "Pending",
    "responsible_agency": "Department of Sanitation",
    "final_address": "1504 Annette St",
    "address_councildis": "C",
    "status": "Assigned to Contractor",
    "contractor": "Metro Disposal",
    "rowid": "878979",
    "final_x": "3682993.17218",
    "final_y": "537698.245064",
    "longitude": "-90.0631391683503",
    "latitude": "29.97243831306167",
    "geocoded_column": {
      "latitude": "29.97243831306167",
      "longitude": "-90.0631391683503"
    }
  },
  {
    "service_request": "2022-878978",
    "request_type": "Property Maintenance",
    "request_reason": "Property Maintenance",
    "date_created": "2022-04-30T16:16:32.000",
    "date_modified": "2022-04-30T16:16:33.000",
    "request_status": "Pending",
    "responsible_agency": "Department of Code Enforcement",
    "final_address": "5916 Providence Pl",
    "address_councildis": "D",
    "status": "Pending",
    "rowid": "878978",
    "final_x": "3688129.67196",
    "final_y": "555093.638873",
    "longitude": "-90.04630017093191",
    "latitude": "30.020111801788392",
    "geocoded_column": {
      "latitude": "30.020111801788392",
      "longitude": "-90.04630017093191"
    }
  },
  {
    "service_request": "2022-878977",
    "request_type": "Roads/Drainage",
    "request_reason": "Damaged Sidewalk",
    "date_created": "2022-04-30T16:04:15.000",
    "date_modified": "2022-04-30T16:04:15.000",
    "request_status": "Pending",
    "responsible_agency": "Department of Public Works",
    "final_address": "353 Baronne St",
    "address_councildis": "B",
    "status": "Pending",
    "rowid": "878977",
    "final_x": "3679983.68386",
    "final_y": "529953.708801",
    "longitude": "-90.07291270423562",
    "latitude": "29.951234861737106",
    "geocoded_column": {
      "latitude": "29.951234861737106",
      "longitude": "-90.07291270423562"
    }
  },
  {
    "service_request": "2022-878976",
    "request_type": "Trash/Recycling",
    "request_reason": "Repair Trash Cart",
    "date_created": "2022-04-30T15:49:26.000",
    "date_modified": "2022-04-30T15:49:26.000",
    "request_status": "Pending",
    "responsible_agency": "Department of Sanitation",
    "final_address": "5938 Babylon St",
    "address_councildis": "D",
    "status": "Assigned to Contractor",
    "contractor": "Metro Disposal",
    "rowid": "878976",
    "final_x": "3696086.63952",
    "final_y": "555149.001177",
    "longitude": "-90.02115678172923",
    "latitude": "30.020015880138637",
    "geocoded_column": {
      "latitude": "30.020015880138637",
      "longitude": "-90.02115678172923"
    }
  },
  {
    "service_request": "2022-878975",
    "request_type": "Trash/Recycling",
    "request_reason": "Repair Trash Cart",
    "date_created": "2022-04-30T15:48:58.000",
    "date_modified": "2022-04-30T15:48:59.000",
    "request_status": "Pending",
    "responsible_agency": "Department of Sanitation",
    "final_address": "5936 Babylon St",
    "address_councildis": "D",
    "status": "Assigned to Contractor",
    "contractor": "Metro Disposal",
    "rowid": "878975",
    "final_x": "3696065.22045",
    "final_y": "555157.910681",
    "longitude": "-90.02122413648092",
    "latitude": "30.02004105232945",
    "geocoded_column": {
      "latitude": "30.02004105232945",
      "longitude": "-90.02122413648092"
    }
  },
  {
    "service_request": "2022-878974",
    "request_type": "Trash/Recycling",
    "request_reason": "Request a Large Item Pick Up",
    "date_created": "2022-04-30T15:40:40.000",
    "date_modified": "2022-04-30T15:40:41.000",
    "request_status": "Pending",
    "responsible_agency": "Department of Sanitation",
    "final_address": "1424 Spain St",
    "address_councildis": "C",
    "status": "Assigned to Contractor",
    "contractor": "Metro Disposal",
    "rowid": "878974",
    "final_x": "3685994.05692",
    "final_y": "537705.354504",
    "longitude": "-90.05366161483137",
    "latitude": "29.972366051400968",
    "geocoded_column": {
      "latitude": "29.972366051400968",
      "longitude": "-90.05366161483137"
    }
  },
  {
    "service_request": "2022-878973",
    "request_type": "Roads/Drainage",
    "request_reason": "Damaged Sidewalk",
    "date_created": "2022-04-30T15:12:19.000",
    "date_modified": "2022-04-30T15:12:19.000",
    "request_status": "Pending",
    "responsible_agency": "Department of Public Works",
    "final_address": "821 Gravier St",
    "address_councildis": "B",
    "status": "Pending",
    "rowid": "878973",
    "final_x": "3680309.65109",
    "final_y": "530352.318978",
    "longitude": "-90.07186960522988",
    "latitude": "29.95232104222569",
    "geocoded_column": {
      "latitude": "29.95232104222569",
      "longitude": "-90.07186960522988"
    }
  },
  {
    "service_request": "2022-878972",
    "request_type": "Abandoned Vehicles",
    "request_reason": "Abandoned/Junk Vehicles",
    "date_created": "2022-04-30T15:08:26.000",
    "date_modified": "2022-04-30T15:11:33.000",
    "request_status": "Pending",
    "responsible_agency": "Department of Public Works",
    "final_address": "WISNER BLVD & ZACHARY TAYLOR DR",
    "address_councildis": "A",
    "status": "Pending",
    "rowid": "878972",
    "final_x": "3675433.32",
    "final_y": "545284.93",
    "longitude": "-90.08675387336122",
    "latitude": "29.99352734320705",
    "geocoded_column": {
      "latitude": "29.99352734320705",
      "longitude": "-90.08675387336122"
    }
  },
  {
    "service_request": "2022-878971",
    "request_type": "Roads/Drainage",
    "request_reason": "Street Subsidence (Sinking)",
    "date_created": "2022-04-30T15:02:20.000",
    "date_modified": "2022-04-30T15:02:20.000",
    "request_status": "Pending",
    "responsible_agency": "Department of Public Works",
    "final_address": "1931 Eagle St",
    "address_councildis": "A",
    "status": "Pending",
    "rowid": "878971",
    "final_x": "3662003.11987",
    "final_y": "532039.863619",
    "longitude": "-90.12961751995729",
    "latitude": "29.957502710075374",
    "geocoded_column": {
      "latitude": "29.957502710075374",
      "longitude": "-90.12961751995729"
    }
  },
  {
    "service_request": "2022-878970",
    "request_type": "Roads/Drainage",
    "request_reason": "Street Subsidence (Sinking)",
    "date_created": "2022-04-30T15:00:06.000",
    "date_modified": "2022-04-30T15:00:06.000",
    "request_status": "Pending",
    "responsible_agency": "Department of Public Works",
    "final_address": "1931 Eagle St",
    "address_councildis": "A",
    "status": "Pending",
    "rowid": "878970",
    "final_x": "3662003.11987",
    "final_y": "532039.863619",
    "longitude": "-90.12961751995729",
    "latitude": "29.957502710075374",
    "geocoded_column": {
      "latitude": "29.957502710075374",
      "longitude": "-90.12961751995729"
    }
  },
  {
    "service_request": "2022-878969",
    "request_type": "Abandoned Vehicles",
    "request_reason": "Abandoned/Junk Vehicles",
    "date_created": "2022-04-30T14:59:53.000",
    "date_modified": "2022-04-30T14:59:53.000",
    "request_status": "Pending",
    "responsible_agency": "Department of Public Works",
    "final_address": "4901 Perrault Walk",
    "address_councildis": "E",
    "status": "Pending",
    "rowid": "878969",
    "final_x": "3709782.54693",
    "final_y": "556601.03497",
    "longitude": "-89.97782820068133",
    "latitude": "30.02357004045313",
    "geocoded_column": {
      "latitude": "30.02357004045313",
      "longitude": "-89.97782820068133"
    }
  },
  {
    "service_request": "2022-878968",
    "request_type": "Roads/Drainage",
    "request_reason": "Accessibility Ramps, Curbs and Sidewalk Repair",
    "date_created": "2022-04-30T14:34:36.000",
    "date_modified": "2022-04-30T14:34:36.000",
    "request_status": "Pending",
    "responsible_agency": "Department of Public Works",
    "final_address": "918 Poydras St",
    "address_councildis": "B",
    "status": "Pending",
    "rowid": "878968",
    "final_x": "3679737.14485",
    "final_y": "529530.384129",
    "longitude": "-90.07370584613979",
    "latitude": "29.95007831559612",
    "geocoded_column": {
      "latitude": "29.95007831559612",
      "longitude": "-90.07370584613979"
    }
  },
  {
    "service_request": "2022-878967",
    "request_type": "Roads/Drainage",
    "request_reason": "Damaged Sidewalk",
    "date_created": "2022-04-30T14:32:30.000",
    "date_modified": "2022-04-30T14:32:30.000",
    "request_status": "Pending",
    "responsible_agency": "Department of Public Works",
    "final_address": "307 Tchoupitoulas St",
    "address_councildis": "B",
    "status": "Pending",
    "rowid": "878967",
    "final_x": "3681939.40303",
    "final_y": "529484.962113",
    "longitude": "-90.0667538763832",
    "latitude": "29.94988666857575",
    "geocoded_column": {
      "latitude": "29.94988666857575",
      "longitude": "-90.0667538763832"
    }
  },
  {
    "service_request": "2022-878966",
    "request_type": "Roads/Drainage",
    "request_reason": "Damaged Sidewalk",
    "date_created": "2022-04-30T14:28:53.000",
    "date_modified": "2022-04-30T14:28:53.000",
    "request_status": "Pending",
    "responsible_agency": "Department of Public Works",
    "final_address": "422 Natchez St",
    "address_councildis": "B",
    "status": "Pending",
    "rowid": "878966",
    "final_x": "3681717.73967",
    "final_y": "529322.218561",
    "longitude": "-90.06745944644209",
    "latitude": "29.949445914035717",
    "geocoded_column": {
      "latitude": "29.949445914035717",
      "longitude": "-90.06745944644209"
    }
  },
  {
    "service_request": "2022-878965",
    "request_type": "Trash/Recycling",
    "request_reason": "Order Trash Cart",
    "date_created": "2022-04-30T14:21:02.000",
    "date_modified": "2022-04-30T14:21:03.000",
    "request_status": "Pending",
    "responsible_agency": "Department of Sanitation",
    "final_address": "New Orleans,LA",
    "status": "Assigned to Contractor",
    "rowid": "878965",
    "longitude": "0.0",
    "latitude": "0.0",
    "geocoded_column": {
      "latitude": "0.0",
      "longitude": "0.0"
    }
  },
  {
    "service_request": "2022-878964",
    "request_type": "Trash/Recycling",
    "request_reason": "Request a Large Item Pick Up",
    "date_created": "2022-04-30T13:57:26.000",
    "date_modified": "2022-04-30T13:57:26.000",
    "request_status": "Pending",
    "responsible_agency": "Department of Sanitation",
    "final_address": "2546 Dumaine St",
    "address_councildis": "D",
    "status": "Assigned to Contractor",
    "contractor": "Richards Disposal",
    "rowid": "878964",
    "final_x": "3677637.75342",
    "final_y": "537106.053896",
    "longitude": "-90.08007298761224",
    "latitude": "29.97097213989023",
    "geocoded_column": {
      "latitude": "29.97097213989023",
      "longitude": "-90.08007298761224"
    }
  },
  {
    "service_request": "2022-878962",
    "request_type": "Trash/Recycling",
    "request_reason": "Illegal Dumping",
    "date_created": "2022-04-30T13:31:04.000",
    "date_modified": "2022-04-30T13:31:04.000",
    "request_status": "Pending",
    "responsible_agency": "Department of Sanitation",
    "final_address": "7862 S Coronet Ct",
    "address_councildis": "E",
    "status": "Pending",
    "rowid": "878962",
    "final_x": "3703438.13719",
    "final_y": "557352.013787",
    "longitude": "-89.99784742860224",
    "latitude": "30.025839783737794",
    "geocoded_column": {
      "latitude": "30.025839783737794",
      "longitude": "-89.99784742860224"
    }
  },
  {
    "service_request": "2022-878960",
    "request_type": "Trash/Recycling",
    "request_reason": "Request a Large Item Pick Up",
    "date_created": "2022-04-30T13:13:51.000",
    "date_modified": "2022-04-30T13:28:24.000",
    "request_status": "Pending",
    "responsible_agency": "Department of Sanitation",
    "final_address": "4321 Trieste St, New Orleans, Louisiana, 70129",
    "address_councildis": "E",
    "status": "Assigned to Contractor",
    "contractor": "Metro Disposal",
    "rowid": "878960",
    "final_x": "3760279.74582",
    "final_y": "573484.616682",
    "longitude": "-89.81756595328974",
    "latitude": "30.068253087564514",
    "geocoded_column": {
      "latitude": "30.068253087564514",
      "longitude": "-89.81756595328974"
    }
  },
  {
    "service_request": "2022-878959",
    "request_type": "Abandoned Vehicles",
    "request_reason": "Abandoned/Junk Vehicles",
    "date_created": "2022-04-30T13:07:12.000",
    "date_modified": "2022-04-30T13:07:12.000",
    "request_status": "Pending",
    "responsible_agency": "Department of Public Works",
    "final_address": "415 Dearmas St",
    "address_councildis": "C",
    "status": "Pending",
    "rowid": "878959",
    "final_x": "3686766.38274",
    "final_y": "527087.228735",
    "longitude": "-90.05159759057852",
    "latitude": "29.943146123298444",
    "geocoded_column": {
      "latitude": "29.943146123298444",
      "longitude": "-90.05159759057852"
    }
  },
  {
    "service_request": "2022-878958",
    "request_type": "Roads/Drainage",
    "request_reason": "Leaking Hydrant",
    "date_created": "2022-04-30T13:02:48.000",
    "date_modified": "2022-04-30T13:02:49.000",
    "request_status": "Pending",
    "responsible_agency": "Department of Public Works",
    "final_address": "BIENVILLE ST & N OLYMPIA ST",
    "address_councildis": "A",
    "status": "Pending",
    "rowid": "878958",
    "final_x": "3669881.9",
    "final_y": "540235.61",
    "longitude": "-90.10446104914178",
    "latitude": "29.979808336138408",
    "geocoded_column": {
      "latitude": "29.979808336138408",
      "longitude": "-90.10446104914178"
    }
  },
  {
    "service_request": "2022-878957",
    "request_type": "Abandoned Vehicles",
    "request_reason": "Abandoned/Junk Vehicles",
    "date_created": "2022-04-30T12:54:43.000",
    "date_modified": "2022-04-30T12:55:57.000",
    "request_status": "Pending",
    "responsible_agency": "Department of Public Works",
    "final_address": "546 Vallette St",
    "address_councildis": "C",
    "status": "Pending",
    "rowid": "878957",
    "final_x": "3687558.24758",
    "final_y": "529558.511105",
    "longitude": "-90.04901002807476",
    "latitude": "29.94991692793125",
    "geocoded_column": {
      "latitude": "29.94991692793125",
      "longitude": "-90.04901002807476"
    }
  },
  {
    "service_request": "2022-878956",
    "request_type": "Roads/Drainage",
    "request_reason": "Pothole",
    "date_created": "2022-04-30T12:54:37.000",
    "date_modified": "2022-04-30T12:54:37.000",
    "request_status": "Pending",
    "responsible_agency": "Department of Public Works",
    "final_address": "2279 Pleasure St",
    "address_councildis": "D",
    "status": "Pending",
    "rowid": "878956",
    "final_x": "3684896.07772",
    "final_y": "545296.226959",
    "longitude": "-90.05686215448603",
    "latitude": "29.9932719441566",
    "geocoded_column": {
      "latitude": "29.9932719441566",
      "longitude": "-90.05686215448603"
    }
  },
  {
    "service_request": "2022-878955",
    "request_type": "Roads/Drainage",
    "request_reason": "Pothole",
    "date_created": "2022-04-30T12:53:29.000",
    "date_modified": "2022-04-30T12:53:29.000",
    "request_status": "Pending",
    "responsible_agency": "Department of Public Works",
    "final_address": "2319 Lafreniere St",
    "address_councildis": "D",
    "status": "Pending",
    "rowid": "878955",
    "final_x": "3685175.02396",
    "final_y": "545712.643408",
    "longitude": "-90.05596634697902",
    "latitude": "29.9944083931281",
    "geocoded_column": {
      "latitude": "29.9944083931281",
      "longitude": "-90.05596634697902"
    }
  },
  {
    "service_request": "2022-878953",
    "request_type": "Trash/Recycling",
    "request_reason": "Request a Large Item Pick Up",
    "date_created": "2022-04-30T12:52:21.000",
    "date_modified": "2022-04-30T12:52:22.000",
    "request_status": "Pending",
    "responsible_agency": "Department of Sanitation",
    "final_address": "803 Conrad St",
    "address_councildis": "A",
    "status": "Assigned to Contractor",
    "contractor": "Metro Disposal",
    "rowid": "878953",
    "final_x": "3669911.24833",
    "final_y": "554281.328344",
    "longitude": "-90.10389236652077",
    "latitude": "30.018428321010834",
    "geocoded_column": {
      "latitude": "30.018428321010834",
      "longitude": "-90.10389236652077"
    }
  },
  {
    "service_request": "2022-878952",
    "request_type": "Trash/Recycling",
    "request_reason": "Order Recycling Cart",
    "date_created": "2022-04-30T12:37:57.000",
    "date_modified": "2022-04-30T12:37:57.000",
    "request_status": "Pending",
    "responsible_agency": "Department of Sanitation",
    "final_address": "140 Pinehurst Ct",
    "address_councildis": "E",
    "status": "Pending",
    "rowid": "878952",
    "final_x": "3720232.02284",
    "final_y": "564512.028385",
    "longitude": "-89.9445074491844",
    "latitude": "30.04497802688625",
    "geocoded_column": {
      "latitude": "30.04497802688625",
      "longitude": "-89.9445074491844"
    }
  },
  {
    "service_request": "2022-878951",
    "request_type": "Trash/Recycling",
    "request_reason": "Request a Large Item Pick Up",
    "date_created": "2022-04-30T12:34:35.000",
    "date_modified": "2022-04-30T12:34:36.000",
    "request_status": "Pending",
    "responsible_agency": "Department of Sanitation",
    "final_address": "5107 N Rampart St, New Orleans, Louisiana, 70117",
    "address_councildis": "E",
    "status": "Assigned to Contractor",
    "contractor": "Metro Disposal",
    "rowid": "878951",
    "final_x": "3696211.36554",
    "final_y": "533780.808261",
    "longitude": "-90.02153564240864",
    "latitude": "29.961257236745315",
    "geocoded_column": {
      "latitude": "29.961257236745315",
      "longitude": "-90.02153564240864"
    }
  },
  {
    "service_request": "2022-878950",
    "request_type": "Traffic Signals/Signs/Striping/Streetlights",
    "request_reason": "Street Name Sign Damaged or Missing",
    "date_created": "2022-04-30T12:27:16.000",
    "date_modified": "2022-04-30T12:27:17.000",
    "request_status": "Pending",
    "responsible_agency": "Department of Public Works",
    "final_address": "ST JOSEPH ST & TCHOUPITOULAS ST",
    "address_councildis": "B",
    "status": "Pending",
    "rowid": "878950",
    "final_x": "3681709.4",
    "final_y": "527106.68",
    "longitude": "-90.06756305478176",
    "latitude": "29.943354180318213",
    "geocoded_column": {
      "latitude": "29.943354180318213",
      "longitude": "-90.06756305478176"
    }
  },
  {
    "service_request": "2022-878949",
    "request_type": "Abandoned Vehicles",
    "request_reason": "Abandoned/Junk Vehicles",
    "date_created": "2022-04-30T12:22:31.000",
    "date_modified": "2022-04-30T12:22:31.000",
    "request_status": "Pending",
    "responsible_agency": "Department of Public Works",
    "final_address": "5547 Eads St",
    "address_councildis": "D",
    "status": "Pending",
    "rowid": "878949",
    "final_x": "3686955.38882",
    "final_y": "553614.751447",
    "longitude": "-90.05006286052286",
    "latitude": "30.016081622430928",
    "geocoded_column": {
      "latitude": "30.016081622430928",
      "longitude": "-90.05006286052286"
    }
  },
  {
    "service_request": "2022-878948",
    "request_type": "Trash/Recycling",
    "request_reason": "Repair Trash Cart",
    "date_created": "2022-04-30T12:21:39.000",
    "date_modified": "2022-04-30T12:21:40.000",
    "request_status": "Pending",
    "responsible_agency": "Department of Sanitation",
    "final_address": "1228 Moss St",
    "address_councildis": "A",
    "status": "Assigned to Contractor",
    "contractor": "Richards Disposal",
    "rowid": "878948",
    "final_x": "3675272.54517",
    "final_y": "539988.997003",
    "longitude": "-90.08744363383329",
    "latitude": "29.97897016880965",
    "geocoded_column": {
      "latitude": "29.97897016880965",
      "longitude": "-90.08744363383329"
    }
  },
  {
    "service_request": "2022-878947",
    "request_type": "Trash/Recycling",
    "request_reason": "Request a Large Item Pick Up",
    "date_created": "2022-04-30T12:21:34.000",
    "date_modified": "2022-04-30T12:21:34.000",
    "request_status": "Pending",
    "responsible_agency": "Department of Sanitation",
    "final_address": "4625 Tchoupitoulas St, New Orleans, Louisiana, 70115",
    "address_councildis": "B",
    "status": "Assigned to Contractor",
    "contractor": "Richards Disposal",
    "rowid": "878947",
    "final_x": "3670222.61735",
    "final_y": "517398.506229",
    "longitude": "-90.10415866886537",
    "latitude": "29.91700372167492",
    "geocoded_column": {
      "latitude": "29.91700372167492",
      "longitude": "-90.10415866886537"
    }
  },
  {
    "service_request": "2022-878946",
    "request_type": "Safety & Permits",
    "request_reason": "Licenses & Permits",
    "date_created": "2022-04-30T12:16:18.000",
    "date_modified": "2022-04-30T12:26:41.000",
    "request_status": "Pending",
    "responsible_agency": "Safety and Permits",
    "final_address": "New Orleans,LA",
    "status": "Pending",
    "rowid": "878946",
    "longitude": "0.0",
    "latitude": "0.0",
    "geocoded_column": {
      "latitude": "0.0",
      "longitude": "0.0"
    }
  },
  {
    "service_request": "2022-878945",
    "request_type": "Roads/Drainage",
    "request_reason": "Street Flooding / Drainage",
    "date_created": "2022-04-30T11:59:17.000",
    "date_modified": "2022-04-30T11:59:17.000",
    "request_status": "Pending",
    "responsible_agency": "Department of Public Works",
    "final_address": "1433 Jourdan Ave",
    "address_councildis": "E",
    "status": "Pending",
    "rowid": "878945",
    "final_x": "3695521.58832",
    "final_y": "535921.615623",
    "longitude": "-90.02363655520448",
    "latitude": "29.967165393766503",
    "geocoded_column": {
      "latitude": "29.967165393766503",
      "longitude": "-90.02363655520448"
    }
  },
  {
    "service_request": "2022-878944",
    "request_type": "Roads/Drainage",
    "request_reason": "Street Subsidence (Sinking)",
    "date_created": "2022-04-30T11:49:49.000",
    "date_modified": "2022-04-30T11:49:49.000",
    "request_status": "Pending",
    "responsible_agency": "Department of Public Works",
    "final_address": "2372 Constance St",
    "address_councildis": "B",
    "status": "Pending",
    "rowid": "878944",
    "final_x": "3678323.21269",
    "final_y": "521186.852985",
    "longitude": "-90.07845880652175",
    "latitude": "29.927179022740024",
    "geocoded_column": {
      "latitude": "29.927179022740024",
      "longitude": "-90.07845880652175"
    }
  },
  {
    "service_request": "2022-878943",
    "request_type": "Roads/Drainage",
    "request_reason": "Leaking Hydrant",
    "date_created": "2022-04-30T11:48:30.000",
    "date_modified": "2022-04-30T11:48:30.000",
    "request_status": "Pending",
    "responsible_agency": "Department of Public Works",
    "final_address": "4619 Dart St, New Orleans, Louisiana, 70125",
    "address_councildis": "B",
    "status": "Pending",
    "rowid": "878943",
    "final_x": "3669253.07956",
    "final_y": "531634.037059",
    "longitude": "-90.10673794723184",
    "latitude": "29.956175410659288",
    "geocoded_column": {
      "latitude": "29.956175410659288",
      "longitude": "-90.10673794723184"
    }
  },
  {
    "service_request": "2022-878942",
    "request_type": "Trash/Recycling",
    "request_reason": "Illegal Dumping",
    "date_created": "2022-04-30T11:36:01.000",
    "date_modified": "2022-04-30T11:36:01.000",
    "request_status": "Pending",
    "responsible_agency": "Department of Sanitation",
    "final_address": "2219 Terpsichore St",
    "address_councildis": "B",
    "status": "Pending",
    "rowid": "878942",
    "final_x": "3676663.58555",
    "final_y": "526805.503614",
    "longitude": "-90.08350436575438",
    "latitude": "29.94267834497689",
    "geocoded_column": {
      "latitude": "29.94267834497689",
      "longitude": "-90.08350436575438"
    }
  },
  {
    "service_request": "2022-878941",
    "request_type": "Trash/Recycling",
    "request_reason": "Missed Trash Pick-Up",
    "date_created": "2022-04-30T11:35:27.000",
    "date_modified": "2022-04-30T11:35:28.000",
    "request_status": "Pending",
    "responsible_agency": "Department of Sanitation",
    "final_address": "8407 Apricot St",
    "address_councildis": "A",
    "status": "Assigned to Contractor",
    "contractor": "Richards Disposal",
    "rowid": "878941",
    "final_x": "3665000.7808",
    "final_y": "533428.563268",
    "longitude": "-90.12010532590968",
    "latitude": "29.961234250583015",
    "geocoded_column": {
      "latitude": "29.961234250583015",
      "longitude": "-90.12010532590968"
    }
  },
  {
    "service_request": "2022-878940",
    "request_type": "Traffic Signals/Signs/Striping/Streetlights",
    "request_reason": "Traffic Signal Malfunctioning/Damaged",
    "date_created": "2022-04-30T11:19:27.000",
    "date_modified": "2022-04-30T11:19:27.000",
    "request_status": "Pending",
    "responsible_agency": "Department of Public Works",
    "final_address": "5080 Pontchartrain Blvd",
    "address_councildis": "A",
    "status": "Pending",
    "rowid": "878940",
    "final_x": "3666841.38119",
    "final_y": "540528.132811",
    "longitude": "-90.1140544564024",
    "latitude": "29.980701987063558",
    "geocoded_column": {
      "latitude": "29.980701987063558",
      "longitude": "-90.1140544564024"
    }
  },
  {
    "service_request": "2022-878939",
    "request_type": "Trash/Recycling",
    "request_reason": "MIssed Recycling Pick-Up",
    "date_created": "2022-04-30T11:06:56.000",
    "date_modified": "2022-04-30T11:06:57.000",
    "request_status": "Pending",
    "responsible_agency": "Department of Sanitation",
    "final_address": "9117 Apple St",
    "address_councildis": "A",
    "status": "Assigned to Contractor",
    "contractor": "Richards Disposal",
    "rowid": "878939",
    "final_x": "3662669.60391",
    "final_y": "534593.932869",
    "longitude": "-90.12742807301017",
    "latitude": "29.964506299805635",
    "geocoded_column": {
      "latitude": "29.964506299805635",
      "longitude": "-90.12742807301017"
    }
  },
  {
    "service_request": "2022-878938",
    "request_type": "Trash/Recycling",
    "request_reason": "Missed Trash Pick-Up",
    "date_created": "2022-04-30T11:02:15.000",
    "date_modified": "2022-04-30T11:02:16.000",
    "request_status": "Pending",
    "responsible_agency": "Department of Sanitation",
    "final_address": "3334 Monroe St",
    "address_councildis": "A",
    "status": "Assigned to Contractor",
    "contractor": "Richards Disposal",
    "rowid": "878938",
    "final_x": "3665593.38132",
    "final_y": "535571.11431",
    "longitude": "-90.11816223992167",
    "latitude": "29.967108294097415",
    "geocoded_column": {
      "latitude": "29.967108294097415",
      "longitude": "-90.11816223992167"
    }
  },
  {
    "service_request": "2022-878936",
    "request_type": "Traffic Signals/Signs/Striping/Streetlights",
    "request_reason": "Street Light Knocked Down/Leaning",
    "date_created": "2022-04-30T10:50:04.000",
    "date_modified": "2022-04-30T10:50:05.000",
    "request_status": "Pending",
    "responsible_agency": "Department of Public Works",
    "final_address": "500 Canal St",
    "address_councildis": "B",
    "status": "Pending",
    "contractor": "Royal Engineering",
    "rowid": "878936",
    "final_x": "3681620.18831",
    "final_y": "530215.835265",
    "longitude": "-90.06773629521233",
    "latitude": "29.95190602147896",
    "geocoded_column": {
      "latitude": "29.95190602147896",
      "longitude": "-90.06773629521233"
    }
  },
  {
    "service_request": "2022-878935",
    "request_type": "Traffic Signals/Signs/Striping/Streetlights",
    "request_reason": "Street Light Knocked Down/Leaning",
    "date_created": "2022-04-30T10:48:34.000",
    "date_modified": "2022-04-30T10:48:35.000",
    "request_status": "Pending",
    "responsible_agency": "Department of Public Works",
    "final_address": "500 Canal St",
    "address_councildis": "B",
    "status": "Pending",
    "contractor": "Royal Engineering",
    "rowid": "878935",
    "final_x": "3681620.18831",
    "final_y": "530215.835265",
    "longitude": "-90.06773629521233",
    "latitude": "29.95190602147896",
    "geocoded_column": {
      "latitude": "29.95190602147896",
      "longitude": "-90.06773629521233"
    }
  },
  {
    "service_request": "2022-878934",
    "request_type": "Trash/Recycling",
    "request_reason": "MIssed Recycling Pick-Up",
    "date_created": "2022-04-30T10:41:32.000",
    "date_modified": "2022-04-30T10:41:32.000",
    "request_status": "Pending",
    "responsible_agency": "Department of Sanitation",
    "final_address": "2438 Joliet St",
    "address_councildis": "A",
    "status": "Assigned to Contractor",
    "contractor": "Richards Disposal",
    "rowid": "878934",
    "final_x": "3664007.38176",
    "final_y": "532803.987716",
    "longitude": "-90.12326314547877",
    "latitude": "29.959545756005458",
    "geocoded_column": {
      "latitude": "29.959545756005458",
      "longitude": "-90.12326314547877"
    }
  },
  {
    "service_request": "2022-878933",
    "request_type": "Traffic Signals/Signs/Striping/Streetlights",
    "request_reason": "Street Name Sign Damaged or Missing",
    "date_created": "2022-04-30T10:35:37.000",
    "date_modified": "2022-04-30T10:35:37.000",
    "request_status": "Pending",
    "responsible_agency": "Department of Public Works",
    "final_address": "Spain St, New Orleans, Louisiana, 70122",
    "address_councildis": "C",
    "status": "Pending",
    "rowid": "878933",
    "final_x": "3686228.7286",
    "final_y": "534837.076166",
    "longitude": "-90.05302169831994",
    "latitude": "29.964472075978964",
    "geocoded_column": {
      "latitude": "29.964472075978964",
      "longitude": "-90.05302169831994"
    }
  },
  {
    "service_request": "2022-878932",
    "request_type": "Traffic Signals/Signs/Striping/Streetlights",
    "request_reason": "Traffic Signal Malfunctioning/Damaged",
    "date_created": "2022-04-30T10:34:24.000",
    "date_modified": "2022-04-30T10:34:24.000",
    "request_status": "Pending",
    "responsible_agency": "Department of Public Works",
    "final_address": "N Rampart St & Conti St, New Orleans, Louisiana, 70112",
    "address_councildis": "C",
    "status": "Pending",
    "rowid": "878932",
    "final_x": "3680740.4",
    "final_y": "532469.18",
    "longitude": "-90.07043583015383",
    "latitude": "29.958128647482486",
    "geocoded_column": {
      "latitude": "29.958128647482486",
      "longitude": "-90.07043583015383"
    }
  },
  {
    "service_request": "2022-878931",
    "request_type": "Trash/Recycling",
    "request_reason": "Missed Trash Pick-Up",
    "date_created": "2022-04-30T10:32:36.000",
    "date_modified": "2022-04-30T10:32:37.000",
    "request_status": "Pending",
    "responsible_agency": "Department of Sanitation",
    "final_address": "8324 Belfast St",
    "address_councildis": "A",
    "status": "Assigned to Contractor",
    "contractor": "Richards Disposal",
    "rowid": "878931",
    "final_x": "3664896.42733",
    "final_y": "532949.099396",
    "longitude": "-90.12045088343926",
    "latitude": "29.959918919634397",
    "geocoded_column": {
      "latitude": "29.959918919634397",
      "longitude": "-90.12045088343926"
    }
  },
  {
    "service_request": "2022-878930",
    "request_type": "Trash/Recycling",
    "request_reason": "Missed Trash Pick-Up",
    "date_created": "2022-04-30T10:30:57.000",
    "date_modified": "2022-04-30T10:30:58.000",
    "request_status": "Pending",
    "responsible_agency": "Department of Sanitation",
    "final_address": "410 Henry Clay Ave",
    "address_councildis": "A",
    "status": "Assigned to Contractor",
    "contractor": "Richards Disposal",
    "rowid": "878930",
    "final_x": "3663230.28243",
    "final_y": "518379.403574",
    "longitude": "-90.12619691871355",
    "latitude": "29.91990528299333",
    "geocoded_column": {
      "latitude": "29.91990528299333",
      "longitude": "-90.12619691871355"
    }
  },
  {
    "service_request": "2022-878929",
    "request_type": "Trash/Recycling",
    "request_reason": "Order Recycling Cart",
    "date_created": "2022-04-30T10:28:45.000",
    "date_modified": "2022-04-30T10:28:45.000",
    "request_status": "Pending",
    "responsible_agency": "Department of Sanitation",
    "final_address": "3321 Washington Ave",
    "address_councildis": "B",
    "status": "Pending",
    "rowid": "878929",
    "final_x": "3672515.68494",
    "final_y": "527746.402303",
    "longitude": "-90.09656822285201",
    "latitude": "29.945389260854853",
    "geocoded_column": {
      "latitude": "29.945389260854853",
      "longitude": "-90.09656822285201"
    }
  },
  {
    "service_request": "2022-878928",
    "request_type": "Trash/Recycling",
    "request_reason": "Missed Trash Pick-Up",
    "date_created": "2022-04-30T10:27:32.000",
    "date_modified": "2022-04-30T10:27:33.000",
    "request_status": "Pending",
    "responsible_agency": "Department of Sanitation",
    "final_address": "New Orleans, Louisiana",
    "status": "Assigned to Contractor",
    "rowid": "878928",
    "longitude": "0.0",
    "latitude": "0.0",
    "geocoded_column": {
      "latitude": "0.0",
      "longitude": "0.0"
    }
  },
  {
    "service_request": "2022-878927",
    "request_type": "Trash/Recycling",
    "request_reason": "Missed Trash Pick-Up",
    "date_created": "2022-04-30T10:24:22.000",
    "date_modified": "2022-04-30T10:24:23.000",
    "request_status": "Pending",
    "responsible_agency": "Department of Sanitation",
    "final_address": "2100 Camp St, New Orleans, Louisiana, 70130",
    "address_councildis": "B",
    "status": "Assigned to Contractor",
    "contractor": "Richards Disposal",
    "rowid": "878927",
    "final_x": "3678893.94773",
    "final_y": "522516.354106",
    "longitude": "-90.07661111160074",
    "latitude": "29.930817517003458",
    "geocoded_column": {
      "latitude": "29.930817517003458",
      "longitude": "-90.07661111160074"
    }
  },
  {
    "service_request": "2022-878926",
    "request_type": "Trash/Recycling",
    "request_reason": "Missed Trash Pick-Up",
    "date_created": "2022-04-30T10:23:22.000",
    "date_modified": "2022-04-30T10:23:22.000",
    "request_status": "Pending",
    "responsible_agency": "Department of Sanitation",
    "final_address": "1139 Josephine St, New Orleans, Louisiana, 70130",
    "status": "Assigned to Contractor",
    "rowid": "878926",
    "longitude": "0.0",
    "latitude": "0.0",
    "geocoded_column": {
      "latitude": "0.0",
      "longitude": "0.0"
    }
  },
  {
    "service_request": "2022-878925",
    "request_type": "Traffic Signals/Signs/Striping/Streetlights",
    "request_reason": "Traffic Signal Malfunctioning/Damaged",
    "date_created": "2022-04-30T10:15:47.000",
    "date_modified": "2022-04-30T10:15:48.000",
    "request_status": "Pending",
    "responsible_agency": "Department of Public Works",
    "final_address": "CONTI ST & N RAMPART ST",
    "address_councildis": "C",
    "status": "Pending",
    "rowid": "878925",
    "final_x": "3680696.5",
    "final_y": "532501.58",
    "longitude": "-90.0705733266425",
    "latitude": "29.958219066828327",
    "geocoded_column": {
      "latitude": "29.958219066828327",
      "longitude": "-90.0705733266425"
    }
  },
  {
    "service_request": "2022-878924",
    "request_type": "Trash/Recycling",
    "request_reason": "Missed Trash Pick-Up",
    "date_created": "2022-04-30T10:05:34.000",
    "date_modified": "2022-04-30T10:05:35.000",
    "request_status": "Pending",
    "responsible_agency": "Department of Sanitation",
    "final_address": "603 N Alexander St",
    "address_councildis": "A",
    "status": "Assigned to Contractor",
    "contractor": "Richards Disposal",
    "rowid": "878924",
    "final_x": "3671075.59547",
    "final_y": "540658.604043",
    "longitude": "-90.10067648887767",
    "latitude": "29.980936170876603",
    "geocoded_column": {
      "latitude": "29.980936170876603",
      "longitude": "-90.10067648887767"
    }
  },
  {
    "service_request": "2022-878923",
    "request_type": "Property Maintenance",
    "request_reason": "Property Maintenance",
    "date_created": "2022-04-30T10:04:30.000",
    "date_modified": "2022-04-30T10:04:30.000",
    "request_status": "Pending",
    "responsible_agency": "Department of Code Enforcement",
    "final_address": "9300 Morrison Rd",
    "address_councildis": "E",
    "status": "Pending",
    "rowid": "878923",
    "final_x": "3706968.38264",
    "final_y": "562168.677535",
    "longitude": "-89.9865135234826",
    "latitude": "30.038970109208226",
    "geocoded_column": {
      "latitude": "30.038970109208226",
      "longitude": "-89.9865135234826"
    }
  },
  {
    "service_request": "2022-878922",
    "request_type": "Trash/Recycling",
    "request_reason": "Missed Trash Pick-Up",
    "date_created": "2022-04-30T09:54:10.000",
    "date_modified": "2022-04-30T09:54:11.000",
    "request_status": "Pending",
    "responsible_agency": "Department of Sanitation",
    "final_address": "2505 Perdido St",
    "address_councildis": "B",
    "status": "Assigned to Contractor",
    "contractor": "Richards Disposal",
    "rowid": "878922",
    "final_x": "3674579.46734",
    "final_y": "532569.416772",
    "longitude": "-90.08988694256433",
    "latitude": "29.958589537902863",
    "geocoded_column": {
      "latitude": "29.958589537902863",
      "longitude": "-90.08988694256433"
    }
  },
  {
    "service_request": "2022-878921",
    "request_type": "Trash/Recycling",
    "request_reason": "Missed Trash Pick-Up",
    "date_created": "2022-04-30T09:52:25.000",
    "date_modified": "2022-04-30T09:52:25.000",
    "request_status": "Pending",
    "responsible_agency": "Department of Sanitation",
    "final_address": "2433 Perdido St",
    "address_councildis": "B",
    "status": "Assigned to Contractor",
    "contractor": "Richards Disposal",
    "rowid": "878921",
    "final_x": "3674713.86132",
    "final_y": "532512.661636",
    "longitude": "-90.08946450654314",
    "latitude": "29.958429469420867",
    "geocoded_column": {
      "latitude": "29.958429469420867",
      "longitude": "-90.08946450654314"
    }
  },
  {
    "service_request": "2022-878920",
    "request_type": "Parks & Parkways",
    "request_reason": "Request Grass Cutting Service (City Owned Property)",
    "date_created": "2022-04-30T09:50:31.000",
    "date_modified": "2022-04-30T09:50:31.000",
    "request_status": "Pending",
    "responsible_agency": "Department of Parks & Parkway",
    "final_address": "9200 Morrison Rd",
    "address_councildis": "E",
    "status": "Pending",
    "rowid": "878920",
    "final_x": "3706638.78475",
    "final_y": "562136.046047",
    "longitude": "-89.98755634843394",
    "latitude": "30.03889103368737",
    "geocoded_column": {
      "latitude": "30.03889103368737",
      "longitude": "-89.98755634843394"
    }
  },
  {
    "service_request": "2022-878919",
    "request_type": "Trash/Recycling",
    "request_reason": "Return Recycling Cart",
    "date_created": "2022-04-30T09:47:48.000",
    "date_modified": "2022-04-30T09:47:48.000",
    "request_status": "Pending",
    "responsible_agency": "Department of Sanitation",
    "final_address": "1132 Jena St",
    "address_councildis": "B",
    "status": "Pending",
    "rowid": "878919",
    "final_x": "3670474.96398",
    "final_y": "519734.175032",
    "longitude": "-90.10328301250803",
    "latitude": "29.923418624726903",
    "geocoded_column": {
      "latitude": "29.923418624726903",
      "longitude": "-90.10328301250803"
    }
  },
  {
    "service_request": "2022-878918",
    "request_type": "Roads/Drainage",
    "request_reason": "Pothole",
    "date_created": "2022-04-30T09:46:52.000",
    "date_modified": "2022-04-30T09:46:53.000",
    "request_status": "Pending",
    "responsible_agency": "Department of Public Works",
    "final_address": "900 BLK Navarre St",
    "address_councildis": "A",
    "status": "Pending",
    "rowid": "878918",
    "final_x": "3669842.5192",
    "final_y": "543712.162691",
    "longitude": "-90.10446767014864",
    "latitude": "29.989368831875005",
    "geocoded_column": {
      "latitude": "29.989368831875005",
      "longitude": "-90.10446767014864"
    }
  },
  {
    "service_request": "2022-878917",
    "request_type": "Parks & Parkways",
    "request_reason": "Request Grass Cutting Service (City Owned Property)",
    "date_created": "2022-04-30T09:40:47.000",
    "date_modified": "2022-04-30T09:40:47.000",
    "request_status": "Pending",
    "responsible_agency": "Department of Parks & Parkway",
    "final_address": "9300 Morrison Rd",
    "address_councildis": "E",
    "status": "Pending",
    "rowid": "878917",
    "final_x": "3706968.38264",
    "final_y": "562168.677535",
    "longitude": "-89.9865135234826",
    "latitude": "30.038970109208226",
    "geocoded_column": {
      "latitude": "30.038970109208226",
      "longitude": "-89.9865135234826"
    }
  },
  {
    "service_request": "2022-878916",
    "request_type": "Trash/Recycling",
    "request_reason": "Request a Large Item Pick Up",
    "date_created": "2022-04-30T09:40:38.000",
    "date_modified": "2022-04-30T09:40:39.000",
    "request_status": "Pending",
    "responsible_agency": "Department of Sanitation",
    "final_address": "8219 Panola St",
    "address_councildis": "A",
    "status": "Assigned to Contractor",
    "contractor": "Richards Disposal",
    "rowid": "878916",
    "final_x": "3663727.97575",
    "final_y": "531093.318978",
    "longitude": "-90.12420245167928",
    "latitude": "29.95485008370314",
    "geocoded_column": {
      "latitude": "29.95485008370314",
      "longitude": "-90.12420245167928"
    }
  },
  {
    "service_request": "2022-878915",
    "request_type": "Taxi Issues",
    "request_reason": "Taxi Complaint",
    "date_created": "2022-04-30T09:24:25.000",
    "date_modified": "2022-04-30T09:29:05.000",
    "request_status": "Pending",
    "responsible_agency": "Ground Transportation Bureau",
    "final_address": "920 N Rampart St",
    "address_councildis": "C",
    "status": "Pending",
    "rowid": "878915",
    "final_x": "3682008.16271",
    "final_y": "534059.252613",
    "longitude": "-90.06637707254019",
    "latitude": "29.96246232317234",
    "geocoded_column": {
      "latitude": "29.96246232317234",
      "longitude": "-90.06637707254019"
    }
  },
  {
    "service_request": "2022-878914",
    "request_type": "Abandoned Vehicles",
    "request_reason": "Abandoned/Junk Vehicles",
    "date_created": "2022-04-30T09:23:20.000",
    "date_modified": "2022-04-30T09:23:20.000",
    "request_status": "Pending",
    "responsible_agency": "Department of Public Works",
    "final_address": "8333 Jeannette St",
    "address_councildis": "A",
    "status": "Pending",
    "rowid": "878914",
    "final_x": "3661933.34554",
    "final_y": "529872.838721",
    "longitude": "-90.12990971486317",
    "latitude": "29.95154610626974",
    "geocoded_column": {
      "latitude": "29.95154610626974",
      "longitude": "-90.12990971486317"
    }
  },
  {
    "service_request": "2022-878913",
    "request_type": "Trash/Recycling",
    "request_reason": "Repair Trash Cart",
    "date_created": "2022-04-30T09:13:43.000",
    "date_modified": "2022-04-30T09:13:44.000",
    "request_status": "Pending",
    "responsible_agency": "Department of Sanitation",
    "final_address": "5360 Chestnut St",
    "address_councildis": "B",
    "status": "Assigned to Contractor",
    "contractor": "Richards Disposal",
    "rowid": "878913",
    "final_x": "3667092.52199",
    "final_y": "519384.759735",
    "longitude": "-90.11397189037513",
    "latitude": "29.922557250929447",
    "geocoded_column": {
      "latitude": "29.922557250929447",
      "longitude": "-90.11397189037513"
    }
  },
  {
    "service_request": "2022-878912",
    "request_type": "Abandoned Vehicles",
    "request_reason": "Abandoned/Junk Vehicles",
    "date_created": "2022-04-30T09:12:03.000",
    "date_modified": "2022-04-30T09:12:04.000",
    "request_status": "Pending",
    "responsible_agency": "Department of Public Works",
    "final_address": "4221 Toulouse St",
    "address_councildis": "A",
    "status": "Pending",
    "rowid": "878912",
    "final_x": "3671570.02945",
    "final_y": "540325.797259",
    "longitude": "-90.09912616490463",
    "latitude": "29.98000643105193",
    "geocoded_column": {
      "latitude": "29.98000643105193",
      "longitude": "-90.09912616490463"
    }
  },
  {
    "service_request": "2022-878911",
    "request_type": "Trash/Recycling",
    "request_reason": "Missed Trash Pick-Up",
    "date_created": "2022-04-30T09:08:28.000",
    "date_modified": "2022-04-30T09:08:29.000",
    "request_status": "Pending",
    "responsible_agency": "Department of Sanitation",
    "final_address": "1645 Gentilly Blvd",
    "address_councildis": "A",
    "status": "Assigned to Contractor",
    "contractor": "Metro Disposal",
    "rowid": "878911",
    "final_x": "3678406.1165",
    "final_y": "540953.378443",
    "longitude": "-90.07751323120301",
    "latitude": "29.981527826107197",
    "geocoded_column": {
      "latitude": "29.981527826107197",
      "longitude": "-90.07751323120301"
    }
  },
  {
    "service_request": "2022-878910",
    "request_type": "Trash/Recycling",
    "request_reason": "MIssed Recycling Pick-Up",
    "date_created": "2022-04-30T09:05:58.000",
    "date_modified": "2022-04-30T09:05:59.000",
    "request_status": "Pending",
    "responsible_agency": "Department of Sanitation",
    "final_address": "4129 Thalia St",
    "address_councildis": "B",
    "status": "Assigned to Contractor",
    "contractor": "Richards Disposal",
    "rowid": "878910",
    "final_x": "3671323.30215",
    "final_y": "530901.363138",
    "longitude": "-90.10022576716453",
    "latitude": "29.954099701157496",
    "geocoded_column": {
      "latitude": "29.954099701157496",
      "longitude": "-90.10022576716453"
    }
  },
  {
    "service_request": "2022-878909",
    "request_type": "Trash/Recycling",
    "request_reason": "MIssed Recycling Pick-Up",
    "date_created": "2022-04-30T09:05:54.000",
    "date_modified": "2022-04-30T09:05:55.000",
    "request_status": "Pending",
    "responsible_agency": "Department of Sanitation",
    "final_address": "8416 Nelson St",
    "address_councildis": "A",
    "status": "Assigned to Contractor",
    "contractor": "Richards Disposal",
    "rowid": "878909",
    "final_x": "3664212.22842",
    "final_y": "532620.564548",
    "longitude": "-90.12262240435895",
    "latitude": "29.95903545223911",
    "geocoded_column": {
      "latitude": "29.95903545223911",
      "longitude": "-90.12262240435895"
    }
  },
  {
    "service_request": "2022-878908",
    "request_type": "Trash/Recycling",
    "request_reason": "Order Recycling Cart",
    "date_created": "2022-04-30T09:01:12.000",
    "date_modified": "2022-04-30T09:01:12.000",
    "request_status": "Pending",
    "responsible_agency": "Department of Sanitation",
    "final_address": "8523 Freret St",
    "address_councildis": "A",
    "status": "Pending",
    "rowid": "878908",
    "final_x": "3660314.47251",
    "final_y": "528978.392128",
    "longitude": "-90.13505089408594",
    "latitude": "29.94913331560134",
    "geocoded_column": {
      "latitude": "29.94913331560134",
      "longitude": "-90.13505089408594"
    }
  },
  {
    "service_request": "2022-878907",
    "request_type": "Trash/Recycling",
    "request_reason": "Replace Trash Cart",
    "date_created": "2022-04-30T08:59:41.000",
    "date_modified": "2022-04-30T08:59:42.000",
    "request_status": "Pending",
    "responsible_agency": "Department of Sanitation",
    "final_address": "8523 Freret St",
    "address_councildis": "A",
    "status": "Assigned to Contractor",
    "contractor": "Richards Disposal",
    "rowid": "878907",
    "final_x": "3660314.47251",
    "final_y": "528978.392128",
    "longitude": "-90.13505089408594",
    "latitude": "29.94913331560134",
    "geocoded_column": {
      "latitude": "29.94913331560134",
      "longitude": "-90.13505089408594"
    }
  },
  {
    "service_request": "2022-878906",
    "request_type": "Trash/Recycling",
    "request_reason": "Missed Trash Pick-Up",
    "date_created": "2022-04-30T08:50:46.000",
    "date_modified": "2022-04-30T08:50:46.000",
    "request_status": "Pending",
    "responsible_agency": "Department of Sanitation",
    "final_address": "2412 State St",
    "address_councildis": "A",
    "status": "Assigned to Contractor",
    "contractor": "Richards Disposal",
    "rowid": "878906",
    "final_x": "3666681.97108",
    "final_y": "525576.753661",
    "longitude": "-90.11506002724458",
    "latitude": "29.939595273049484",
    "geocoded_column": {
      "latitude": "29.939595273049484",
      "longitude": "-90.11506002724458"
    }
  },
  {
    "service_request": "2022-878905",
    "request_type": "Trash/Recycling",
    "request_reason": "Missed Trash Pick-Up",
    "date_created": "2022-04-30T08:47:58.000",
    "date_modified": "2022-04-30T08:47:59.000",
    "request_status": "Pending",
    "responsible_agency": "Department of Sanitation",
    "final_address": "1323 Joliet St",
    "address_councildis": "A",
    "status": "Assigned to Contractor",
    "contractor": "Richards Disposal",
    "rowid": "878905",
    "final_x": "3661311.42669",
    "final_y": "529719.746433",
    "longitude": "-90.13187851185404",
    "latitude": "29.951143097062907",
    "geocoded_column": {
      "latitude": "29.951143097062907",
      "longitude": "-90.13187851185404"
    }
  },
  {
    "service_request": "2022-878904",
    "request_type": "Trash/Recycling",
    "request_reason": "Request a Large Item Pick Up",
    "date_created": "2022-04-30T08:34:48.000",
    "date_modified": "2022-04-30T08:34:48.000",
    "request_status": "Pending",
    "responsible_agency": "Department of Sanitation",
    "final_address": "9118 Apple St",
    "address_councildis": "A",
    "status": "Assigned to Contractor",
    "contractor": "Richards Disposal",
    "rowid": "878904",
    "final_x": "3662610.09984",
    "final_y": "534557.668229",
    "longitude": "-90.12761718838134",
    "latitude": "29.964408305703383",
    "geocoded_column": {
      "latitude": "29.964408305703383",
      "longitude": "-90.12761718838134"
    }
  },
  {
    "service_request": "2022-878903",
    "request_type": "Trash/Recycling",
    "request_reason": "Order Trash Cart",
    "date_created": "2022-04-30T08:15:11.000",
    "date_modified": "2022-04-30T08:15:11.000",
    "request_status": "Pending",
    "responsible_agency": "Department of Sanitation",
    "final_address": "4901 Evangeline Dr",
    "address_councildis": "E",
    "status": "Assigned to Contractor",
    "contractor": "Metro Disposal",
    "rowid": "878903",
    "final_x": "3709070.29649",
    "final_y": "556597.24681",
    "longitude": "-89.98007888653251",
    "latitude": "30.023582772987144",
    "geocoded_column": {
      "latitude": "30.023582772987144",
      "longitude": "-89.98007888653251"
    }
  },
  {
    "service_request": "2022-878902",
    "request_type": "Trash/Recycling",
    "request_reason": "Request a Large Item Pick Up",
    "date_created": "2022-04-30T08:04:38.000",
    "date_modified": "2022-04-30T08:04:39.000",
    "request_status": "Pending",
    "responsible_agency": "Department of Sanitation",
    "final_address": "2465 Prancer St",
    "address_councildis": "C",
    "status": "Assigned to Contractor",
    "contractor": "Richards Disposal",
    "rowid": "878902",
    "final_x": "3699734.54743",
    "final_y": "522116.379514",
    "longitude": "-90.01083526016376",
    "latitude": "29.929072772836637",
    "geocoded_column": {
      "latitude": "29.929072772836637",
      "longitude": "-90.01083526016376"
    }
  },
  {
    "service_request": "2022-878901",
    "request_type": "Property Maintenance",
    "request_reason": "Property Maintenance",
    "date_created": "2022-04-30T04:22:57.000",
    "date_modified": "2022-04-30T04:22:57.000",
    "request_status": "Pending",
    "responsible_agency": "Department of Code Enforcement",
    "final_address": "3094 Sullen Pl",
    "address_councildis": "C",
    "status": "Pending",
    "rowid": "878901",
    "final_x": "3707836.88196",
    "final_y": "518997.073911",
    "longitude": "-89.98537384598524",
    "latitude": "29.920236153966645",
    "geocoded_column": {
      "latitude": "29.920236153966645",
      "longitude": "-89.98537384598524"
    }
  },
  {
    "service_request": "2022-878900",
    "request_type": "Health Related Questions",
    "request_reason": "Noise Ordinance Complaint",
    "date_created": "2022-04-30T02:10:19.000",
    "date_modified": "2022-04-30T02:10:19.000",
    "request_status": "Pending",
    "responsible_agency": "Health Department",
    "final_address": "3300 Banks St, New Orleans, Louisiana, 70119",
    "address_councildis": "B",
    "status": "Pending",
    "rowid": "878900",
    "final_x": "3672781.8996",
    "final_y": "535449.689478",
    "longitude": "-90.09546494478445",
    "latitude": "29.96656283903936",
    "geocoded_column": {
      "latitude": "29.96656283903936",
      "longitude": "-90.09546494478445"
    }
  },
  {
    "service_request": "2022-878899",
    "request_type": "Health Related Questions",
    "request_reason": "Noise Ordinance Complaint",
    "date_created": "2022-04-30T01:37:50.000",
    "date_modified": "2022-04-30T01:37:50.000",
    "request_status": "Pending",
    "responsible_agency": "Health Department",
    "final_address": "3300 banks st",
    "address_councildis": "B",
    "status": "Pending",
    "rowid": "878899",
    "final_x": "3672781.8996",
    "final_y": "535449.689478",
    "longitude": "-90.09546494478445",
    "latitude": "29.96656283903936",
    "geocoded_column": {
      "latitude": "29.96656283903936",
      "longitude": "-90.09546494478445"
    }
  },
  {
    "service_request": "2022-878898",
    "request_type": "Property Maintenance",
    "request_reason": "Property Maintenance",
    "date_created": "2022-04-30T00:29:19.000",
    "date_modified": "2022-04-30T00:29:19.000",
    "request_status": "Pending",
    "responsible_agency": "Department of Code Enforcement",
    "final_address": "1476 Mandolin St",
    "address_councildis": "D",
    "status": "Pending",
    "rowid": "878898",
    "final_x": "3678559.03765",
    "final_y": "547963.437522",
    "longitude": "-90.0767874334506",
    "latitude": "30.00079841986444",
    "geocoded_column": {
      "latitude": "30.00079841986444",
      "longitude": "-90.0767874334506"
    }
  },
  {
    "service_request": "2022-878897",
    "request_type": "Trash/Recycling",
    "request_reason": "Illegal Dumping",
    "date_created": "2022-04-29T22:36:25.000",
    "date_modified": "2022-04-29T22:36:25.000",
    "request_status": "Pending",
    "responsible_agency": "Department of Sanitation",
    "final_address": "3025 Seine St",
    "address_councildis": "C",
    "status": "Pending",
    "rowid": "878897",
    "final_x": "3694706.17046",
    "final_y": "520290.236088",
    "longitude": "-90.02677451883866",
    "latitude": "29.924210121091697",
    "geocoded_column": {
      "latitude": "29.924210121091697",
      "longitude": "-90.02677451883866"
    }
  },
  {
    "service_request": "2022-878896",
    "request_type": "Traffic Signals/Signs/Striping/Streetlights",
    "request_reason": "Street Name Sign Damaged or Missing",
    "date_created": "2022-04-29T22:23:14.000",
    "date_modified": "2022-04-29T22:23:14.000",
    "request_status": "Pending",
    "responsible_agency": "Department of Public Works",
    "final_address": "2920 Wabash St",
    "address_councildis": "C",
    "status": "Pending",
    "rowid": "878896",
    "final_x": "3694220.75107",
    "final_y": "520953.463545",
    "longitude": "-90.02828296633639",
    "latitude": "29.92604898265199",
    "geocoded_column": {
      "latitude": "29.92604898265199",
      "longitude": "-90.02828296633639"
    }
  },
  {
    "service_request": "2022-878895",
    "request_type": "Traffic Signals/Signs/Striping/Streetlights",
    "request_reason": "Street Light Outage/Malfunction",
    "date_created": "2022-04-29T22:19:32.000",
    "date_modified": "2022-04-29T22:19:33.000",
    "request_status": "Pending",
    "responsible_agency": "Department of Public Works",
    "final_address": "2920 Wabash St",
    "address_councildis": "C",
    "status": "Pending",
    "contractor": "Royal Engineering",
    "rowid": "878895",
    "final_x": "3694220.75107",
    "final_y": "520953.463545",
    "longitude": "-90.02828296633639",
    "latitude": "29.92604898265199",
    "geocoded_column": {
      "latitude": "29.92604898265199",
      "longitude": "-90.02828296633639"
    }
  },
  {
    "service_request": "2022-878894",
    "request_type": "Traffic Signals/Signs/Striping/Streetlights",
    "request_reason": "Street Light Outage/Malfunction",
    "date_created": "2022-04-29T22:03:44.000",
    "date_modified": "2022-04-29T22:03:45.000",
    "request_status": "Pending",
    "responsible_agency": "Department of Public Works",
    "final_address": "6139 Stratford Pl, New Orleans, Louisiana, 70131",
    "address_councildis": "C",
    "status": "Pending",
    "contractor": "Royal Engineering",
    "rowid": "878894",
    "final_x": "3706658.42219",
    "final_y": "516109.617844",
    "longitude": "-89.98920056705565",
    "latitude": "29.91233471695813",
    "geocoded_column": {
      "latitude": "29.91233471695813",
      "longitude": "-89.98920056705565"
    }
  },
  {
    "service_request": "2022-878893",
    "request_type": "Trash/Recycling",
    "request_reason": "Request a Large Item Pick Up",
    "date_created": "2022-04-29T21:56:46.000",
    "date_modified": "2022-04-29T21:56:47.000",
    "request_status": "Pending",
    "responsible_agency": "Department of Sanitation",
    "final_address": "1210 St Andrew St",
    "address_councildis": "B",
    "status": "Assigned to Contractor",
    "contractor": "Richards Disposal",
    "rowid": "878893",
    "final_x": "3679178.38703",
    "final_y": "522929.433979",
    "longitude": "-90.07569886412661",
    "latitude": "29.93194477004698",
    "geocoded_column": {
      "latitude": "29.93194477004698",
      "longitude": "-90.07569886412661"
    }
  },
  {
    "service_request": "2022-878892",
    "request_type": "Abandoned Vehicles",
    "request_reason": "Vehicle Blocking Your Driveway",
    "date_created": "2022-04-29T21:52:26.000",
    "date_modified": "2022-04-29T21:52:26.000",
    "request_status": "Pending",
    "responsible_agency": "Department of Public Works",
    "final_address": "524 S Cortez St, New Orleans, Louisiana, 70119",
    "address_councildis": "B",
    "status": "Pending",
    "rowid": "878892",
    "final_x": "3671003.79355",
    "final_y": "536123.419783",
    "longitude": "-90.10105731858384",
    "latitude": "29.96846807044097",
    "geocoded_column": {
      "latitude": "29.96846807044097",
      "longitude": "-90.10105731858384"
    }
  },
  {
    "service_request": "2022-878891",
    "request_type": "Traffic Signals/Signs/Striping/Streetlights",
    "request_reason": "Additional signage",
    "date_created": "2022-04-29T21:40:13.000",
    "date_modified": "2022-04-29T21:40:13.000",
    "request_status": "Pending",
    "responsible_agency": "Department of Public Works",
    "final_address": "9696 Hayne Blvd",
    "address_councildis": "E",
    "status": "Pending",
    "rowid": "878891",
    "final_x": "3706773.12158",
    "final_y": "565285.425506",
    "longitude": "-89.98701486730513",
    "latitude": "30.047546235439572",
    "geocoded_column": {
      "latitude": "30.047546235439572",
      "longitude": "-89.98701486730513"
    }
  },
  {
    "service_request": "2022-878890",
    "request_type": "Abandoned Vehicles",
    "request_reason": "Vehicle Blocking Your Driveway",
    "date_created": "2022-04-29T21:26:15.000",
    "date_modified": "2022-04-30T13:34:51.000",
    "request_status": "Pending",
    "responsible_agency": "Department of Public Works",
    "final_address": "524 S Cortez St, New Orleans, Louisiana, 70119",
    "address_councildis": "B",
    "rowid": "878890",
    "final_x": "3671003.79355",
    "final_y": "536123.419783",
    "longitude": "-90.10105731858384",
    "latitude": "29.96846807044097",
    "geocoded_column": {
      "latitude": "29.96846807044097",
      "longitude": "-90.10105731858384"
    }
  },
  {
    "service_request": "2022-878889",
    "request_type": "Traffic Signals/Signs/Striping/Streetlights",
    "request_reason": "Street Light Outage/Malfunction",
    "date_created": "2022-04-29T21:26:12.000",
    "date_modified": "2022-04-29T21:26:12.000",
    "request_status": "Pending",
    "responsible_agency": "Department of Public Works",
    "final_address": "201 St Charles Ave",
    "address_councildis": "B",
    "status": "Pending",
    "contractor": "Royal Engineering",
    "rowid": "878889",
    "final_x": "3680907.66773",
    "final_y": "530296.154625",
    "longitude": "-90.06998330034857",
    "latitude": "29.952148492948435",
    "geocoded_column": {
      "latitude": "29.952148492948435",
      "longitude": "-90.06998330034857"
    }
  },
  {
    "service_request": "2022-878888",
    "request_type": "Traffic Signals/Signs/Striping/Streetlights",
    "request_reason": "Street Light Outage/Malfunction",
    "date_created": "2022-04-29T21:21:48.000",
    "date_modified": "2022-04-29T21:21:49.000",
    "request_status": "Pending",
    "responsible_agency": "Department of Public Works",
    "final_address": "300 Camp St",
    "address_councildis": "B",
    "status": "Pending",
    "contractor": "Royal Engineering",
    "rowid": "878888",
    "final_x": "3681302.36892",
    "final_y": "529849.866369",
    "longitude": "-90.0687525706983",
    "latitude": "29.95090937896033",
    "geocoded_column": {
      "latitude": "29.95090937896033",
      "longitude": "-90.0687525706983"
    }
  },
  {
    "service_request": "2022-878887",
    "request_type": "Traffic Signals/Signs/Striping/Streetlights",
    "request_reason": "Street Light Outage/Malfunction",
    "date_created": "2022-04-29T21:17:34.000",
    "date_modified": "2022-04-29T21:17:35.000",
    "request_status": "Pending",
    "responsible_agency": "Department of Public Works",
    "final_address": "209 Magazine St",
    "address_councildis": "B",
    "status": "Pending",
    "contractor": "Royal Engineering",
    "rowid": "878887",
    "final_x": "3681638.77653",
    "final_y": "529839.520257",
    "longitude": "-90.06769072703938",
    "latitude": "29.950870717717123",
    "geocoded_column": {
      "latitude": "29.950870717717123",
      "longitude": "-90.06769072703938"
    }
  },
  {
    "service_request": "2022-878886",
    "request_type": "Mosquito, Termite & Rodent Control",
    "request_reason": "Non-Rodent Complaint (Mice, Possums, Snakes)",
    "date_created": "2022-04-29T21:15:06.000",
    "date_modified": "2022-04-29T21:15:06.000",
    "request_status": "Pending",
    "responsible_agency": "Mosquito, Termite & Rodent Control Board",
    "final_address": "40 Vivian Ct",
    "address_councildis": "C",
    "status": "Pending",
    "rowid": "878886",
    "final_x": "3702118.29431",
    "final_y": "521018.604921",
    "longitude": "-90.00335051557305",
    "latitude": "29.925978407345198",
    "geocoded_column": {
      "latitude": "29.925978407345198",
      "longitude": "-90.00335051557305"
    }
  },
  {
    "service_request": "2022-878885",
    "request_type": "Health Related Questions",
    "request_reason": "Noise Ordinance Complaint",
    "date_created": "2022-04-29T21:02:55.000",
    "date_modified": "2022-04-29T21:02:56.000",
    "request_status": "Pending",
    "responsible_agency": "Health Department",
    "final_address": "600 N Broad St",
    "address_councildis": "D",
    "status": "Pending",
    "rowid": "878885",
    "final_x": "3676514.68328",
    "final_y": "536431.051079",
    "longitude": "-90.0836430411453",
    "latitude": "29.969149839828454",
    "geocoded_column": {
      "latitude": "29.969149839828454",
      "longitude": "-90.0836430411453"
    }
  },
  {
    "service_request": "2022-878883",
    "request_type": "Traffic Signals/Signs/Striping/Streetlights",
    "request_reason": "Traffic Sign Missing/Damaged",
    "date_created": "2022-04-29T20:41:34.000",
    "date_modified": "2022-04-29T20:41:34.000",
    "request_status": "Pending",
    "responsible_agency": "Department of Public Works",
    "final_address": "PALM ST & CHERRY ST",
    "address_councildis": "A",
    "status": "Pending",
    "rowid": "878883",
    "final_x": "3664592.2",
    "final_y": "537540.78",
    "longitude": "-90.12125819378063",
    "latitude": "29.97255337995892",
    "geocoded_column": {
      "latitude": "29.97255337995892",
      "longitude": "-90.12125819378063"
    }
  },
  {
    "service_request": "2022-878882",
    "request_type": "Property Maintenance",
    "request_reason": "Property Maintenance",
    "date_created": "2022-04-29T20:39:54.000",
    "date_modified": "2022-04-29T20:39:54.000",
    "request_status": "Pending",
    "responsible_agency": "Department of Code Enforcement",
    "final_address": "2108 Third St",
    "address_councildis": "B",
    "status": "Pending",
    "rowid": "878882",
    "final_x": "3675385.15675",
    "final_y": "524412.670844",
    "longitude": "-90.08762280179653",
    "latitude": "29.93613712044748",
    "geocoded_column": {
      "latitude": "29.93613712044748",
      "longitude": "-90.08762280179653"
    }
  },
  {
    "service_request": "2022-878881",
    "request_type": "Traffic Signals/Signs/Striping/Streetlights",
    "request_reason": "Traffic Sign Missing/Damaged",
    "date_created": "2022-04-29T20:37:13.000",
    "date_modified": "2022-04-29T20:37:13.000",
    "request_status": "Pending",
    "responsible_agency": "Department of Public Works",
    "final_address": "STROELITZ ST & CHERRY ST",
    "address_councildis": "A",
    "status": "Pending",
    "rowid": "878881",
    "final_x": "3664826.5",
    "final_y": "537800.28",
    "longitude": "-90.12050955453248",
    "latitude": "29.973260101813036",
    "geocoded_column": {
      "latitude": "29.973260101813036",
      "longitude": "-90.12050955453248"
    }
  },
  {
    "service_request": "2022-878880",
    "request_type": "Trash/Recycling",
    "request_reason": "Replace Trash Cart",
    "date_created": "2022-04-29T20:26:28.000",
    "date_modified": "2022-04-29T20:26:29.000",
    "request_status": "Pending",
    "responsible_agency": "Department of Sanitation",
    "final_address": "2514 Octavia St",
    "address_councildis": "A",
    "status": "Assigned to Contractor",
    "contractor": "Richards Disposal",
    "rowid": "878880",
    "final_x": "3667735.32513",
    "final_y": "524926.473532",
    "longitude": "-90.1117563201955",
    "latitude": "29.93777637499679",
    "geocoded_column": {
      "latitude": "29.93777637499679",
      "longitude": "-90.1117563201955"
    }
  },
  {
    "service_request": "2022-878879",
    "request_type": "Trash/Recycling",
    "request_reason": "Illegal Dumping",
    "date_created": "2022-04-29T20:18:14.000",
    "date_modified": "2022-04-29T20:18:14.000",
    "request_status": "Pending",
    "responsible_agency": "Department of Sanitation",
    "final_address": "7600 Gannon Rd",
    "address_councildis": "E",
    "status": "Pending",
    "rowid": "878879",
    "final_x": "3716469.08671",
    "final_y": "569659.73431",
    "longitude": "-89.95620443875303",
    "latitude": "30.059256974348585",
    "geocoded_column": {
      "latitude": "30.059256974348585",
      "longitude": "-89.95620443875303"
    }
  },
  {
    "service_request": "2022-878878",
    "request_type": "Trash/Recycling",
    "request_reason": "Illegal Dumping",
    "date_created": "2022-04-29T20:05:02.000",
    "date_modified": "2022-04-29T20:05:02.000",
    "request_status": "Pending",
    "responsible_agency": "Department of Sanitation",
    "final_address": "6090 Bullard Ave",
    "address_councildis": "E",
    "status": "Pending",
    "rowid": "878878",
    "final_x": "3715239.41432",
    "final_y": "564292.826913",
    "longitude": "-89.96029457885659",
    "latitude": "30.044540755023633",
    "geocoded_column": {
      "latitude": "30.044540755023633",
      "longitude": "-89.96029457885659"
    }
  },
  {
    "service_request": "2022-878877",
    "request_type": "Traffic Signals/Signs/Striping/Streetlights",
    "request_reason": "Street Light Outage/Malfunction",
    "date_created": "2022-04-29T20:02:45.000",
    "date_modified": "2022-04-29T20:02:45.000",
    "request_status": "Pending",
    "responsible_agency": "Department of Public Works",
    "final_address": "412 Magazine St",
    "address_councildis": "B",
    "status": "Pending",
    "contractor": "Royal Engineering",
    "rowid": "878877",
    "final_x": "3681579.37128",
    "final_y": "529271.628097",
    "longitude": "-90.06789810128113",
    "latitude": "29.949311009801484",
    "geocoded_column": {
      "latitude": "29.949311009801484",
      "longitude": "-90.06789810128113"
    }
  },
  {
    "service_request": "2022-878876",
    "request_type": "Health Related Questions",
    "request_reason": "Noise Ordinance Complaint",
    "date_created": "2022-04-29T20:02:34.000",
    "date_modified": "2022-04-29T20:02:34.000",
    "request_status": "Pending",
    "responsible_agency": "Health Department",
    "final_address": "244 Hillary St, New Orleans, Louisiana, 70118",
    "address_councildis": "A",
    "status": "Pending",
    "rowid": "878876",
    "final_x": "3661014.33491",
    "final_y": "524711.512508",
    "longitude": "-90.13298224314995",
    "latitude": "29.93738060926529",
    "geocoded_column": {
      "latitude": "29.93738060926529",
      "longitude": "-90.13298224314995"
    }
  },
  {
    "service_request": "2022-878875",
    "request_type": "Health Related Questions",
    "request_reason": "Noise Ordinance Complaint",
    "date_created": "2022-04-29T20:01:32.000",
    "date_modified": "2022-04-29T20:01:32.000",
    "request_status": "Pending",
    "responsible_agency": "Health Department",
    "final_address": "226 Hillary St, New Orleans, Louisiana, 70118",
    "address_councildis": "A",
    "status": "Pending",
    "rowid": "878875",
    "final_x": "3663417.82464",
    "final_y": "527355.962623",
    "longitude": "-90.12530621182555",
    "latitude": "29.94458255305258",
    "geocoded_column": {
      "latitude": "29.94458255305258",
      "longitude": "-90.12530621182555"
    }
  },
  {
    "service_request": "2022-878874",
    "request_type": "Property Maintenance",
    "request_reason": "Property Maintenance",
    "date_created": "2022-04-29T19:58:54.000",
    "date_modified": "2022-04-29T19:58:54.000",
    "request_status": "Pending",
    "responsible_agency": "Department of Code Enforcement",
    "final_address": "601 Poydras St",
    "address_councildis": "B",
    "status": "Pending",
    "rowid": "878874",
    "final_x": "3680938.01679",
    "final_y": "529396.806657",
    "longitude": "-90.06991878324561",
    "latitude": "29.94967466888167",
    "geocoded_column": {
      "latitude": "29.94967466888167",
      "longitude": "-90.06991878324561"
    }
  },
  {
    "service_request": "2022-878873",
    "request_type": "Roads/Drainage",
    "request_reason": "Damaged Sidewalk",
    "date_created": "2022-04-29T19:54:03.000",
    "date_modified": "2022-04-29T19:54:03.000",
    "request_status": "Pending",
    "responsible_agency": "Department of Public Works",
    "final_address": "801 St Joseph St",
    "address_councildis": "B",
    "status": "Pending",
    "rowid": "878873",
    "final_x": "3679818.38511",
    "final_y": "527618.872447",
    "longitude": "-90.07351569157058",
    "latitude": "29.94481984218871",
    "geocoded_column": {
      "latitude": "29.94481984218871",
      "longitude": "-90.07351569157058"
    }
  },
  {
    "service_request": "2022-878872",
    "request_type": "Trash/Recycling",
    "request_reason": "MIssed Recycling Pick-Up",
    "date_created": "2022-04-29T19:49:18.000",
    "date_modified": "2022-04-29T19:49:19.000",
    "request_status": "Pending",
    "responsible_agency": "Department of Sanitation",
    "final_address": "8506 Apricot St",
    "address_councildis": "A",
    "status": "Assigned to Contractor",
    "contractor": "Richards Disposal",
    "rowid": "878872",
    "final_x": "3664686.92685",
    "final_y": "533611.932741",
    "longitude": "-90.12109029887758",
    "latitude": "29.961747590287853",
    "geocoded_column": {
      "latitude": "29.961747590287853",
      "longitude": "-90.12109029887758"
    }
  },
  {
    "service_request": "2022-878871",
    "request_type": "Trash/Recycling",
    "request_reason": "Missed Trash Pick-Up",
    "date_created": "2022-04-29T19:49:14.000",
    "date_modified": "2022-04-29T19:49:15.000",
    "request_status": "Pending",
    "responsible_agency": "Department of Sanitation",
    "final_address": "222 Bermuda St",
    "address_councildis": "C",
    "status": "Assigned to Contractor",
    "contractor": "Richards Disposal",
    "rowid": "878871",
    "final_x": "3686189.28252",
    "final_y": "530959.197314",
    "longitude": "-90.05328306967309",
    "latitude": "29.953810456675818",
    "geocoded_column": {
      "latitude": "29.953810456675818",
      "longitude": "-90.05328306967309"
    }
  },
  {
    "service_request": "2022-878870",
    "request_type": "Abandoned Vehicles",
    "request_reason": "Abandoned/Junk Vehicles",
    "date_created": "2022-04-29T19:25:44.000",
    "date_modified": "2022-04-29T19:25:44.000",
    "request_status": "Pending",
    "responsible_agency": "Department of Public Works",
    "final_address": "600 Walker St",
    "address_councildis": "A",
    "status": "Pending",
    "rowid": "878870",
    "final_x": "3668776.56558",
    "final_y": "553960.345112",
    "longitude": "-90.10748840813908",
    "latitude": "30.017579158022663",
    "geocoded_column": {
      "latitude": "30.017579158022663",
      "longitude": "-90.10748840813908"
    }
  },
  {
    "service_request": "2022-878869",
    "request_type": "Traffic Signals/Signs/Striping/Streetlights",
    "request_reason": "Street Light Outage/Malfunction",
    "date_created": "2022-04-29T19:23:40.000",
    "date_modified": "2022-04-29T19:23:40.000",
    "request_status": "Pending",
    "responsible_agency": "Department of Public Works",
    "final_address": "2514 Adams St",
    "address_councildis": "A",
    "status": "Pending",
    "contractor": "Royal Engineering",
    "rowid": "878869",
    "final_x": "3666291.92775",
    "final_y": "531000.21101",
    "longitude": "-90.11610955893856",
    "latitude": "29.95451942389691",
    "geocoded_column": {
      "latitude": "29.95451942389691",
      "longitude": "-90.11610955893856"
    }
  },
  {
    "service_request": "2022-878868",
    "request_type": "Abandoned Vehicles",
    "request_reason": "Abandoned/Junk Vehicles",
    "date_created": "2022-04-29T19:15:29.000",
    "date_modified": "2022-04-29T19:18:55.000",
    "case_close_date": "2022-04-29T14:20:08.000",
    "request_status": "Closed",
    "responsible_agency": "Department of Public Works",
    "final_address": "4402 Reynes St",
    "address_councildis": "E",
    "status": "Pending",
    "rowid": "878868",
    "final_x": "3699273.46404",
    "final_y": "553113.590871",
    "longitude": "-90.01116169931306",
    "latitude": "30.01431854310329",
    "geocoded_column": {
      "latitude": "30.01431854310329",
      "longitude": "-90.01116169931306"
    }
  },
  {
    "service_request": "2022-878867",
    "request_type": "Traffic Signals/Signs/Striping/Streetlights",
    "request_reason": "Street Light Outage/Malfunction",
    "date_created": "2022-04-29T19:09:01.000",
    "date_modified": "2022-04-29T19:09:02.000",
    "request_status": "Pending",
    "responsible_agency": "Department of Public Works",
    "final_address": "6901 Breedlove St",
    "address_councildis": "B",
    "status": "Pending",
    "contractor": "Royal Engineering",
    "rowid": "878867",
    "final_x": "3668533.14209",
    "final_y": "531703.513795",
    "longitude": "-90.1090089291309",
    "latitude": "29.956387620224863",
    "geocoded_column": {
      "latitude": "29.956387620224863",
      "longitude": "-90.1090089291309"
    }
  },
  {
    "service_request": "2022-878865",
    "request_type": "Property Maintenance",
    "request_reason": "Property Maintenance",
    "date_created": "2022-04-29T18:32:43.000",
    "date_modified": "2022-04-29T18:32:43.000",
    "request_status": "Pending",
    "responsible_agency": "Department of Code Enforcement",
    "final_address": "637 Canal St",
    "address_councildis": "C",
    "status": "Pending",
    "rowid": "878865",
    "final_x": "3681272.61999",
    "final_y": "530728.234434",
    "longitude": "-90.06881589580188",
    "latitude": "29.953325497329327",
    "geocoded_column": {
      "latitude": "29.953325497329327",
      "longitude": "-90.06881589580188"
    }
  },
  {
    "service_request": "2022-878864",
    "request_type": "Property Maintenance",
    "request_reason": "Property Maintenance",
    "date_created": "2022-04-29T18:31:12.000",
    "date_modified": "2022-04-29T18:31:12.000",
    "request_status": "Pending",
    "responsible_agency": "Department of Code Enforcement",
    "final_address": "701 Canal St",
    "address_councildis": "C",
    "status": "Pending",
    "rowid": "878864",
    "final_x": "3681221.29013",
    "final_y": "530758.078594",
    "longitude": "-90.06897693357314",
    "latitude": "29.953409116160664",
    "geocoded_column": {
      "latitude": "29.953409116160664",
      "longitude": "-90.06897693357314"
    }
  },