[
  {
    "service_request": "2022-865219",
    "request_type": "Trash/Recycling",
    "request_reason": "Illegal Dumping",
    "date_created": "2022-03-07T23:06:58.000",
    "date_modified": "2022-03-07T23:06:58.000",
    "request_status": "Pending",
    "responsible_agency": "Department of Sanitation",
    "final_address": "3262 Derby Pl",
    "address_councildis": "A",
    "status": "Pending",
    "rowid": "865219",
    "final_x": "3677418.73538",
    "final_y": "542875.491853",
    "longitude": "-90.0805654658662",
    "latitude": "29.986842689420136",
    "geocoded_column": {
      "latitude": "29.986842689420136",
      "longitude": "-90.0805654658662"
    }
  },
  {
    "service_request": "2022-865217",
    "request_type": "Trash/Recycling",
    "request_reason": "Missed Trash Pick-Up",
    "date_created": "2022-03-07T22:54:52.000",
    "date_modified": "2022-03-07T22:54:52.000",
    "request_status": "Pending",
    "responsible_agency": "Department of Sanitation",
    "final_address": "809 N Rocheblave St",
    "address_councildis": "D",
    "status": "Assigned to Contractor",
    "contractor": "Richards Disposal",
    "rowid": "865217",
    "final_x": "3677765.29634",
    "final_y": "536713.153927",
    "longitude": "-90.07968376611245",
    "latitude": "29.969887962881344",
    "geocoded_column": {
      "latitude": "29.969887962881344",
      "longitude": "-90.07968376611245"
    }
  },
  {
    "service_request": "2022-865215",
    "request_type": "Trash/Recycling",
    "request_reason": "Missed Trash Pick-Up",
    "date_created": "2022-03-07T21:43:29.000",
    "date_modified": "2022-03-07T21:43:30.000",
    "request_status": "Pending",
    "responsible_agency": "Department of Sanitation",
    "final_address": "2621 N Villere St",
    "address_councildis": "C",
    "status": "Assigned to Contractor",
    "contractor": "Metro Disposal",
    "rowid": "865215",
    "final_x": "3687591.70671",
    "final_y": "537559.852104",
    "longitude": "-90.04862112421641",
    "latitude": "29.971916813370193",
    "geocoded_column": {
      "latitude": "29.971916813370193",
      "longitude": "-90.04862112421641"
    }
  },
  {
    "service_request": "2022-865214",
    "request_type": "Traffic Signals/Signs/Striping/Streetlights",
    "request_reason": "Street Light Outage/Malfunction",
    "date_created": "2022-03-07T21:21:09.000",
    "date_modified": "2022-03-07T21:21:09.000",
    "request_status": "Pending",
    "responsible_agency": "Department of Public Works",
    "final_address": "6237 Cambridge St",
    "address_councildis": "C",
    "status": "Pending",
    "contractor": "Royal Engineering",
    "rowid": "865214",
    "final_x": "3707216.62238",
    "final_y": "518346.88287",
    "longitude": "-89.98735580155179",
    "latitude": "29.918468403769133",
    "geocoded_column": {
      "latitude": "29.918468403769133",
      "longitude": "-89.98735580155179"
    }
  },
  {
    "service_request": "2022-865212",
    "request_type": "Trash/Recycling",
    "request_reason": "Request a Large Item Pick Up",
    "date_created": "2022-03-07T20:56:25.000",
    "date_modified": "2022-03-07T20:56:26.000",
    "request_status": "Pending",
    "responsible_agency": "Department of Sanitation",
    "final_address": "214 Porteous St",
    "address_councildis": "A",
    "status": "Assigned to Contractor",
    "contractor": "Metro Disposal",
    "rowid": "865212",
    "final_x": "3667369.57978",
    "final_y": "551619.140373",
    "longitude": "-90.11201278973255",
    "latitude": "30.011182981097097",
    "geocoded_column": {
      "latitude": "30.011182981097097",
      "longitude": "-90.11201278973255"
    }
  },
  {
    "service_request": "2022-865210",
    "request_type": "Traffic Signals/Signs/Striping/Streetlights",
    "request_reason": "Street Light Outage/Malfunction",
    "date_created": "2022-03-07T20:08:11.000",
    "date_modified": "2022-03-07T20:08:11.000",
    "request_status": "Pending",
    "responsible_agency": "Department of Public Works",
    "final_address": "26 Warbler St",
    "address_councildis": "D",
    "status": "Pending",
    "contractor": "Royal Engineering",
    "rowid": "865210",
    "final_x": "3673500.9947",
    "final_y": "556821.946586",
    "longitude": "-90.09246313634847",
    "latitude": "30.025307712156987",
    "geocoded_column": {
      "latitude": "30.025307712156987",
      "longitude": "-90.09246313634847"
    }
  },
  {
    "service_request": "2022-865209",
    "request_type": "Roads/Drainage",
    "request_reason": "Catch Basin - Clogged",
    "date_created": "2022-03-07T19:58:37.000",
    "date_modified": "2022-03-07T19:58:37.000",
    "request_status": "Pending",
    "responsible_agency": "Department of Public Works",
    "final_address": "1000 Howard Ave",
    "address_councildis": "B",
    "status": "Pending",
    "rowid": "865209",
    "final_x": "3678925.00597",
    "final_y": "527853.049919",
    "longitude": "-90.07632824868489",
    "latitude": "29.945490730449556",
    "geocoded_column": {
      "latitude": "29.945490730449556",
      "longitude": "-90.07632824868489"
    }
  },
  {
    "service_request": "2022-865208",
    "request_type": "Trash/Recycling",
    "request_reason": "MIssed Recycling Pick-Up",
    "date_created": "2022-03-07T19:39:40.000",
    "date_modified": "2022-03-07T19:39:41.000",
    "request_status": "Pending",
    "responsible_agency": "Department of Sanitation",
    "final_address": "2053 Easter Ln",
    "address_councildis": "C",
    "status": "Assigned to Contractor",
    "contractor": "Richards Disposal",
    "rowid": "865208",
    "final_x": "3699444.50576",
    "final_y": "523783.587067",
    "longitude": "-90.0116901538607",
    "latitude": "29.933666219259134",
    "geocoded_column": {
      "latitude": "29.933666219259134",
      "longitude": "-90.0116901538607"
    }
  },
  {
    "service_request": "2022-865207",
    "request_type": "Traffic Signals/Signs/Striping/Streetlights",
    "request_reason": "Street Light Outage/Malfunction",
    "date_created": "2022-03-07T19:38:17.000",
    "date_modified": "2022-03-07T19:38:18.000",
    "request_status": "Pending",
    "responsible_agency": "Department of Public Works",
    "final_address": "550 St Charles Ave",
    "address_councildis": "B",
    "status": "Pending",
    "contractor": "Royal Engineering",
    "rowid": "865207",
    "final_x": "3680689.51746",
    "final_y": "528924.578688",
    "longitude": "-90.0707198384367",
    "latitude": "29.94838373228807",
    "geocoded_column": {
      "latitude": "29.94838373228807",
      "longitude": "-90.0707198384367"
    }
  },
  {
    "service_request": "2022-865206",
    "request_type": "Abandoned Vehicles",
    "request_reason": "Vehicle Blocking Your Driveway",
    "date_created": "2022-03-07T19:25:05.000",
    "date_modified": "2022-03-07T19:25:05.000",
    "request_status": "Pending",
    "responsible_agency": "Department of Public Works",
    "final_address": "1401 Saint Mary St",
    "status": "Pending",
    "rowid": "865206",
    "longitude": "0.0",
    "latitude": "0.0",
    "geocoded_column": {
      "latitude": "0.0",
      "longitude": "0.0"
    }
  },
  {
    "service_request": "2022-865205",
    "request_type": "Trash/Recycling",
    "request_reason": "Missed Trash Pick-Up",
    "date_created": "2022-03-07T19:18:40.000",
    "date_modified": "2022-03-07T19:18:41.000",
    "request_status": "Pending",
    "responsible_agency": "Department of Sanitation",
    "final_address": "1812 St Philip St",
    "address_councildis": "D",
    "status": "Assigned to Contractor",
    "contractor": "Richards Disposal",
    "rowid": "865205",
    "final_x": "3680026.48175",
    "final_y": "535761.917447",
    "longitude": "-90.07257578250035",
    "latitude": "29.967204170290568",
    "geocoded_column": {
      "latitude": "29.967204170290568",
      "longitude": "-90.07257578250035"
    }
  },
  {
    "service_request": "2022-865204",
    "request_type": "Trash/Recycling",
    "request_reason": "MIssed Recycling Pick-Up",
    "date_created": "2022-03-07T18:52:58.000",
    "date_modified": "2022-03-07T18:52:59.000",
    "request_status": "Pending",
    "responsible_agency": "Department of Sanitation",
    "final_address": "58 Yosemite Dr",
    "address_councildis": "C",
    "status": "Assigned to Contractor",
    "contractor": "Richards Disposal",
    "rowid": "865204",
    "final_x": "3699783.27274",
    "final_y": "516541.041653",
    "longitude": "-90.01088457419131",
    "latitude": "29.913740954896877",
    "geocoded_column": {
      "latitude": "29.913740954896877",
      "longitude": "-90.01088457419131"
    }
  },
  {
    "service_request": "2022-865203",
    "request_type": "Trash/Recycling",
    "request_reason": "Missed Trash Pick-Up",
    "date_created": "2022-03-07T18:42:49.000",
    "date_modified": "2022-03-07T18:42:49.000",
    "request_status": "Pending",
    "responsible_agency": "Department of Sanitation",
    "final_address": "2928 Dumaine St",
    "address_councildis": "A",
    "status": "Assigned to Contractor",
    "contractor": "Richards Disposal",
    "rowid": "865203",
    "final_x": "3676200.546",
    "final_y": "538195.097033",
    "longitude": "-90.08457439651139",
    "latitude": "29.97400978156463",
    "geocoded_column": {
      "latitude": "29.97400978156463",
      "longitude": "-90.08457439651139"
    }
  },
  {
    "service_request": "2022-865202",
    "request_type": "Traffic Signals/Signs/Striping/Streetlights",
    "request_reason": "Traffic Sign Missing/Damaged",
    "date_created": "2022-03-07T18:19:52.000",
    "date_modified": "2022-03-07T18:19:52.000",
    "request_status": "Pending",
    "responsible_agency": "Department of Public Works",
    "final_address": "PRATT DR & LEON C SIMON DR",
    "address_councildis": "D",
    "status": "Pending",
    "rowid": "865202",
    "final_x": "3680027.4",
    "final_y": "556094.08",
    "longitude": "-90.07186599737283",
    "latitude": "30.02311039556538",
    "geocoded_column": {
      "latitude": "30.02311039556538",
      "longitude": "-90.07186599737283"
    }
  },
  {
    "service_request": "2022-865201",
    "request_type": "Traffic Signals/Signs/Striping/Streetlights",
    "request_reason": "Traffic Signal Malfunctioning/Damaged",
    "date_created": "2022-03-07T18:18:13.000",
    "date_modified": "2022-03-07T18:18:13.000",
    "request_status": "Pending",
    "responsible_agency": "Department of Public Works",
    "final_address": "LEON C SIMON DR & ST ANTHONY AVE",
    "address_councildis": "D",
    "status": "Pending",
    "rowid": "865201",
    "final_x": "3681924.0",
    "final_y": "556390.88",
    "longitude": "-90.06586278840724",
    "latitude": "30.023868938150535",
    "geocoded_column": {
      "latitude": "30.023868938150535",
      "longitude": "-90.06586278840724"
    }
  },
  {
    "service_request": "2022-865200",
    "request_type": "Property Maintenance",
    "request_reason": "Property Maintenance",
    "date_created": "2022-03-07T18:16:25.000",
    "date_modified": "2022-03-07T18:16:25.000",
    "request_status": "Pending",
    "responsible_agency": "Department of Code Enforcement",
    "final_address": "7849 Read Blvd Apt 12",
    "address_councildis": "E",
    "status": "Pending",
    "rowid": "865200",
    "final_x": "3708429.38795",
    "final_y": "565267.44797",
    "longitude": "-89.98178086429685",
    "latitude": "30.047443191521047",
    "geocoded_column": {
      "latitude": "30.047443191521047",
      "longitude": "-89.98178086429685"
    }
  },
  {
    "service_request": "2022-865199",
    "request_type": "Trash/Recycling",
    "request_reason": "Missed Trash Pick-Up",
    "date_created": "2022-03-07T18:15:09.000",
    "date_modified": "2022-03-07T18:15:10.000",
    "request_status": "Pending",
    "responsible_agency": "Department of Sanitation",
    "final_address": "2216 St Nick Dr",
    "address_councildis": "C",
    "status": "Assigned to Contractor",
    "contractor": "Richards Disposal",
    "rowid": "865199",
    "final_x": "3699854.49514",
    "final_y": "522857.086267",
    "longitude": "-90.01042961531681",
    "latitude": "29.93110565343332",
    "geocoded_column": {
      "latitude": "29.93110565343332",
      "longitude": "-90.01042961531681"
    }
  },
  {
    "service_request": "2022-865198",
    "request_type": "Trash/Recycling",
    "request_reason": "Missed Trash Pick-Up",
    "date_created": "2022-03-07T18:05:36.000",
    "date_modified": "2022-03-07T18:05:37.000",
    "request_status": "Pending",
    "responsible_agency": "Department of Sanitation",
    "final_address": "6038 St Roch Ave",
    "address_councildis": "D",
    "status": "Assigned to Contractor",
    "contractor": "Metro Disposal",
    "rowid": "865198",
    "final_x": "3684849.52105",
    "final_y": "555387.567513",
    "longitude": "-90.05665405152598",
    "latitude": "30.02102089510698",
    "geocoded_column": {
      "latitude": "30.02102089510698",
      "longitude": "-90.05665405152598"
    }
  },
  {
    "service_request": "2022-865197",
    "request_type": "Traffic Signals/Signs/Striping/Streetlights",
    "request_reason": "Street Light Outage/Malfunction",
    "date_created": "2022-03-07T18:03:12.000",
    "date_modified": "2022-03-07T18:03:14.000",
    "request_status": "Pending",
    "responsible_agency": "Department of Public Works",
    "final_address": "MURL ST & VESPASIAN ST",
    "address_councildis": "C",
    "status": "Pending",
    "contractor": "Royal Engineering",
    "rowid": "865197",
    "final_x": "3695087.6",
    "final_y": "522669.98",
    "longitude": "-90.02548474392688",
    "latitude": "29.930741642549066",
    "geocoded_column": {
      "latitude": "29.930741642549066",
      "longitude": "-90.02548474392688"
    }
  },
  {
    "service_request": "2022-865196",
    "request_type": "Traffic Signals/Signs/Striping/Streetlights",
    "request_reason": "Street Light Outage/Malfunction",
    "date_created": "2022-03-07T18:02:44.000",
    "date_modified": "2022-03-07T18:02:45.000",
    "request_status": "Pending",
    "responsible_agency": "Department of Public Works",
    "final_address": "MURL ST & VESPASIAN ST",
    "address_councildis": "C",
    "status": "Pending",
    "contractor": "Royal Engineering",
    "rowid": "865196",
    "final_x": "3695087.6",
    "final_y": "522669.98",
    "longitude": "-90.02548474392688",
    "latitude": "29.930741642549066",
    "geocoded_column": {
      "latitude": "29.930741642549066",
      "longitude": "-90.02548474392688"
    }
  },
  {
    "service_request": "2022-865195",
    "request_type": "Traffic Signals/Signs/Striping/Streetlights",
    "request_reason": "Street Light Outage/Malfunction",
    "date_created": "2022-03-07T18:02:22.000",
    "date_modified": "2022-03-07T18:02:23.000",
    "request_status": "Pending",
    "responsible_agency": "Department of Public Works",
    "final_address": "MURL ST & VESPASIAN ST",
    "address_councildis": "C",
    "status": "Pending",
    "contractor": "Royal Engineering",
    "rowid": "865195",
    "final_x": "3695087.6",
    "final_y": "522669.98",
    "longitude": "-90.02548474392688",
    "latitude": "29.930741642549066",
    "geocoded_column": {
      "latitude": "29.930741642549066",
      "longitude": "-90.02548474392688"
    }
  },
  {
    "service_request": "2022-865194",
    "request_type": "Traffic Signals/Signs/Striping/Streetlights",
    "request_reason": "Street Light Outage/Malfunction",
    "date_created": "2022-03-07T18:01:52.000",
    "date_modified": "2022-03-07T18:01:52.000",
    "request_status": "Pending",
    "responsible_agency": "Department of Public Works",
    "final_address": "MURL ST & VESPASIAN ST",
    "address_councildis": "C",
    "status": "Pending",
    "contractor": "Royal Engineering",
    "rowid": "865194",
    "final_x": "3695087.6",
    "final_y": "522669.98",
    "longitude": "-90.02548474392688",
    "latitude": "29.930741642549066",
    "geocoded_column": {
      "latitude": "29.930741642549066",
      "longitude": "-90.02548474392688"
    }
  },
  {
    "service_request": "2022-865193",
    "request_type": "Roads/Drainage",
    "request_reason": "Street Subsidence (Sinking)",
    "date_created": "2022-03-07T17:39:06.000",
    "date_modified": "2022-03-07T17:39:06.000",
    "request_status": "Pending",
    "responsible_agency": "Department of Public Works",
    "final_address": "4000 Herschel St",
    "address_councildis": "C",
    "status": "Pending",
    "rowid": "865193",
    "final_x": "3698420.97028",
    "final_y": "521108.681785",
    "longitude": "-90.01501854043437",
    "latitude": "29.926343572152096",
    "geocoded_column": {
      "latitude": "29.926343572152096",
      "longitude": "-90.01501854043437"
    }
  },
  {
    "service_request": "2022-865192",
    "request_type": "Traffic Signals/Signs/Striping/Streetlights",
    "request_reason": "Street Light Outage/Malfunction",
    "date_created": "2022-03-07T17:38:01.000",
    "date_modified": "2022-03-07T17:38:02.000",
    "request_status": "Pending",
    "responsible_agency": "Department of Public Works",
    "final_address": "4725 Congress Dr",
    "address_councildis": "D",
    "status": "Pending",
    "contractor": "Royal Engineering",
    "rowid": "865192",
    "final_x": "3692414.15811",
    "final_y": "551665.386645",
    "longitude": "-90.03288553356197",
    "latitude": "30.010552366012657",
    "geocoded_column": {
      "latitude": "30.010552366012657",
      "longitude": "-90.03288553356197"
    }
  },
  {
    "service_request": "2022-865191",
    "request_type": "Trash/Recycling",
    "request_reason": "Request a Large Item Pick Up",
    "date_created": "2022-03-07T17:35:17.000",
    "date_modified": "2022-03-07T17:35:18.000",
    "request_status": "Pending",
    "responsible_agency": "Department of Sanitation",
    "final_address": "65 Curtis Dr",
    "address_councildis": "E",
    "status": "Assigned to Contractor",
    "contractor": "Metro Disposal",
    "rowid": "865191",
    "final_x": "3698030.03971",
    "final_y": "561096.140382",
    "longitude": "-90.0148000588369",
    "latitude": "30.036306896882337",
    "geocoded_column": {
      "latitude": "30.036306896882337",
      "longitude": "-90.0148000588369"
    }
  },
  {
    "service_request": "2022-865190",
    "request_type": "Abandoned Vehicles",
    "request_reason": "Abandoned/Junk Vehicles",
    "date_created": "2022-03-07T17:34:13.000",
    "date_modified": "2022-03-07T17:34:13.000",
    "request_status": "Pending",
    "responsible_agency": "Department of Public Works",
    "final_address": "1621 Port St",
    "address_councildis": "D",
    "status": "Pending",
    "rowid": "865190",
    "final_x": "3687972.87599",
    "final_y": "538441.277961",
    "longitude": "-90.047386093505",
    "latitude": "29.9743286681381",
    "geocoded_column": {
      "latitude": "29.9743286681381",
      "longitude": "-90.047386093505"
    }
  },
  {
    "service_request": "2022-865189",
    "request_type": "Abandoned Vehicles",
    "request_reason": "Abandoned/Junk Vehicles",
    "date_created": "2022-03-07T17:24:52.000",
    "date_modified": "2022-03-07T17:24:52.000",
    "request_status": "Pending",
    "responsible_agency": "Department of Public Works",
    "final_address": "613 S Rocheblave St",
    "address_councildis": "B",
    "status": "Pending",
    "rowid": "865189",
    "final_x": "3674822.26664",
    "final_y": "532833.961028",
    "longitude": "-90.08911117416895",
    "latitude": "29.959309698929573",
    "geocoded_column": {
      "latitude": "29.959309698929573",
      "longitude": "-90.08911117416895"
    }
  },
  {
    "service_request": "2022-865188",
    "request_type": "Trash/Recycling",
    "request_reason": "Replace Trash Cart",
    "date_created": "2022-03-07T17:12:25.000",
    "date_modified": "2022-03-07T17:12:25.000",
    "request_status": "Pending",
    "responsible_agency": "Department of Sanitation",
    "final_address": "1351 Magazine St",
    "address_councildis": "B",
    "status": "Assigned to Contractor",
    "contractor": "Richards Disposal",
    "rowid": "865188",
    "final_x": "3680395.34402",
    "final_y": "524835.306556",
    "longitude": "-90.07179081848976",
    "latitude": "29.937148506938488",
    "geocoded_column": {
      "latitude": "29.937148506938488",
      "longitude": "-90.07179081848976"
    }
  },
  {
    "service_request": "2022-865187",
    "request_type": "Trash/Recycling",
    "request_reason": "Replace Trash Cart",
    "date_created": "2022-03-07T17:12:04.000",
    "date_modified": "2022-03-07T17:12:05.000",
    "request_status": "Pending",
    "responsible_agency": "Department of Sanitation",
    "final_address": "1347 Magazine St",
    "address_councildis": "B",
    "status": "Assigned to Contractor",
    "contractor": "Richards Disposal",
    "rowid": "865187",
    "final_x": "3680400.3444",
    "final_y": "524860.841724",
    "longitude": "-90.07177414442371",
    "latitude": "29.937218568812625",
    "geocoded_column": {
      "latitude": "29.937218568812625",
      "longitude": "-90.07177414442371"
    }
  },
  {
    "service_request": "2022-865186",
    "request_type": "Trash/Recycling",
    "request_reason": "Missed Trash Pick-Up",
    "date_created": "2022-03-07T17:06:05.000",
    "date_modified": "2022-03-07T17:06:06.000",
    "request_status": "Pending",
    "responsible_agency": "Department of Sanitation",
    "final_address": "1347 Magazine St, New Orleans, Louisiana, 70130",
    "address_councildis": "B",
    "status": "Assigned to Contractor",
    "contractor": "Richards Disposal",
    "rowid": "865186",
    "final_x": "3680400.3444",
    "final_y": "524860.841724",
    "longitude": "-90.07177414442371",
    "latitude": "29.937218568812625",
    "geocoded_column": {
      "latitude": "29.937218568812625",
      "longitude": "-90.07177414442371"
    }
  },
  {
    "service_request": "2022-865185",
    "request_type": "Property Maintenance",
    "request_reason": "Property Maintenance",
    "date_created": "2022-03-07T17:03:50.000",
    "date_modified": "2022-03-07T17:03:50.000",
    "request_status": "Pending",
    "responsible_agency": "Department of Code Enforcement",
    "final_address": "DWYER RD & MAJESTIC OAKS DR",
    "address_councildis": "D",
    "status": "Pending",
    "rowid": "865185",
    "final_x": "3697655.4",
    "final_y": "555140.28",
    "longitude": "-90.01620034144676",
    "latitude": "30.019942410062367",
    "geocoded_column": {
      "latitude": "30.019942410062367",
      "longitude": "-90.01620034144676"
    }
  },
  {
    "service_request": "2022-865184",
    "request_type": "Roads/Drainage",
    "request_reason": "Catch Basin - Clogged",
    "date_created": "2022-03-07T17:02:17.000",
    "date_modified": "2022-03-07T17:02:17.000",
    "request_status": "Pending",
    "responsible_agency": "Department of Public Works",
    "final_address": "4809 Majestic Oaks Dr",
    "address_councildis": "D",
    "status": "Pending",
    "rowid": "865184",
    "final_x": "3697799.86461",
    "final_y": "554694.863832",
    "longitude": "-90.01576006507803",
    "latitude": "30.018713117649995",
    "geocoded_column": {
      "latitude": "30.018713117649995",
      "longitude": "-90.01576006507803"
    }
  },
  {
    "service_request": "2022-865183",
    "request_type": "Trash/Recycling",
    "request_reason": "Missed Trash Pick-Up",
    "date_created": "2022-03-07T16:55:35.000",
    "date_modified": "2022-03-07T16:55:35.000",
    "request_status": "Pending",
    "responsible_agency": "Department of Sanitation",
    "final_address": "2325 Toledano St",
    "address_councildis": "B",
    "status": "Assigned to Contractor",
    "contractor": "Richards Disposal",
    "rowid": "865183",
    "final_x": "3673514.03252",
    "final_y": "524192.398332",
    "longitude": "-90.09353752681758",
    "latitude": "29.93558724409901",
    "geocoded_column": {
      "latitude": "29.93558724409901",
      "longitude": "-90.09353752681758"
    }
  },
  {
    "service_request": "2022-865182",
    "request_type": "Trash/Recycling",
    "request_reason": "Order Recycling Cart",
    "date_created": "2022-03-07T16:54:51.000",
    "date_modified": "2022-03-07T16:54:51.000",
    "request_status": "Pending",
    "responsible_agency": "Department of Sanitation",
    "final_address": "7300 Colapissa St",
    "address_councildis": "B",
    "status": "Pending",
    "rowid": "865182",
    "final_x": "3667656.39309",
    "final_y": "532326.432131",
    "longitude": "-90.11175645120737",
    "latitude": "29.958126170883315",
    "geocoded_column": {
      "latitude": "29.958126170883315",
      "longitude": "-90.11175645120737"
    }
  },
  {
    "service_request": "2022-865181",
    "request_type": "Property Maintenance",
    "request_reason": "Property Maintenance",
    "date_created": "2022-03-07T16:53:44.000",
    "date_modified": "2022-03-07T16:53:44.000",
    "request_status": "Pending",
    "responsible_agency": "Department of Code Enforcement",
    "final_address": "2632 Desire St",
    "address_councildis": "D",
    "status": "Pending",
    "rowid": "865181",
    "final_x": "3691605.34646",
    "final_y": "541639.03918",
    "longitude": "-90.03579957591631",
    "latitude": "29.983008777630307",
    "geocoded_column": {
      "latitude": "29.983008777630307",
      "longitude": "-90.03579957591631"
    }
  },
  {
    "service_request": "2022-865180",
    "request_type": "Traffic Signals/Signs/Striping/Streetlights",
    "request_reason": "Traffic Signal Malfunctioning/Damaged",
    "date_created": "2022-03-07T16:50:50.000",
    "date_modified": "2022-03-07T16:50:51.000",
    "request_status": "Pending",
    "responsible_agency": "Department of Public Works",
    "final_address": "6000 Bullard Ave",
    "address_councildis": "E",
    "status": "Pending",
    "rowid": "865180",
    "final_x": "3714876.25311",
    "final_y": "563881.658913",
    "longitude": "-89.96145788051206",
    "latitude": "30.043422170200817",
    "geocoded_column": {
      "latitude": "30.043422170200817",
      "longitude": "-89.96145788051206"
    }
  },
  {
    "service_request": "2022-865178",
    "request_type": "Trash/Recycling",
    "request_reason": "Replace Trash Cart",
    "date_created": "2022-03-07T16:41:14.000",
    "date_modified": "2022-03-07T16:41:15.000",
    "request_status": "Pending",
    "responsible_agency": "Department of Sanitation",
    "final_address": "2305 Toledano St",
    "address_councildis": "B",
    "status": "Assigned to Contractor",
    "contractor": "Richards Disposal",
    "rowid": "865178",
    "final_x": "3673575.14644",
    "final_y": "524052.5447",
    "longitude": "-90.0933493671814",
    "latitude": "29.935200873697312",
    "geocoded_column": {
      "latitude": "29.935200873697312",
      "longitude": "-90.0933493671814"
    }
  },
  {
    "service_request": "2022-865177",
    "request_type": "Trash/Recycling",
    "request_reason": "Order Trash Cart",
    "date_created": "2022-03-07T16:38:55.000",
    "date_modified": "2022-03-07T16:38:56.000",
    "request_status": "Pending",
    "responsible_agency": "Department of Sanitation",
    "final_address": "6321 Arts St, New Orleans, Louisiana, 70122",
    "address_councildis": "D",
    "status": "Assigned to Contractor",
    "contractor": "Metro Disposal",
    "rowid": "865177",
    "final_x": "3685634.46492",
    "final_y": "556493.465306",
    "longitude": "-90.05413484779034",
    "latitude": "30.024037633772284",
    "geocoded_column": {
      "latitude": "30.024037633772284",
      "longitude": "-90.05413484779034"
    }
  },
  {
    "service_request": "2022-865176",
    "request_type": "Abandoned Vehicles",
    "request_reason": "Abandoned/Junk Vehicles",
    "date_created": "2022-03-07T16:31:48.000",
    "date_modified": "2022-03-07T16:31:48.000",
    "request_status": "Pending",
    "responsible_agency": "Department of Public Works",
    "final_address": "2100 Milton St",
    "address_councildis": "D",
    "status": "Pending",
    "rowid": "865176",
    "final_x": "3683618.58946",
    "final_y": "546535.449617",
    "longitude": "-90.06085405317981",
    "latitude": "29.99671843359879",
    "geocoded_column": {
      "latitude": "29.99671843359879",
      "longitude": "-90.06085405317981"
    }
  },
  {
    "service_request": "2022-865175",
    "request_type": "Trash/Recycling",
    "request_reason": "Illegal Dumping",
    "date_created": "2022-03-07T16:29:03.000",
    "date_modified": "2022-03-07T16:29:03.000",
    "request_status": "Pending",
    "responsible_agency": "Department of Sanitation",
    "final_address": "935 Poland Ave",
    "address_councildis": "C",
    "status": "Pending",
    "rowid": "865175",
    "final_x": "3692973.22256",
    "final_y": "534485.078469",
    "longitude": "-90.03173581623815",
    "latitude": "29.963295268556184",
    "geocoded_column": {
      "latitude": "29.963295268556184",
      "longitude": "-90.03173581623815"
    }
  },
  {
    "service_request": "2022-865174",
    "request_type": "Abandoned Vehicles",
    "request_reason": "Abandoned/Junk Vehicles",
    "date_created": "2022-03-07T16:28:52.000",
    "date_modified": "2022-03-07T16:28:52.000",
    "request_status": "Pending",
    "responsible_agency": "Department of Public Works",
    "final_address": "914 Piety St",
    "address_councildis": "C",
    "status": "Pending",
    "rowid": "865174",
    "final_x": "3689639.37078",
    "final_y": "535140.106374",
    "longitude": "-90.042240401619",
    "latitude": "29.965200075658636",
    "geocoded_column": {
      "latitude": "29.965200075658636",
      "longitude": "-90.042240401619"
    }
  },
  {
    "service_request": "2022-865173",
    "request_type": "Trash/Recycling",
    "request_reason": "MIssed Recycling Pick-Up",
    "date_created": "2022-03-07T16:26:50.000",
    "date_modified": "2022-03-07T16:26:51.000",
    "request_status": "Pending",
    "responsible_agency": "Department of Sanitation",
    "final_address": "5313 Timber Haven Ln",
    "address_councildis": "C",
    "status": "Assigned to Contractor",
    "contractor": "Richards Disposal",
    "rowid": "865173",
    "final_x": "3703822.19633",
    "final_y": "511339.661808",
    "longitude": "-89.99832781387074",
    "latitude": "29.899310139188913",
    "geocoded_column": {
      "latitude": "29.899310139188913",
      "longitude": "-89.99832781387074"
    }
  },
  {
    "service_request": "2022-865172",
    "request_type": "Trash/Recycling",
    "request_reason": "Request a Large Item Pick Up",
    "date_created": "2022-03-07T16:22:26.000",
    "date_modified": "2022-03-07T16:22:26.000",
    "request_status": "Pending",
    "responsible_agency": "Department of Sanitation",
    "final_address": "4178 Saint Peter St, New Orleans, Louisiana, 70119",
    "status": "Assigned to Contractor",
    "rowid": "865172",
    "longitude": "0.0",
    "latitude": "0.0",
    "geocoded_column": {
      "latitude": "0.0",
      "longitude": "0.0"
    }
  },
  {
    "service_request": "2022-865171",
    "request_type": "Trash/Recycling",
    "request_reason": "Repair Trash Cart",
    "date_created": "2022-03-07T16:21:20.000",
    "date_modified": "2022-03-07T16:21:21.000",
    "request_status": "Pending",
    "responsible_agency": "Department of Sanitation",
    "final_address": "61 Warbler St",
    "address_councildis": "D",
    "status": "Assigned to Contractor",
    "contractor": "Metro Disposal",
    "rowid": "865171",
    "final_x": "3673810.71476",
    "final_y": "556741.571098",
    "longitude": "-90.09148721824965",
    "latitude": "30.02507748252198",
    "geocoded_column": {
      "latitude": "30.02507748252198",
      "longitude": "-90.09148721824965"
    }
  },
  {
    "service_request": "2022-865170",
    "request_type": "Trash/Recycling",
    "request_reason": "Illegal Dumping",
    "date_created": "2022-03-07T16:18:14.000",
    "date_modified": "2022-03-07T16:18:14.000",
    "request_status": "Pending",
    "responsible_agency": "Department of Sanitation",
    "final_address": "2038 Florida Ave",
    "address_councildis": "D",
    "status": "Pending",
    "rowid": "865170",
    "final_x": "3683264.05666",
    "final_y": "542810.633997",
    "longitude": "-90.06210454213085",
    "latitude": "29.98648733380931",
    "geocoded_column": {
      "latitude": "29.98648733380931",
      "longitude": "-90.06210454213085"
    }
  },
  {
    "service_request": "2022-865169",
    "request_type": "Abandoned Vehicles",
    "request_reason": "Abandoned/Junk Vehicles",
    "date_created": "2022-03-07T16:13:41.000",
    "date_modified": "2022-03-07T16:13:41.000",
    "request_status": "Pending",
    "responsible_agency": "Department of Public Works",
    "final_address": "6865 Mayo Rd Apt A",
    "address_councildis": "E",
    "status": "Pending",
    "rowid": "865169",
    "final_x": "3702024.98468",
    "final_y": "557685.260699",
    "longitude": "-90.00230053914015",
    "latitude": "30.026801295869802",
    "geocoded_column": {
      "latitude": "30.026801295869802",
      "longitude": "-90.00230053914015"
    }
  },
  {
    "service_request": "2022-865168",
    "request_type": "Roads/Drainage",
    "request_reason": "Damaged Sidewalk",
    "date_created": "2022-03-07T16:11:28.000",
    "date_modified": "2022-03-07T16:11:28.000",
    "request_status": "Pending",
    "responsible_agency": "Department of Public Works",
    "final_address": "8329 Sycamore St",
    "address_councildis": "A",
    "status": "Pending",
    "rowid": "865168",
    "final_x": "3663597.11642",
    "final_y": "531692.168707",
    "longitude": "-90.12459571016478",
    "latitude": "29.9565005224217",
    "geocoded_column": {
      "latitude": "29.9565005224217",
      "longitude": "-90.12459571016478"
    }
  },
  {
    "service_request": "2022-865167",
    "request_type": "Trash/Recycling",
    "request_reason": "Replace Trash Cart",
    "date_created": "2022-03-07T16:08:03.000",
    "date_modified": "2022-03-07T16:08:04.000",
    "request_status": "Pending",
    "responsible_agency": "Department of Sanitation",
    "final_address": "4444 Paris Ave",
    "address_councildis": "D",
    "status": "Assigned to Contractor",
    "contractor": "Metro Disposal",
    "rowid": "865167",
    "final_x": "3679285.44667",
    "final_y": "548973.038803",
    "longitude": "-90.07445761332822",
    "latitude": "30.00355254050965",
    "geocoded_column": {
      "latitude": "30.00355254050965",
      "longitude": "-90.07445761332822"
    }
  },
  {
    "service_request": "2022-865166",
    "request_type": "Trash/Recycling",
    "request_reason": "Replace Trash Cart",
    "date_created": "2022-03-07T16:07:22.000",
    "date_modified": "2022-03-07T16:07:23.000",
    "request_status": "Pending",
    "responsible_agency": "Department of Sanitation",
    "final_address": "639 Nashville Ave",
    "address_councildis": "A",
    "status": "Assigned to Contractor",
    "contractor": "Richards Disposal",
    "rowid": "865166",
    "final_x": "3665525.59296",
    "final_y": "518611.312887",
    "longitude": "-90.11894395082433",
    "latitude": "29.92047627157149",
    "geocoded_column": {
      "latitude": "29.92047627157149",
      "longitude": "-90.11894395082433"
    }
  },
  {
    "service_request": "2022-865165",
    "request_type": "Roads/Drainage",
    "request_reason": "Damaged Sidewalk",
    "date_created": "2022-03-07T16:03:24.000",
    "date_modified": "2022-03-07T16:37:08.000",
    "request_status": "Pending",
    "responsible_agency": "Department of Public Works",
    "final_address": "New Orleans,LA",
    "rowid": "865165",
    "longitude": "0.0",
    "latitude": "0.0",
    "geocoded_column": {
      "latitude": "0.0",
      "longitude": "0.0"
    }
  },
  {
    "service_request": "2022-865164",
    "request_type": "Trash/Recycling",
    "request_reason": "Repair Trash Cart",
    "date_created": "2022-03-07T15:55:10.000",
    "date_modified": "2022-03-07T15:55:11.000",
    "request_status": "Pending",
    "responsible_agency": "Department of Sanitation",
    "final_address": "1330 Eagle St, New Orleans, Louisiana, 70118",
    "address_councildis": "A",
    "status": "Assigned to Contractor",
    "contractor": "Richards Disposal",
    "rowid": "865164",
    "final_x": "3660508.7991",
    "final_y": "530530.626562",
    "longitude": "-90.13438603394995",
    "latitude": "29.95339587369426",
    "geocoded_column": {
      "latitude": "29.95339587369426",
      "longitude": "-90.13438603394995"
    }
  },
  {
    "service_request": "2022-865163",
    "request_type": "Trash/Recycling",
    "request_reason": "Request a Large Item Pick Up",
    "date_created": "2022-03-07T15:54:59.000",
    "date_modified": "2022-03-07T16:10:32.000",
    "request_status": "Pending",
    "responsible_agency": "Department of Sanitation",
    "final_address": "New Orleans,LA",
    "address_councildis": "D",
    "status": "Assigned to Contractor",
    "contractor": "Metro Disposal",
    "rowid": "865163",
    "final_x": "3673035.52808",
    "final_y": "556719.25321",
    "longitude": "-90.09393745386083",
    "latitude": "30.02503919429761",
    "geocoded_column": {
      "latitude": "30.02503919429761",
      "longitude": "-90.09393745386083"
    }
  },
  {
    "service_request": "2022-865162",
    "request_type": "Property Maintenance",
    "request_reason": "Property Maintenance",
    "date_created": "2022-03-07T15:53:55.000",
    "date_modified": "2022-03-07T15:53:55.000",
    "request_status": "Pending",
    "responsible_agency": "Department of Code Enforcement",
    "final_address": "4640 Murano Rd",
    "address_councildis": "E",
    "status": "Pending",
    "rowid": "865162",
    "final_x": "3761430.47049",
    "final_y": "574321.344107",
    "longitude": "-89.81389329441517",
    "latitude": "30.070511796243554",
    "geocoded_column": {
      "latitude": "30.070511796243554",
      "longitude": "-89.81389329441517"
    }
  },
  {
    "service_request": "2022-865161",
    "request_type": "Property Maintenance",
    "request_reason": "Property Maintenance",
    "date_created": "2022-03-07T15:52:27.000",
    "date_modified": "2022-03-07T15:54:56.000",
    "request_status": "Pending",
    "responsible_agency": "Department of Code Enforcement",
    "final_address": "4641 Murano Rd",
    "address_councildis": "E",
    "status": "Pending",
    "rowid": "865161",
    "final_x": "3761584.87241",
    "final_y": "574288.199402",
    "longitude": "-89.8134065895124",
    "latitude": "30.070415033103963",
    "geocoded_column": {
      "latitude": "30.070415033103963",
      "longitude": "-89.8134065895124"
    }
  },
  {
    "service_request": "2022-865160",
    "request_type": "Trash/Recycling",
    "request_reason": "Missed Trash Pick-Up",
    "date_created": "2022-03-07T15:47:25.000",
    "date_modified": "2022-03-07T15:47:26.000",
    "request_status": "Pending",
    "responsible_agency": "Department of Sanitation",
    "final_address": "3035 Bienville Ave",
    "address_councildis": "B",
    "status": "Assigned to Contractor",
    "contractor": "Richards Disposal",
    "rowid": "865160",
    "final_x": "3674623.48616",
    "final_y": "536718.492679",
    "longitude": "-90.08960573293383",
    "latitude": "29.96999678575941",
    "geocoded_column": {
      "latitude": "29.96999678575941",
      "longitude": "-90.08960573293383"
    }
  },
  {
    "service_request": "2022-865159",
    "request_type": "Property Maintenance",
    "request_reason": "Property Maintenance",
    "date_created": "2022-03-07T15:44:49.000",
    "date_modified": "2022-03-07T15:44:49.000",
    "request_status": "Pending",
    "responsible_agency": "Department of Code Enforcement",
    "final_address": "1421 Leonidas St",
    "address_councildis": "A",
    "status": "Pending",
    "rowid": "865159",
    "final_x": "3661249.16755",
    "final_y": "530176.059521",
    "longitude": "-90.13205999111861",
    "latitude": "29.952399606375717",
    "geocoded_column": {
      "latitude": "29.952399606375717",
      "longitude": "-90.13205999111861"
    }
  },
  {
    "service_request": "2022-865158",
    "request_type": "Trash/Recycling",
    "request_reason": "Replace Trash Cart",
    "date_created": "2022-03-07T15:41:47.000",
    "date_modified": "2022-03-07T15:41:48.000",
    "request_status": "Pending",
    "responsible_agency": "Department of Sanitation",
    "final_address": "1824 Ursulines Ave",
    "address_councildis": "D",
    "status": "Assigned to Contractor",
    "contractor": "Richards Disposal",
    "rowid": "865158",
    "final_x": "3680171.55791",
    "final_y": "536083.390791",
    "longitude": "-90.07210645612501",
    "latitude": "29.968083721856345",
    "geocoded_column": {
      "latitude": "29.968083721856345",
      "longitude": "-90.07210645612501"
    }
  },
  {
    "service_request": "2022-865157",
    "request_type": "Trash/Recycling",
    "request_reason": "Missed Trash Pick-Up",
    "date_created": "2022-03-07T15:40:18.000",
    "date_modified": "2022-03-07T15:40:18.000",
    "request_status": "Pending",
    "responsible_agency": "Department of Sanitation",
    "final_address": "1824 Ursulines Ave",
    "address_councildis": "D",
    "status": "Assigned to Contractor",
    "contractor": "Richards Disposal",
    "rowid": "865157",
    "final_x": "3680171.55791",
    "final_y": "536083.390791",
    "longitude": "-90.07210645612501",
    "latitude": "29.968083721856345",
    "geocoded_column": {
      "latitude": "29.968083721856345",
      "longitude": "-90.07210645612501"
    }
  },
  {
    "service_request": "2022-865156",
    "request_type": "Roads/Drainage",
    "request_reason": "Catch Basin - Clogged",
    "date_created": "2022-03-07T15:39:58.000",
    "date_modified": "2022-03-07T15:39:58.000",
    "request_status": "Pending",
    "responsible_agency": "Department of Public Works",
    "final_address": "701 Canal St",
    "address_councildis": "C",
    "status": "Pending",
    "rowid": "865156",
    "final_x": "3681221.29013",
    "final_y": "530758.078594",
    "longitude": "-90.06897693357314",
    "latitude": "29.953409116160664",
    "geocoded_column": {
      "latitude": "29.953409116160664",
      "longitude": "-90.06897693357314"
    }
  },
  {
    "service_request": "2022-865155",
    "request_type": "Trash/Recycling",
    "request_reason": "Illegal Dumping",
    "date_created": "2022-03-07T15:38:52.000",
    "date_modified": "2022-03-07T15:38:52.000",
    "request_status": "Pending",
    "responsible_agency": "Department of Code Enforcement",
    "final_address": "1673 N Rocheblave St",
    "address_councildis": "D",
    "status": "Pending",
    "rowid": "865155",
    "final_x": "3680290.40994",
    "final_y": "540027.394955",
    "longitude": "-90.07159396560998",
    "latitude": "29.978924774534896",
    "geocoded_column": {
      "latitude": "29.978924774534896",
      "longitude": "-90.07159396560998"
    }
  },
  {
    "service_request": "2022-865154",
    "request_type": "Property Maintenance",
    "request_reason": "Property Maintenance",
    "date_created": "2022-03-07T15:35:14.000",
    "date_modified": "2022-03-07T15:35:14.000",
    "request_status": "Pending",
    "responsible_agency": "Department of Code Enforcement",
    "final_address": "2459 N Tonti St",
    "address_councildis": "D",
    "status": "Pending",
    "rowid": "865154",
    "final_x": "3686386.80214",
    "final_y": "540897.133003",
    "longitude": "-90.05230856563801",
    "latitude": "29.981130253967454",
    "geocoded_column": {
      "latitude": "29.981130253967454",
      "longitude": "-90.05230856563801"
    }
  },
  {
    "service_request": "2022-865153",
    "request_type": "Trash/Recycling",
    "request_reason": "Request a Large Item Pick Up",
    "date_created": "2022-03-07T15:32:58.000",
    "date_modified": "2022-03-07T15:32:59.000",
    "request_status": "Pending",
    "responsible_agency": "Department of Sanitation",
    "final_address": "4536 S Miro St",
    "address_councildis": "B",
    "status": "Assigned to Contractor",
    "contractor": "Richards Disposal",
    "rowid": "865153",
    "final_x": "3669469.61441",
    "final_y": "527715.523199",
    "longitude": "-90.10618671485473",
    "latitude": "29.94539440498541",
    "geocoded_column": {
      "latitude": "29.94539440498541",
      "longitude": "-90.10618671485473"
    }
  },
  {
    "service_request": "2022-865152",
    "request_type": "Traffic Signals/Signs/Striping/Streetlights",
    "request_reason": "Street Light Outage/Malfunction",
    "date_created": "2022-03-07T15:32:14.000",
    "date_modified": "2022-03-07T15:32:15.000",
    "request_status": "Pending",
    "responsible_agency": "Department of Public Works",
    "final_address": "515 Reynes St",
    "address_councildis": "E",
    "status": "Pending",
    "contractor": "Royal Engineering",
    "rowid": "865152",
    "final_x": "3695456.58435",
    "final_y": "532262.290179",
    "longitude": "-90.02397389035983",
    "latitude": "29.957105585305822",
    "geocoded_column": {
      "latitude": "29.957105585305822",
      "longitude": "-90.02397389035983"
    }
  },
  {
    "service_request": "2022-865151",
    "request_type": "Trash/Recycling",
    "request_reason": "Request a Large Item Pick Up",
    "date_created": "2022-03-07T15:31:30.000",
    "date_modified": "2022-03-07T15:31:30.000",
    "request_status": "Pending",
    "responsible_agency": "Department of Sanitation",
    "final_address": "6202 Wadsworth Dr",
    "address_councildis": "D",
    "status": "Assigned to Contractor",
    "contractor": "Metro Disposal",
    "rowid": "865151",
    "final_x": "3681584.57256",
    "final_y": "555662.918105",
    "longitude": "-90.06696073388144",
    "latitude": "30.021877629355814",
    "geocoded_column": {
      "latitude": "30.021877629355814",
      "longitude": "-90.06696073388144"
    }
  },
  {
    "service_request": "2022-865150",
    "request_type": "Trash/Recycling",
    "request_reason": "Order Trash Cart",
    "date_created": "2022-03-07T15:27:25.000",
    "date_modified": "2022-03-07T15:27:27.000",
    "request_status": "Pending",
    "responsible_agency": "Department of Sanitation",
    "final_address": "2623 Saint Philip St, New Orleans, Louisiana, 70119",
    "status": "Assigned to Contractor",
    "rowid": "865150",
    "longitude": "0.0",
    "latitude": "0.0",
    "geocoded_column": {
      "latitude": "0.0",
      "longitude": "0.0"
    }
  },
  {
    "service_request": "2022-865149",
    "request_type": "Trash/Recycling",
    "request_reason": "MIssed Recycling Pick-Up",
    "date_created": "2022-03-07T15:26:46.000",
    "date_modified": "2022-03-07T15:26:46.000",
    "request_status": "Pending",
    "responsible_agency": "Department of Sanitation",
    "final_address": "2626 LaSalle St",
    "address_councildis": "B",
    "status": "Assigned to Contractor",
    "contractor": "Richards Disposal",
    "rowid": "865149",
    "final_x": "3674705.04219",
    "final_y": "525093.848445",
    "longitude": "-90.08974660560153",
    "latitude": "29.938030449762827",
    "geocoded_column": {
      "latitude": "29.938030449762827",
      "longitude": "-90.08974660560153"
    }
  },
  {
    "service_request": "2022-865148",
    "request_type": "Property Maintenance",
    "request_reason": "Property Maintenance",
    "date_created": "2022-03-07T15:26:18.000",
    "date_modified": "2022-03-07T15:26:18.000",
    "request_status": "Pending",
    "responsible_agency": "Department of Code Enforcement",
    "final_address": "7611 Trapier Ave",
    "address_councildis": "E",
    "status": "Pending",
    "rowid": "865148",
    "final_x": "3706680.47678",
    "final_y": "563534.696864",
    "longitude": "-89.98737267017428",
    "latitude": "30.04273542224488",
    "geocoded_column": {
      "latitude": "30.04273542224488",
      "longitude": "-89.98737267017428"
    }
  },
  {
    "service_request": "2022-865147",
    "request_type": "Trash/Recycling",
    "request_reason": "Order Trash Cart",
    "date_created": "2022-03-07T15:25:46.000",
    "date_modified": "2022-03-07T15:25:46.000",
    "request_status": "Pending",
    "responsible_agency": "Department of Sanitation",
    "final_address": "2625 Saint Philip St, New Orleans, Louisiana, 70119",
    "status": "Assigned to Contractor",
    "rowid": "865147",
    "longitude": "0.0",
    "latitude": "0.0",
    "geocoded_column": {
      "latitude": "0.0",
      "longitude": "0.0"
    }
  },
  {
    "service_request": "2022-865146",
    "request_type": "Trash/Recycling",
    "request_reason": "MIssed Recycling Pick-Up",
    "date_created": "2022-03-07T15:24:01.000",
    "date_modified": "2022-03-07T15:24:02.000",
    "request_status": "Pending",
    "responsible_agency": "Department of Sanitation",
    "final_address": "3023 Iberville St",
    "address_councildis": "B",
    "status": "Assigned to Contractor",
    "contractor": "Richards Disposal",
    "rowid": "865146",
    "final_x": "3674520.63092",
    "final_y": "536383.072199",
    "longitude": "-90.08994205514213",
    "latitude": "29.96907756243721",
    "geocoded_column": {
      "latitude": "29.96907756243721",
      "longitude": "-90.08994205514213"
    }
  },
  {
    "service_request": "2022-865145",
    "request_type": "Trash/Recycling",
    "request_reason": "Missed Trash Pick-Up",
    "date_created": "2022-03-07T15:23:53.000",
    "date_modified": "2022-03-07T15:23:55.000",
    "request_status": "Pending",
    "responsible_agency": "Department of Sanitation",
    "final_address": "1915 Industry St",
    "address_councildis": "D",
    "status": "Assigned to Contractor",
    "contractor": "Metro Disposal",
    "rowid": "865145",
    "final_x": "3682389.61455",
    "final_y": "542796.447373",
    "longitude": "-90.06486706656734",
    "latitude": "29.986474971827878",
    "geocoded_column": {
      "latitude": "29.986474971827878",
      "longitude": "-90.06486706656734"
    }
  },
  {
    "service_request": "2022-865144",
    "request_type": "Trash/Recycling",
    "request_reason": "MIssed Recycling Pick-Up",
    "date_created": "2022-03-07T15:21:49.000",
    "date_modified": "2022-03-07T15:21:50.000",
    "request_status": "Pending",
    "responsible_agency": "Department of Sanitation",
    "final_address": "3925 Tall Pines Dr",
    "address_councildis": "C",
    "status": "Assigned to Contractor",
    "contractor": "Richards Disposal",
    "rowid": "865144",
    "final_x": "3704698.85143",
    "final_y": "512971.343665",
    "longitude": "-89.99550111085217",
    "latitude": "29.903768596455386",
    "geocoded_column": {
      "latitude": "29.903768596455386",
      "longitude": "-89.99550111085217"
    }
  },
  {
    "service_request": "2022-865143",
    "request_type": "Roads/Drainage",
    "request_reason": "Street Subsidence (Sinking)",
    "date_created": "2022-03-07T15:13:09.000",
    "date_modified": "2022-03-07T15:13:09.000",
    "request_status": "Pending",
    "responsible_agency": "Department of Public Works",
    "final_address": "4608 S Derbigny St",
    "address_councildis": "B",
    "status": "Pending",
    "rowid": "865143",
    "final_x": "3669486.43738",
    "final_y": "526088.620158",
    "longitude": "-90.10618861055241",
    "latitude": "29.940920454171803",
    "geocoded_column": {
      "latitude": "29.940920454171803",
      "longitude": "-90.10618861055241"
    }
  },
  {
    "service_request": "2022-865141",
    "request_type": "Parks & Parkways",
    "request_reason": "Request Tree Service (Right of Way/Public Property)",
    "date_created": "2022-03-07T15:11:14.000",
    "date_modified": "2022-03-07T15:11:14.000",
    "request_status": "Pending",
    "responsible_agency": "Department of Parks & Parkway",
    "final_address": "7000 Queensway Dr",
    "address_councildis": "E",
    "status": "Pending",
    "rowid": "865141",
    "final_x": "3719264.76882",
    "final_y": "569215.585254",
    "longitude": "-89.94738458692927",
    "latitude": "30.057943066298314",
    "geocoded_column": {
      "latitude": "30.057943066298314",
      "longitude": "-89.94738458692927"
    }
  },
  {
    "service_request": "2022-865140",
    "request_type": "Traffic Signals/Signs/Striping/Streetlights",
    "request_reason": "Street Light Outage/Malfunction",
    "date_created": "2022-03-07T15:10:16.000",
    "date_modified": "2022-03-07T15:10:17.000",
    "request_status": "Pending",
    "responsible_agency": "Department of Public Works",
    "final_address": "2907 OReilly St",
    "address_councildis": "D",
    "status": "Pending",
    "contractor": "Royal Engineering",
    "rowid": "865140",
    "final_x": "3679085.34479",
    "final_y": "542083.584716",
    "longitude": "-90.07532872168068",
    "latitude": "29.984615013606422",
    "geocoded_column": {
      "latitude": "29.984615013606422",
      "longitude": "-90.07532872168068"
    }
  },
  {
    "service_request": "2022-865139",
    "request_type": "Trash/Recycling",
    "request_reason": "Repair Recycling Cart",
    "date_created": "2022-03-07T15:09:51.000",
    "date_modified": "2022-03-07T15:09:51.000",
    "request_status": "Pending",
    "responsible_agency": "Department of Sanitation",
    "final_address": "4607 Elysian Fields Ave",
    "address_councildis": "D",
    "status": "Pending",
    "rowid": "865139",
    "final_x": "3684087.22389",
    "final_y": "549683.285908",
    "longitude": "-90.05926309870904",
    "latitude": "30.00535953324415",
    "geocoded_column": {
      "latitude": "30.00535953324415",
      "longitude": "-90.05926309870904"
    }
  },
  {
    "service_request": "2022-865138",
    "request_type": "Trash/Recycling",
    "request_reason": "Return Trash Cart",
    "date_created": "2022-03-07T15:09:22.000",
    "date_modified": "2022-03-07T15:09:23.000",
    "request_status": "Pending",
    "responsible_agency": "Department of Sanitation",
    "final_address": "4607 Elysian Fields Ave",
    "address_councildis": "D",
    "status": "Assigned to Contractor",
    "contractor": "Metro Disposal",
    "rowid": "865138",
    "final_x": "3684087.22389",
    "final_y": "549683.285908",
    "longitude": "-90.05926309870904",
    "latitude": "30.00535953324415",
    "geocoded_column": {
      "latitude": "30.00535953324415",
      "longitude": "-90.05926309870904"
    }
  },
  {
    "service_request": "2022-865137",
    "request_type": "Roads/Drainage",
    "request_reason": "Pothole",
    "date_created": "2022-03-07T15:08:38.000",
    "date_modified": "2022-03-07T15:08:38.000",
    "request_status": "Pending",
    "responsible_agency": "Department of Public Works",
    "final_address": "1018 Desire St",
    "address_councildis": "C",
    "status": "Pending",
    "rowid": "865137",
    "final_x": "3690085.51036",
    "final_y": "535441.974598",
    "longitude": "-90.040820768112",
    "latitude": "29.96601627763169",
    "geocoded_column": {
      "latitude": "29.96601627763169",
      "longitude": "-90.040820768112"
    }
  },
  {
    "service_request": "2022-865136",
    "request_type": "Abandoned Vehicles",
    "request_reason": "Abandoned/Junk Vehicles",
    "date_created": "2022-03-07T15:04:34.000",
    "date_modified": "2022-03-07T15:04:34.000",
    "request_status": "Pending",
    "responsible_agency": "Department of Public Works",
    "final_address": "501 Basin St",
    "address_councildis": "C",
    "status": "Pending",
    "rowid": "865136",
    "final_x": "3680674.30875",
    "final_y": "533050.050244",
    "longitude": "-90.07062431486618",
    "latitude": "29.959727846095657",
    "geocoded_column": {
      "latitude": "29.959727846095657",
      "longitude": "-90.07062431486618"
    }
  },
  {
    "service_request": "2022-865135",
    "request_type": "Trash/Recycling",
    "request_reason": "Order Recycling Cart",
    "date_created": "2022-03-07T15:03:09.000",
    "date_modified": "2022-03-07T15:03:09.000",
    "request_status": "Pending",
    "responsible_agency": "Department of Sanitation",
    "final_address": "1225 Louisa St",
    "address_councildis": "C",
    "status": "Pending",
    "rowid": "865135",
    "final_x": "3689734.15695",
    "final_y": "536415.813063",
    "longitude": "-90.04189566780137",
    "latitude": "29.968704884910395",
    "geocoded_column": {
      "latitude": "29.968704884910395",
      "longitude": "-90.04189566780137"
    }
  },
  {
    "service_request": "2022-865134",
    "request_type": "Traffic Signals/Signs/Striping/Streetlights",
    "request_reason": "Street Light Outage/Malfunction",
    "date_created": "2022-03-07T14:56:10.000",
    "date_modified": "2022-03-07T14:56:12.000",
    "request_status": "Pending",
    "responsible_agency": "Department of Public Works",
    "final_address": "4727 Gawain Dr",
    "address_councildis": "E",
    "status": "Pending",
    "contractor": "Royal Engineering",
    "rowid": "865134",
    "final_x": "3707056.06456",
    "final_y": "555333.747865",
    "longitude": "-89.98649031973076",
    "latitude": "30.0201738970784",
    "geocoded_column": {
      "latitude": "30.0201738970784",
      "longitude": "-89.98649031973076"
    }
  },
  {
    "service_request": "2022-865133",
    "request_type": "Parks & Parkways",
    "request_reason": "Request Tree Service (Right of Way/Public Property)",
    "date_created": "2022-03-07T14:54:59.000",
    "date_modified": "2022-03-07T14:54:59.000",
    "request_status": "Pending",
    "responsible_agency": "Department of Parks & Parkway",
    "final_address": "2629 Robert E Lee Blvd",
    "address_councildis": "D",
    "status": "Pending",
    "rowid": "865133",
    "final_x": "3686603.7965",
    "final_y": "556086.735322",
    "longitude": "-90.05108633279232",
    "latitude": "30.0228894866805",
    "geocoded_column": {
      "latitude": "30.0228894866805",
      "longitude": "-90.05108633279232"
    }
  },
  {
    "service_request": "2022-865132",
    "request_type": "Parks & Parkways",
    "request_reason": "Request Tree Service (Right of Way/Public Property)",
    "date_created": "2022-03-07T14:52:32.000",
    "date_modified": "2022-03-07T14:52:33.000",
    "request_status": "Pending",
    "responsible_agency": "Department of Parks & Parkway",
    "final_address": "6208 Eads St",
    "address_councildis": "D",
    "status": "Pending",
    "rowid": "865132",
    "final_x": "3686674.0351",
    "final_y": "556096.394778",
    "longitude": "-90.05086405360305",
    "latitude": "30.022913885196147",
    "geocoded_column": {
      "latitude": "30.022913885196147",
      "longitude": "-90.05086405360305"
    }
  },
  {
    "service_request": "2022-865130",
    "request_type": "Abandoned Vehicles",
    "request_reason": "Abandoned/Junk Vehicles",
    "date_created": "2022-03-07T14:41:38.000",
    "date_modified": "2022-03-07T14:41:38.000",
    "request_status": "Pending",
    "responsible_agency": "Department of Public Works",
    "final_address": "4801 Stephen Girard Ave",
    "address_councildis": "D",
    "status": "Pending",
    "rowid": "865130",
    "final_x": "3691854.14979",
    "final_y": "550834.917909",
    "longitude": "-90.03468454409054",
    "latitude": "30.00828634803658",
    "geocoded_column": {
      "latitude": "30.00828634803658",
      "longitude": "-90.03468454409054"
    }
  },
  {
    "service_request": "2022-865129",
    "request_type": "Abandoned Vehicles",
    "request_reason": "Abandoned/Junk Vehicles",
    "date_created": "2022-03-07T14:40:11.000",
    "date_modified": "2022-03-07T14:40:11.000",
    "request_status": "Pending",
    "responsible_agency": "Department of Public Works",
    "final_address": "4710 Stephen Girard Ave",
    "address_councildis": "D",
    "status": "Pending",
    "rowid": "865129",
    "final_x": "3691773.29776",
    "final_y": "550602.250196",
    "longitude": "-90.03494830909993",
    "latitude": "30.00764911706167",
    "geocoded_column": {
      "latitude": "30.00764911706167",
      "longitude": "-90.03494830909993"
    }
  },
  {
    "service_request": "2022-865128",
    "request_type": "Abandoned Vehicles",
    "request_reason": "Abandoned/Junk Vehicles",
    "date_created": "2022-03-07T14:37:23.000",
    "date_modified": "2022-03-07T14:37:23.000",
    "request_status": "Pending",
    "responsible_agency": "Department of Public Works",
    "final_address": "1537 Henry Clay Ave",
    "address_councildis": "A",
    "status": "Pending",
    "rowid": "865128",
    "final_x": "3664953.62023",
    "final_y": "522371.946554",
    "longitude": "-90.12062377558361",
    "latitude": "29.93083348743632",
    "geocoded_column": {
      "latitude": "29.93083348743632",
      "longitude": "-90.12062377558361"
    }
  },
  {
    "service_request": "2022-865124",
    "request_type": "Parks & Parkways",
    "request_reason": "Request Tree Service (Right of Way/Public Property)",
    "date_created": "2022-03-07T14:35:09.000",
    "date_modified": "2022-03-07T14:35:09.000",
    "request_status": "Pending",
    "responsible_agency": "Department of Parks & Parkway",
    "final_address": "1426 Dauphine St",
    "address_councildis": "C",
    "status": "Pending",
    "rowid": "865124",
    "final_x": "3683656.68469",
    "final_y": "535050.010182",
    "longitude": "-90.06113654057582",
    "latitude": "29.965136342604577",
    "geocoded_column": {
      "latitude": "29.965136342604577",
      "longitude": "-90.06113654057582"
    }
  },
  {
    "service_request": "2022-865123",
    "request_type": "Trash/Recycling",
    "request_reason": "Missed Trash Pick-Up",
    "date_created": "2022-03-07T14:34:15.000",
    "date_modified": "2022-03-07T14:34:15.000",
    "request_status": "Pending",
    "responsible_agency": "Department of Sanitation",
    "final_address": "1326 Lamanche St",
    "address_councildis": "E",
    "status": "Assigned to Contractor",
    "contractor": "Metro Disposal",
    "rowid": "865123",
    "final_x": "3698568.89149",
    "final_y": "534633.89671",
    "longitude": "-90.01406002288743",
    "latitude": "29.963528502856104",
    "geocoded_column": {
      "latitude": "29.963528502856104",
      "longitude": "-90.01406002288743"
    }
  },
  {
    "service_request": "2022-865122",
    "request_type": "Trash/Recycling",
    "request_reason": "Order Trash Cart",
    "date_created": "2022-03-07T14:29:05.000",
    "date_modified": "2022-03-07T14:30:24.000",
    "request_status": "Pending",
    "responsible_agency": "Department of Sanitation",
    "final_address": "1128 Tchoupitoulas St",
    "address_councildis": "B",
    "status": "Assigned to Contractor",
    "contractor": "Empire Services",
    "rowid": "865122",
    "final_x": "3681928.77717",
    "final_y": "525858.670269",
    "longitude": "-90.06691397479587",
    "latitude": "29.939915905332857",
    "geocoded_column": {
      "latitude": "29.939915905332857",
      "longitude": "-90.06691397479587"
    }
  },
  {
    "service_request": "2022-865120",
    "request_type": "Traffic Signals/Signs/Striping/Streetlights",
    "request_reason": "Traffic Sign Missing/Damaged",
    "date_created": "2022-03-07T14:23:05.000",
    "date_modified": "2022-03-07T14:23:05.000",
    "request_status": "Pending",
    "responsible_agency": "Department of Public Works",
    "final_address": "1537 Henry Clay Ave",
    "address_councildis": "A",
    "status": "Pending",
    "rowid": "865120",
    "final_x": "3664953.62023",
    "final_y": "522371.946554",
    "longitude": "-90.12062377558361",
    "latitude": "29.93083348743632",
    "geocoded_column": {
      "latitude": "29.93083348743632",
      "longitude": "-90.12062377558361"
    }
  },
  {
    "service_request": "2022-865119",
    "request_type": "Trash/Recycling",
    "request_reason": "Replace Trash Cart",
    "date_created": "2022-03-07T14:21:55.000",
    "date_modified": "2022-03-07T14:21:56.000",
    "request_status": "Pending",
    "responsible_agency": "Department of Sanitation",
    "final_address": "313 S Hennessey St",
    "address_councildis": "A",
    "status": "Assigned to Contractor",
    "contractor": "Richards Disposal",
    "rowid": "865119",
    "final_x": "3669694.87738",
    "final_y": "538239.561289",
    "longitude": "-90.10511932041433",
    "latitude": "29.974325390262987",
    "geocoded_column": {
      "latitude": "29.974325390262987",
      "longitude": "-90.10511932041433"
    }
  },
  {
    "service_request": "2022-865118",
    "request_type": "Trash/Recycling",
    "request_reason": "Illegal Dumping",
    "date_created": "2022-03-07T14:19:51.000",
    "date_modified": "2022-03-07T14:19:51.000",
    "request_status": "Pending",
    "responsible_agency": "Department of Sanitation",
    "final_address": "4239 S Carrollton Ave",
    "address_councildis": "A",
    "status": "Pending",
    "rowid": "865118",
    "final_x": "3669669.12487",
    "final_y": "536874.45204",
    "longitude": "-90.10524686114596",
    "latitude": "29.970572557413394",
    "geocoded_column": {
      "latitude": "29.970572557413394",
      "longitude": "-90.10524686114596"
    }
  },
  {
    "service_request": "2022-865116",
    "request_type": "Parks & Parkways",
    "request_reason": "Request Tree Service (Right of Way/Public Property)",
    "date_created": "2022-03-07T14:19:04.000",
    "date_modified": "2022-03-07T14:19:04.000",
    "request_status": "Pending",
    "responsible_agency": "Department of Parks & Parkway",
    "final_address": "5400 St Bernard Ave",
    "address_councildis": "D",
    "status": "Pending",
    "rowid": "865116",
    "final_x": "3676827.75189",
    "final_y": "552195.292886",
    "longitude": "-90.08211071448703",
    "latitude": "30.0124866058475",
    "geocoded_column": {
      "latitude": "30.0124866058475",
      "longitude": "-90.08211071448703"
    }
  },
  {
    "service_request": "2022-865115",
    "request_type": "Traffic Signals/Signs/Striping/Streetlights",
    "request_reason": "Traffic Signal Malfunctioning/Damaged",
    "date_created": "2022-03-07T14:17:02.000",
    "date_modified": "2022-03-07T14:17:04.000",
    "request_status": "Pending",
    "responsible_agency": "Department of Public Works",
    "final_address": "ELYSIAN FIELDS AVE & N CLAIBORNE AVE",
    "address_councildis": "D",
    "status": "Pending",
    "rowid": "865115",
    "final_x": "3684815.6",
    "final_y": "538136.98",
    "longitude": "-90.05736820071654",
    "latitude": "29.973589006521028",
    "geocoded_column": {
      "latitude": "29.973589006521028",
      "longitude": "-90.05736820071654"
    }
  },
  {
    "service_request": "2022-865114",
    "request_type": "Abandoned Vehicles",
    "request_reason": "Abandoned/Junk Vehicles",
    "date_created": "2022-03-07T14:15:01.000",
    "date_modified": "2022-03-07T14:15:01.000",
    "request_status": "Pending",
    "responsible_agency": "Department of Public Works",
    "final_address": "3030 Wall Blvd",
    "address_councildis": "C",
    "status": "Pending",
    "rowid": "865114",
    "final_x": "3695338.1057",
    "final_y": "523958.354172",
    "longitude": "-90.02464748491076",
    "latitude": "29.934276366212014",
    "geocoded_column": {
      "latitude": "29.934276366212014",
      "longitude": "-90.02464748491076"
    }
  },
  {
    "service_request": "2022-865113",
    "request_type": "Trash/Recycling",
    "request_reason": "Replace Trash Cart",
    "date_created": "2022-03-07T14:14:15.000",
    "date_modified": "2022-03-07T14:14:16.000",
    "request_status": "Pending",
    "responsible_agency": "Department of Sanitation",
    "final_address": "116 S Norman C Francis Prkwy",
    "address_councildis": "B",
    "status": "Assigned to Contractor",
    "contractor": "Richards Disposal",
    "rowid": "865113",
    "final_x": "3673190.94484",
    "final_y": "536466.169991",
    "longitude": "-90.09413846596073",
    "latitude": "29.969345660835803",
    "geocoded_column": {
      "latitude": "29.969345660835803",
      "longitude": "-90.09413846596073"
    }
  },
  {
    "service_request": "2022-865112",
    "request_type": "Property Maintenance",
    "request_reason": "Property Maintenance",
    "date_created": "2022-03-07T14:12:44.000",
    "date_modified": "2022-03-07T14:12:44.000",
    "request_status": "Pending",
    "responsible_agency": "Department of Code Enforcement",
    "final_address": "2319 General Meyer Ave",
    "address_councildis": "C",
    "status": "Pending",
    "rowid": "865112",
    "final_x": "3692601.71062",
    "final_y": "527642.271935",
    "longitude": "-90.03315419771619",
    "latitude": "29.944491529870046",
    "geocoded_column": {
      "latitude": "29.944491529870046",
      "longitude": "-90.03315419771619"
    }
  },
  {
    "service_request": "2022-865111",
    "request_type": "Traffic Signals/Signs/Striping/Streetlights",
    "request_reason": "Street Light Outage/Malfunction",
    "date_created": "2022-03-07T14:12:13.000",
    "date_modified": "2022-03-07T14:12:14.000",
    "request_status": "Pending",
    "responsible_agency": "Department of Public Works",
    "final_address": "DIXON ST & MISTLETOE ST",
    "address_councildis": "A",
    "status": "Pending",
    "contractor": "Royal Engineering",
    "rowid": "865111",
    "final_x": "3665561.3",
    "final_y": "538073.68",
    "longitude": "-90.11817974137152",
    "latitude": "29.973990454676724",
    "geocoded_column": {
      "latitude": "29.973990454676724",
      "longitude": "-90.11817974137152"
    }
  },
  {
    "service_request": "2022-865110",
    "request_type": "Trash/Recycling",
    "request_reason": "Illegal Dumping",
    "date_created": "2022-03-07T14:07:33.000",
    "date_modified": "2022-03-07T14:18:04.000",
    "request_status": "Pending",
    "responsible_agency": "Department of Sanitation",
    "final_address": "3014 Saint Thomas St, New Orleans, Louisiana, 70115",
    "address_councildis": "B",
    "rowid": "865110",
    "final_x": "3677285.06971",
    "final_y": "518757.117047",
    "longitude": "-90.08181973439937",
    "latitude": "29.920529256861116",
    "geocoded_column": {
      "latitude": "29.920529256861116",
      "longitude": "-90.08181973439937"
    }
  },
  {
    "service_request": "2022-865108",
    "request_type": "Safety & Permits",
    "request_reason": "Licenses & Permits",
    "date_created": "2022-03-07T14:04:15.000",
    "date_modified": "2022-03-07T14:04:15.000",
    "request_status": "Pending",
    "responsible_agency": "Safety and Permits",
    "final_address": "1814 Simon Bolivar Ave",
    "address_councildis": "B",
    "status": "Pending",
    "rowid": "865108",
    "final_x": "3676922.04674",
    "final_y": "525938.750077",
    "longitude": "-90.08271821034965",
    "latitude": "29.94028730444348",
    "geocoded_column": {
      "latitude": "29.94028730444348",
      "longitude": "-90.08271821034965"
    }
  },
  {
    "service_request": "2022-865107",
    "request_type": "Parks & Parkways",
    "request_reason": "Request Grass Cutting Service (City Owned Property)",
    "date_created": "2022-03-07T13:59:22.000",
    "date_modified": "2022-03-07T13:59:23.000",
    "request_status": "Pending",
    "responsible_agency": "Department of Parks & Parkway",
    "final_address": "FRANCISCO VERRETT DR & BENTLEY DR & DWYER RD",
    "address_councildis": "E",
    "status": "Pending",
    "rowid": "865107",
    "final_x": "3704067.6",
    "final_y": "556360.08",
    "longitude": "-89.99589500987352",
    "latitude": "30.023092162167938",
    "geocoded_column": {
      "latitude": "30.023092162167938",
      "longitude": "-89.99589500987352"
    }
  },
  {
    "service_request": "2022-865106",
    "request_type": "Roads/Drainage",
    "request_reason": "Catch Basin - Clogged",
    "date_created": "2022-03-07T13:58:56.000",
    "date_modified": "2022-03-07T13:58:56.000",
    "request_status": "Pending",
    "responsible_agency": "Department of Public Works",
    "final_address": "1126 St Andrew St A",
    "address_councildis": "B",
    "status": "Pending",
    "rowid": "865106",
    "final_x": "3679333.4621",
    "final_y": "522747.189498",
    "longitude": "-90.07521562545823",
    "latitude": "29.931438976582516",
    "geocoded_column": {
      "latitude": "29.931438976582516",
      "longitude": "-90.07521562545823"
    }
  },
  {
    "service_request": "2022-865105",
    "request_type": "Traffic Signals/Signs/Striping/Streetlights",
    "request_reason": "Street Light Outage/Malfunction",
    "date_created": "2022-03-07T13:55:28.000",
    "date_modified": "2022-03-07T13:55:29.000",
    "request_status": "Pending",
    "responsible_agency": "Department of Public Works",
    "final_address": "9438 Forshey St",
    "address_councildis": "A",
    "status": "Pending",
    "contractor": "Royal Engineering",
    "rowid": "865105",
    "final_x": "3663376.7888",
    "final_y": "537176.30676",
    "longitude": "-90.12510883623956",
    "latitude": "29.97158649459944",
    "geocoded_column": {
      "latitude": "29.97158649459944",
      "longitude": "-90.12510883623956"
    }
  },
  {
    "service_request": "2022-865104",
    "request_type": "Trash/Recycling",
    "request_reason": "Repair Trash Cart",
    "date_created": "2022-03-07T13:53:50.000",
    "date_modified": "2022-03-07T13:56:29.000",
    "request_status": "Pending",
    "responsible_agency": "Department of Sanitation",
    "final_address": "3411 Vincennes Pl, New Orleans, Louisiana, 70125",
    "address_councildis": "A",
    "status": "Assigned to Contractor",
    "contractor": "Richards Disposal",
    "rowid": "865104",
    "final_x": "3668044.76545",
    "final_y": "528641.04576",
    "longitude": "-90.11065425307294",
    "latitude": "29.947981173281836",
    "geocoded_column": {
      "latitude": "29.947981173281836",
      "longitude": "-90.11065425307294"
    }
  },
  {
    "service_request": "2022-865103",
    "request_type": "Trash/Recycling",
    "request_reason": "Illegal Dumping",
    "date_created": "2022-03-07T13:53:42.000",
    "date_modified": "2022-03-07T13:53:42.000",
    "request_status": "Pending",
    "responsible_agency": "Department of Sanitation",
    "final_address": "MONTICELLO AVE & PRITCHARD PL",
    "address_councildis": "A",
    "status": "Pending",
    "rowid": "865103",
    "final_x": "3662609.3",
    "final_y": "536032.98",
    "longitude": "-90.12757068855134",
    "latitude": "29.968464952479756",
    "geocoded_column": {
      "latitude": "29.968464952479756",
      "longitude": "-90.12757068855134"
    }
  },
  {
    "service_request": "2022-865102",
    "request_type": "Trash/Recycling",
    "request_reason": "Repair Trash Cart",
    "date_created": "2022-03-07T13:50:10.000",
    "date_modified": "2022-03-07T13:50:11.000",
    "request_status": "Pending",
    "responsible_agency": "Department of Sanitation",
    "final_address": "539 S Scott St",
    "address_councildis": "B",
    "status": "Assigned to Contractor",
    "contractor": "Richards Disposal",
    "rowid": "865102",
    "final_x": "3670569.37659",
    "final_y": "536303.657095",
    "longitude": "-90.10242311821497",
    "latitude": "29.968976501532676",
    "geocoded_column": {
      "latitude": "29.968976501532676",
      "longitude": "-90.10242311821497"
    }
  },
  {
    "service_request": "2022-865101",
    "request_type": "Property Maintenance",
    "request_reason": "Property Maintenance",
    "date_created": "2022-03-07T13:49:02.000",
    "date_modified": "2022-03-07T13:49:02.000",
    "request_status": "Pending",
    "responsible_agency": "Department of Code Enforcement",
    "final_address": "9290 Morrison Rd",
    "address_councildis": "E",
    "status": "Pending",
    "rowid": "865101",
    "final_x": "3706795.86987",
    "final_y": "562230.624671",
    "longitude": "-89.98705640785006",
    "latitude": "30.03914601361963",
    "geocoded_column": {
      "latitude": "30.03914601361963",
      "longitude": "-89.98705640785006"
    }
  },
  {
    "service_request": "2022-865100",
    "request_type": "Trash/Recycling",
    "request_reason": "Request a Large Item Pick Up",
    "date_created": "2022-03-07T13:46:48.000",
    "date_modified": "2022-03-07T13:46:52.000",
    "request_status": "Pending",
    "responsible_agency": "Department of Sanitation",
    "final_address": "915 Pine St",
    "address_councildis": "A",
    "status": "Assigned to Contractor",
    "contractor": "Richards Disposal",
    "rowid": "865100",
    "final_x": "3663440.33811",
    "final_y": "525880.584573",
    "longitude": "-90.1252842409199",
    "latitude": "29.940525082025268",
    "geocoded_column": {
      "latitude": "29.940525082025268",
      "longitude": "-90.1252842409199"
    }
  },
  {
    "service_request": "2022-865099",
    "request_type": "Property Maintenance",
    "request_reason": "Property Maintenance",
    "date_created": "2022-03-07T13:43:14.000",
    "date_modified": "2022-03-07T13:43:14.000",
    "request_status": "Pending",
    "responsible_agency": "Department of Code Enforcement",
    "final_address": "5000 Paris Ave",
    "address_councildis": "D",
    "status": "Pending",
    "rowid": "865099",
    "final_x": "3679104.59483",
    "final_y": "550779.476693",
    "longitude": "-90.07496628081512",
    "latitude": "30.008525060952465",
    "geocoded_column": {
      "latitude": "30.008525060952465",
      "longitude": "-90.07496628081512"
    }
  },
  {
    "service_request": "2022-865098",
    "request_type": "Abandoned Vehicles",
    "request_reason": "Abandoned/Junk Vehicles",
    "date_created": "2022-03-07T13:42:23.000",
    "date_modified": "2022-03-07T13:43:46.000",
    "request_status": "Pending",
    "responsible_agency": "Department of Public Works",
    "final_address": "3600 BLK dHemecourt St",
    "address_councildis": "B",
    "status": "Pending",
    "rowid": "865098",
    "final_x": "3671269.25454",
    "final_y": "535719.760369",
    "longitude": "-90.10023269596982",
    "latitude": "29.967350289899528",
    "geocoded_column": {
      "latitude": "29.967350289899528",
      "longitude": "-90.10023269596982"
    }
  },
  {
    "service_request": "2022-865097",
    "request_type": "Trash/Recycling",
    "request_reason": "Order Recycling Cart",
    "date_created": "2022-03-07T13:41:51.000",
    "date_modified": "2022-03-07T13:41:51.000",
    "request_status": "Pending",
    "responsible_agency": "Department of Sanitation",
    "final_address": "1429 N Derbigny St",
    "address_councildis": "D",
    "status": "Pending",
    "rowid": "865097",
    "final_x": "3681106.52968",
    "final_y": "537059.886792",
    "longitude": "-90.06911975732562",
    "latitude": "29.9707404192866",
    "geocoded_column": {
      "latitude": "29.9707404192866",
      "longitude": "-90.06911975732562"
    }
  },
  {
    "service_request": "2022-865096",
    "request_type": "Abandoned Vehicles",
    "request_reason": "Abandoned/Junk Vehicles",
    "date_created": "2022-03-07T13:39:38.000",
    "date_modified": "2022-03-07T13:39:38.000",
    "request_status": "Pending",
    "responsible_agency": "Department of Public Works",
    "final_address": "1328 Aline St",
    "address_councildis": "B",
    "status": "Pending",
    "rowid": "865096",
    "final_x": "3674052.46216",
    "final_y": "520304.300216",
    "longitude": "-90.0919706768401",
    "latitude": "29.9248802020775",
    "geocoded_column": {
      "latitude": "29.9248802020775",
      "longitude": "-90.0919706768401"
    }
  },
  {
    "service_request": "2022-865095",
    "request_type": "Trash/Recycling",
    "request_reason": "Replace Trash Cart",
    "date_created": "2022-03-07T13:39:30.000",
    "date_modified": "2022-03-07T13:39:30.000",
    "request_status": "Pending",
    "responsible_agency": "Department of Sanitation",
    "final_address": "1400 State St",
    "address_councildis": "A",
    "status": "Assigned to Contractor",
    "contractor": "Richards Disposal",
    "rowid": "865095",
    "final_x": "3665279.9961",
    "final_y": "521227.804793",
    "longitude": "-90.11963170657584",
    "latitude": "29.92767795713313",
    "geocoded_column": {
      "latitude": "29.92767795713313",
      "longitude": "-90.11963170657584"
    }
  },
  {
    "service_request": "2022-865094",
    "request_type": "Trash/Recycling",
    "request_reason": "Order Recycling Cart",
    "date_created": "2022-03-07T13:33:22.000",
    "date_modified": "2022-03-07T13:33:22.000",
    "request_status": "Pending",
    "responsible_agency": "Department of Sanitation",
    "final_address": "2828 Mistletoe St",
    "address_councildis": "A",
    "status": "Pending",
    "rowid": "865094",
    "final_x": "3663112.48563",
    "final_y": "535454.367302",
    "longitude": "-90.12600084895948",
    "latitude": "29.966859388735337",
    "geocoded_column": {
      "latitude": "29.966859388735337",
      "longitude": "-90.12600084895948"
    }
  },
  {
    "service_request": "2022-865093",
    "request_type": "Trash/Recycling",
    "request_reason": "Start Trash Service",
    "date_created": "2022-03-07T13:33:00.000",
    "date_modified": "2022-03-07T13:37:36.000",
    "request_status": "Pending",
    "responsible_agency": "Department of Sanitation",
    "final_address": "2828 Mistletoe St",
    "address_councildis": "A",
    "status": "Assigned to Contractor",
    "contractor": "Richards Disposal",
    "rowid": "865093",
    "final_x": "3663112.48563",
    "final_y": "535454.367302",
    "longitude": "-90.12600084895948",
    "latitude": "29.966859388735337",
    "geocoded_column": {
      "latitude": "29.966859388735337",
      "longitude": "-90.12600084895948"
    }
  },
  {
    "service_request": "2022-865092",
    "request_type": "Abandoned Vehicles",
    "request_reason": "Abandoned/Junk Vehicles",
    "date_created": "2022-03-07T13:32:42.000",
    "date_modified": "2022-03-07T13:32:42.000",
    "request_status": "Pending",
    "responsible_agency": "Department of Public Works",
    "final_address": "501 Basin St",
    "address_councildis": "C",
    "status": "Pending",
    "rowid": "865092",
    "final_x": "3680674.30875",
    "final_y": "533050.050244",
    "longitude": "-90.07062431486618",
    "latitude": "29.959727846095657",
    "geocoded_column": {
      "latitude": "29.959727846095657",
      "longitude": "-90.07062431486618"
    }
  },
  {
    "service_request": "2022-865091",
    "request_type": "Trash/Recycling",
    "request_reason": "Order Trash Cart",
    "date_created": "2022-03-07T13:32:36.000",
    "date_modified": "2022-03-07T13:34:04.000",
    "request_status": "Pending",
    "responsible_agency": "Department of Sanitation",
    "final_address": "2828 Mistletoe St",
    "address_councildis": "A",
    "status": "Assigned to Contractor",
    "contractor": "Richards Disposal",
    "rowid": "865091",
    "final_x": "3663112.48563",
    "final_y": "535454.367302",
    "longitude": "-90.12600084895948",
    "latitude": "29.966859388735337",
    "geocoded_column": {
      "latitude": "29.966859388735337",
      "longitude": "-90.12600084895948"
    }
  },
  {
    "service_request": "2022-865090",
    "request_type": "Trash/Recycling",
    "request_reason": "MIssed Recycling Pick-Up",
    "date_created": "2022-03-07T13:30:51.000",
    "date_modified": "2022-03-07T13:39:03.000",
    "request_status": "Pending",
    "responsible_agency": "Department of Sanitation",
    "final_address": "8419 Palm St",
    "address_councildis": "A",
    "status": "Assigned to Contractor",
    "contractor": "Richards Disposal",
    "rowid": "865090",
    "final_x": "3666837.22439",
    "final_y": "535548.541382",
    "longitude": "-90.11423491828158",
    "latitude": "29.9670098965196",
    "geocoded_column": {
      "latitude": "29.9670098965196",
      "longitude": "-90.11423491828158"
    }
  },
  {
    "service_request": "2022-865088",
    "request_type": "Trash/Recycling",
    "request_reason": "Repair Trash Cart",
    "date_created": "2022-03-07T13:27:27.000",
    "date_modified": "2022-03-07T13:29:04.000",
    "request_status": "Pending",
    "responsible_agency": "Department of Sanitation",
    "final_address": "3030 General Pershing St",
    "address_councildis": "B",
    "status": "Assigned to Contractor",
    "contractor": "Richards Disposal",
    "rowid": "865088",
    "final_x": "3670682.55419",
    "final_y": "526181.521086",
    "longitude": "-90.1024090954524",
    "latitude": "29.941140624396812",
    "geocoded_column": {
      "latitude": "29.941140624396812",
      "longitude": "-90.1024090954524"
    }
  },
  {
    "service_request": "2022-865087",
    "request_type": "Traffic Signals/Signs/Striping/Streetlights",
    "request_reason": "Street Light Outage/Malfunction",
    "date_created": "2022-03-07T13:25:59.000",
    "date_modified": "2022-03-07T13:26:38.000",
    "request_status": "Pending",
    "responsible_agency": "Department of Public Works",
    "final_address": "2336 Killdeer St",
    "address_councildis": "D",
    "status": "Pending",
    "contractor": "Royal Engineering",
    "rowid": "865087",
    "final_x": "3684399.98697",
    "final_y": "557495.805979",
    "longitude": "-90.05800030621342",
    "latitude": "30.02683153571262",
    "geocoded_column": {
      "latitude": "30.02683153571262",
      "longitude": "-90.05800030621342"
    }
  },
  {
    "service_request": "2022-865086",
    "request_type": "Trash/Recycling",
    "request_reason": "Missed Trash Pick-Up",
    "date_created": "2022-03-07T13:22:37.000",
    "date_modified": "2022-03-07T13:22:38.000",
    "request_status": "Pending",
    "responsible_agency": "Department of Sanitation",
    "final_address": "2133 Port St",
    "address_councildis": "D",
    "status": "Assigned to Contractor",
    "contractor": "Metro Disposal",
    "rowid": "865086",
    "final_x": "3688479.83273",
    "final_y": "540409.618763",
    "longitude": "-90.04571515248844",
    "latitude": "29.979725255954794",
    "geocoded_column": {
      "latitude": "29.979725255954794",
      "longitude": "-90.04571515248844"
    }
  },
  {
    "service_request": "2022-865085",
    "request_type": "Trash/Recycling",
    "request_reason": "Replace Trash Cart",
    "date_created": "2022-03-07T13:19:36.000",
    "date_modified": "2022-03-07T13:19:37.000",
    "request_status": "Pending",
    "responsible_agency": "Department of Sanitation",
    "final_address": "4669 Francisco Verrett Dr",
    "address_councildis": "E",
    "status": "Assigned to Contractor",
    "contractor": "Metro Disposal",
    "rowid": "865085",
    "final_x": "3704332.6099",
    "final_y": "554830.607896",
    "longitude": "-89.99511408515819",
    "latitude": "30.018878195852533",
    "geocoded_column": {
      "latitude": "30.018878195852533",
      "longitude": "-89.99511408515819"
    }
  },
  {
    "service_request": "2022-865084",
    "request_type": "Trash/Recycling",
    "request_reason": "Missed Trash Pick-Up",
    "date_created": "2022-03-07T13:07:43.000",
    "date_modified": "2022-03-07T13:07:54.000",
    "request_status": "Pending",
    "responsible_agency": "Department of Sanitation",
    "final_address": "2133 Port St",
    "address_councildis": "D",
    "status": "Assigned to Contractor",
    "contractor": "Metro Disposal",
    "rowid": "865084",
    "final_x": "3688479.83273",
    "final_y": "540409.618763",
    "longitude": "-90.04571515248844",
    "latitude": "29.979725255954794",
    "geocoded_column": {
      "latitude": "29.979725255954794",
      "longitude": "-90.04571515248844"
    }
  },
  {
    "service_request": "2022-865083",
    "request_type": "Trash/Recycling",
    "request_reason": "Missed Trash Pick-Up",
    "date_created": "2022-03-07T13:07:33.000",
    "date_modified": "2022-03-07T13:07:34.000",
    "request_status": "Pending",
    "responsible_agency": "Department of Sanitation",
    "final_address": "2133 Port St",
    "address_councildis": "D",
    "status": "Assigned to Contractor",
    "contractor": "Metro Disposal",
    "rowid": "865083",
    "final_x": "3688479.83273",
    "final_y": "540409.618763",
    "longitude": "-90.04571515248844",
    "latitude": "29.979725255954794",
    "geocoded_column": {
      "latitude": "29.979725255954794",
      "longitude": "-90.04571515248844"
    }
  },
  {
    "service_request": "2022-865081",
    "request_type": "Trash/Recycling",
    "request_reason": "Request a Large Item Pick Up",
    "date_created": "2022-03-07T13:06:18.000",
    "date_modified": "2022-03-07T13:06:30.000",
    "request_status": "Pending",
    "responsible_agency": "Department of Sanitation",
    "final_address": "520 Lyons St, New Orleans, Louisiana, 70115",
    "address_councildis": "B",
    "status": "Assigned to Contractor",
    "contractor": "Richards Disposal",
    "rowid": "865081",
    "final_x": "3669318.64698",
    "final_y": "517430.654774",
    "longitude": "-90.10701090363531",
    "latitude": "29.917118753125504",
    "geocoded_column": {
      "latitude": "29.917118753125504",
      "longitude": "-90.10701090363531"
    }
  },
  {
    "service_request": "2022-865080",
    "request_type": "Trash/Recycling",
    "request_reason": "Replace Trash Cart",
    "date_created": "2022-03-07T13:06:17.000",
    "date_modified": "2022-03-07T13:06:30.000",
    "request_status": "Pending",
    "responsible_agency": "Department of Sanitation",
    "final_address": "877 Hidalgo St",
    "address_councildis": "A",
    "status": "Assigned to Contractor",
    "contractor": "Metro Disposal",
    "rowid": "865080",
    "final_x": "3669363.46318",
    "final_y": "544112.961998",
    "longitude": "-90.10596731375973",
    "latitude": "29.990485010705825",
    "geocoded_column": {
      "latitude": "29.990485010705825",
      "longitude": "-90.10596731375973"
    }
  },
  {
    "service_request": "2022-865079",
    "request_type": "Trash/Recycling",
    "request_reason": "Request a Large Item Pick Up",
    "date_created": "2022-03-07T13:05:47.000",
    "date_modified": "2022-03-07T13:06:14.000",
    "request_status": "Pending",
    "responsible_agency": "Department of Sanitation",
    "final_address": "428 Wagner St",
    "address_councildis": "C",
    "status": "Assigned to Contractor",
    "contractor": "Richards Disposal",
    "rowid": "865079",
    "final_x": "3690647.55894",
    "final_y": "529952.327617",
    "longitude": "-90.03924163138679",
    "latitude": "29.95090421406172",
    "geocoded_column": {
      "latitude": "29.95090421406172",
      "longitude": "-90.03924163138679"
    }
  },
  {
    "service_request": "2022-865078",
    "request_type": "Roads/Drainage",
    "request_reason": "Catch Basin - Clogged",
    "date_created": "2022-03-07T13:02:56.000",
    "date_modified": "2022-03-07T13:02:56.000",
    "request_status": "Pending",
    "responsible_agency": "Department of Public Works",
    "final_address": "1735 Broadway St",
    "address_councildis": "A",
    "status": "Pending",
    "rowid": "865078",
    "final_x": "3665347.76576",
    "final_y": "528145.612543",
    "longitude": "-90.1191863761468",
    "latitude": "29.946697747823315",
    "geocoded_column": {
      "latitude": "29.946697747823315",
      "longitude": "-90.1191863761468"
    }
  },
  {
    "service_request": "2022-865077",
    "request_type": "Roads/Drainage",
    "request_reason": "Catch Basin - Clogged",
    "date_created": "2022-03-07T13:02:56.000",
    "date_modified": "2022-03-07T13:02:56.000",
    "request_status": "Pending",
    "responsible_agency": "Department of Public Works",
    "final_address": "1735 Broadway St",
    "address_councildis": "A",
    "status": "Pending",
    "rowid": "865077",
    "final_x": "3665347.76576",
    "final_y": "528145.612543",
    "longitude": "-90.1191863761468",
    "latitude": "29.946697747823315",
    "geocoded_column": {
      "latitude": "29.946697747823315",
      "longitude": "-90.1191863761468"
    }
  },
  {
    "service_request": "2022-865076",
    "request_type": "Traffic Signals/Signs/Striping/Streetlights",
    "request_reason": "Additional signage",
    "date_created": "2022-03-07T13:02:54.000",
    "date_modified": "2022-03-07T13:02:54.000",
    "request_status": "Pending",
    "responsible_agency": "Department of Public Works",
    "final_address": "ST ANDREW ST & CHIPPEWA ST & S CHIPPEWA ST",
    "address_councildis": "B",
    "status": "Pending",
    "rowid": "865076",
    "final_x": "3680549.06",
    "final_y": "521335.85",
    "longitude": "-90.07142719894382",
    "latitude": "29.927521500598075",
    "geocoded_column": {
      "latitude": "29.927521500598075",
      "longitude": "-90.07142719894382"
    }
  },
  {
    "service_request": "2022-865075",
    "request_type": "Trash/Recycling",
    "request_reason": "Replace Recycling Cart",
    "date_created": "2022-03-07T13:00:39.000",
    "date_modified": "2022-03-07T13:00:39.000",
    "request_status": "Pending",
    "responsible_agency": "Department of Sanitation",
    "final_address": "428 Wagner St",
    "address_councildis": "C",
    "status": "Pending",
    "rowid": "865075",
    "final_x": "3690647.55894",
    "final_y": "529952.327617",
    "longitude": "-90.03924163138679",
    "latitude": "29.95090421406172",
    "geocoded_column": {
      "latitude": "29.95090421406172",
      "longitude": "-90.03924163138679"
    }
  },
  {
    "service_request": "2022-865074",
    "request_type": "Parks & Parkways",
    "request_reason": "Request Tree Service (Right of Way/Public Property)",
    "date_created": "2022-03-07T12:56:33.000",
    "date_modified": "2022-03-07T12:56:33.000",
    "request_status": "Pending",
    "responsible_agency": "Department of Parks & Parkway",
    "final_address": "2021 Chippewa St",
    "address_councildis": "B",
    "status": "Pending",
    "rowid": "865074",
    "final_x": "3680310.13461",
    "final_y": "521437.393849",
    "longitude": "-90.07217789953083",
    "latitude": "29.92780794586775",
    "geocoded_column": {
      "latitude": "29.92780794586775",
      "longitude": "-90.07217789953083"
    }
  },
  {
    "service_request": "2022-865073",
    "request_type": "Trash/Recycling",
    "request_reason": "Missed Trash Pick-Up",
    "date_created": "2022-03-07T12:51:23.000",
    "date_modified": "2022-03-07T12:51:23.000",
    "request_status": "Pending",
    "responsible_agency": "Department of Sanitation",
    "final_address": "2823 Amelia St",
    "address_councildis": "B",
    "status": "Assigned to Contractor",
    "contractor": "Richards Disposal",
    "rowid": "865073",
    "final_x": "3672089.64289",
    "final_y": "525552.449981",
    "longitude": "-90.0979880579154",
    "latitude": "29.93936924542266",
    "geocoded_column": {
      "latitude": "29.93936924542266",
      "longitude": "-90.0979880579154"
    }
  },
  {
    "service_request": "2022-865072",
    "request_type": "Trash/Recycling",
    "request_reason": "Request a Large Item Pick Up",
    "date_created": "2022-03-07T12:49:33.000",
    "date_modified": "2022-03-07T12:49:35.000",
    "request_status": "Pending",
    "responsible_agency": "Department of Sanitation",
    "final_address": "4651 St Roch Ave",
    "address_councildis": "D",
    "status": "Assigned to Contractor",
    "contractor": "Metro Disposal",
    "rowid": "865072",
    "final_x": "3685464.43983",
    "final_y": "549984.31266",
    "longitude": "-90.05490157047741",
    "latitude": "30.006145069403953",
    "geocoded_column": {
      "latitude": "30.006145069403953",
      "longitude": "-90.05490157047741"
    }
  },
  {
    "service_request": "2022-865071",
    "request_type": "Trash/Recycling",
    "request_reason": "Order Recycling Cart",
    "date_created": "2022-03-07T12:44:59.000",
    "date_modified": "2022-03-07T12:44:59.000",
    "request_status": "Pending",
    "responsible_agency": "Department of Sanitation",
    "final_address": "1803 Broadway St",
    "address_councildis": "A",
    "status": "Pending",
    "rowid": "865071",
    "final_x": "3665431.5529",
    "final_y": "528264.381824",
    "longitude": "-90.118917854364",
    "latitude": "29.947021883552335",
    "geocoded_column": {
      "latitude": "29.947021883552335",
      "longitude": "-90.118917854364"
    }
  },
  {
    "service_request": "2022-865070",
    "request_type": "Trash/Recycling",
    "request_reason": "Order Recycling Cart",
    "date_created": "2022-03-07T12:42:34.000",
    "date_modified": "2022-03-07T12:42:34.000",
    "request_status": "Pending",
    "responsible_agency": "Department of Sanitation",
    "final_address": "5424 Milne St",
    "address_councildis": "A",
    "status": "Pending",
    "rowid": "865070",
    "final_x": "3666591.36666",
    "final_y": "543670.932046",
    "longitude": "-90.11473854852561",
    "latitude": "29.98935093383078",
    "geocoded_column": {
      "latitude": "29.98935093383078",
      "longitude": "-90.11473854852561"
    }
  },
  {
    "service_request": "2022-865069",
    "request_type": "Abandoned Vehicles",
    "request_reason": "Abandoned/Junk Vehicles",
    "date_created": "2022-03-07T12:40:16.000",
    "date_modified": "2022-03-07T12:40:16.000",
    "request_status": "Pending",
    "responsible_agency": "Department of Public Works",
    "final_address": "5500 Piety Dr",
    "address_councildis": "D",
    "status": "Pending",
    "rowid": "865069",
    "final_x": "3690348.17756",
    "final_y": "553580.109271",
    "longitude": "-90.03934442017079",
    "latitude": "30.015881454657304",
    "geocoded_column": {
      "latitude": "30.015881454657304",
      "longitude": "-90.03934442017079"
    }
  },
  {
    "service_request": "2022-865068",
    "request_type": "Abandoned Vehicles",
    "request_reason": "Abandoned/Junk Vehicles",
    "date_created": "2022-03-07T12:38:41.000",
    "date_modified": "2022-03-07T12:38:41.000",
    "request_status": "Pending",
    "responsible_agency": "Department of Public Works",
    "final_address": "5410 Press Dr",
    "address_councildis": "D",
    "status": "Pending",
    "rowid": "865068",
    "final_x": "3689165.35887",
    "final_y": "553199.350871",
    "longitude": "-90.04309513189587",
    "latitude": "30.014871185114558",
    "geocoded_column": {
      "latitude": "30.014871185114558",
      "longitude": "-90.04309513189587"
    }
  },
  {
    "service_request": "2022-865067",
    "request_type": "Trash/Recycling",
    "request_reason": "Replace Recycling Cart",
    "date_created": "2022-03-07T12:36:53.000",
    "date_modified": "2022-03-07T12:36:53.000",
    "request_status": "Pending",
    "responsible_agency": "Department of Sanitation",
    "final_address": "4322 S Derbigny St",
    "address_councildis": "B",
    "status": "Pending",
    "rowid": "865067",
    "final_x": "3670523.22094",
    "final_y": "526210.520382",
    "longitude": "-90.10291115828073",
    "latitude": "29.941225068543794",
    "geocoded_column": {
      "latitude": "29.941225068543794",
      "longitude": "-90.10291115828073"
    }
  },
  {
    "service_request": "2022-865066",
    "request_type": "Trash/Recycling",
    "request_reason": "Missed Trash Pick-Up",
    "date_created": "2022-03-07T12:35:28.000",
    "date_modified": "2022-03-07T12:35:30.000",
    "request_status": "Pending",
    "responsible_agency": "Department of Sanitation",
    "final_address": "37 Honeysuckle Ln",
    "address_councildis": "E",
    "status": "Assigned to Contractor",
    "contractor": "Metro Disposal",
    "rowid": "865066",
    "final_x": "3713126.9475",
    "final_y": "568245.313637",
    "longitude": "-89.96682190065317",
    "latitude": "30.05547791884598",
    "geocoded_column": {
      "latitude": "30.05547791884598",
      "longitude": "-89.96682190065317"
    }
  },