[
  {
    "service_request": "2025-1225472",
    "request_type": "Safety & Permits",
    "request_reason": "Licenses & Permits",
    "date_created": "2025-09-10T22:46:47.000",
    "date_modified": "2025-09-10T22:46:50.000",
    "request_status": "Pending",
    "responsible_agency": "Safety and Permits",
    "final_address": "7600 Maple St",
    "address_councildis": "A",
    "status": "Pending",
    "rowid": "1225472",
    "final_x": "3662286.88282",
    "final_y": "526135.455742",
    "longitude": "-90.12891745124386",
    "latitude": "29.9412592844668",
    "geocoded_column": {
      "latitude": "29.9412592844668",
      "longitude": "-90.12891745124386"
    }
  },
  {
    "service_request": "2025-1225471",
    "request_type": "Trash/Recycling",
    "request_reason": "Request a Large Item Pick Up",
    "date_created": "2025-09-10T22:36:07.000",
    "date_modified": "2025-09-10T22:36:09.000",
    "request_status": "Pending",
    "responsible_agency": "Department of Sanitation",
    "final_address": "4665 Perelli Dr",
    "address_councildis": "E",
    "status": "Assigned to Contractor",
    "contractor": "Waste Pro",
    "rowid": "1225471",
    "final_x": "3711831.8965",
    "final_y": "555669.338201",
    "longitude": "-89.97138773399972",
    "latitude": "30.020941420976825",
    "geocoded_column": {
      "latitude": "30.020941420976825",
      "longitude": "-89.97138773399972"
    }
  },
  {
    "service_request": "2025-1225470",
    "request_type": "Trash/Recycling",
    "request_reason": "Request a Large Item Pick Up",
    "date_created": "2025-09-10T21:41:12.000",
    "date_modified": "2025-09-10T21:41:13.000",
    "request_status": "Pending",
    "responsible_agency": "Department of Sanitation",
    "final_address": "4327 Genoa St",
    "address_councildis": "E",
    "status": "Assigned to Contractor",
    "contractor": "Waste Pro",
    "rowid": "1225470",
    "final_x": "3760891.7624",
    "final_y": "573461.938538",
    "longitude": "-89.81563224168849",
    "latitude": "30.068168458179162",
    "geocoded_column": {
      "latitude": "30.068168458179162",
      "longitude": "-89.81563224168849"
    }
  },
  {
    "service_request": "2025-1225469",
    "request_type": "Utility Poles",
    "request_reason": "Wires Sagging/Hanging Low",
    "date_created": "2025-09-10T21:39:52.000",
    "date_modified": "2025-09-10T21:39:55.000",
    "request_status": "Pending",
    "responsible_agency": "Utility Company Collective",
    "final_address": "6115 Dreux Ave",
    "address_councildis": "D",
    "status": "Pending",
    "rowid": "1225469",
    "final_x": "3697106.52119",
    "final_y": "553979.10044",
    "longitude": "-90.01797673080897",
    "latitude": "30.01676694225229",
    "geocoded_column": {
      "latitude": "30.01676694225229",
      "longitude": "-90.01797673080897"
    }
  },
  {
    "service_request": "2025-1225468",
    "request_type": "Streetlights",
    "request_reason": "Streetlight Outage/Malfunction",
    "date_created": "2025-09-10T21:09:21.000",
    "date_modified": "2025-09-10T21:09:23.000",
    "request_status": "Pending",
    "responsible_agency": "Department of Public Works",
    "final_address": "4345 St Bernard Ave",
    "address_councildis": "D",
    "status": "Pending",
    "rowid": "1225468",
    "final_x": "3676907.5405",
    "final_y": "548717.937619",
    "longitude": "-90.0819786086643",
    "latitude": "30.002922722331938",
    "geocoded_column": {
      "latitude": "30.002922722331938",
      "longitude": "-90.0819786086643"
    }
  },
  {
    "service_request": "2025-1225467",
    "request_type": "Trash/Recycling",
    "request_reason": "Return Trash Cart",
    "date_created": "2025-09-10T20:49:15.000",
    "date_modified": "2025-09-10T20:49:20.000",
    "request_status": "Pending",
    "responsible_agency": "Department of Sanitation",
    "final_address": "901 Stewart Ct",
    "address_councildis": "A",
    "status": "Assigned to Contractor",
    "contractor": "IV Waste",
    "rowid": "1225467",
    "final_x": "3673010.33992",
    "final_y": "540754.678475",
    "longitude": "-90.09456241286665",
    "latitude": "29.981142971358693",
    "geocoded_column": {
      "latitude": "29.981142971358693",
      "longitude": "-90.09456241286665"
    }
  },
  {
    "service_request": "2025-1225466",
    "request_type": "Property Maintenance",
    "request_reason": "Property Maintenance",
    "date_created": "2025-09-10T20:38:00.000",
    "date_modified": "2025-09-10T20:38:02.000",
    "request_status": "Pending",
    "responsible_agency": "Department of Code Enforcement",
    "final_address": "4750 Longfellow Dr",
    "address_councildis": "E",
    "status": "Pending",
    "rowid": "1225466",
    "final_x": "3709545.16798",
    "final_y": "555909.595673",
    "longitude": "-89.97860409335098",
    "latitude": "30.021676571964925",
    "geocoded_column": {
      "latitude": "30.021676571964925",
      "longitude": "-89.97860409335098"
    }
  },
  {
    "service_request": "2025-1225465",
    "request_type": "Streetlights",
    "request_reason": "Streetlight Outage/Malfunction",
    "date_created": "2025-09-10T20:29:43.000",
    "date_modified": "2025-09-10T20:29:44.000",
    "request_status": "Pending",
    "responsible_agency": "Department of Public Works",
    "final_address": "4773 Western St",
    "address_councildis": "D",
    "status": "Pending",
    "rowid": "1225465",
    "final_x": "3684143.22185",
    "final_y": "550679.5821",
    "longitude": "-90.05905118585747",
    "latitude": "30.008097274898507",
    "geocoded_column": {
      "latitude": "30.008097274898507",
      "longitude": "-90.05905118585747"
    }
  },
  {
    "service_request": "2025-1225464",
    "request_type": "Streetlights",
    "request_reason": "Streetlight Outage/Malfunction",
    "date_created": "2025-09-10T20:24:59.000",
    "date_modified": "2025-09-10T20:25:01.000",
    "request_status": "Pending",
    "responsible_agency": "Department of Public Works",
    "final_address": "4334 Canal St",
    "address_councildis": "A",
    "status": "Pending",
    "rowid": "1225464",
    "final_x": "3669995.23066",
    "final_y": "539039.98369",
    "longitude": "-90.10414361323797",
    "latitude": "29.976517425993556",
    "geocoded_column": {
      "latitude": "29.976517425993556",
      "longitude": "-90.10414361323797"
    }
  },
  {
    "service_request": "2025-1225463",
    "request_type": "Trash/Recycling",
    "request_reason": "Request a Large Item Pick Up",
    "date_created": "2025-09-10T20:12:48.000",
    "date_modified": "2025-09-10T20:12:50.000",
    "request_status": "Pending",
    "responsible_agency": "Department of Sanitation",
    "final_address": "6220 Essex Ct",
    "address_councildis": "C",
    "status": "Assigned to Contractor",
    "contractor": "Richards Disposal",
    "rowid": "1225463",
    "final_x": "3707081.12638",
    "final_y": "517510.95935",
    "longitude": "-89.98781447034973",
    "latitude": "29.91617428000902",
    "geocoded_column": {
      "latitude": "29.91617428000902",
      "longitude": "-89.98781447034973"
    }
  },
  {
    "service_request": "2025-1225462",
    "request_type": "Trash/Recycling",
    "request_reason": "Request a Large Item Pick Up",
    "date_created": "2025-09-10T20:03:21.000",
    "date_modified": "2025-09-10T20:03:23.000",
    "request_status": "Pending",
    "responsible_agency": "Department of Sanitation",
    "final_address": "1119 Behrman Ave",
    "address_councildis": "C",
    "status": "Assigned to Contractor",
    "contractor": "Richards Disposal",
    "rowid": "1225462",
    "final_x": "3691362.91145",
    "final_y": "527186.630591",
    "longitude": "-90.03708170783078",
    "latitude": "29.94327726523292",
    "geocoded_column": {
      "latitude": "29.94327726523292",
      "longitude": "-90.03708170783078"
    }
  },
  {
    "service_request": "2025-1225461",
    "request_type": "Streetlights",
    "request_reason": "Streetlight Outage/Malfunction",
    "date_created": "2025-09-10T19:54:34.000",
    "date_modified": "2025-09-10T19:54:38.000",
    "request_status": "Pending",
    "responsible_agency": "Department of Public Works",
    "final_address": "5700 Memphis St",
    "address_councildis": "A",
    "status": "Pending",
    "rowid": "1225461",
    "final_x": "3668969.49063",
    "final_y": "545427.144144",
    "longitude": "-90.1071673555412",
    "latitude": "29.99411015801858",
    "geocoded_column": {
      "latitude": "29.99411015801858",
      "longitude": "-90.1071673555412"
    }
  },
  {
    "service_request": "2025-1225460",
    "request_type": "Parks & Parkways",
    "request_reason": "Request Tree Service (Right of Way/Public Property)",
    "date_created": "2025-09-10T19:31:09.000",
    "date_modified": "2025-09-10T19:31:12.000",
    "request_status": "Pending",
    "responsible_agency": "Department of Parks & Parkway",
    "final_address": "2738 Dumaine St",
    "address_councildis": "A",
    "status": "Pending",
    "rowid": "1225460",
    "final_x": "3676833.02011",
    "final_y": "537721.048392",
    "longitude": "-90.08259324116189",
    "latitude": "29.97268734195046",
    "geocoded_column": {
      "latitude": "29.97268734195046",
      "longitude": "-90.08259324116189"
    }
  },
  {
    "service_request": "2025-1225459",
    "request_type": "Trash/Recycling",
    "request_reason": "Request a Large Item Pick Up",
    "date_created": "2025-09-10T19:06:26.000",
    "date_modified": "2025-09-10T19:06:28.000",
    "request_status": "Pending",
    "responsible_agency": "Department of Sanitation",
    "final_address": "2021 Leboeuf St",
    "address_councildis": "C",
    "status": "Assigned to Contractor",
    "contractor": "Richards Disposal",
    "rowid": "1225459",
    "final_x": "3689573.19062",
    "final_y": "523232.419387",
    "longitude": "-90.04287289334546",
    "latitude": "29.932460075854998",
    "geocoded_column": {
      "latitude": "29.932460075854998",
      "longitude": "-90.04287289334546"
    }
  },
  {
    "service_request": "2025-1225458",
    "request_type": "Trash/Recycling",
    "request_reason": "Replace Recycling Cart",
    "date_created": "2025-09-10T18:53:59.000",
    "date_modified": "2025-09-10T18:54:01.000",
    "request_status": "Pending",
    "responsible_agency": "Department of Sanitation",
    "final_address": "4821 Laurel St",
    "address_councildis": "B",
    "status": "Pending",
    "rowid": "1225458",
    "final_x": "3669472.27521",
    "final_y": "517924.58079",
    "longitude": "-90.10650929377935",
    "latitude": "29.91847237203799",
    "geocoded_column": {
      "latitude": "29.91847237203799",
      "longitude": "-90.10650929377935"
    }
  },
  {
    "service_request": "2025-1225457",
    "request_type": "Trash/Recycling",
    "request_reason": "Replace Trash Cart",
    "date_created": "2025-09-10T18:50:14.000",
    "date_modified": "2025-09-10T18:50:17.000",
    "request_status": "Pending",
    "responsible_agency": "Department of Sanitation",
    "final_address": "1428 N Claiborne Ave",
    "address_councildis": "C",
    "status": "Assigned to Contractor",
    "contractor": "IV Waste",
    "rowid": "1225457",
    "final_x": "3681546.59509",
    "final_y": "536725.179847",
    "longitude": "-90.06774165307624",
    "latitude": "29.96980673295286",
    "geocoded_column": {
      "latitude": "29.96980673295286",
      "longitude": "-90.06774165307624"
    }
  },
  {
    "service_request": "2025-1225456",
    "request_type": "Roads and Streets",
    "request_reason": "Push-up/Pavement Expansion",
    "date_created": "2025-09-10T18:39:36.000",
    "date_modified": "2025-09-10T18:39:38.000",
    "request_status": "Pending",
    "responsible_agency": "Department of Public Works",
    "final_address": "1808 Independence St",
    "address_councildis": "D",
    "status": "Pending",
    "rowid": "1225456",
    "final_x": "3691587.75862",
    "final_y": "538238.221961",
    "longitude": "-90.03597674577188",
    "latitude": "29.973658290650224",
    "geocoded_column": {
      "latitude": "29.973658290650224",
      "longitude": "-90.03597674577188"
    }
  },
  {
    "service_request": "2025-1225455",
    "request_type": "Trash/Recycling",
    "request_reason": "MIssed Recycling Pick-Up",
    "date_created": "2025-09-10T18:35:17.000",
    "date_modified": "2025-09-10T18:35:19.000",
    "request_status": "Pending",
    "responsible_agency": "Department of Sanitation",
    "final_address": "4430 Lancelot Dr",
    "address_councildis": "E",
    "status": "Assigned to Contractor",
    "contractor": "Waste Pro",
    "rowid": "1225455",
    "final_x": "3707544.13688",
    "final_y": "553760.070743",
    "longitude": "-89.98500668723098",
    "latitude": "30.01583111096896",
    "geocoded_column": {
      "latitude": "30.01583111096896",
      "longitude": "-89.98500668723098"
    }
  },
  {
    "service_request": "2025-1225454",
    "request_type": "Trash/Recycling",
    "request_reason": "Request a Large Item Pick Up",
    "date_created": "2025-09-10T18:16:46.000",
    "date_modified": "2025-09-10T18:16:48.000",
    "request_status": "Pending",
    "responsible_agency": "Department of Sanitation",
    "final_address": "5909 General Meyer Ave",
    "address_councildis": "C",
    "status": "Assigned to Contractor",
    "contractor": "Richards Disposal",
    "rowid": "1225454",
    "final_x": "3705922.29137",
    "final_y": "521199.712249",
    "longitude": "-89.99133581893898",
    "latitude": "29.926354434636036",
    "geocoded_column": {
      "latitude": "29.926354434636036",
      "longitude": "-89.99133581893898"
    }
  },
  {
    "service_request": "2025-1225453",
    "request_type": "Trash/Recycling",
    "request_reason": "Request a Large Item Pick Up",
    "date_created": "2025-09-10T17:46:00.000",
    "date_modified": "2025-09-10T17:46:02.000",
    "request_status": "Pending",
    "responsible_agency": "Department of Sanitation",
    "final_address": "4919 Virgilian St",
    "address_councildis": "D",
    "status": "Assigned to Contractor",
    "contractor": "Waste Pro",
    "rowid": "1225453",
    "final_x": "3697471.43722",
    "final_y": "554689.511128",
    "longitude": "-90.0167979663185",
    "latitude": "30.01870877964808",
    "geocoded_column": {
      "latitude": "30.01870877964808",
      "longitude": "-90.0167979663185"
    }
  },
  {
    "service_request": "2025-1225452",
    "request_type": "General Services",
    "request_reason": "General Service Request",
    "date_created": "2025-09-10T17:45:57.000",
    "date_modified": "2025-09-10T17:45:58.000",
    "request_status": "Pending",
    "responsible_agency": "Orleans Parish Communication District",
    "final_address": "New Orleans,LA",
    "status": "Pending",
    "rowid": "1225452",
    "longitude": "0.0",
    "latitude": "0.0",
    "geocoded_column": {
      "latitude": "0.0",
      "longitude": "0.0"
    }
  },
  {
    "service_request": "2025-1225451",
    "request_type": "Parks & Parkways",
    "request_reason": "Request Tree Service (Right of Way/Public Property)",
    "date_created": "2025-09-10T17:26:13.000",
    "date_modified": "2025-09-10T17:26:15.000",
    "request_status": "Pending",
    "responsible_agency": "Department of Parks & Parkway",
    "final_address": "1520 Gentilly Blvd",
    "address_councildis": "D",
    "status": "Pending",
    "rowid": "1225451",
    "final_x": "3678384.32213",
    "final_y": "540024.272395",
    "longitude": "-90.07761422747083",
    "latitude": "29.978973762928522",
    "geocoded_column": {
      "latitude": "29.978973762928522",
      "longitude": "-90.07761422747083"
    }
  },
  {
    "service_request": "2025-1225450",
    "request_type": "General Services",
    "request_reason": "General Service Request",
    "date_created": "2025-09-10T17:24:11.000",
    "date_modified": "2025-09-10T17:24:13.000",
    "request_status": "Pending",
    "responsible_agency": "Orleans Parish Communication District",
    "final_address": "1939 Burdette St",
    "address_councildis": "A",
    "status": "Pending",
    "rowid": "1225450",
    "final_x": "3664661.44052",
    "final_y": "529613.106241",
    "longitude": "-90.12130435181943",
    "latitude": "29.950752860729676",
    "geocoded_column": {
      "latitude": "29.950752860729676",
      "longitude": "-90.12130435181943"
    }
  },
  {
    "service_request": "2025-1225449",
    "request_type": "Drainage",
    "request_reason": "Catch Basin Frame and Cover Missing or Damaged",
    "date_created": "2025-09-10T17:23:21.000",
    "date_modified": "2025-09-10T17:23:23.000",
    "request_status": "Pending",
    "responsible_agency": "Sewerage & Water Board",
    "final_address": "7670 Sandy Cove Dr",
    "address_councildis": "E",
    "status": "Pending",
    "rowid": "1225449",
    "final_x": "3715345.41842",
    "final_y": "569467.873574",
    "longitude": "-89.95976350075755",
    "latitude": "30.05876652159072",
    "geocoded_column": {
      "latitude": "30.05876652159072",
      "longitude": "-89.95976350075755"
    }
  },
  {
    "service_request": "2025-1225448",
    "request_type": "Trash/Recycling",
    "request_reason": "Replace Trash Cart",
    "date_created": "2025-09-10T17:02:29.000",
    "date_modified": "2025-09-10T17:02:31.000",
    "request_status": "Pending",
    "responsible_agency": "Department of Sanitation",
    "final_address": "6121 Craigie Rd",
    "address_councildis": "E",
    "status": "Assigned to Contractor",
    "contractor": "Waste Pro",
    "rowid": "1225448",
    "final_x": "3695876.46211",
    "final_y": "558886.435996",
    "longitude": "-90.02168569317324",
    "latitude": "30.030299021688446",
    "geocoded_column": {
      "latitude": "30.030299021688446",
      "longitude": "-90.02168569317324"
    }
  },
  {
    "service_request": "2025-1225447",
    "request_type": "Abandoned Vehicles",
    "request_reason": "Abandoned/Junk Vehicles",
    "date_created": "2025-09-10T17:01:26.000",
    "date_modified": "2025-09-10T17:01:28.000",
    "request_status": "Pending",
    "responsible_agency": "Department of Public Works",
    "final_address": "6219 Pasteur Blvd",
    "address_councildis": "D",
    "status": "Pending",
    "rowid": "1225447",
    "final_x": "3682800.70082",
    "final_y": "555962.123353",
    "longitude": "-90.06310760651459",
    "latitude": "30.02266332114204",
    "geocoded_column": {
      "latitude": "30.02266332114204",
      "longitude": "-90.06310760651459"
    }
  },
  {
    "service_request": "2025-1225446",
    "request_type": "Abandoned Vehicles",
    "request_reason": "Abandoned/Junk Vehicles",
    "date_created": "2025-09-10T16:58:57.000",
    "date_modified": "2025-09-10T16:59:59.000",
    "request_status": "Pending",
    "responsible_agency": "Department of Public Works",
    "final_address": "11250 N Parkwood Ct",
    "address_councildis": "E",
    "status": "Pending",
    "rowid": "1225446",
    "final_x": "3716745.1589",
    "final_y": "559270.124508",
    "longitude": "-89.95572663785367",
    "latitude": "30.030680656297378",
    "geocoded_column": {
      "latitude": "30.030680656297378",
      "longitude": "-89.95572663785367"
    }
  },
  {
    "service_request": "2025-1225445",
    "request_type": "Property Maintenance",
    "request_reason": "Property Maintenance",
    "date_created": "2025-09-10T16:58:05.000",
    "date_modified": "2025-09-10T16:58:07.000",
    "request_status": "Pending",
    "responsible_agency": "Department of Code Enforcement",
    "final_address": "6218 Pasteur Blvd",
    "address_councildis": "D",
    "status": "Pending",
    "rowid": "1225445",
    "final_x": "3682693.61986",
    "final_y": "555953.977049",
    "longitude": "-90.06344624226676",
    "latitude": "30.02264418532027",
    "geocoded_column": {
      "latitude": "30.02264418532027",
      "longitude": "-90.06344624226676"
    }
  },
  {
    "service_request": "2025-1225444",
    "request_type": "Streetlights",
    "request_reason": "Streetlight Outage/Malfunction",
    "date_created": "2025-09-10T16:58:02.000",
    "date_modified": "2025-09-10T16:58:04.000",
    "request_status": "Pending",
    "responsible_agency": "Department of Public Works",
    "final_address": "8621 Edinburgh St",
    "address_councildis": "A",
    "status": "Pending",
    "rowid": "1225444",
    "final_x": "3666044.77844",
    "final_y": "535795.096839",
    "longitude": "-90.1167292086766",
    "latitude": "29.96771100129557",
    "geocoded_column": {
      "latitude": "29.96771100129557",
      "longitude": "-90.1167292086766"
    }
  },
  {
    "service_request": "2025-1225443",
    "request_type": "Trash/Recycling",
    "request_reason": "Request a Large Item Pick Up",
    "date_created": "2025-09-10T16:54:27.000",
    "date_modified": "2025-09-10T16:54:28.000",
    "request_status": "Pending",
    "responsible_agency": "Department of Sanitation",
    "final_address": "10721 Willowbrae Dr",
    "address_councildis": "E",
    "status": "Assigned to Contractor",
    "contractor": "Waste Pro",
    "rowid": "1225443",
    "final_x": "3710785.62981",
    "final_y": "564175.988577",
    "longitude": "-89.97437482566951",
    "latitude": "30.04436548821462",
    "geocoded_column": {
      "latitude": "30.04436548821462",
      "longitude": "-89.97437482566951"
    }
  },
  {
    "service_request": "2025-1225442",
    "request_type": "Trash/Recycling",
    "request_reason": "Repair Trash Cart",
    "date_created": "2025-09-10T16:53:13.000",
    "date_modified": "2025-09-10T16:53:15.000",
    "request_status": "Pending",
    "responsible_agency": "Department of Sanitation",
    "final_address": "2406 Audubon St",
    "address_councildis": "A",
    "status": "Assigned to Contractor",
    "contractor": "IV Waste",
    "rowid": "1225442",
    "final_x": "3666862.7426",
    "final_y": "530040.097921",
    "longitude": "-90.11433939434144",
    "latitude": "29.951862740420562",
    "geocoded_column": {
      "latitude": "29.951862740420562",
      "longitude": "-90.11433939434144"
    }
  },
  {
    "service_request": "2025-1225441",
    "request_type": "Trash/Recycling",
    "request_reason": "Request a Large Item Pick Up",
    "date_created": "2025-09-10T16:51:46.000",
    "date_modified": "2025-09-10T16:51:50.000",
    "request_status": "Pending",
    "responsible_agency": "Department of Sanitation",
    "final_address": "7429 Alabama St",
    "address_councildis": "D",
    "status": "Assigned to Contractor",
    "contractor": "Waste Pro",
    "rowid": "1225441",
    "final_x": "3695117.39459",
    "final_y": "558079.839003",
    "longitude": "-90.02411346400173",
    "latitude": "30.02810505731978",
    "geocoded_column": {
      "latitude": "30.02810505731978",
      "longitude": "-90.02411346400173"
    }
  },
  {
    "service_request": "2025-1225440",
    "request_type": "Trash/Recycling",
    "request_reason": "Request a Large Item Pick Up",
    "date_created": "2025-09-10T16:49:29.000",
    "date_modified": "2025-09-10T16:49:50.000",
    "request_status": "Pending",
    "responsible_agency": "Department of Sanitation",
    "final_address": "4436 Laine Ave",
    "address_councildis": "E",
    "status": "Assigned to Contractor",
    "contractor": "Waste Pro",
    "rowid": "1225440",
    "final_x": "3705800.10455",
    "final_y": "553684.618967",
    "longitude": "-89.99051979269167",
    "latitude": "30.015679960974882",
    "geocoded_column": {
      "latitude": "30.015679960974882",
      "longitude": "-89.99051979269167"
    }
  },
  {
    "service_request": "2025-1225439",
    "request_type": "Trash/Recycling",
    "request_reason": "Order Trash Cart",
    "date_created": "2025-09-10T16:48:50.000",
    "date_modified": "2025-09-10T16:48:51.000",
    "request_status": "Pending",
    "responsible_agency": "Department of Sanitation",
    "final_address": "7841 Symmes Ave",
    "address_councildis": "E",
    "status": "Assigned to Contractor",
    "contractor": "Waste Pro",
    "rowid": "1225439",
    "final_x": "3707523.60657",
    "final_y": "565305.309794",
    "longitude": "-89.98464219945024",
    "latitude": "30.047576642043303",
    "geocoded_column": {
      "latitude": "30.047576642043303",
      "longitude": "-89.98464219945024"
    }
  },
  {
    "service_request": "2025-1225438",
    "request_type": "Trash/Recycling",
    "request_reason": "Request a Large Item Pick Up",
    "date_created": "2025-09-10T16:48:22.000",
    "date_modified": "2025-09-10T16:48:24.000",
    "request_status": "Pending",
    "responsible_agency": "Department of Sanitation",
    "final_address": "2422 Hyman Pl",
    "address_councildis": "C",
    "status": "Assigned to Contractor",
    "contractor": "Richards Disposal",
    "rowid": "1225438",
    "final_x": "3701131.4881",
    "final_y": "522189.424378",
    "longitude": "-90.00642275195021",
    "latitude": "29.929229213838386",
    "geocoded_column": {
      "latitude": "29.929229213838386",
      "longitude": "-90.00642275195021"
    }
  },
  {
    "service_request": "2025-1225437",
    "request_type": "Trash/Recycling",
    "request_reason": "Request a Large Item Pick Up",
    "date_created": "2025-09-10T16:47:22.000",
    "date_modified": "2025-09-10T16:47:23.000",
    "request_status": "Pending",
    "responsible_agency": "Department of Sanitation",
    "final_address": "7300 Vanderkloot Ave",
    "address_councildis": "E",
    "status": "Assigned to Contractor",
    "contractor": "Waste Pro",
    "rowid": "1225437",
    "final_x": "3706281.51268",
    "final_y": "562299.183839",
    "longitude": "-89.98867936879219",
    "latitude": "30.039351130995716",
    "geocoded_column": {
      "latitude": "30.039351130995716",
      "longitude": "-89.98867936879219"
    }
  },
  {
    "service_request": "2025-1225436",
    "request_type": "Parks & Parkways",
    "request_reason": "Request Grass Cutting Service (City Owned Property)",
    "date_created": "2025-09-10T16:47:12.000",
    "date_modified": "2025-09-10T16:47:14.000",
    "request_status": "Pending",
    "responsible_agency": "Department of Parks & Parkway",
    "final_address": "JOURDAN AVE & N PRIEUR ST",
    "address_councildis": "E",
    "status": "Pending",
    "rowid": "1225436",
    "final_x": "3695888.5",
    "final_y": "537476.38",
    "longitude": "-90.02242167787286",
    "latitude": "29.97142890459554",
    "geocoded_column": {
      "latitude": "29.97142890459554",
      "longitude": "-90.02242167787286"
    }
  },
  {
    "service_request": "2025-1225435",
    "request_type": "Trash/Recycling",
    "request_reason": "Request a Large Item Pick Up",
    "date_created": "2025-09-10T16:39:49.000",
    "date_modified": "2025-09-10T16:39:50.000",
    "request_status": "Pending",
    "responsible_agency": "Department of Sanitation",
    "final_address": "6016 N Villere St",
    "address_councildis": "E",
    "status": "Assigned to Contractor",
    "contractor": "Waste Pro",
    "rowid": "1225435",
    "final_x": "3699700.20887",
    "final_y": "534397.348293",
    "longitude": "-90.0104960889498",
    "latitude": "29.96284221513582",
    "geocoded_column": {
      "latitude": "29.96284221513582",
      "longitude": "-90.0104960889498"
    }
  },
  {
    "service_request": "2025-1225434",
    "request_type": "Trash/Recycling",
    "request_reason": "Request a Large Item Pick Up",
    "date_created": "2025-09-10T16:38:29.000",
    "date_modified": "2025-09-10T16:38:31.000",
    "request_status": "Pending",
    "responsible_agency": "Department of Sanitation",
    "final_address": "919 Upperline St",
    "address_councildis": "B",
    "status": "Assigned to Contractor",
    "contractor": "IV Waste",
    "rowid": "1225434",
    "final_x": "3669066.92135",
    "final_y": "518753.729207",
    "longitude": "-90.10776079151617",
    "latitude": "29.920764195930413",
    "geocoded_column": {
      "latitude": "29.920764195930413",
      "longitude": "-90.10776079151617"
    }
  },
  {
    "service_request": "2025-1225433",
    "request_type": "Abandoned Vehicles",
    "request_reason": "Abandoned/Junk Vehicles",
    "date_created": "2025-09-10T16:36:21.000",
    "date_modified": "2025-09-10T16:36:24.000",
    "request_status": "Pending",
    "responsible_agency": "Department of Public Works",
    "final_address": "5018 Touro St",
    "address_councildis": "D",
    "status": "Pending",
    "rowid": "1225433",
    "final_x": "3682977.48028",
    "final_y": "551234.619157",
    "longitude": "-90.0627146701336",
    "latitude": "30.00965902110048",
    "geocoded_column": {
      "latitude": "30.00965902110048",
      "longitude": "-90.0627146701336"
    }
  },
  {
    "service_request": "2025-1225432",
    "request_type": "Trash/Recycling",
    "request_reason": "Request a Large Item Pick Up",
    "date_created": "2025-09-10T16:34:12.000",
    "date_modified": "2025-09-10T16:34:14.000",
    "request_status": "Pending",
    "responsible_agency": "Department of Sanitation",
    "final_address": "5512 Chartres St",
    "address_councildis": "E",
    "status": "Assigned to Contractor",
    "contractor": "Waste Pro",
    "rowid": "1225432",
    "final_x": "3697305.68867",
    "final_y": "531945.270595",
    "longitude": "-90.01814651323147",
    "latitude": "29.9561756640024",
    "geocoded_column": {
      "latitude": "29.9561756640024",
      "longitude": "-90.01814651323147"
    }
  },
  {
    "service_request": "2025-1225431",
    "request_type": "Trash/Recycling",
    "request_reason": "Request a Large Item Pick Up",
    "date_created": "2025-09-10T16:31:50.000",
    "date_modified": "2025-09-10T16:31:57.000",
    "request_status": "Pending",
    "responsible_agency": "Department of Sanitation",
    "final_address": "3571 Somerset Dr",
    "address_councildis": "C",
    "status": "Assigned to Contractor",
    "contractor": "Richards Disposal",
    "rowid": "1225431",
    "final_x": "3702420.4689",
    "final_y": "517642.513782",
    "longitude": "-90.00252042309315",
    "latitude": "29.916685672025586",
    "geocoded_column": {
      "latitude": "29.916685672025586",
      "longitude": "-90.00252042309315"
    }
  },
  {
    "service_request": "2025-1225430",
    "request_type": "Trash/Recycling",
    "request_reason": "Request a Large Item Pick Up",
    "date_created": "2025-09-10T16:30:53.000",
    "date_modified": "2025-09-10T16:30:55.000",
    "request_status": "Pending",
    "responsible_agency": "Department of Sanitation",
    "final_address": "719 Esplanade Ave",
    "address_councildis": "C",
    "status": "Assigned to Contractor",
    "contractor": "IV Waste",
    "rowid": "1225430",
    "final_x": "3683950.13442",
    "final_y": "534577.826245",
    "longitude": "-90.06022641128695",
    "latitude": "29.963829037587775",
    "geocoded_column": {
      "latitude": "29.963829037587775",
      "longitude": "-90.06022641128695"
    }
  },
  {
    "service_request": "2025-1225429",
    "request_type": "Abandoned Vehicles",
    "request_reason": "Abandoned/Junk Vehicles",
    "date_created": "2025-09-10T16:27:35.000",
    "date_modified": "2025-09-10T16:27:36.000",
    "request_status": "Pending",
    "responsible_agency": "Department of Public Works",
    "final_address": "4232 Pauger St",
    "address_councildis": "D",
    "status": "Pending",
    "rowid": "1225429",
    "final_x": "3682843.07784",
    "final_y": "548206.521042",
    "longitude": "-90.06324533662006",
    "latitude": "30.001336940026327",
    "geocoded_column": {
      "latitude": "30.001336940026327",
      "longitude": "-90.06324533662006"
    }
  },
  {
    "service_request": "2025-1225428",
    "request_type": "Abandoned Vehicles",
    "request_reason": "Abandoned/Junk Vehicles",
    "date_created": "2025-09-10T16:27:08.000",
    "date_modified": "2025-09-10T16:29:37.000",
    "request_status": "Pending",
    "responsible_agency": "Department of Public Works",
    "final_address": "5750 Old Gentilly Rd",
    "address_councildis": "E",
    "status": "Inspected",
    "rowid": "1225428",
    "final_x": "3696018.1823",
    "final_y": "550310.60482",
    "longitude": "-90.02154810172469",
    "latitude": "30.00671426022792",
    "geocoded_column": {
      "latitude": "30.00671426022792",
      "longitude": "-90.02154810172469"
    }
  },
  {
    "service_request": "2025-1225427",
    "request_type": "Trash/Recycling",
    "request_reason": "Request a Large Item Pick Up",
    "date_created": "2025-09-10T16:25:31.000",
    "date_modified": "2025-09-10T16:28:24.000",
    "request_status": "Pending",
    "responsible_agency": "Department of Sanitation",
    "final_address": "4415 Francesco Rd",
    "address_councildis": "E",
    "status": "Pending",
    "rowid": "1225427",
    "final_x": "3762105.20189",
    "final_y": "572750.710249",
    "longitude": "-89.81182626662662",
    "latitude": "30.066168660335517",
    "geocoded_column": {
      "latitude": "30.066168660335517",
      "longitude": "-89.81182626662662"
    }
  },
  {
    "service_request": "2025-1225426",
    "request_type": "Trash/Recycling",
    "request_reason": "Order Trash Cart",
    "date_created": "2025-09-10T16:22:53.000",
    "date_modified": "2025-09-10T16:22:57.000",
    "request_status": "Pending",
    "responsible_agency": "Department of Sanitation",
    "final_address": "1625 Rousselin Dr",
    "address_councildis": "D",
    "status": "Assigned to Contractor",
    "contractor": "IV Waste",
    "rowid": "1225426",
    "final_x": "3679476.61551",
    "final_y": "540186.940875",
    "longitude": "-90.07415870110916",
    "latitude": "29.979388085260165",
    "geocoded_column": {
      "latitude": "29.979388085260165",
      "longitude": "-90.07415870110916"
    }
  },
  {
    "service_request": "2025-1225425",
    "request_type": "Trash/Recycling",
    "request_reason": "Order Trash Cart",
    "date_created": "2025-09-10T16:21:20.000",
    "date_modified": "2025-09-10T16:21:22.000",
    "request_status": "Pending",
    "responsible_agency": "Department of Sanitation",
    "final_address": "1624 N Miro St",
    "address_councildis": "D",
    "status": "Assigned to Contractor",
    "contractor": "IV Waste",
    "rowid": "1225425",
    "final_x": "3680697.35579",
    "final_y": "539210.580874",
    "longitude": "-90.0703371117964",
    "latitude": "29.97666649170415",
    "geocoded_column": {
      "latitude": "29.97666649170415",
      "longitude": "-90.0703371117964"
    }
  },
  {
    "service_request": "2025-1225424",
    "request_type": "Abandoned Vehicles",
    "request_reason": "Abandoned/Junk Vehicles",
    "date_created": "2025-09-10T16:19:47.000",
    "date_modified": "2025-09-10T16:19:48.000",
    "request_status": "Pending",
    "responsible_agency": "Department of Public Works",
    "final_address": "301 S White St",
    "address_councildis": "B",
    "status": "Pending",
    "rowid": "1225424",
    "final_x": "3674313.05544",
    "final_y": "534803.115974",
    "longitude": "-90.0906517070814",
    "latitude": "29.964739408035033",
    "geocoded_column": {
      "latitude": "29.964739408035033",
      "longitude": "-90.0906517070814"
    }
  },
  {
    "service_request": "2025-1225423",
    "request_type": "Abandoned Vehicles",
    "request_reason": "Abandoned/Junk Vehicles",
    "date_created": "2025-09-10T16:13:33.000",
    "date_modified": "2025-09-10T16:13:35.000",
    "request_status": "Pending",
    "responsible_agency": "Department of Public Works",
    "final_address": "4401 Knight Dr",
    "address_councildis": "E",
    "status": "Pending",
    "rowid": "1225423",
    "final_x": "3708389.25656",
    "final_y": "553724.823511",
    "longitude": "-89.98233782673758",
    "latitude": "30.0157068235578",
    "geocoded_column": {
      "latitude": "30.0157068235578",
      "longitude": "-89.98233782673758"
    }
  },
  {
    "service_request": "2025-1225422",
    "request_type": "Trash/Recycling",
    "request_reason": "Missed Trash Pick-Up",
    "date_created": "2025-09-10T16:13:08.000",
    "date_modified": "2025-09-10T16:13:09.000",
    "request_status": "Pending",
    "responsible_agency": "Department of Sanitation",
    "final_address": "4617 Donna Dr",
    "address_councildis": "E",
    "status": "Assigned to Contractor",
    "contractor": "Waste Pro",
    "rowid": "1225422",
    "final_x": "3711123.84101",
    "final_y": "555180.902041",
    "longitude": "-89.97364327639094",
    "latitude": "30.01962153442217",
    "geocoded_column": {
      "latitude": "30.01962153442217",
      "longitude": "-89.97364327639094"
    }
  },
  {
    "service_request": "2025-1225421",
    "request_type": "Trash/Recycling",
    "request_reason": "Request a Large Item Pick Up",
    "date_created": "2025-09-10T16:10:10.000",
    "date_modified": "2025-09-10T16:10:12.000",
    "request_status": "Pending",
    "responsible_agency": "Department of Sanitation",
    "final_address": "9 Vivian Ct",
    "address_councildis": "C",
    "status": "Assigned to Contractor",
    "contractor": "Richards Disposal",
    "rowid": "1225421",
    "final_x": "3701970.30372",
    "final_y": "521311.793273",
    "longitude": "-90.00380693635731",
    "latitude": "29.926789296285406",
    "geocoded_column": {
      "latitude": "29.926789296285406",
      "longitude": "-90.00380693635731"
    }
  },
  {
    "service_request": "2025-1225420",
    "request_type": "Roads and Streets",
    "request_reason": "Sidewalk Damaged or Missing",
    "date_created": "2025-09-10T16:07:18.000",
    "date_modified": "2025-09-10T16:07:19.000",
    "request_status": "Pending",
    "responsible_agency": "Department of Public Works",
    "final_address": "2132 St Bernard Ave",
    "address_councildis": "D",
    "status": "Pending",
    "rowid": "1225420",
    "final_x": "3681112.83106",
    "final_y": "539734.206026",
    "longitude": "-90.06900666510319",
    "latitude": "29.978093680266817",
    "geocoded_column": {
      "latitude": "29.978093680266817",
      "longitude": "-90.06900666510319"
    }
  },
  {
    "service_request": "2025-1225419",
    "request_type": "Abandoned Vehicles",
    "request_reason": "Abandoned/Junk Vehicles",
    "date_created": "2025-09-10T16:06:21.000",
    "date_modified": "2025-09-10T16:06:23.000",
    "request_status": "Pending",
    "responsible_agency": "Department of Public Works",
    "final_address": "4500 Knight Dr",
    "address_councildis": "E",
    "status": "Pending",
    "rowid": "1225419",
    "final_x": "3708208.46872",
    "final_y": "554065.377304",
    "longitude": "-89.98289634790018",
    "latitude": "30.016649074471946",
    "geocoded_column": {
      "latitude": "30.016649074471946",
      "longitude": "-89.98289634790018"
    }
  },
  {
    "service_request": "2025-1225418",
    "request_type": "Trash/Recycling",
    "request_reason": "Request a Large Item Pick Up",
    "date_created": "2025-09-10T15:57:35.000",
    "date_modified": "2025-09-10T15:57:37.000",
    "request_status": "Pending",
    "responsible_agency": "Department of Sanitation",
    "final_address": "5118 Frenchmen St",
    "address_councildis": "D",
    "status": "Assigned to Contractor",
    "contractor": "IV Waste",
    "rowid": "1225418",
    "final_x": "3683307.12879",
    "final_y": "551624.407701",
    "longitude": "-90.06165952771217",
    "latitude": "30.010720742853394",
    "geocoded_column": {
      "latitude": "30.010720742853394",
      "longitude": "-90.06165952771217"
    }
  },
  {
    "service_request": "2025-1225417",
    "request_type": "Trash/Recycling",
    "request_reason": "Order Trash Cart",
    "date_created": "2025-09-10T15:56:06.000",
    "date_modified": "2025-09-10T15:56:35.000",
    "request_status": "Pending",
    "responsible_agency": "Department of Sanitation",
    "final_address": "400 Canal St",
    "address_councildis": "B",
    "status": "Assigned to Contractor",
    "contractor": "IV Waste",
    "rowid": "1225417",
    "final_x": "3682054.79522",
    "final_y": "529897.078337",
    "longitude": "-90.06637514234355",
    "latitude": "29.951016341316624",
    "geocoded_column": {
      "latitude": "29.951016341316624",
      "longitude": "-90.06637514234355"
    }
  },
  {
    "service_request": "2025-1225416",
    "request_type": "Trash/Recycling",
    "request_reason": "Request a Large Item Pick Up",
    "date_created": "2025-09-10T15:55:52.000",
    "date_modified": "2025-09-10T15:55:54.000",
    "request_status": "Pending",
    "responsible_agency": "Department of Sanitation",
    "final_address": "4950 Francisco Verrett Dr",
    "address_councildis": "E",
    "status": "Assigned to Contractor",
    "contractor": "Waste Pro",
    "rowid": "1225416",
    "final_x": "3704073.26218",
    "final_y": "556231.540506",
    "longitude": "-89.99588185950938",
    "latitude": "30.02273854648848",
    "geocoded_column": {
      "latitude": "30.02273854648848",
      "longitude": "-89.99588185950938"
    }
  },
  {
    "service_request": "2025-1225415",
    "request_type": "Abandoned Vehicles",
    "request_reason": "Abandoned/Junk Vehicles",
    "date_created": "2025-09-10T15:55:02.000",
    "date_modified": "2025-09-10T15:55:04.000",
    "request_status": "Pending",
    "responsible_agency": "Department of Public Works",
    "final_address": "8743 Gervais St",
    "address_councildis": "E",
    "status": "Pending",
    "rowid": "1225415",
    "final_x": "3704493.07786",
    "final_y": "563080.708768",
    "longitude": "-89.99430244384382",
    "latitude": "30.04155760244199",
    "geocoded_column": {
      "latitude": "30.04155760244199",
      "longitude": "-89.99430244384382"
    }
  },
  {
    "service_request": "2025-1225414",
    "request_type": "Trash/Recycling",
    "request_reason": "Request a Large Item Pick Up",
    "date_created": "2025-09-10T15:53:42.000",
    "date_modified": "2025-09-10T15:53:43.000",
    "request_status": "Pending",
    "responsible_agency": "Department of Sanitation",
    "final_address": "4927 Galahad Dr",
    "address_councildis": "E",
    "status": "Assigned to Contractor",
    "contractor": "Waste Pro",
    "rowid": "1225414",
    "final_x": "3707168.55364",
    "final_y": "556632.907866",
    "longitude": "-89.98608662790389",
    "latitude": "30.023742446129003",
    "geocoded_column": {
      "latitude": "30.023742446129003",
      "longitude": "-89.98608662790389"
    }
  },
  {
    "service_request": "2025-1225413",
    "request_type": "Trash/Recycling",
    "request_reason": "Request a Large Item Pick Up",
    "date_created": "2025-09-10T15:48:15.000",
    "date_modified": "2025-09-10T15:48:18.000",
    "request_status": "Pending",
    "responsible_agency": "Department of Sanitation",
    "final_address": "830 Newton St",
    "address_councildis": "C",
    "status": "Assigned to Contractor",
    "contractor": "Richards Disposal",
    "rowid": "1225413",
    "final_x": "3688029.82959",
    "final_y": "528003.095103",
    "longitude": "-90.0475761377428",
    "latitude": "29.94562552285502",
    "geocoded_column": {
      "latitude": "29.94562552285502",
      "longitude": "-90.0475761377428"
    }
  },
  {
    "service_request": "2025-1225412",
    "request_type": "Trash/Recycling",
    "request_reason": "Request a Large Item Pick Up",
    "date_created": "2025-09-10T15:46:21.000",
    "date_modified": "2025-09-10T15:46:23.000",
    "request_status": "Pending",
    "responsible_agency": "Department of Sanitation",
    "final_address": "1625 Annette St",
    "address_councildis": "D",
    "status": "Assigned to Contractor",
    "contractor": "IV Waste",
    "rowid": "1225412",
    "final_x": "3683069.80015",
    "final_y": "538238.144777",
    "longitude": "-90.06287825867639",
    "latitude": "29.973920513869214",
    "geocoded_column": {
      "latitude": "29.973920513869214",
      "longitude": "-90.06287825867639"
    }
  },
  {
    "service_request": "2025-1225411",
    "request_type": "Parks & Parkways",
    "request_reason": "Request Grass Cutting Service (City Owned Property)",
    "date_created": "2025-09-10T15:44:11.000",
    "date_modified": "2025-09-10T15:46:05.000",
    "request_status": "Pending",
    "responsible_agency": "Department of Parks & Parkway",
    "final_address": "LAKE FOREST BLVD & I 510 S",
    "address_councildis": "E",
    "status": "Pending",
    "rowid": "1225411",
    "final_x": "3721863.16",
    "final_y": "563876.77",
    "longitude": "-89.93937677767107",
    "latitude": "30.043176866289578",
    "geocoded_column": {
      "latitude": "30.043176866289578",
      "longitude": "-89.93937677767107"
    }
  },
  {
    "service_request": "2025-1225410",
    "request_type": "Abandoned Vehicles",
    "request_reason": "Abandoned/Junk Vehicles",
    "date_created": "2025-09-10T15:43:49.000",
    "date_modified": "2025-09-10T15:43:51.000",
    "request_status": "Pending",
    "responsible_agency": "Department of Public Works",
    "final_address": "3027 Cleveland Ave",
    "address_councildis": "B",
    "status": "Pending",
    "rowid": "1225410",
    "final_x": "3673920.6587",
    "final_y": "535719.566791",
    "longitude": "-90.09185951506991",
    "latitude": "29.967271034683037",
    "geocoded_column": {
      "latitude": "29.967271034683037",
      "longitude": "-90.09185951506991"
    }
  },
  {
    "service_request": "2025-1225409",
    "request_type": "Trash/Recycling",
    "request_reason": "Replace Trash Cart",
    "date_created": "2025-09-10T15:40:07.000",
    "date_modified": "2025-09-10T15:40:08.000",
    "request_status": "Pending",
    "responsible_agency": "Department of Sanitation",
    "final_address": "6317 S Prieur St",
    "address_councildis": "A",
    "status": "Assigned to Contractor",
    "contractor": "IV Waste",
    "rowid": "1225409",
    "final_x": "3666596.30426",
    "final_y": "527343.147839",
    "longitude": "-90.11527120758767",
    "latitude": "29.94445479286512",
    "geocoded_column": {
      "latitude": "29.94445479286512",
      "longitude": "-90.11527120758767"
    }
  },
  {
    "service_request": "2025-1225408",
    "request_type": "Trash/Recycling",
    "request_reason": "Request a Large Item Pick Up",
    "date_created": "2025-09-10T15:35:09.000",
    "date_modified": "2025-09-10T15:35:11.000",
    "request_status": "Pending",
    "responsible_agency": "Department of Sanitation",
    "final_address": "11308 King Richard Dr",
    "address_councildis": "E",
    "status": "Assigned to Contractor",
    "contractor": "Waste Pro",
    "rowid": "1225408",
    "final_x": "3717314.2334",
    "final_y": "556428.16009",
    "longitude": "-89.95403647609145",
    "latitude": "30.02284756597243",
    "geocoded_column": {
      "latitude": "30.02284756597243",
      "longitude": "-89.95403647609145"
    }
  },
  {
    "service_request": "2025-1225407",
    "request_type": "Streetlights",
    "request_reason": "Streetlight Outage/Malfunction",
    "date_created": "2025-09-10T15:34:39.000",
    "date_modified": "2025-09-10T15:34:41.000",
    "request_status": "Pending",
    "responsible_agency": "Department of Public Works",
    "final_address": "4911 Marque Dr",
    "address_councildis": "E",
    "status": "Pending",
    "rowid": "1225407",
    "final_x": "3709995.94661",
    "final_y": "556766.31369",
    "longitude": "-89.97714772675023",
    "latitude": "30.024017549069125",
    "geocoded_column": {
      "latitude": "30.024017549069125",
      "longitude": "-89.97714772675023"
    }
  },
  {
    "service_request": "2025-1225406",
    "request_type": "Trash/Recycling",
    "request_reason": "Request a Large Item Pick Up",
    "date_created": "2025-09-10T15:32:57.000",
    "date_modified": "2025-09-10T15:32:59.000",
    "request_status": "Pending",
    "responsible_agency": "Department of Sanitation",
    "final_address": "7324 Malvern Dr",
    "address_councildis": "E",
    "status": "Assigned to Contractor",
    "contractor": "Waste Pro",
    "rowid": "1225406",
    "final_x": "3702682.72804",
    "final_y": "560744.083614",
    "longitude": "-90.00010969080768",
    "latitude": "30.035190845230538",
    "geocoded_column": {
      "latitude": "30.035190845230538",
      "longitude": "-90.00010969080768"
    }
  },
  {
    "service_request": "2025-1225405",
    "request_type": "Street and Traffic Signs",
    "request_reason": "Stop Sign Missing or Damaged",
    "date_created": "2025-09-10T15:30:54.000",
    "date_modified": "2025-09-10T15:30:55.000",
    "request_status": "Pending",
    "responsible_agency": "Department of Public Works",
    "final_address": "3703 Burgundy St",
    "address_councildis": "C",
    "status": "Pending",
    "rowid": "1225405",
    "final_x": "3690838.73392",
    "final_y": "534734.12167",
    "longitude": "-90.03846737813254",
    "latitude": "29.96404654665972",
    "geocoded_column": {
      "latitude": "29.96404654665972",
      "longitude": "-90.03846737813254"
    }
  },
  {
    "service_request": "2025-1225404",
    "request_type": "Abandoned Vehicles",
    "request_reason": "Abandoned/Junk Vehicles",
    "date_created": "2025-09-10T15:29:50.000",
    "date_modified": "2025-09-10T15:29:53.000",
    "request_status": "Pending",
    "responsible_agency": "Department of Public Works",
    "final_address": "2620 S Galvez St",
    "address_councildis": "B",
    "status": "Pending",
    "rowid": "1225404",
    "final_x": "3672620.31425",
    "final_y": "528316.714432",
    "longitude": "-90.09621843302473",
    "latitude": "29.94695432636851",
    "geocoded_column": {
      "latitude": "29.94695432636851",
      "longitude": "-90.09621843302473"
    }
  },
  {
    "service_request": "2025-1225403",
    "request_type": "Utility Poles",
    "request_reason": "Utility Pole Down",
    "date_created": "2025-09-10T15:26:21.000",
    "date_modified": "2025-09-10T15:26:24.000",
    "request_status": "Pending",
    "responsible_agency": "Utility Company Collective",
    "final_address": "3018 Danneel St",
    "address_councildis": "B",
    "status": "Pending",
    "rowid": "1225403",
    "final_x": "3674315.13646",
    "final_y": "523154.635707",
    "longitude": "-90.09104394984816",
    "latitude": "29.932709876047205",
    "geocoded_column": {
      "latitude": "29.932709876047205",
      "longitude": "-90.09104394984816"
    }
  },
  {
    "service_request": "2025-1225402",
    "request_type": "Trash/Recycling",
    "request_reason": "Repair Trash Cart",
    "date_created": "2025-09-10T15:23:32.000",
    "date_modified": "2025-09-10T15:23:33.000",
    "request_status": "Pending",
    "responsible_agency": "Department of Sanitation",
    "final_address": "6511 Manchester St",
    "address_councildis": "E",
    "status": "Assigned to Contractor",
    "contractor": "Waste Pro",
    "rowid": "1225402",
    "final_x": "3697338.53437",
    "final_y": "559386.309085",
    "longitude": "-90.01704741261973",
    "latitude": "30.031627380882234",
    "geocoded_column": {
      "latitude": "30.031627380882234",
      "longitude": "-90.01704741261973"
    }
  },
  {
    "service_request": "2025-1225401",
    "request_type": "Trash/Recycling",
    "request_reason": "Request a Large Item Pick Up",
    "date_created": "2025-09-10T15:22:35.000",
    "date_modified": "2025-09-10T15:22:37.000",
    "request_status": "Pending",
    "responsible_agency": "Department of Sanitation",
    "final_address": "1337 Esplanade Ave",
    "address_councildis": "C",
    "status": "Assigned to Contractor",
    "contractor": "IV Waste",
    "rowid": "1225401",
    "final_x": "3681949.48296",
    "final_y": "536125.623559",
    "longitude": "-90.06649023091612",
    "latitude": "29.968145917883767",
    "geocoded_column": {
      "latitude": "29.968145917883767",
      "longitude": "-90.06649023091612"
    }
  },
  {
    "service_request": "2025-1225400",
    "request_type": "Roads and Streets",
    "request_reason": "Pothole",
    "date_created": "2025-09-10T15:21:12.000",
    "date_modified": "2025-09-10T15:21:15.000",
    "request_status": "Pending",
    "responsible_agency": "Department of Public Works",
    "final_address": "DABADIE ST & N DUPRE ST",
    "address_councildis": "D",
    "status": "Pending",
    "rowid": "1225400",
    "final_x": "3678968.3",
    "final_y": "541195.98",
    "longitude": "-90.07572918497063",
    "latitude": "29.98217794235479",
    "geocoded_column": {
      "latitude": "29.98217794235479",
      "longitude": "-90.07572918497063"
    }
  },
  {
    "service_request": "2025-1225399",
    "request_type": "Streetlights",
    "request_reason": "Streetlight Outage/Malfunction",
    "date_created": "2025-09-10T15:19:00.000",
    "date_modified": "2025-09-10T15:19:02.000",
    "request_status": "Pending",
    "responsible_agency": "Department of Public Works",
    "final_address": "6950 Pontchartrain Blvd",
    "address_councildis": "A",
    "status": "Pending",
    "rowid": "1225399",
    "final_x": "3666350.65133",
    "final_y": "554090.435928",
    "longitude": "-90.11514899969855",
    "latitude": "30.018008000154285",
    "geocoded_column": {
      "latitude": "30.018008000154285",
      "longitude": "-90.11514899969855"
    }
  },
  {
    "service_request": "2025-1225398",
    "request_type": "Trash/Recycling",
    "request_reason": "Repair Trash Cart",
    "date_created": "2025-09-10T15:07:03.000",
    "date_modified": "2025-09-10T15:07:05.000",
    "request_status": "Pending",
    "responsible_agency": "Department of Sanitation",
    "final_address": "6612 Orleans Ave",
    "address_councildis": "A",
    "status": "Assigned to Contractor",
    "contractor": "IV Waste",
    "rowid": "1225398",
    "final_x": "3671166.22983",
    "final_y": "551253.338965",
    "longitude": "-90.10003005291601",
    "latitude": "30.010065338796455",
    "geocoded_column": {
      "latitude": "30.010065338796455",
      "longitude": "-90.10003005291601"
    }
  },
  {
    "service_request": "2025-1225397",
    "request_type": "Roads and Streets",
    "request_reason": "Pothole",
    "date_created": "2025-09-10T15:01:06.000",
    "date_modified": "2025-09-10T15:01:08.000",
    "request_status": "Pending",
    "responsible_agency": "Department of Public Works",
    "final_address": "2125 Milan St",
    "address_councildis": "B",
    "status": "Pending",
    "rowid": "1225397",
    "final_x": "3671444.80846",
    "final_y": "522900.375099",
    "longitude": "-90.10011400311846",
    "latitude": "29.932095997181392",
    "geocoded_column": {
      "latitude": "29.932095997181392",
      "longitude": "-90.10011400311846"
    }
  },
  {
    "service_request": "2025-1225396",
    "request_type": "Trash/Recycling",
    "request_reason": "Repair Trash Cart",
    "date_created": "2025-09-10T15:00:59.000",
    "date_modified": "2025-09-10T15:01:02.000",
    "request_status": "Pending",
    "responsible_agency": "Department of Sanitation",
    "final_address": "2140 Congress St",
    "address_councildis": "D",
    "status": "Assigned to Contractor",
    "contractor": "IV Waste",
    "rowid": "1225396",
    "final_x": "3691699.42166",
    "final_y": "539686.236618",
    "longitude": "-90.03557229665728",
    "latitude": "29.977636339197566",
    "geocoded_column": {
      "latitude": "29.977636339197566",
      "longitude": "-90.03557229665728"
    }
  },
  {
    "service_request": "2025-1225395",
    "request_type": "Streetlights",
    "request_reason": "Streetlight Knocked Down/Leaning",
    "date_created": "2025-09-10T15:00:41.000",
    "date_modified": "2025-09-10T15:00:43.000",
    "request_status": "Pending",
    "responsible_agency": "Department of Public Works",
    "final_address": "6115 Milne Blvd",
    "address_councildis": "A",
    "status": "Pending",
    "rowid": "1225395",
    "final_x": "3667229.19002",
    "final_y": "548230.833938",
    "longitude": "-90.11257038916918",
    "latitude": "30.001870431278846",
    "geocoded_column": {
      "latitude": "30.001870431278846",
      "longitude": "-90.11257038916918"
    }
  },
  {
    "service_request": "2025-1225394",
    "request_type": "Trash/Recycling",
    "request_reason": "Order Trash Cart",
    "date_created": "2025-09-10T15:00:24.000",
    "date_modified": "2025-09-10T15:00:27.000",
    "request_status": "Pending",
    "responsible_agency": "Department of Sanitation",
    "final_address": "6984 Queensway Dr",
    "address_councildis": "E",
    "status": "Assigned to Contractor",
    "contractor": "Waste Pro",
    "rowid": "1225394",
    "final_x": "3719355.27429",
    "final_y": "569152.90007",
    "longitude": "-89.94710091030844",
    "latitude": "30.057767697791764",
    "geocoded_column": {
      "latitude": "30.057767697791764",
      "longitude": "-89.94710091030844"
    }
  },
  {
    "service_request": "2025-1225393",
    "request_type": "Mosquito, Termite & Rodent Control",
    "request_reason": "Rodent Complaint (Mice & Rats)",
    "date_created": "2025-09-10T14:59:29.000",
    "date_modified": "2025-09-10T14:59:31.000",
    "request_status": "Pending",
    "responsible_agency": "Mosquito, Termite & Rodent Control Board",
    "final_address": "6028 Warrington Dr",
    "address_councildis": "D",
    "status": "Pending",
    "rowid": "1225393",
    "final_x": "3680625.55515",
    "final_y": "554863.369048",
    "longitude": "-90.07001883366271",
    "latitude": "30.01970826986885",
    "geocoded_column": {
      "latitude": "30.01970826986885",
      "longitude": "-90.07001883366271"
    }
  },
  {
    "service_request": "2025-1225392",
    "request_type": "Trash/Recycling",
    "request_reason": "Request a Large Item Pick Up",
    "date_created": "2025-09-10T14:59:28.000",
    "date_modified": "2025-09-10T14:59:29.000",
    "request_status": "Pending",
    "responsible_agency": "Department of Sanitation",
    "final_address": "1831 Fats Domino Ave",
    "address_councildis": "E",
    "status": "Assigned to Contractor",
    "contractor": "Waste Pro",
    "rowid": "1225392",
    "final_x": "3698851.07556",
    "final_y": "536609.440327",
    "longitude": "-90.01309704046147",
    "latitude": "29.968951603885586",
    "geocoded_column": {
      "latitude": "29.968951603885586",
      "longitude": "-90.01309704046147"
    }
  },
  {
    "service_request": "2025-1225391",
    "request_type": "Trash/Recycling",
    "request_reason": "Request a Large Item Pick Up",
    "date_created": "2025-09-10T14:57:43.000",
    "date_modified": "2025-09-10T14:57:44.000",
    "request_status": "Pending",
    "responsible_agency": "Department of Sanitation",
    "final_address": "920 Jena St",
    "address_councildis": "B",
    "status": "Assigned to Contractor",
    "contractor": "IV Waste",
    "rowid": "1225391",
    "final_x": "3670575.67124",
    "final_y": "518927.914359",
    "longitude": "-90.10299244412109",
    "latitude": "29.92119869110157",
    "geocoded_column": {
      "latitude": "29.92119869110157",
      "longitude": "-90.10299244412109"
    }
  },
  {
    "service_request": "2025-1225390",
    "request_type": "Trash/Recycling",
    "request_reason": "Request a Large Item Pick Up",
    "date_created": "2025-09-10T14:56:23.000",
    "date_modified": "2025-09-10T14:56:25.000",
    "request_status": "Pending",
    "responsible_agency": "Department of Sanitation",
    "final_address": "5668 Bellaire Dr",
    "address_councildis": "A",
    "status": "Assigned to Contractor",
    "contractor": "IV Waste",
    "rowid": "1225390",
    "final_x": "3664072.42791",
    "final_y": "545568.111888",
    "longitude": "-90.12263186630288",
    "latitude": "29.994640953900543",
    "geocoded_column": {
      "latitude": "29.994640953900543",
      "longitude": "-90.12263186630288"
    }
  },
  {
    "service_request": "2025-1225389",
    "request_type": "Trash/Recycling",
    "request_reason": "Request a Large Item Pick Up",
    "date_created": "2025-09-10T14:56:01.000",
    "date_modified": "2025-09-10T14:56:02.000",
    "request_status": "Pending",
    "responsible_agency": "Department of Sanitation",
    "final_address": "1239 St Roch Ave",
    "address_councildis": "C",
    "status": "Assigned to Contractor",
    "contractor": "IV Waste",
    "rowid": "1225389",
    "final_x": "3686524.21462",
    "final_y": "537100.770056",
    "longitude": "-90.05200863988547",
    "latitude": "29.970687364738772",
    "geocoded_column": {
      "latitude": "29.970687364738772",
      "longitude": "-90.05200863988547"
    }
  },
  {
    "service_request": "2025-1225388",
    "request_type": "Roads and Streets",
    "request_reason": "Pothole",
    "date_created": "2025-09-10T14:55:45.000",
    "date_modified": "2025-09-10T14:55:47.000",
    "request_status": "Pending",
    "responsible_agency": "Department of Public Works",
    "final_address": "2125 Amelia St",
    "address_councildis": "B",
    "status": "Pending",
    "rowid": "1225388",
    "final_x": "3672703.1538",
    "final_y": "523133.529339",
    "longitude": "-90.09613357805861",
    "latitude": "29.93269979709029",
    "geocoded_column": {
      "latitude": "29.93269979709029",
      "longitude": "-90.09613357805861"
    }
  },
  {
    "service_request": "2025-1225387",
    "request_type": "Trash/Recycling",
    "request_reason": "Dead Animal Pick Up",
    "date_created": "2025-09-10T14:54:53.000",
    "date_modified": "2025-09-10T14:54:54.000",
    "request_status": "Pending",
    "responsible_agency": "Department of Sanitation",
    "final_address": "7600 Anne Marie Ct",
    "address_councildis": "E",
    "status": "Assigned to Contractor",
    "contractor": "Waste Pro",
    "rowid": "1225387",
    "final_x": "3717984.27513",
    "final_y": "571031.767271",
    "longitude": "-89.9513627926172",
    "latitude": "30.06297933566219",
    "geocoded_column": {
      "latitude": "30.06297933566219",
      "longitude": "-89.9513627926172"
    }
  },
  {
    "service_request": "2025-1225386",
    "request_type": "Trash/Recycling",
    "request_reason": "Request a Large Item Pick Up",
    "date_created": "2025-09-10T14:54:31.000",
    "date_modified": "2025-09-10T14:54:33.000",
    "request_status": "Pending",
    "responsible_agency": "Department of Sanitation",
    "final_address": "1824 Bodenger Blvd",
    "address_councildis": "C",
    "status": "Assigned to Contractor",
    "contractor": "Richards Disposal",
    "rowid": "1225386",
    "final_x": "3688512.85891",
    "final_y": "524951.991869",
    "longitude": "-90.0461592757003",
    "latitude": "29.93722111306111",
    "geocoded_column": {
      "latitude": "29.93722111306111",
      "longitude": "-90.0461592757003"
    }
  },
  {
    "service_request": "2025-1225385",
    "request_type": "Roads and Streets",
    "request_reason": "Push-up/Pavement Expansion",
    "date_created": "2025-09-10T14:47:52.000",
    "date_modified": "2025-09-10T14:47:54.000",
    "request_status": "Pending",
    "responsible_agency": "Department of Public Works",
    "final_address": "1200 BLK Seville Dr",
    "address_councildis": "D",
    "status": "Pending",
    "rowid": "1225385",
    "final_x": "3677238.73144",
    "final_y": "551111.804388",
    "longitude": "-90.08084966496767",
    "latitude": "30.00949505430917",
    "geocoded_column": {
      "latitude": "30.00949505430917",
      "longitude": "-90.08084966496767"
    }
  },
  {
    "service_request": "2025-1225384",
    "request_type": "Trash/Recycling",
    "request_reason": "Request a Large Item Pick Up",
    "date_created": "2025-09-10T14:47:48.000",
    "date_modified": "2025-09-10T14:47:49.000",
    "request_status": "Pending",
    "responsible_agency": "Department of Sanitation",
    "final_address": "719 Ninth St",
    "address_councildis": "B",
    "status": "Assigned to Contractor",
    "contractor": "IV Waste",
    "rowid": "1225384",
    "final_x": "3676638.94773",
    "final_y": "518953.604919",
    "longitude": "-90.0838524787258",
    "latitude": "29.92108892410324",
    "geocoded_column": {
      "latitude": "29.92108892410324",
      "longitude": "-90.0838524787258"
    }
  },
  {
    "service_request": "2025-1225383",
    "request_type": "Trash/Recycling",
    "request_reason": "Request a Large Item Pick Up",
    "date_created": "2025-09-10T14:47:38.000",
    "date_modified": "2025-09-10T14:47:40.000",
    "request_status": "Pending",
    "responsible_agency": "Department of Sanitation",
    "final_address": "4409 Skyview Dr",
    "address_councildis": "D",
    "status": "Assigned to Contractor",
    "contractor": "Waste Pro",
    "rowid": "1225383",
    "final_x": "3696898.62589",
    "final_y": "552607.031318",
    "longitude": "-90.01868332725606",
    "latitude": "30.013000829117143",
    "geocoded_column": {
      "latitude": "30.013000829117143",
      "longitude": "-90.01868332725606"
    }
  },
  {
    "service_request": "2025-1225382",
    "request_type": "Trash/Recycling",
    "request_reason": "Order Recycling Cart",
    "date_created": "2025-09-10T14:47:25.000",
    "date_modified": "2025-09-10T14:47:28.000",
    "request_status": "Pending",
    "responsible_agency": "Department of Sanitation",
    "final_address": "4651 Lennox Blvd",
    "address_councildis": "C",
    "status": "Pending",
    "rowid": "1225382",
    "final_x": "3700665.89239",
    "final_y": "513660.278514",
    "longitude": "-90.00820391628842",
    "latitude": "29.90579179313157",
    "geocoded_column": {
      "latitude": "29.90579179313157",
      "longitude": "-90.00820391628842"
    }
  },
  {
    "service_request": "2025-1225381",
    "request_type": "Safety & Permits",
    "request_reason": "Zoning Enforcement",
    "date_created": "2025-09-10T14:46:53.000",
    "date_modified": "2025-09-10T15:38:05.000",
    "case_close_date": "2025-09-10T10:38:04.000",
    "request_status": "Closed",
    "responsible_agency": "Safety and Permits",
    "final_address": "RIVER RD & STANTON RD",
    "address_councildis": "C",
    "status": "Resolved",
    "rowid": "1225381",
    "final_x": "3722129.7",
    "final_y": "518480.28",
    "longitude": "-89.94027866146554",
    "latitude": "29.918345092373784",
    "geocoded_column": {
      "latitude": "29.918345092373784",
      "longitude": "-89.94027866146554"
    }
  },
  {
    "service_request": "2025-1225380",
    "request_type": "Trash/Recycling",
    "request_reason": "Return Recycling Cart",
    "date_created": "2025-09-10T14:41:26.000",
    "date_modified": "2025-09-10T14:54:10.000",
    "request_status": "Pending",
    "responsible_agency": "Department of Sanitation",
    "final_address": "4419 Knight Dr",
    "address_councildis": "E",
    "status": "Pending",
    "rowid": "1225380",
    "final_x": "3708377.53784",
    "final_y": "553852.125207",
    "longitude": "-89.98237011006736",
    "latitude": "30.016057233859833",
    "geocoded_column": {
      "latitude": "30.016057233859833",
      "longitude": "-89.98237011006736"
    }
  },
  {
    "service_request": "2025-1225379",
    "request_type": "Trash/Recycling",
    "request_reason": "Return Recycling Cart",
    "date_created": "2025-09-10T14:36:42.000",
    "date_modified": "2025-09-10T14:36:43.000",
    "request_status": "Pending",
    "responsible_agency": "Department of Sanitation",
    "final_address": "6201 Oxford St",
    "address_councildis": "C",
    "status": "Pending",
    "rowid": "1225379",
    "final_x": "3707040.25502",
    "final_y": "519673.730616",
    "longitude": "-89.98786331672554",
    "latitude": "29.922122468502515",
    "geocoded_column": {
      "latitude": "29.922122468502515",
      "longitude": "-89.98786331672554"
    }
  },
  {
    "service_request": "2025-1225378",
    "request_type": "Property Maintenance",
    "request_reason": "Property Maintenance",
    "date_created": "2025-09-10T14:34:26.000",
    "date_modified": "2025-09-10T15:09:01.000",
    "case_close_date": "2025-09-10T10:09:00.000",
    "request_status": "Closed",
    "responsible_agency": "Department of Code Enforcement",
    "final_address": "12300 S Interstate 10 Service Rd",
    "address_councildis": "E",
    "status": "Referred to Code Enforcement",
    "rowid": "1225378",
    "final_x": "3716665.08037",
    "final_y": "565319.49565",
    "longitude": "-89.95574986232063",
    "latitude": "30.04731662515395",
    "geocoded_column": {
      "latitude": "30.04731662515395",
      "longitude": "-89.95574986232063"
    }
  },
  {
    "service_request": "2025-1225377",
    "request_type": "Trash/Recycling",
    "request_reason": "Return Trash Cart",
    "date_created": "2025-09-10T14:32:29.000",
    "date_modified": "2025-09-10T14:32:30.000",
    "request_status": "Pending",
    "responsible_agency": "Department of Sanitation",
    "final_address": "6201 Oxford St",
    "address_councildis": "C",
    "status": "Assigned to Contractor",
    "contractor": "Richards Disposal",
    "rowid": "1225377",
    "final_x": "3707040.25502",
    "final_y": "519673.730616",
    "longitude": "-89.98786331672554",
    "latitude": "29.922122468502515",
    "geocoded_column": {
      "latitude": "29.922122468502515",
      "longitude": "-89.98786331672554"
    }
  },
  {
    "service_request": "2025-1225376",
    "request_type": "Trash/Recycling",
    "request_reason": "Replace Trash Cart",
    "date_created": "2025-09-10T14:28:29.000",
    "date_modified": "2025-09-10T14:28:32.000",
    "request_status": "Pending",
    "responsible_agency": "Department of Sanitation",
    "final_address": "2551 Columbus St",
    "address_councildis": "D",
    "status": "Assigned to Contractor",
    "contractor": "IV Waste",
    "rowid": "1225376",
    "final_x": "3678795.72078",
    "final_y": "539489.740234",
    "longitude": "-90.0763333931997",
    "latitude": "29.977491581099052",
    "geocoded_column": {
      "latitude": "29.977491581099052",
      "longitude": "-90.0763333931997"
    }
  },
  {
    "service_request": "2025-1225375",
    "request_type": "Trash/Recycling",
    "request_reason": "Request a Large Item Pick Up",
    "date_created": "2025-09-10T14:22:57.000",
    "date_modified": "2025-09-10T14:22:58.000",
    "request_status": "Pending",
    "responsible_agency": "Department of Sanitation",
    "final_address": "5717 N Claiborne Ave",
    "address_councildis": "E",
    "status": "Assigned to Contractor",
    "contractor": "Waste Pro",
    "rowid": "1225375",
    "final_x": "3699033.38743",
    "final_y": "535572.868358",
    "longitude": "-90.01255902438191",
    "latitude": "29.96609562567164",
    "geocoded_column": {
      "latitude": "29.96609562567164",
      "longitude": "-90.01255902438191"
    }
  },
  {
    "service_request": "2025-1225374",
    "request_type": "Trash/Recycling",
    "request_reason": "Request a Large Item Pick Up",
    "date_created": "2025-09-10T14:22:52.000",
    "date_modified": "2025-09-10T14:22:53.000",
    "request_status": "Pending",
    "responsible_agency": "Department of Sanitation",
    "final_address": "20 Curtis Dr",
    "address_councildis": "E",
    "status": "Assigned to Contractor",
    "contractor": "Waste Pro",
    "rowid": "1225374",
    "final_x": "3698301.71523",
    "final_y": "560688.457886",
    "longitude": "-90.01395634998768",
    "latitude": "30.03517732907263",
    "geocoded_column": {
      "latitude": "30.03517732907263",
      "longitude": "-90.01395634998768"
    }
  },
  {
    "service_request": "2025-1225373",
    "request_type": "Trash/Recycling",
    "request_reason": "Request a Large Item Pick Up",
    "date_created": "2025-09-10T14:22:40.000",
    "date_modified": "2025-09-10T14:22:42.000",
    "request_status": "Pending",
    "responsible_agency": "Department of Sanitation",
    "final_address": "8326 Leeds St",
    "address_councildis": "E",
    "status": "Assigned to Contractor",
    "contractor": "Waste Pro",
    "rowid": "1225373",
    "final_x": "3705982.97067",
    "final_y": "555042.232665",
    "longitude": "-89.98989173227845",
    "latitude": "30.01940698136084",
    "geocoded_column": {
      "latitude": "30.01940698136084",
      "longitude": "-89.98989173227845"
    }
  },
  {
    "service_request": "2025-1225372",
    "request_type": "Trash/Recycling",
    "request_reason": "Request a Large Item Pick Up",
    "date_created": "2025-09-10T14:20:31.000",
    "date_modified": "2025-09-10T14:20:33.000",
    "request_status": "Pending",
    "responsible_agency": "Department of Sanitation",
    "final_address": "2113 N Miro St",
    "address_councildis": "D",
    "status": "Assigned to Contractor",
    "contractor": "IV Waste",
    "rowid": "1225372",
    "final_x": "3684037.52181",
    "final_y": "540332.851339",
    "longitude": "-90.05974845156099",
    "latitude": "29.979650686373503",
    "geocoded_column": {
      "latitude": "29.979650686373503",
      "longitude": "-90.05974845156099"
    }
  },
  {
    "service_request": "2025-1225371",
    "request_type": "Roads and Streets",
    "request_reason": "Pothole",
    "date_created": "2025-09-10T14:18:49.000",
    "date_modified": "2025-09-10T14:18:50.000",
    "request_status": "Pending",
    "responsible_agency": "Department of Public Works",
    "final_address": "3224 Magazine St",
    "address_councildis": "B",
    "status": "Pending",
    "rowid": "1225371",
    "final_x": "3675621.98414",
    "final_y": "519838.166776",
    "longitude": "-90.0870322105671",
    "latitude": "29.92355163770679",
    "geocoded_column": {
      "latitude": "29.92355163770679",
      "longitude": "-90.0870322105671"
    }
  },
  {
    "service_request": "2025-1225370",
    "request_type": "Trash/Recycling",
    "request_reason": "Request a Large Item Pick Up",
    "date_created": "2025-09-10T14:18:33.000",
    "date_modified": "2025-09-10T14:18:36.000",
    "request_status": "Pending",
    "responsible_agency": "Department of Sanitation",
    "final_address": "6869 West End Blvd",
    "address_councildis": "A",
    "status": "Assigned to Contractor",
    "contractor": "IV Waste",
    "rowid": "1225370",
    "final_x": "3666869.59924",
    "final_y": "553346.537687",
    "longitude": "-90.113534337405",
    "latitude": "30.01594736167639",
    "geocoded_column": {
      "latitude": "30.01594736167639",
      "longitude": "-90.113534337405"
    }
  },
  {
    "service_request": "2025-1225369",
    "request_type": "Trash/Recycling",
    "request_reason": "Request a Large Item Pick Up",
    "date_created": "2025-09-10T14:16:49.000",
    "date_modified": "2025-09-10T14:16:53.000",
    "request_status": "Pending",
    "responsible_agency": "Department of Sanitation",
    "final_address": "2517 Frenchmen St",
    "address_councildis": "D",
    "status": "Assigned to Contractor",
    "contractor": "IV Waste",
    "rowid": "1225369",
    "final_x": "3684197.16124",
    "final_y": "541592.444556",
    "longitude": "-90.05920000916132",
    "latitude": "29.98310924504975",
    "geocoded_column": {
      "latitude": "29.98310924504975",
      "longitude": "-90.05920000916132"
    }
  },
  {
    "service_request": "2025-1225368",
    "request_type": "Healthy Homes",
    "request_reason": "Healthy Homes",
    "date_created": "2025-09-10T14:14:41.000",
    "date_modified": "2025-09-10T14:32:28.000",
    "case_close_date": "2025-09-10T09:32:26.000",
    "request_status": "Closed",
    "responsible_agency": "Department of Code Enforcement",
    "final_address": "511 Marigny St",
    "address_councildis": "C",
    "status": "Referred to Code Enforcement",
    "rowid": "1225368",
    "final_x": "3685612.26338",
    "final_y": "534293.513669",
    "longitude": "-90.05498759507746",
    "latitude": "29.962996392583978",
    "geocoded_column": {
      "latitude": "29.962996392583978",
      "longitude": "-90.05498759507746"
    }
  },
  {
    "service_request": "2025-1225367",
    "request_type": "Trash/Recycling",
    "request_reason": "Request a Large Item Pick Up",
    "date_created": "2025-09-10T14:11:05.000",
    "date_modified": "2025-09-10T14:11:08.000",
    "request_status": "Pending",
    "responsible_agency": "Department of Sanitation",
    "final_address": "820 Jena St",
    "address_councildis": "B",
    "status": "Assigned to Contractor",
    "contractor": "IV Waste",
    "rowid": "1225367",
    "final_x": "3670640.18126",
    "final_y": "518548.393335",
    "longitude": "-90.10280167941691",
    "latitude": "29.920153223917275",
    "geocoded_column": {
      "latitude": "29.920153223917275",
      "longitude": "-90.10280167941691"
    }
  },
  {
    "service_request": "2025-1225365",
    "request_type": "Trash/Recycling",
    "request_reason": "Request a Large Item Pick Up",
    "date_created": "2025-09-10T14:07:55.000",
    "date_modified": "2025-09-10T14:07:57.000",
    "request_status": "Pending",
    "responsible_agency": "Department of Sanitation",
    "final_address": "4109 Mithra St",
    "address_councildis": "D",
    "status": "Assigned to Contractor",
    "contractor": "IV Waste",
    "rowid": "1225365",
    "final_x": "3689086.15747",
    "final_y": "553152.709783",
    "longitude": "-90.04334702853875",
    "latitude": "30.014745391316556",
    "geocoded_column": {
      "latitude": "30.014745391316556",
      "longitude": "-90.04334702853875"
    }
  },
  {
    "service_request": "2025-1225366",
    "request_type": "Parks & Parkways",
    "request_reason": "Request Tree Service (Right of Way/Public Property)",
    "date_created": "2025-09-10T14:07:55.000",
    "date_modified": "2025-09-10T14:07:57.000",
    "request_status": "Pending",
    "responsible_agency": "Department of Parks & Parkway",
    "final_address": "716 Calhoun St",
    "address_councildis": "A",
    "status": "Pending",
    "rowid": "1225366",
    "final_x": "3663333.25715",
    "final_y": "519575.270328",
    "longitude": "-90.12583209695087",
    "latitude": "29.92319056045942",
    "geocoded_column": {
      "latitude": "29.92319056045942",
      "longitude": "-90.12583209695087"
    }
  },
  {
    "service_request": "2025-1225364",
    "request_type": "Trash/Recycling",
    "request_reason": "Order Trash Cart",
    "date_created": "2025-09-10T14:03:20.000",
    "date_modified": "2025-09-10T14:03:21.000",
    "request_status": "Pending",
    "responsible_agency": "Department of Sanitation",
    "final_address": "7219 Burthe St",
    "address_councildis": "A",
    "status": "Assigned to Contractor",
    "contractor": "IV Waste",
    "rowid": "1225364",
    "final_x": "3663440.26432",
    "final_y": "525747.489405",
    "longitude": "-90.1252889040458",
    "latitude": "29.940159114856993",
    "geocoded_column": {
      "latitude": "29.940159114856993",
      "longitude": "-90.1252889040458"
    }
  },
  {
    "service_request": "2025-1225363",
    "request_type": "Trash/Recycling",
    "request_reason": "Request a Large Item Pick Up",
    "date_created": "2025-09-10T14:01:05.000",
    "date_modified": "2025-09-10T14:01:07.000",
    "request_status": "Pending",
    "responsible_agency": "Department of Sanitation",
    "final_address": "1220 Lauradale Dr",
    "address_councildis": "C",
    "status": "Assigned to Contractor",
    "contractor": "Richards Disposal",
    "rowid": "1225363",
    "final_x": "3692877.11689",
    "final_y": "526760.003774",
    "longitude": "-90.03231629155724",
    "latitude": "29.942057000399465",
    "geocoded_column": {
      "latitude": "29.942057000399465",
      "longitude": "-90.03231629155724"
    }
  },
  {
    "service_request": "2025-1225362",
    "request_type": "Trash/Recycling",
    "request_reason": "Damaged Caused By Contractor",
    "date_created": "2025-09-10T13:57:34.000",
    "date_modified": "2025-09-10T13:57:35.000",
    "request_status": "Pending",
    "responsible_agency": "Department of Sanitation",
    "final_address": "0 BLK Christopher Ct",
    "address_councildis": "E",
    "status": "Assigned to Contractor",
    "contractor": "Waste Pro",
    "rowid": "1225362",
    "final_x": "3716505.35632",
    "final_y": "570282.956006",
    "longitude": "-89.95606611630517",
    "latitude": "30.060969377117353",
    "geocoded_column": {
      "latitude": "30.060969377117353",
      "longitude": "-89.95606611630517"
    }
  },
  {
    "service_request": "2025-1225361",
    "request_type": "Streetlights",
    "request_reason": "Streetlight Outage/Malfunction",
    "date_created": "2025-09-10T13:56:21.000",
    "date_modified": "2025-09-10T13:56:22.000",
    "request_status": "Pending",
    "responsible_agency": "Department of Public Works",
    "final_address": "4000 BLK Vendome Pl",
    "address_councildis": "B",
    "status": "Pending",
    "rowid": "1225361",
    "final_x": "3668746.10079",
    "final_y": "530078.906821",
    "longitude": "-90.1083913152876",
    "latitude": "29.951914225571077",
    "geocoded_column": {
      "latitude": "29.951914225571077",
      "longitude": "-90.1083913152876"
    }
  },
  {
    "service_request": "2025-1225360",
    "request_type": "Abandoned Vehicles",
    "request_reason": "Abandoned/Junk Vehicles",
    "date_created": "2025-09-10T13:54:04.000",
    "date_modified": "2025-09-10T13:54:05.000",
    "request_status": "Pending",
    "responsible_agency": "Department of Public Works",
    "final_address": "632 Moss St",
    "address_councildis": "A",
    "status": "Pending",
    "rowid": "1225360",
    "final_x": "3674392.55457",
    "final_y": "538514.037001",
    "longitude": "-90.09027352250254",
    "latitude": "29.97494081275978",
    "geocoded_column": {
      "latitude": "29.97494081275978",
      "longitude": "-90.09027352250254"
    }
  },
  {
    "service_request": "2025-1225359",
    "request_type": "Property Maintenance",
    "request_reason": "Property Maintenance",
    "date_created": "2025-09-10T13:50:36.000",
    "date_modified": "2025-09-10T14:33:27.000",
    "case_close_date": "2025-09-10T09:33:25.000",
    "request_status": "Closed",
    "responsible_agency": "Department of Code Enforcement",
    "final_address": "2135 St Bernard Ave",
    "address_councildis": "D",
    "status": "Referred to Code Enforcement",
    "rowid": "1225359",
    "final_x": "3681292.15298",
    "final_y": "539747.213194",
    "longitude": "-90.06843984966716",
    "latitude": "29.978124003640428",
    "geocoded_column": {
      "latitude": "29.978124003640428",
      "longitude": "-90.06843984966716"
    }
  },
  {
    "service_request": "2025-1225358",
    "request_type": "Trash/Recycling",
    "request_reason": "Order Recycling Cart",
    "date_created": "2025-09-10T13:50:05.000",
    "date_modified": "2025-09-10T13:50:07.000",
    "request_status": "Pending",
    "responsible_agency": "Department of Sanitation",
    "final_address": "4820 Camelot Dr",
    "address_councildis": "E",
    "status": "Pending",
    "rowid": "1225358",
    "final_x": "3708240.86692",
    "final_y": "556175.875866",
    "longitude": "-89.98271538454881",
    "latitude": "30.022451075635",
    "geocoded_column": {
      "latitude": "30.022451075635",
      "longitude": "-89.98271538454881"
    }
  },
  {
    "service_request": "2025-1225357",
    "request_type": "Property Maintenance",
    "request_reason": "Property Maintenance",
    "date_created": "2025-09-10T13:42:17.000",
    "date_modified": "2025-09-10T14:54:05.000",
    "case_close_date": "2025-09-10T09:54:04.000",
    "request_status": "Closed",
    "responsible_agency": "Department of Code Enforcement",
    "final_address": "2712 Painters St",
    "address_councildis": "D",
    "status": "Referred to Code Enforcement",
    "rowid": "1225357",
    "final_x": "3687011.20265",
    "final_y": "542887.265613",
    "longitude": "-90.05026604664238",
    "latitude": "29.98658320312581",
    "geocoded_column": {
      "latitude": "29.98658320312581",
      "longitude": "-90.05026604664238"
    }
  },
  {
    "service_request": "2025-1225356",
    "request_type": "Trash/Recycling",
    "request_reason": "Repair Recycling Cart",
    "date_created": "2025-09-10T13:42:17.000",
    "date_modified": "2025-09-10T13:42:18.000",
    "request_status": "Pending",
    "responsible_agency": "Department of Sanitation",
    "final_address": "7810 Mackenzie St",
    "address_councildis": "E",
    "status": "Pending",
    "rowid": "1225356",
    "final_x": "3710562.42257",
    "final_y": "566690.835747",
    "longitude": "-89.97498603427654",
    "latitude": "30.05128758063742",
    "geocoded_column": {
      "latitude": "30.05128758063742",
      "longitude": "-89.97498603427654"
    }
  },
  {
    "service_request": "2025-1225355",
    "request_type": "Trash/Recycling",
    "request_reason": "MIssed Recycling Pick-Up",
    "date_created": "2025-09-10T13:40:17.000",
    "date_modified": "2025-09-10T13:40:18.000",
    "request_status": "Pending",
    "responsible_agency": "Department of Sanitation",
    "final_address": "7810 Mackenzie St",
    "address_councildis": "E",
    "status": "Assigned to Contractor",
    "contractor": "Waste Pro",
    "rowid": "1225355",
    "final_x": "3710562.42257",
    "final_y": "566690.835747",
    "longitude": "-89.97498603427654",
    "latitude": "30.05128758063742",
    "geocoded_column": {
      "latitude": "30.05128758063742",
      "longitude": "-89.97498603427654"
    }
  },
  {
    "service_request": "2025-1225354",
    "request_type": "Trash/Recycling",
    "request_reason": "Repair Trash Cart",
    "date_created": "2025-09-10T13:39:30.000",
    "date_modified": "2025-09-10T13:39:31.000",
    "request_status": "Pending",
    "responsible_agency": "Department of Sanitation",
    "final_address": "1820 Lowerline St",
    "address_councildis": "A",
    "status": "Assigned to Contractor",
    "contractor": "IV Waste",
    "rowid": "1225354",
    "final_x": "3664936.5609",
    "final_y": "528772.179008",
    "longitude": "-90.1204637638048",
    "latitude": "29.948432577931392",
    "geocoded_column": {
      "latitude": "29.948432577931392",
      "longitude": "-90.1204637638048"
    }
  },
  {
    "service_request": "2025-1225353",
    "request_type": "Trash/Recycling",
    "request_reason": "Request a Large Item Pick Up",
    "date_created": "2025-09-10T13:35:21.000",
    "date_modified": "2025-09-10T13:35:24.000",
    "request_status": "Pending",
    "responsible_agency": "Department of Sanitation",
    "final_address": "5540 Grand Bayou Dr",
    "address_councildis": "E",
    "status": "Assigned to Contractor",
    "contractor": "Waste Pro",
    "rowid": "1225353",
    "final_x": "3725035.67795",
    "final_y": "564032.990241",
    "longitude": "-89.9293443967895",
    "latitude": "30.043499904694183",
    "geocoded_column": {
      "latitude": "30.043499904694183",
      "longitude": "-89.9293443967895"
    }
  },
  {
    "service_request": "2025-1225352",
    "request_type": "Streetlights",
    "request_reason": "Streetlight Outage/Malfunction",
    "date_created": "2025-09-10T13:28:33.000",
    "date_modified": "2025-09-10T13:28:35.000",
    "request_status": "Pending",
    "responsible_agency": "Department of Public Works",
    "final_address": "13667 N Nemours St",
    "address_councildis": "E",
    "status": "Pending",
    "rowid": "1225352",
    "final_x": "3726381.53414",
    "final_y": "563251.581472",
    "longitude": "-89.92512133154803",
    "latitude": "30.04130594346441",
    "geocoded_column": {
      "latitude": "30.04130594346441",
      "longitude": "-89.92512133154803"
    }
  },
  {
    "service_request": "2025-1225351",
    "request_type": "Streetlights",
    "request_reason": "Streetlight Outage/Malfunction",
    "date_created": "2025-09-10T13:25:14.000",
    "date_modified": "2025-09-10T13:25:16.000",
    "request_status": "Pending",
    "responsible_agency": "Department of Public Works",
    "final_address": "2314 Magic St",
    "address_councildis": "D",
    "status": "Pending",
    "rowid": "1225351",
    "final_x": "3677744.27566",
    "final_y": "535838.378375",
    "longitude": "-90.07978037465584",
    "latitude": "29.967483260844848",
    "geocoded_column": {
      "latitude": "29.967483260844848",
      "longitude": "-90.07978037465584"
    }
  },
  {
    "service_request": "2025-1225350",
    "request_type": "Trash/Recycling",
    "request_reason": "Request a Large Item Pick Up",
    "date_created": "2025-09-10T13:16:43.000",
    "date_modified": "2025-09-10T13:16:44.000",
    "request_status": "Pending",
    "responsible_agency": "Department of Sanitation",
    "final_address": "8025 Pompano St",
    "address_councildis": "E",
    "status": "Assigned to Contractor",
    "contractor": "Waste Pro",
    "rowid": "1225350",
    "final_x": "3700133.18429",
    "final_y": "561923.367647",
    "longitude": "-90.00812351260636",
    "latitude": "30.0385147380732",
    "geocoded_column": {
      "latitude": "30.0385147380732",
      "longitude": "-90.00812351260636"
    }
  },
  {
    "service_request": "2025-1225348",
    "request_type": "Abandoned Vehicles",
    "request_reason": "Abandoned/Junk Vehicles",
    "date_created": "2025-09-10T13:10:36.000",
    "date_modified": "2025-09-10T13:10:37.000",
    "request_status": "Pending",
    "responsible_agency": "Department of Public Works",
    "final_address": "1500 BLK Tupelo St",
    "address_councildis": "E",
    "status": "Pending",
    "rowid": "1225348",
    "final_x": "3700070.69398",
    "final_y": "534890.36439",
    "longitude": "-90.0093081620199",
    "latitude": "29.96418606701858",
    "geocoded_column": {
      "latitude": "29.96418606701858",
      "longitude": "-90.0093081620199"
    }
  },
  {
    "service_request": "2025-1225347",
    "request_type": "Trash/Recycling",
    "request_reason": "Change Size of Trash Cart",
    "date_created": "2025-09-10T13:06:31.000",
    "date_modified": "2025-09-10T13:06:33.000",
    "request_status": "Pending",
    "responsible_agency": "Department of Sanitation",
    "final_address": "22 Kristen Ct",
    "address_councildis": "E",
    "status": "Assigned to Contractor",
    "contractor": "Waste Pro",
    "rowid": "1225347",
    "final_x": "3713530.06834",
    "final_y": "567224.013028",
    "longitude": "-89.96558626034239",
    "latitude": "30.05265653468304",
    "geocoded_column": {
      "latitude": "30.05265653468304",
      "longitude": "-89.96558626034239"
    }
  },
  {
    "service_request": "2025-1225346",
    "request_type": "Trash/Recycling",
    "request_reason": "Repair Trash Cart",
    "date_created": "2025-09-10T13:05:52.000",
    "date_modified": "2025-09-10T13:05:54.000",
    "request_status": "Pending",
    "responsible_agency": "Department of Sanitation",
    "final_address": "5000 N Prieur St",
    "address_councildis": "E",
    "status": "Assigned to Contractor",
    "contractor": "Waste Pro",
    "rowid": "1225346",
    "final_x": "3696820.63101",
    "final_y": "537159.73076",
    "longitude": "-90.01948935629362",
    "latitude": "29.97052887698136",
    "geocoded_column": {
      "latitude": "29.97052887698136",
      "longitude": "-90.01948935629362"
    }
  },
  {
    "service_request": "2025-1225345",
    "request_type": "Trash/Recycling",
    "request_reason": "Request a Large Item Pick Up",
    "date_created": "2025-09-10T13:05:02.000",
    "date_modified": "2025-09-10T13:05:05.000",
    "request_status": "Pending",
    "responsible_agency": "Department of Sanitation",
    "final_address": "5000 N Prieur St",
    "address_councildis": "E",
    "status": "Assigned to Contractor",
    "contractor": "Waste Pro",
    "rowid": "1225345",
    "final_x": "3696820.63101",
    "final_y": "537159.73076",
    "longitude": "-90.01948935629362",
    "latitude": "29.97052887698136",
    "geocoded_column": {
      "latitude": "29.97052887698136",
      "longitude": "-90.01948935629362"
    }
  },
  {
    "service_request": "2025-1225344",
    "request_type": "Trash/Recycling",
    "request_reason": "Request a Large Item Pick Up",
    "date_created": "2025-09-10T13:04:48.000",
    "date_modified": "2025-09-10T13:04:50.000",
    "request_status": "Pending",
    "responsible_agency": "Department of Sanitation",
    "final_address": "3800 Peach Tree Ct",
    "address_councildis": "C",
    "status": "Assigned to Contractor",
    "contractor": "Richards Disposal",
    "rowid": "1225344",
    "final_x": "3703813.51729",
    "final_y": "512742.646641",
    "longitude": "-89.99830361693768",
    "latitude": "29.903168150332192",
    "geocoded_column": {
      "latitude": "29.903168150332192",
      "longitude": "-89.99830361693768"
    }
  },
  {
    "service_request": "2025-1225343",
    "request_type": "Trash/Recycling",
    "request_reason": "Request a Large Item Pick Up",
    "date_created": "2025-09-10T13:01:48.000",
    "date_modified": "2025-09-10T13:01:50.000",
    "request_status": "Pending",
    "responsible_agency": "Department of Sanitation",
    "final_address": "1218 Bartholomew St",
    "address_councildis": "D",
    "status": "Assigned to Contractor",
    "contractor": "IV Waste",
    "rowid": "1225343",
    "final_x": "3691892.92406",
    "final_y": "535814.988039",
    "longitude": "-90.03509968073944",
    "latitude": "29.966985750314265",
    "geocoded_column": {
      "latitude": "29.966985750314265",
      "longitude": "-90.03509968073944"
    }
  },
  {
    "service_request": "2025-1225342",
    "request_type": "Trash/Recycling",
    "request_reason": "Return Trash Cart",
    "date_created": "2025-09-10T13:01:03.000",
    "date_modified": "2025-09-10T13:01:06.000",
    "request_status": "Pending",
    "responsible_agency": "Department of Sanitation",
    "final_address": "1922 Milan St",
    "address_councildis": "B",
    "status": "Assigned to Contractor",
    "contractor": "IV Waste",
    "rowid": "1225342",
    "final_x": "3671428.49947",
    "final_y": "522178.743802",
    "longitude": "-90.10019000600168",
    "latitude": "29.93011222587029",
    "geocoded_column": {
      "latitude": "29.93011222587029",
      "longitude": "-90.10019000600168"
    }
  },
  {
    "service_request": "2025-1225341",
    "request_type": "Trash/Recycling",
    "request_reason": "Request a Large Item Pick Up",
    "date_created": "2025-09-10T13:00:19.000",
    "date_modified": "2025-09-10T13:00:44.000",
    "request_status": "Pending",
    "responsible_agency": "Department of Sanitation",
    "final_address": "7570 Branch Dr",
    "address_councildis": "E",
    "status": "Assigned to Contractor",
    "contractor": "Waste Pro",
    "rowid": "1225341",
    "final_x": "3714919.42629",
    "final_y": "568374.919077",
    "longitude": "-89.96115138010852",
    "latitude": "30.055775380776844",
    "geocoded_column": {
      "latitude": "30.055775380776844",
      "longitude": "-89.96115138010852"
    }
  },
  {
    "service_request": "2025-1225340",
    "request_type": "Trash/Recycling",
    "request_reason": "Repair Trash Cart",
    "date_created": "2025-09-10T12:57:26.000",
    "date_modified": "2025-09-10T12:57:27.000",
    "request_status": "Pending",
    "responsible_agency": "Department of Sanitation",
    "final_address": "3306 Broadway St",
    "address_councildis": "B",
    "status": "Assigned to Contractor",
    "contractor": "IV Waste",
    "rowid": "1225340",
    "final_x": "3668347.49364",
    "final_y": "532811.868292",
    "longitude": "-90.1095577686016",
    "latitude": "29.959440683287195",
    "geocoded_column": {
      "latitude": "29.959440683287195",
      "longitude": "-90.1095577686016"
    }
  },
  {
    "service_request": "2025-1225339",
    "request_type": "Trash/Recycling",
    "request_reason": "Illegal Dumping",
    "date_created": "2025-09-10T12:56:35.000",
    "date_modified": "2025-09-10T12:56:36.000",
    "request_status": "Pending",
    "responsible_agency": "Department of Sanitation",
    "final_address": "1014 N Carrollton Ave",
    "address_councildis": "A",
    "status": "Pending",
    "rowid": "1225339",
    "final_x": "3673787.24987",
    "final_y": "541106.512972",
    "longitude": "-90.09209653868531",
    "latitude": "29.982087277803604",
    "geocoded_column": {
      "latitude": "29.982087277803604",
      "longitude": "-90.09209653868531"
    }
  },
  {
    "service_request": "2025-1225338",
    "request_type": "Parks & Parkways",
    "request_reason": "Request Tree Service (Right of Way/Public Property)",
    "date_created": "2025-09-10T12:48:10.000",
    "date_modified": "2025-09-10T12:48:51.000",
    "request_status": "Pending",
    "responsible_agency": "Department of Parks & Parkway",
    "final_address": "4425 Duplessis St",
    "address_councildis": "D",
    "status": "Pending",
    "rowid": "1225338",
    "final_x": "3678341.62843",
    "final_y": "548777.890771",
    "longitude": "-90.07744604521804",
    "latitude": "30.00304443080129",
    "geocoded_column": {
      "latitude": "30.00304443080129",
      "longitude": "-90.07744604521804"
    }
  },
  {
    "service_request": "2025-1225337",
    "request_type": "Streetlights",
    "request_reason": "Streetlight Outage/Malfunction",
    "date_created": "2025-09-10T12:47:48.000",
    "date_modified": "2025-09-10T12:47:49.000",
    "request_status": "Pending",
    "responsible_agency": "Department of Public Works",
    "final_address": "4621 Tchoupitoulas St",
    "address_councildis": "B",
    "status": "Pending",
    "rowid": "1225337",
    "final_x": "3670254.02202",
    "final_y": "517402.220853",
    "longitude": "-90.10405941640809",
    "latitude": "29.91701300935095",
    "geocoded_column": {
      "latitude": "29.91701300935095",
      "longitude": "-90.10405941640809"
    }
  },
  {
    "service_request": "2025-1225336",
    "request_type": "Trash/Recycling",
    "request_reason": "Request a Large Item Pick Up",
    "date_created": "2025-09-10T12:47:28.000",
    "date_modified": "2025-09-10T12:47:57.000",
    "request_status": "Pending",
    "responsible_agency": "Department of Sanitation",
    "final_address": "1131 Lamanche St",
    "address_councildis": "E",
    "status": "Pending",
    "rowid": "1225336",
    "final_x": "3698521.46954",
    "final_y": "533950.197701",
    "longitude": "-90.01423463054492",
    "latitude": "29.961650075447622",
    "geocoded_column": {
      "latitude": "29.961650075447622",
      "longitude": "-90.01423463054492"
    }
  },
  {
    "service_request": "2025-1225335",
    "request_type": "Trash/Recycling",
    "request_reason": "Request a Large Item Pick Up",
    "date_created": "2025-09-10T12:45:13.000",
    "date_modified": "2025-09-10T12:45:14.000",
    "request_status": "Pending",
    "responsible_agency": "Department of Sanitation",
    "final_address": "6409 Bertha Dr",
    "address_councildis": "D",
    "status": "Assigned to Contractor",
    "contractor": "IV Waste",
    "rowid": "1225335",
    "final_x": "3678038.88264",
    "final_y": "556814.342298",
    "longitude": "-90.0781243474933",
    "latitude": "30.02515089887317",
    "geocoded_column": {
      "latitude": "30.02515089887317",
      "longitude": "-90.0781243474933"
    }
  },
  {
    "service_request": "2025-1225334",
    "request_type": "Trash/Recycling",
    "request_reason": "Request a Large Item Pick Up",
    "date_created": "2025-09-10T12:45:11.000",
    "date_modified": "2025-09-10T12:45:13.000",
    "request_status": "Pending",
    "responsible_agency": "Department of Sanitation",
    "final_address": "6737 Deanne St",
    "address_councildis": "D",
    "status": "Assigned to Contractor",
    "contractor": "Waste Pro",
    "rowid": "1225334",
    "final_x": "3695989.65008",
    "final_y": "555561.341145",
    "longitude": "-90.02144831939718",
    "latitude": "30.021152712746023",
    "geocoded_column": {
      "latitude": "30.021152712746023",
      "longitude": "-90.02144831939718"
    }
  },