[
  {
    "service_request": "2026-1267560",
    "request_type": "Trash/Recycling",
    "request_reason": "Order Trash Cart",
    "date_created": "2026-03-22T23:17:51.000",
    "date_modified": "2026-03-22T23:17:53.000",
    "request_status": "Pending",
    "responsible_agency": "Department of Sanitation",
    "final_address": "1483 N Roman St",
    "address_councildis": "D",
    "status": "Assigned to Contractor",
    "contractor": "IV Waste",
    "rowid": "1267560",
    "final_x": "3681105.45384",
    "final_y": "537615.70004",
    "longitude": "-90.06910378808328",
    "latitude": "29.97226874660401",
    "geocoded_column": {
      "latitude": "29.97226874660401",
      "longitude": "-90.06910378808328"
    }
  },
  {
    "service_request": "2026-1267559",
    "request_type": "Mosquito, Termite & Rodent Control",
    "request_reason": "Rodent Complaint (Mice & Rats)",
    "date_created": "2026-03-22T22:44:56.000",
    "date_modified": "2026-03-22T22:44:59.000",
    "request_status": "Pending",
    "responsible_agency": "Mosquito, Termite & Rodent Control Board",
    "final_address": "3232 Banks St",
    "address_councildis": "B",
    "status": "Pending",
    "rowid": "1267559",
    "final_x": "3672901.57646",
    "final_y": "535372.316806",
    "longitude": "-90.09508964619403",
    "latitude": "29.966346534662755",
    "geocoded_column": {
      "latitude": "29.966346534662755",
      "longitude": "-90.09508964619403"
    }
  },
  {
    "service_request": "2026-1267558",
    "request_type": "Property Maintenance",
    "request_reason": "Property Maintenance",
    "date_created": "2026-03-22T22:11:35.000",
    "date_modified": "2026-03-22T22:11:37.000",
    "request_status": "Pending",
    "responsible_agency": "Department of Code Enforcement",
    "final_address": "5660 Norgate Dr",
    "address_councildis": "E",
    "status": "Pending",
    "rowid": "1267558",
    "final_x": "3707971.05124",
    "final_y": "558290.846236",
    "longitude": "-89.98348920390008",
    "latitude": "30.02827515959021",
    "geocoded_column": {
      "latitude": "30.02827515959021",
      "longitude": "-89.98348920390008"
    }
  },
  {
    "service_request": "2026-1267557",
    "request_type": "Health Related Request",
    "request_reason": "Noise Ordinance Complaint",
    "date_created": "2026-03-22T21:57:27.000",
    "date_modified": "2026-03-22T21:57:28.000",
    "request_status": "Pending",
    "responsible_agency": "Health Department",
    "final_address": "800 Bourbon St, New Orleans, Louisiana, 70116",
    "address_councildis": "C",
    "status": "Pending",
    "rowid": "1267557",
    "final_x": "3682553.51528",
    "final_y": "533013.631428",
    "longitude": "-90.06469148499534",
    "latitude": "29.95957063099051",
    "geocoded_column": {
      "latitude": "29.95957063099051",
      "longitude": "-90.06469148499534"
    }
  },
  {
    "service_request": "2026-1267556",
    "request_type": "Health Related Request",
    "request_reason": "Noise Ordinance Complaint",
    "date_created": "2026-03-22T21:57:02.000",
    "date_modified": "2026-03-22T21:57:04.000",
    "request_status": "Pending",
    "responsible_agency": "Health Department",
    "final_address": "801 Bourbon St, New Orleans, Louisiana, 70116",
    "address_councildis": "C",
    "status": "Pending",
    "rowid": "1267556",
    "final_x": "3682490.98735",
    "final_y": "533018.672772",
    "longitude": "-90.06488875731978",
    "latitude": "29.959586396383013",
    "geocoded_column": {
      "latitude": "29.959586396383013",
      "longitude": "-90.06488875731978"
    }
  },
  {
    "service_request": "2026-1267555",
    "request_type": "Trash/Recycling",
    "request_reason": "Request a Large Item Pick Up",
    "date_created": "2026-03-22T21:55:24.000",
    "date_modified": "2026-03-22T21:55:39.000",
    "request_status": "Pending",
    "responsible_agency": "Department of Sanitation",
    "final_address": "1911 Horace St",
    "address_councildis": "C",
    "status": "Assigned to Contractor",
    "contractor": "Richards Disposal",
    "rowid": "1267555",
    "final_x": "3696206.67472",
    "final_y": "524144.387708",
    "longitude": "-90.02189873238983",
    "latitude": "29.93476058897826",
    "geocoded_column": {
      "latitude": "29.93476058897826",
      "longitude": "-90.02189873238983"
    }
  },
  {
    "service_request": "2026-1267554",
    "request_type": "Trash/Recycling",
    "request_reason": "Repair Trash Cart",
    "date_created": "2026-03-22T21:53:40.000",
    "date_modified": "2026-03-22T21:53:41.000",
    "request_status": "Pending",
    "responsible_agency": "Department of Sanitation",
    "final_address": "1911 Horace St",
    "address_councildis": "C",
    "status": "Assigned to Contractor",
    "contractor": "Richards Disposal",
    "rowid": "1267554",
    "final_x": "3696206.67472",
    "final_y": "524144.387708",
    "longitude": "-90.02189873238983",
    "latitude": "29.93476058897826",
    "geocoded_column": {
      "latitude": "29.93476058897826",
      "longitude": "-90.02189873238983"
    }
  },
  {
    "service_request": "2026-1267553",
    "request_type": "Health Related Request",
    "request_reason": "Noise Ordinance Complaint",
    "date_created": "2026-03-22T21:44:11.000",
    "date_modified": "2026-03-22T21:44:12.000",
    "request_status": "Pending",
    "responsible_agency": "Health Department",
    "final_address": "801 Bourbon St, New Orleans, Louisiana, 70116",
    "address_councildis": "C",
    "status": "Pending",
    "rowid": "1267553",
    "final_x": "3682490.98735",
    "final_y": "533018.672772",
    "longitude": "-90.06488875731978",
    "latitude": "29.959586396383013",
    "geocoded_column": {
      "latitude": "29.959586396383013",
      "longitude": "-90.06488875731978"
    }
  },
  {
    "service_request": "2026-1267552",
    "request_type": "Health Related Request",
    "request_reason": "Noise Ordinance Complaint",
    "date_created": "2026-03-22T21:43:49.000",
    "date_modified": "2026-03-22T21:43:51.000",
    "request_status": "Pending",
    "responsible_agency": "Health Department",
    "final_address": "800 Bourbon St, New Orleans, Louisiana, 70116",
    "address_councildis": "C",
    "status": "Pending",
    "rowid": "1267552",
    "final_x": "3682553.51528",
    "final_y": "533013.631428",
    "longitude": "-90.06469148499534",
    "latitude": "29.95957063099051",
    "geocoded_column": {
      "latitude": "29.95957063099051",
      "longitude": "-90.06469148499534"
    }
  },
  {
    "service_request": "2026-1267551",
    "request_type": "Trash/Recycling",
    "request_reason": "Replace Trash Cart",
    "date_created": "2026-03-22T21:37:11.000",
    "date_modified": "2026-03-22T21:37:13.000",
    "request_status": "Pending",
    "responsible_agency": "Department of Sanitation",
    "final_address": "2011 Milan St",
    "address_councildis": "B",
    "status": "Assigned to Contractor",
    "contractor": "IV Waste",
    "rowid": "1267551",
    "final_x": "3671487.25569",
    "final_y": "522498.564218",
    "longitude": "-90.09999365457837",
    "latitude": "29.930989890357544",
    "geocoded_column": {
      "latitude": "29.930989890357544",
      "longitude": "-90.09999365457837"
    }
  },
  {
    "service_request": "2026-1267550",
    "request_type": "General Services",
    "request_reason": "General Service Request",
    "date_created": "2026-03-22T21:14:04.000",
    "date_modified": "2026-03-22T21:14:07.000",
    "request_status": "Pending",
    "responsible_agency": "Orleans Parish Communication District",
    "final_address": "7023 Kenison St",
    "address_councildis": "A",
    "status": "Pending",
    "rowid": "1267550",
    "final_x": "3664988.18317",
    "final_y": "554478.335",
    "longitude": "-90.11944091429031",
    "latitude": "30.01911434417636",
    "geocoded_column": {
      "latitude": "30.01911434417636",
      "longitude": "-90.11944091429031"
    }
  },
  {
    "service_request": "2026-1267549",
    "request_type": "Streetlights",
    "request_reason": "Streetlight Knocked Down/Leaning",
    "date_created": "2026-03-22T21:10:58.000",
    "date_modified": "2026-03-22T21:10:59.000",
    "request_status": "Pending",
    "responsible_agency": "Department of Public Works",
    "final_address": "1522 Magazine St",
    "address_councildis": "B",
    "status": "Pending",
    "rowid": "1267549",
    "final_x": "3680190.90293",
    "final_y": "523634.268987",
    "longitude": "-90.07247797445163",
    "latitude": "29.9338522380615",
    "geocoded_column": {
      "latitude": "29.9338522380615",
      "longitude": "-90.07247797445163"
    }
  },
  {
    "service_request": "2026-1267548",
    "request_type": "Trash/Recycling",
    "request_reason": "Request a Large Item Pick Up",
    "date_created": "2026-03-22T20:38:17.000",
    "date_modified": "2026-03-22T20:38:19.000",
    "request_status": "Pending",
    "responsible_agency": "Department of Sanitation",
    "final_address": "1338 Fern St",
    "address_councildis": "A",
    "status": "Assigned to Contractor",
    "contractor": "IV Waste",
    "rowid": "1267548",
    "final_x": "3662945.25095",
    "final_y": "528362.443968",
    "longitude": "-90.12676481158141",
    "latitude": "29.947363745346895",
    "geocoded_column": {
      "latitude": "29.947363745346895",
      "longitude": "-90.12676481158141"
    }
  },
  {
    "service_request": "2026-1267547",
    "request_type": "Health Related Request",
    "request_reason": "Noise Ordinance Complaint",
    "date_created": "2026-03-22T20:31:11.000",
    "date_modified": "2026-03-22T20:31:12.000",
    "request_status": "Pending",
    "responsible_agency": "Health Department",
    "final_address": "801 Bourbon St, New Orleans, Louisiana, 70116",
    "address_councildis": "C",
    "status": "Pending",
    "rowid": "1267547",
    "final_x": "3682490.98735",
    "final_y": "533018.672772",
    "longitude": "-90.06488875731978",
    "latitude": "29.959586396383013",
    "geocoded_column": {
      "latitude": "29.959586396383013",
      "longitude": "-90.06488875731978"
    }
  },
  {
    "service_request": "2026-1267546",
    "request_type": "Health Related Request",
    "request_reason": "Noise Ordinance Complaint",
    "date_created": "2026-03-22T20:30:41.000",
    "date_modified": "2026-03-22T20:30:43.000",
    "request_status": "Pending",
    "responsible_agency": "Health Department",
    "final_address": "800 Bourbon St, New Orleans, Louisiana, 70116",
    "address_councildis": "C",
    "status": "Pending",
    "rowid": "1267546",
    "final_x": "3682553.51528",
    "final_y": "533013.631428",
    "longitude": "-90.06469148499534",
    "latitude": "29.95957063099051",
    "geocoded_column": {
      "latitude": "29.95957063099051",
      "longitude": "-90.06469148499534"
    }
  },
  {
    "service_request": "2026-1267545",
    "request_type": "Trash/Recycling",
    "request_reason": "Request a Large Item Pick Up",
    "date_created": "2026-03-22T20:16:14.000",
    "date_modified": "2026-03-22T20:16:16.000",
    "request_status": "Pending",
    "responsible_agency": "Department of Sanitation",
    "final_address": "5860 Louisville St",
    "address_councildis": "A",
    "status": "Assigned to Contractor",
    "contractor": "IV Waste",
    "rowid": "1267545",
    "final_x": "3667621.34509",
    "final_y": "546563.000081",
    "longitude": "-90.11138771293326",
    "latitude": "29.99727297042056",
    "geocoded_column": {
      "latitude": "29.99727297042056",
      "longitude": "-90.11138771293326"
    }
  },
  {
    "service_request": "2026-1267544",
    "request_type": "Streetlights",
    "request_reason": "Streetlight Outage/Malfunction",
    "date_created": "2026-03-22T20:09:12.000",
    "date_modified": "2026-03-22T20:09:14.000",
    "request_status": "Pending",
    "responsible_agency": "Department of Public Works",
    "final_address": "3511 Rue Denise",
    "address_councildis": "C",
    "status": "Pending",
    "rowid": "1267544",
    "final_x": "3704221.91914",
    "final_y": "517747.13791",
    "longitude": "-89.99683049573632",
    "latitude": "29.91691569926426",
    "geocoded_column": {
      "latitude": "29.91691569926426",
      "longitude": "-89.99683049573632"
    }
  },
  {
    "service_request": "2026-1267543",
    "request_type": "Trash/Recycling",
    "request_reason": "Request a Large Item Pick Up",
    "date_created": "2026-03-22T20:06:33.000",
    "date_modified": "2026-03-22T20:06:36.000",
    "request_status": "Pending",
    "responsible_agency": "Department of Sanitation",
    "final_address": "13963 Curran Rd",
    "address_councildis": "E",
    "status": "Assigned to Contractor",
    "contractor": "Waste Pro",
    "rowid": "1267543",
    "final_x": "3718419.22572",
    "final_y": "572206.918569",
    "longitude": "-89.94994306359693",
    "latitude": "30.06619607903585",
    "geocoded_column": {
      "latitude": "30.06619607903585",
      "longitude": "-89.94994306359693"
    }
  },
  {
    "service_request": "2026-1267542",
    "request_type": "Trash/Recycling",
    "request_reason": "Request a Large Item Pick Up",
    "date_created": "2026-03-22T19:59:31.000",
    "date_modified": "2026-03-22T19:59:32.000",
    "request_status": "Pending",
    "responsible_agency": "Department of Sanitation",
    "final_address": "4118 N Rampart St",
    "address_councildis": "C",
    "status": "Assigned to Contractor",
    "contractor": "IV Waste",
    "rowid": "1267542",
    "final_x": "3692147.36829",
    "final_y": "534710.98279",
    "longitude": "-90.03433567275646",
    "latitude": "29.96394219517621",
    "geocoded_column": {
      "latitude": "29.96394219517621",
      "longitude": "-90.03433567275646"
    }
  },
  {
    "service_request": "2026-1267541",
    "request_type": "Trash/Recycling",
    "request_reason": "Order Second Trash Cart",
    "date_created": "2026-03-22T19:58:45.000",
    "date_modified": "2026-03-22T19:58:49.000",
    "request_status": "Pending",
    "responsible_agency": "Department of Sanitation",
    "final_address": "6035 Garfield St",
    "address_councildis": "A",
    "status": "Assigned to Contractor",
    "contractor": "IV Waste",
    "rowid": "1267541",
    "final_x": "3665141.25293",
    "final_y": "521676.296761",
    "longitude": "-90.12005469619926",
    "latitude": "29.928915208713946",
    "geocoded_column": {
      "latitude": "29.928915208713946",
      "longitude": "-90.12005469619926"
    }
  },
  {
    "service_request": "2026-1267540",
    "request_type": "Traffic Signals",
    "request_reason": "Traffic Signal Malfunctioning or Damaged",
    "date_created": "2026-03-22T19:51:54.000",
    "date_modified": "2026-03-22T19:52:11.000",
    "request_status": "Pending",
    "responsible_agency": "Department of Public Works",
    "final_address": "0 BLK Annunciation St",
    "address_councildis": "E",
    "status": "Pending",
    "rowid": "1267540",
    "final_x": "3713405.91305",
    "final_y": "559269.453099",
    "longitude": "-89.96627863494602",
    "latitude": "30.030788775553656",
    "geocoded_column": {
      "latitude": "30.030788775553656",
      "longitude": "-89.96627863494602"
    }
  },
  {
    "service_request": "2026-1267539",
    "request_type": "Trash/Recycling",
    "request_reason": "Order Trash Cart",
    "date_created": "2026-03-22T19:10:55.000",
    "date_modified": "2026-03-22T19:10:57.000",
    "request_status": "Pending",
    "responsible_agency": "Department of Sanitation",
    "final_address": "826 Constantinople St",
    "address_councildis": "B",
    "status": "Assigned to Contractor",
    "contractor": "IV Waste",
    "rowid": "1267539",
    "final_x": "3672493.99668",
    "final_y": "518768.759543",
    "longitude": "-90.09694255283554",
    "latitude": "29.92070428906846",
    "geocoded_column": {
      "latitude": "29.92070428906846",
      "longitude": "-90.09694255283554"
    }
  },
  {
    "service_request": "2026-1267538",
    "request_type": "Road Striping",
    "request_reason": "Lane Striping or other Pavement Markings",
    "date_created": "2026-03-22T18:58:09.000",
    "date_modified": "2026-03-22T18:58:10.000",
    "request_status": "Pending",
    "responsible_agency": "Department of Public Works",
    "final_address": "5401 S Claiborne Ave",
    "address_councildis": "B",
    "status": "Pending",
    "rowid": "1267538",
    "final_x": "3668320.44404",
    "final_y": "526558.557758",
    "longitude": "-90.10985402986397",
    "latitude": "29.942246915184466",
    "geocoded_column": {
      "latitude": "29.942246915184466",
      "longitude": "-90.10985402986397"
    }
  },
  {
    "service_request": "2026-1267537",
    "request_type": "Trash/Recycling",
    "request_reason": "Request a Large Item Pick Up",
    "date_created": "2026-03-22T18:57:51.000",
    "date_modified": "2026-03-22T18:57:53.000",
    "request_status": "Pending",
    "responsible_agency": "Department of Sanitation",
    "final_address": "3624 Annunciation St",
    "address_councildis": "B",
    "status": "Assigned to Contractor",
    "contractor": "IV Waste",
    "rowid": "1267537",
    "final_x": "3674317.90222",
    "final_y": "518163.79871",
    "longitude": "-90.09120601506822",
    "latitude": "29.91898659961853",
    "geocoded_column": {
      "latitude": "29.91898659961853",
      "longitude": "-90.09120601506822"
    }
  },
  {
    "service_request": "2026-1267536",
    "request_type": "Trash/Recycling",
    "request_reason": "Request a Large Item Pick Up",
    "date_created": "2026-03-22T18:21:06.000",
    "date_modified": "2026-03-22T18:21:07.000",
    "request_status": "Pending",
    "responsible_agency": "Department of Sanitation",
    "final_address": "411 Amethyst St",
    "address_councildis": "D",
    "status": "Assigned to Contractor",
    "contractor": "IV Waste",
    "rowid": "1267536",
    "final_x": "3667596.76026",
    "final_y": "556520.990426",
    "longitude": "-90.11112984214672",
    "latitude": "30.024654677298454",
    "geocoded_column": {
      "latitude": "30.024654677298454",
      "longitude": "-90.11112984214672"
    }
  },
  {
    "service_request": "2026-1267535",
    "request_type": "Trash/Recycling",
    "request_reason": "Order Recycling Cart",
    "date_created": "2026-03-22T18:06:09.000",
    "date_modified": "2026-03-22T18:06:11.000",
    "request_status": "Pending",
    "responsible_agency": "Department of Sanitation",
    "final_address": "727 Amelia St",
    "address_councildis": "B",
    "status": "Pending",
    "rowid": "1267535",
    "final_x": "3673975.8059",
    "final_y": "517976.18975",
    "longitude": "-90.09229225257596",
    "latitude": "29.91848092744873",
    "geocoded_column": {
      "latitude": "29.91848092744873",
      "longitude": "-90.09229225257596"
    }
  },
  {
    "service_request": "2026-1267534",
    "request_type": "Trash/Recycling",
    "request_reason": "Damaged Caused By Contractor",
    "date_created": "2026-03-22T18:05:25.000",
    "date_modified": "2026-03-22T18:05:26.000",
    "request_status": "Pending",
    "responsible_agency": "Department of Sanitation",
    "final_address": "1124 Jackson Ave",
    "address_councildis": "B",
    "status": "Assigned to Contractor",
    "contractor": "IV Waste",
    "rowid": "1267534",
    "final_x": "3678674.23976",
    "final_y": "522220.253882",
    "longitude": "-90.07731494512066",
    "latitude": "29.93000996235017",
    "geocoded_column": {
      "latitude": "29.93000996235017",
      "longitude": "-90.07731494512066"
    }
  },
  {
    "service_request": "2026-1267533",
    "request_type": "Trash/Recycling",
    "request_reason": "Request a Large Item Pick Up",
    "date_created": "2026-03-22T18:05:01.000",
    "date_modified": "2026-03-22T18:05:03.000",
    "request_status": "Pending",
    "responsible_agency": "Department of Sanitation",
    "final_address": "20543 Old Spanish Trl",
    "address_councildis": "E",
    "status": "Assigned to Contractor",
    "contractor": "Waste Pro",
    "rowid": "1267533",
    "final_x": "3762027.66448",
    "final_y": "572382.158697",
    "longitude": "-89.8120868341654",
    "latitude": "30.0651581440719",
    "geocoded_column": {
      "latitude": "30.0651581440719",
      "longitude": "-89.8120868341654"
    }
  },
  {
    "service_request": "2026-1267532",
    "request_type": "Trash/Recycling",
    "request_reason": "Replace Trash Cart",
    "date_created": "2026-03-22T17:52:00.000",
    "date_modified": "2026-03-22T17:52:01.000",
    "request_status": "Pending",
    "responsible_agency": "Department of Sanitation",
    "final_address": "3137 Music St",
    "address_councildis": "D",
    "status": "Assigned to Contractor",
    "contractor": "IV Waste",
    "rowid": "1267532",
    "final_x": "3686278.39081",
    "final_y": "544508.375439",
    "longitude": "-90.05252348241902",
    "latitude": "29.99106322001114",
    "geocoded_column": {
      "latitude": "29.99106322001114",
      "longitude": "-90.05252348241902"
    }
  },
  {
    "service_request": "2026-1267531",
    "request_type": "Safety & Permits",
    "request_reason": "Zoning Enforcement",
    "date_created": "2026-03-22T17:48:58.000",
    "date_modified": "2026-03-22T17:49:00.000",
    "request_status": "Pending",
    "responsible_agency": "Safety and Permits",
    "final_address": "225 Decatur St",
    "address_councildis": "C",
    "status": "Pending",
    "rowid": "1267531",
    "final_x": "3682148.53",
    "final_y": "530725.890818",
    "longitude": "-90.06605023186536",
    "latitude": "29.95329244505242",
    "geocoded_column": {
      "latitude": "29.95329244505242",
      "longitude": "-90.06605023186536"
    }
  },
  {
    "service_request": "2026-1267530",
    "request_type": "Trash/Recycling",
    "request_reason": "Request a Large Item Pick Up",
    "date_created": "2026-03-22T17:45:07.000",
    "date_modified": "2026-03-22T17:45:10.000",
    "request_status": "Pending",
    "responsible_agency": "Department of Sanitation",
    "final_address": "5141 Carlisle Ct",
    "address_councildis": "C",
    "status": "Assigned to Contractor",
    "contractor": "Richards Disposal",
    "rowid": "1267530",
    "final_x": "3703174.63895",
    "final_y": "516472.027317",
    "longitude": "-90.0001829538753",
    "latitude": "29.91344312926251",
    "geocoded_column": {
      "latitude": "29.91344312926251",
      "longitude": "-90.0001829538753"
    }
  },
  {
    "service_request": "2026-1267529",
    "request_type": "Trash/Recycling",
    "request_reason": "Order Second Trash Cart",
    "date_created": "2026-03-22T17:38:48.000",
    "date_modified": "2026-03-22T17:38:50.000",
    "request_status": "Pending",
    "responsible_agency": "Department of Sanitation",
    "final_address": "5066 Charmes Ct",
    "address_councildis": "E",
    "status": "Assigned to Contractor",
    "contractor": "Waste Pro",
    "rowid": "1267529",
    "final_x": "3726716.82534",
    "final_y": "561409.760606",
    "longitude": "-89.92413329398555",
    "latitude": "30.036230364039614",
    "geocoded_column": {
      "latitude": "30.036230364039614",
      "longitude": "-89.92413329398555"
    }
  },
  {
    "service_request": "2026-1267528",
    "request_type": "Trash/Recycling",
    "request_reason": "Request a Large Item Pick Up",
    "date_created": "2026-03-22T17:30:45.000",
    "date_modified": "2026-03-22T17:30:47.000",
    "request_status": "Pending",
    "responsible_agency": "Department of Sanitation",
    "final_address": "1120 Michael St",
    "address_councildis": "C",
    "status": "Assigned to Contractor",
    "contractor": "Richards Disposal",
    "rowid": "1267528",
    "final_x": "3697288.87523",
    "final_y": "527182.214207",
    "longitude": "-90.01837220346717",
    "latitude": "29.943079458173642",
    "geocoded_column": {
      "latitude": "29.943079458173642",
      "longitude": "-90.01837220346717"
    }
  },
  {
    "service_request": "2026-1267527",
    "request_type": "General Services",
    "request_reason": "General Service Request",
    "date_created": "2026-03-22T17:13:48.000",
    "date_modified": "2026-03-22T17:13:50.000",
    "request_status": "Pending",
    "responsible_agency": "Orleans Parish Communication District",
    "final_address": "S Johnson Street and Poydras STDâ",
    "status": "Pending",
    "rowid": "1267527",
    "longitude": "0.0",
    "latitude": "0.0",
    "geocoded_column": {
      "latitude": "0.0",
      "longitude": "0.0"
    }
  },
  {
    "service_request": "2026-1267526",
    "request_type": "Trash/Recycling",
    "request_reason": "Order Recycling Cart",
    "date_created": "2026-03-22T17:02:46.000",
    "date_modified": "2026-03-22T17:02:47.000",
    "request_status": "Pending",
    "responsible_agency": "Department of Sanitation",
    "final_address": "1420 Philip St",
    "address_councildis": "B",
    "status": "Pending",
    "rowid": "1267526",
    "final_x": "3677769.5323",
    "final_y": "522790.746171",
    "longitude": "-90.08015126074933",
    "latitude": "29.93160586720302",
    "geocoded_column": {
      "latitude": "29.93160586720302",
      "longitude": "-90.08015126074933"
    }
  },
  {
    "service_request": "2026-1267525",
    "request_type": "Property Maintenance",
    "request_reason": "Property Maintenance",
    "date_created": "2026-03-22T16:58:49.000",
    "date_modified": "2026-03-22T16:58:51.000",
    "request_status": "Pending",
    "responsible_agency": "Department of Code Enforcement",
    "final_address": "5501 Edenboro Rd",
    "address_councildis": "E",
    "status": "Pending",
    "rowid": "1267525",
    "final_x": "3708222.78052",
    "final_y": "558086.456859",
    "longitude": "-89.98270137350146",
    "latitude": "30.027705012642564",
    "geocoded_column": {
      "latitude": "30.027705012642564",
      "longitude": "-89.98270137350146"
    }
  },
  {
    "service_request": "2026-1267524",
    "request_type": "Trash/Recycling",
    "request_reason": "Request a Large Item Pick Up",
    "date_created": "2026-03-22T16:51:00.000",
    "date_modified": "2026-03-22T16:51:01.000",
    "request_status": "Pending",
    "responsible_agency": "Department of Sanitation",
    "final_address": "7112 Boston Dr",
    "address_councildis": "E",
    "status": "Assigned to Contractor",
    "contractor": "Waste Pro",
    "rowid": "1267524",
    "final_x": "3706202.97643",
    "final_y": "561017.444382",
    "longitude": "-89.98897508889557",
    "latitude": "30.035829387320288",
    "geocoded_column": {
      "latitude": "30.035829387320288",
      "longitude": "-89.98897508889557"
    }
  },
  {
    "service_request": "2026-1267523",
    "request_type": "Trash/Recycling",
    "request_reason": "Request a Large Item Pick Up",
    "date_created": "2026-03-22T16:50:17.000",
    "date_modified": "2026-03-22T16:50:20.000",
    "request_status": "Pending",
    "responsible_agency": "Department of Sanitation",
    "final_address": "7152 Boston Dr",
    "address_councildis": "E",
    "status": "Assigned to Contractor",
    "contractor": "Waste Pro",
    "rowid": "1267523",
    "final_x": "3706079.15787",
    "final_y": "561226.082206",
    "longitude": "-89.98935864159813",
    "latitude": "30.036407052944245",
    "geocoded_column": {
      "latitude": "30.036407052944245",
      "longitude": "-89.98935864159813"
    }
  },
  {
    "service_request": "2026-1267522",
    "request_type": "Trash/Recycling",
    "request_reason": "Order Recycling Cart",
    "date_created": "2026-03-22T16:49:38.000",
    "date_modified": "2026-03-22T16:49:41.000",
    "request_status": "Pending",
    "responsible_agency": "Department of Sanitation",
    "final_address": "2502 Soniat St",
    "address_councildis": "B",
    "status": "Pending",
    "rowid": "1267522",
    "final_x": "3668507.63982",
    "final_y": "524674.033148",
    "longitude": "-90.10932656708343",
    "latitude": "29.937059582762597",
    "geocoded_column": {
      "latitude": "29.937059582762597",
      "longitude": "-90.10932656708343"
    }
  },
  {
    "service_request": "2026-1267521",
    "request_type": "Abandoned Vehicles",
    "request_reason": "Abandoned/Junk Vehicles",
    "date_created": "2026-03-22T16:43:42.000",
    "date_modified": "2026-03-22T16:43:50.000",
    "request_status": "Pending",
    "responsible_agency": "Department of Public Works",
    "final_address": "5211 Norgate Dr",
    "address_councildis": "E",
    "status": "Pending",
    "rowid": "1267521",
    "final_x": "3707539.65937",
    "final_y": "557361.454619",
    "longitude": "-89.98488692712941",
    "latitude": "30.025733662627424",
    "geocoded_column": {
      "latitude": "30.025733662627424",
      "longitude": "-89.98488692712941"
    }
  },
  {
    "service_request": "2026-1267520",
    "request_type": "Trash/Recycling",
    "request_reason": "Replace Trash Cart",
    "date_created": "2026-03-22T16:39:12.000",
    "date_modified": "2026-03-22T16:39:14.000",
    "request_status": "Pending",
    "responsible_agency": "Department of Sanitation",
    "final_address": "5426 Laurel St",
    "address_councildis": "A",
    "status": "Assigned to Contractor",
    "contractor": "IV Waste",
    "rowid": "1267520",
    "final_x": "3666325.98817",
    "final_y": "517833.389878",
    "longitude": "-90.11644354586566",
    "latitude": "29.918313877861124",
    "geocoded_column": {
      "latitude": "29.918313877861124",
      "longitude": "-90.11644354586566"
    }
  },
  {
    "service_request": "2026-1267519",
    "request_type": "Trash/Recycling",
    "request_reason": "Order Second Trash Cart",
    "date_created": "2026-03-22T16:37:55.000",
    "date_modified": "2026-03-22T16:37:57.000",
    "request_status": "Pending",
    "responsible_agency": "Department of Sanitation",
    "final_address": "439 S Pierce St",
    "address_councildis": "A",
    "status": "Assigned to Contractor",
    "contractor": "IV Waste",
    "rowid": "1267519",
    "final_x": "3670497.93979",
    "final_y": "536817.585992",
    "longitude": "-90.1026312887177",
    "latitude": "29.970391743472597",
    "geocoded_column": {
      "latitude": "29.970391743472597",
      "longitude": "-90.1026312887177"
    }
  },
  {
    "service_request": "2026-1267518",
    "request_type": "Abandoned Vehicles",
    "request_reason": "Abandoned/Junk Vehicles",
    "date_created": "2026-03-22T16:37:34.000",
    "date_modified": "2026-03-22T16:37:36.000",
    "request_status": "Pending",
    "responsible_agency": "Department of Public Works",
    "final_address": "5411 Edenboro Rd",
    "address_councildis": "E",
    "status": "Pending",
    "rowid": "1267518",
    "final_x": "3708380.44875",
    "final_y": "557795.508443",
    "longitude": "-89.98221399886887",
    "latitude": "30.02689990750971",
    "geocoded_column": {
      "latitude": "30.02689990750971",
      "longitude": "-89.98221399886887"
    }
  },
  {
    "service_request": "2026-1267517",
    "request_type": "Abandoned Vehicles",
    "request_reason": "Abandoned/Junk Vehicles",
    "date_created": "2026-03-22T16:28:40.000",
    "date_modified": "2026-03-22T16:28:41.000",
    "request_status": "Pending",
    "responsible_agency": "Department of Public Works",
    "final_address": "5621 Edenboro Rd",
    "address_councildis": "E",
    "status": "Pending",
    "rowid": "1267517",
    "final_x": "3708069.65336",
    "final_y": "558383.628572",
    "longitude": "-89.98317417485373",
    "latitude": "30.028527080366807",
    "geocoded_column": {
      "latitude": "30.028527080366807",
      "longitude": "-89.98317417485373"
    }
  },
  {
    "service_request": "2026-1267516",
    "request_type": "Trash/Recycling",
    "request_reason": "Replace Trash Cart",
    "date_created": "2026-03-22T16:21:37.000",
    "date_modified": "2026-03-22T16:21:39.000",
    "request_status": "Pending",
    "responsible_agency": "Department of Sanitation",
    "final_address": "508 Milan St",
    "address_councildis": "B",
    "status": "Assigned to Contractor",
    "contractor": "IV Waste",
    "rowid": "1267516",
    "final_x": "3671888.96871",
    "final_y": "517662.058934",
    "longitude": "-90.09888998640275",
    "latitude": "29.917679151230544",
    "geocoded_column": {
      "latitude": "29.917679151230544",
      "longitude": "-90.09888998640275"
    }
  },
  {
    "service_request": "2026-1267515",
    "request_type": "Abandoned Vehicles",
    "request_reason": "Abandoned/Junk Vehicles",
    "date_created": "2026-03-22T16:19:18.000",
    "date_modified": "2026-03-22T16:19:21.000",
    "request_status": "Pending",
    "responsible_agency": "Department of Public Works",
    "final_address": "2772 Marengo St",
    "address_councildis": "B",
    "status": "Pending",
    "rowid": "1267515",
    "final_x": "3671494.75732",
    "final_y": "525126.929213",
    "longitude": "-90.09988065462278",
    "latitude": "29.938216823119184",
    "geocoded_column": {
      "latitude": "29.938216823119184",
      "longitude": "-90.09988065462278"
    }
  },
  {
    "service_request": "2026-1267514",
    "request_type": "Property Maintenance",
    "request_reason": "Property Maintenance",
    "date_created": "2026-03-22T16:14:44.000",
    "date_modified": "2026-03-22T16:14:45.000",
    "request_status": "Pending",
    "responsible_agency": "Department of Code Enforcement",
    "final_address": "6101 Tullis Dr",
    "address_councildis": "C",
    "status": "Pending",
    "rowid": "1267514",
    "final_x": "3706937.54097",
    "final_y": "513981.535602",
    "longitude": "-89.98839843773801",
    "latitude": "29.906474217428418",
    "geocoded_column": {
      "latitude": "29.906474217428418",
      "longitude": "-89.98839843773801"
    }
  },
  {
    "service_request": "2026-1267513",
    "request_type": "Property Maintenance",
    "request_reason": "Property Maintenance",
    "date_created": "2026-03-22T16:13:59.000",
    "date_modified": "2026-03-22T16:14:00.000",
    "request_status": "Pending",
    "responsible_agency": "Department of Code Enforcement",
    "final_address": "5601 Edenboro Rd",
    "address_councildis": "E",
    "status": "Pending",
    "rowid": "1267513",
    "final_x": "3708119.08491",
    "final_y": "558288.730076",
    "longitude": "-89.98302150877993",
    "latitude": "30.028264545096892",
    "geocoded_column": {
      "latitude": "30.028264545096892",
      "longitude": "-89.98302150877993"
    }
  },
  {
    "service_request": "2026-1267512",
    "request_type": "Trash/Recycling",
    "request_reason": "Repair Trash Cart",
    "date_created": "2026-03-22T16:10:55.000",
    "date_modified": "2026-03-22T16:10:58.000",
    "request_status": "Pending",
    "responsible_agency": "Department of Sanitation",
    "final_address": "4123 Dreux Ave",
    "address_councildis": "D",
    "status": "Assigned to Contractor",
    "contractor": "IV Waste",
    "rowid": "1267512",
    "final_x": "3689210.17219",
    "final_y": "552735.276182",
    "longitude": "-90.04297005563537",
    "latitude": "30.013593763665096",
    "geocoded_column": {
      "latitude": "30.013593763665096",
      "longitude": "-90.04297005563537"
    }
  },
  {
    "service_request": "2026-1267511",
    "request_type": "Trash/Recycling",
    "request_reason": "Order Second Trash Cart",
    "date_created": "2026-03-22T16:00:46.000",
    "date_modified": "2026-03-22T16:00:55.000",
    "request_status": "Pending",
    "responsible_agency": "Department of Sanitation",
    "final_address": "4914 S Robertson St B",
    "address_councildis": "B",
    "status": "Assigned to Contractor",
    "contractor": "IV Waste",
    "rowid": "1267511",
    "final_x": "3669007.28346",
    "final_y": "524230.04038",
    "longitude": "-90.10776415143333",
    "latitude": "29.935824060227297",
    "geocoded_column": {
      "latitude": "29.935824060227297",
      "longitude": "-90.10776415143333"
    }
  },
  {
    "service_request": "2026-1267510",
    "request_type": "Property Maintenance",
    "request_reason": "Property Maintenance",
    "date_created": "2026-03-22T15:58:55.000",
    "date_modified": "2026-03-22T15:58:57.000",
    "request_status": "Pending",
    "responsible_agency": "Department of Code Enforcement",
    "final_address": "5655 Norgate Dr",
    "address_councildis": "E",
    "status": "Pending",
    "rowid": "1267510",
    "final_x": "3707989.53502",
    "final_y": "558131.135259",
    "longitude": "-89.98343674222261",
    "latitude": "30.027835418283196",
    "geocoded_column": {
      "latitude": "30.027835418283196",
      "longitude": "-89.98343674222261"
    }
  },
  {
    "service_request": "2026-1267509",
    "request_type": "Abandoned Vehicles",
    "request_reason": "Abandoned/Junk Vehicles",
    "date_created": "2026-03-22T15:32:14.000",
    "date_modified": "2026-03-22T15:32:16.000",
    "request_status": "Pending",
    "responsible_agency": "Department of Public Works",
    "final_address": "1028 Port St",
    "address_councildis": "C",
    "status": "Pending",
    "rowid": "1267509",
    "final_x": "3687336.89679",
    "final_y": "536206.321479",
    "longitude": "-90.04947374815768",
    "latitude": "29.968202930528427",
    "geocoded_column": {
      "latitude": "29.968202930528427",
      "longitude": "-90.04947374815768"
    }
  },
  {
    "service_request": "2026-1267508",
    "request_type": "Traffic Signals",
    "request_reason": "Traffic Signal Malfunctioning or Damaged",
    "date_created": "2026-03-22T15:30:15.000",
    "date_modified": "2026-03-22T15:30:18.000",
    "request_status": "Pending",
    "responsible_agency": "Department of Public Works",
    "final_address": "NAPOLEON AVE & ST CHARLES AVE",
    "address_councildis": "B",
    "status": "Pending",
    "rowid": "1267508",
    "final_x": "3670804.2",
    "final_y": "520884.88",
    "longitude": "-90.10220470802476",
    "latitude": "29.926572974014928",
    "geocoded_column": {
      "latitude": "29.926572974014928",
      "longitude": "-90.10220470802476"
    }
  },
  {
    "service_request": "2026-1267507",
    "request_type": "Trash/Recycling",
    "request_reason": "Replace Recycling Cart",
    "date_created": "2026-03-22T15:17:01.000",
    "date_modified": "2026-03-22T15:17:02.000",
    "request_status": "Pending",
    "responsible_agency": "Department of Sanitation",
    "final_address": "4807 E Adams Ct",
    "address_councildis": "E",
    "status": "Pending",
    "rowid": "1267507",
    "final_x": "3718801.91295",
    "final_y": "557496.336219",
    "longitude": "-89.94929503833454",
    "latitude": "30.025735299202253",
    "geocoded_column": {
      "latitude": "30.025735299202253",
      "longitude": "-89.94929503833454"
    }
  },
  {
    "service_request": "2026-1267506",
    "request_type": "Trash/Recycling",
    "request_reason": "Illegal Dumping",
    "date_created": "2026-03-22T15:15:31.000",
    "date_modified": "2026-03-22T15:15:33.000",
    "request_status": "Pending",
    "responsible_agency": "Department of Sanitation",
    "final_address": "3120 Josephine St",
    "address_councildis": "B",
    "status": "Pending",
    "rowid": "1267506",
    "final_x": "3674491.78382",
    "final_y": "528333.391808",
    "longitude": "-90.09030893216686",
    "latitude": "29.946944492677588",
    "geocoded_column": {
      "latitude": "29.946944492677588",
      "longitude": "-90.09030893216686"
    }
  },
  {
    "service_request": "2026-1267505",
    "request_type": "Trash/Recycling",
    "request_reason": "Replace Trash Cart",
    "date_created": "2026-03-22T15:10:33.000",
    "date_modified": "2026-03-22T15:10:36.000",
    "request_status": "Pending",
    "responsible_agency": "Department of Sanitation",
    "final_address": "6023 Freret St",
    "address_councildis": "A",
    "status": "Assigned to Contractor",
    "contractor": "IV Waste",
    "rowid": "1267505",
    "final_x": "3666246.58292",
    "final_y": "524549.3319",
    "longitude": "-90.11646906030212",
    "latitude": "29.9367829133896",
    "geocoded_column": {
      "latitude": "29.9367829133896",
      "longitude": "-90.11646906030212"
    }
  },
  {
    "service_request": "2026-1267504",
    "request_type": "Trash/Recycling",
    "request_reason": "Request a Large Item Pick Up",
    "date_created": "2026-03-22T15:00:51.000",
    "date_modified": "2026-03-22T15:00:57.000",
    "request_status": "Pending",
    "responsible_agency": "Department of Sanitation",
    "final_address": "2857 Annunciation St",
    "address_councildis": "B",
    "status": "Assigned to Contractor",
    "contractor": "IV Waste",
    "rowid": "1267504",
    "final_x": "3677245.7764",
    "final_y": "519679.140728",
    "longitude": "-90.08191197942094",
    "latitude": "29.923065704093972",
    "geocoded_column": {
      "latitude": "29.923065704093972",
      "longitude": "-90.08191197942094"
    }
  },
  {
    "service_request": "2026-1267503",
    "request_type": "Streetlights",
    "request_reason": "Streetlight Outage/Malfunction",
    "date_created": "2026-03-22T14:40:32.000",
    "date_modified": "2026-03-22T14:40:33.000",
    "request_status": "Pending",
    "responsible_agency": "Department of Public Works",
    "final_address": "22 Tern St",
    "address_councildis": "D",
    "status": "Pending",
    "rowid": "1267503",
    "final_x": "3673923.56603",
    "final_y": "557562.635739",
    "longitude": "-90.09110249851636",
    "latitude": "30.027331749593326",
    "geocoded_column": {
      "latitude": "30.027331749593326",
      "longitude": "-90.09110249851636"
    }
  },
  {
    "service_request": "2026-1267502",
    "request_type": "Alley Ways",
    "request_reason": "Alley Way Issues",
    "date_created": "2026-03-22T14:39:24.000",
    "date_modified": "2026-03-22T14:39:26.000",
    "request_status": "Pending",
    "responsible_agency": "Department of Public Works",
    "final_address": "6979 Argonne Blvd",
    "address_councildis": "A",
    "status": "Pending",
    "rowid": "1267502",
    "final_x": "3670831.17435",
    "final_y": "553776.279319",
    "longitude": "-90.10100289335857",
    "latitude": "30.017012443624704",
    "geocoded_column": {
      "latitude": "30.017012443624704",
      "longitude": "-90.10100289335857"
    }
  },
  {
    "service_request": "2026-1267501",
    "request_type": "Alley Ways",
    "request_reason": "Alley Way Issues",
    "date_created": "2026-03-22T14:36:59.000",
    "date_modified": "2026-03-22T14:37:02.000",
    "request_status": "Pending",
    "responsible_agency": "Department of Public Works",
    "final_address": "7038 General Haig St",
    "address_councildis": "A",
    "status": "Pending",
    "rowid": "1267501",
    "final_x": "3671070.02305",
    "final_y": "554119.965848",
    "longitude": "-90.10023654212395",
    "latitude": "30.01795039391956",
    "geocoded_column": {
      "latitude": "30.01795039391956",
      "longitude": "-90.10023654212395"
    }
  },
  {
    "service_request": "2026-1267500",
    "request_type": "Streetlights",
    "request_reason": "Streetlight Outage/Malfunction",
    "date_created": "2026-03-22T14:23:33.000",
    "date_modified": "2026-03-22T14:23:35.000",
    "request_status": "Pending",
    "responsible_agency": "Department of Public Works",
    "final_address": "7318 Malvern Dr",
    "address_councildis": "E",
    "status": "Pending",
    "rowid": "1267500",
    "final_x": "3702703.95626",
    "final_y": "560686.847006",
    "longitude": "-90.00004471131423",
    "latitude": "30.035032787742672",
    "geocoded_column": {
      "latitude": "30.035032787742672",
      "longitude": "-90.00004471131423"
    }
  },
  {
    "service_request": "2026-1267499",
    "request_type": "Property Maintenance",
    "request_reason": "Property Maintenance",
    "date_created": "2026-03-22T14:18:17.000",
    "date_modified": "2026-03-22T14:18:20.000",
    "request_status": "Pending",
    "responsible_agency": "Department of Code Enforcement",
    "final_address": "5101 Sandhurst Dr",
    "address_councildis": "E",
    "status": "Pending",
    "rowid": "1267499",
    "final_x": "3705272.05028",
    "final_y": "556679.877082",
    "longitude": "-89.99207741461058",
    "latitude": "30.023932769594037",
    "geocoded_column": {
      "latitude": "30.023932769594037",
      "longitude": "-89.99207741461058"
    }
  },
  {
    "service_request": "2026-1267498",
    "request_type": "Trash/Recycling",
    "request_reason": "Order Trash Cart",
    "date_created": "2026-03-22T14:02:32.000",
    "date_modified": "2026-03-22T14:02:34.000",
    "request_status": "Pending",
    "responsible_agency": "Department of Sanitation",
    "final_address": "5619 Chestnut St",
    "address_councildis": "A",
    "status": "Assigned to Contractor",
    "contractor": "IV Waste",
    "rowid": "1267498",
    "final_x": "3666103.83424",
    "final_y": "519636.329144",
    "longitude": "-90.11708436334695",
    "latitude": "29.92327788074409",
    "geocoded_column": {
      "latitude": "29.92327788074409",
      "longitude": "-90.11708436334695"
    }
  },
  {
    "service_request": "2026-1267497",
    "request_type": "Safety & Permits",
    "request_reason": "Zoning Enforcement",
    "date_created": "2026-03-22T13:55:12.000",
    "date_modified": "2026-03-22T13:55:13.000",
    "request_status": "Pending",
    "responsible_agency": "Safety and Permits",
    "final_address": "6892 Parc Brittany Blvd",
    "address_councildis": "E",
    "status": "Pending",
    "rowid": "1267497",
    "final_x": "3702642.99268",
    "final_y": "557880.366811",
    "longitude": "-90.00034053924813",
    "latitude": "30.02731800838932",
    "geocoded_column": {
      "latitude": "30.02731800838932",
      "longitude": "-90.00034053924813"
    }
  },
  {
    "service_request": "2026-1267496",
    "request_type": "Trash/Recycling",
    "request_reason": "Order Trash Cart",
    "date_created": "2026-03-22T13:52:16.000",
    "date_modified": "2026-03-22T13:52:18.000",
    "request_status": "Pending",
    "responsible_agency": "Department of Sanitation",
    "final_address": "1715 Napoleon Ave",
    "address_councildis": "B",
    "status": "Assigned to Contractor",
    "contractor": "IV Waste",
    "rowid": "1267496",
    "final_x": "3670895.63527",
    "final_y": "521367.396921",
    "longitude": "-90.10189970176178",
    "latitude": "29.927897039594587",
    "geocoded_column": {
      "latitude": "29.927897039594587",
      "longitude": "-90.10189970176178"
    }
  },
  {
    "service_request": "2026-1267495",
    "request_type": "Trash/Recycling",
    "request_reason": "Request a Large Item Pick Up",
    "date_created": "2026-03-22T13:42:00.000",
    "date_modified": "2026-03-22T13:42:02.000",
    "request_status": "Pending",
    "responsible_agency": "Department of Sanitation",
    "final_address": "1816 Burdette St",
    "address_councildis": "A",
    "status": "Assigned to Contractor",
    "contractor": "IV Waste",
    "rowid": "1267495",
    "final_x": "3664284.19719",
    "final_y": "529320.130689",
    "longitude": "-90.12250527442846",
    "latitude": "29.94995823933573",
    "geocoded_column": {
      "latitude": "29.94995823933573",
      "longitude": "-90.12250527442846"
    }
  },
  {
    "service_request": "2026-1267494",
    "request_type": "Trash/Recycling",
    "request_reason": "Order Recycling Cart",
    "date_created": "2026-03-22T13:32:45.000",
    "date_modified": "2026-03-22T13:32:46.000",
    "request_status": "Pending",
    "responsible_agency": "Department of Sanitation",
    "final_address": "917 Hagan St",
    "address_councildis": "A",
    "status": "Pending",
    "rowid": "1267494",
    "final_x": "3675189.22286",
    "final_y": "539215.55745",
    "longitude": "-90.08773335287316",
    "latitude": "29.976845965909572",
    "geocoded_column": {
      "latitude": "29.976845965909572",
      "longitude": "-90.08773335287316"
    }
  },
  {
    "service_request": "2026-1267493",
    "request_type": "Trash/Recycling",
    "request_reason": "Replace Trash Cart",
    "date_created": "2026-03-22T13:32:25.000",
    "date_modified": "2026-03-22T13:32:26.000",
    "request_status": "Pending",
    "responsible_agency": "Department of Sanitation",
    "final_address": "628 N Pierce St",
    "address_councildis": "A",
    "status": "Assigned to Contractor",
    "contractor": "IV Waste",
    "rowid": "1267493",
    "final_x": "3672779.16795",
    "final_y": "539624.106378",
    "longitude": "-90.09533114045557",
    "latitude": "29.97804115392944",
    "geocoded_column": {
      "latitude": "29.97804115392944",
      "longitude": "-90.09533114045557"
    }
  },
  {
    "service_request": "2026-1267492",
    "request_type": "Trash/Recycling",
    "request_reason": "Return Trash Cart",
    "date_created": "2026-03-22T13:30:30.000",
    "date_modified": "2026-03-22T13:30:31.000",
    "request_status": "Pending",
    "responsible_agency": "Department of Sanitation",
    "final_address": "5102 Camp St",
    "address_councildis": "B",
    "status": "Assigned to Contractor",
    "contractor": "IV Waste",
    "rowid": "1267492",
    "final_x": "3668312.853",
    "final_y": "518883.976631",
    "longitude": "-90.1101366582947",
    "latitude": "29.92114449095639",
    "geocoded_column": {
      "latitude": "29.92114449095639",
      "longitude": "-90.1101366582947"
    }
  },
  {
    "service_request": "2026-1267491",
    "request_type": "Trash/Recycling",
    "request_reason": "Request a Large Item Pick Up",
    "date_created": "2026-03-22T13:29:29.000",
    "date_modified": "2026-03-22T13:29:32.000",
    "request_status": "Pending",
    "responsible_agency": "Department of Sanitation",
    "final_address": "3613 Chestnut St",
    "address_councildis": "B",
    "status": "Assigned to Contractor",
    "contractor": "IV Waste",
    "rowid": "1267491",
    "final_x": "3673794.47873",
    "final_y": "520014.364792",
    "longitude": "-90.09279495580917",
    "latitude": "29.924090655343278",
    "geocoded_column": {
      "latitude": "29.924090655343278",
      "longitude": "-90.09279495580917"
    }
  },
  {
    "service_request": "2026-1267490",
    "request_type": "Trash/Recycling",
    "request_reason": "Request a Large Item Pick Up",
    "date_created": "2026-03-22T12:58:24.000",
    "date_modified": "2026-03-22T12:58:32.000",
    "request_status": "Pending",
    "responsible_agency": "Department of Sanitation",
    "final_address": "5322 Warrington Dr",
    "address_councildis": "D",
    "status": "Assigned to Contractor",
    "contractor": "IV Waste",
    "rowid": "1267490",
    "final_x": "3680812.98671",
    "final_y": "552558.461014",
    "longitude": "-90.06950693803246",
    "latitude": "30.013364927150477",
    "geocoded_column": {
      "latitude": "30.013364927150477",
      "longitude": "-90.06950693803246"
    }
  },
  {
    "service_request": "2026-1267489",
    "request_type": "Alley Ways",
    "request_reason": "Alley Way Issues",
    "date_created": "2026-03-22T12:53:30.000",
    "date_modified": "2026-03-22T12:53:31.000",
    "request_status": "Pending",
    "responsible_agency": "Department of Public Works",
    "final_address": "1020 Thalia St",
    "address_councildis": "B",
    "status": "Pending",
    "rowid": "1267489",
    "final_x": "3680718.88322",
    "final_y": "525162.434109",
    "longitude": "-90.07075800670351",
    "latitude": "29.938038200671638",
    "geocoded_column": {
      "latitude": "29.938038200671638",
      "longitude": "-90.07075800670351"
    }
  },
  {
    "service_request": "2026-1267488",
    "request_type": "Roads and Streets",
    "request_reason": "Street Subsidence (Sinking)",
    "date_created": "2026-03-22T12:35:44.000",
    "date_modified": "2026-03-22T12:35:46.000",
    "request_status": "Pending",
    "responsible_agency": "Sewerage & Water Board",
    "final_address": "4724 Laurel St",
    "address_councildis": "B",
    "status": "Pending",
    "rowid": "1267488",
    "final_x": "3669800.45351",
    "final_y": "517877.58591",
    "longitude": "-90.10547499583606",
    "latitude": "29.91833348525965",
    "geocoded_column": {
      "latitude": "29.91833348525965",
      "longitude": "-90.10547499583606"
    }
  },
  {
    "service_request": "2026-1267487",
    "request_type": "Trash/Recycling",
    "request_reason": "Request a Large Item Pick Up",
    "date_created": "2026-03-22T12:35:15.000",
    "date_modified": "2026-03-22T12:35:18.000",
    "request_status": "Pending",
    "responsible_agency": "Department of Sanitation",
    "final_address": "2823 Broadway St",
    "address_councildis": "B",
    "status": "Assigned to Contractor",
    "contractor": "IV Waste",
    "rowid": "1267487",
    "final_x": "3667435.1161",
    "final_y": "531416.292355",
    "longitude": "-90.11248580617081",
    "latitude": "29.955630069749862",
    "geocoded_column": {
      "latitude": "29.955630069749862",
      "longitude": "-90.11248580617081"
    }
  },
  {
    "service_request": "2026-1267486",
    "request_type": "Trash/Recycling",
    "request_reason": "Request a Large Item Pick Up",
    "date_created": "2026-03-22T12:31:03.000",
    "date_modified": "2026-03-22T12:31:05.000",
    "request_status": "Pending",
    "responsible_agency": "Department of Sanitation",
    "final_address": "8421 Cohn St",
    "address_councildis": "A",
    "status": "Assigned to Contractor",
    "contractor": "IV Waste",
    "rowid": "1267486",
    "final_x": "3662737.43885",
    "final_y": "531052.403714",
    "longitude": "-90.12733156533062",
    "latitude": "29.954766283664473",
    "geocoded_column": {
      "latitude": "29.954766283664473",
      "longitude": "-90.12733156533062"
    }
  },
  {
    "service_request": "2026-1267485",
    "request_type": "Trash/Recycling",
    "request_reason": "Order Second Trash Cart",
    "date_created": "2026-03-22T12:28:01.000",
    "date_modified": "2026-03-22T12:28:03.000",
    "request_status": "Pending",
    "responsible_agency": "Department of Sanitation",
    "final_address": "3818 Palmyra St",
    "address_councildis": "A",
    "status": "Assigned to Contractor",
    "contractor": "IV Waste",
    "rowid": "1267485",
    "final_x": "3671438.98887",
    "final_y": "537019.243848",
    "longitude": "-90.09965248726637",
    "latitude": "29.97091840912033",
    "geocoded_column": {
      "latitude": "29.97091840912033",
      "longitude": "-90.09965248726637"
    }
  },
  {
    "service_request": "2026-1267484",
    "request_type": "Trash/Recycling",
    "request_reason": "Order Recycling Cart",
    "date_created": "2026-03-22T12:22:29.000",
    "date_modified": "2026-03-22T12:22:31.000",
    "request_status": "Pending",
    "responsible_agency": "Department of Sanitation",
    "final_address": "2621 Baronne St",
    "address_councildis": "B",
    "status": "Pending",
    "rowid": "1267484",
    "final_x": "3675852.73371",
    "final_y": "523425.828155",
    "longitude": "-90.08618055652542",
    "latitude": "29.933409639687625",
    "geocoded_column": {
      "latitude": "29.933409639687625",
      "longitude": "-90.08618055652542"
    }
  },
  {
    "service_request": "2026-1267483",
    "request_type": "Trash/Recycling",
    "request_reason": "Order Second Trash Cart",
    "date_created": "2026-03-22T12:21:20.000",
    "date_modified": "2026-03-22T12:21:21.000",
    "request_status": "Pending",
    "responsible_agency": "Department of Sanitation",
    "final_address": "2621 Baronne St",
    "address_councildis": "B",
    "status": "Assigned to Contractor",
    "contractor": "IV Waste",
    "rowid": "1267483",
    "final_x": "3675852.73371",
    "final_y": "523425.828155",
    "longitude": "-90.08618055652542",
    "latitude": "29.933409639687625",
    "geocoded_column": {
      "latitude": "29.933409639687625",
      "longitude": "-90.08618055652542"
    }
  },
  {
    "service_request": "2026-1267482",
    "request_type": "Trash/Recycling",
    "request_reason": "Request a Large Item Pick Up",
    "date_created": "2026-03-22T11:56:09.000",
    "date_modified": "2026-03-22T11:56:12.000",
    "request_status": "Pending",
    "responsible_agency": "Department of Sanitation",
    "final_address": "3915 Prytania St",
    "address_councildis": "B",
    "status": "Assigned to Contractor",
    "contractor": "IV Waste",
    "rowid": "1267482",
    "final_x": "3672632.27707",
    "final_y": "520543.0494",
    "longitude": "-90.09644560808513",
    "latitude": "29.92557891531325",
    "geocoded_column": {
      "latitude": "29.92557891531325",
      "longitude": "-90.09644560808513"
    }
  },
  {
    "service_request": "2026-1267481",
    "request_type": "Trash/Recycling",
    "request_reason": "Order Trash Cart",
    "date_created": "2026-03-22T11:41:49.000",
    "date_modified": "2026-03-22T11:41:51.000",
    "request_status": "Pending",
    "responsible_agency": "Department of Sanitation",
    "final_address": "630 Flood St",
    "address_councildis": "E",
    "status": "Assigned to Contractor",
    "contractor": "Waste Pro",
    "rowid": "1267481",
    "final_x": "3697224.16202",
    "final_y": "532242.339395",
    "longitude": "-90.01839318061103",
    "latitude": "29.956995071120275",
    "geocoded_column": {
      "latitude": "29.956995071120275",
      "longitude": "-90.01839318061103"
    }
  },
  {
    "service_request": "2026-1267480",
    "request_type": "Trash/Recycling",
    "request_reason": "Request a Large Item Pick Up",
    "date_created": "2026-03-22T11:41:25.000",
    "date_modified": "2026-03-22T11:41:27.000",
    "request_status": "Pending",
    "responsible_agency": "Department of Sanitation",
    "final_address": "818 Valmont St",
    "address_councildis": "B",
    "status": "Assigned to Contractor",
    "contractor": "IV Waste",
    "rowid": "1267480",
    "final_x": "3667411.67092",
    "final_y": "518416.484598",
    "longitude": "-90.11299701366606",
    "latitude": "29.919885456682614",
    "geocoded_column": {
      "latitude": "29.919885456682614",
      "longitude": "-90.11299701366606"
    }
  },
  {
    "service_request": "2026-1267479",
    "request_type": "Trash/Recycling",
    "request_reason": "Request a Large Item Pick Up",
    "date_created": "2026-03-22T11:36:02.000",
    "date_modified": "2026-03-22T11:36:05.000",
    "request_status": "Pending",
    "responsible_agency": "Department of Sanitation",
    "final_address": "3027 Toulouse St",
    "address_councildis": "A",
    "status": "Assigned to Contractor",
    "contractor": "IV Waste",
    "rowid": "1267479",
    "final_x": "3675276.7972",
    "final_y": "537487.87156",
    "longitude": "-90.08751609190602",
    "latitude": "29.972092801504076",
    "geocoded_column": {
      "latitude": "29.972092801504076",
      "longitude": "-90.08751609190602"
    }
  },
  {
    "service_request": "2026-1267478",
    "request_type": "Trash/Recycling",
    "request_reason": "Order Recycling Cart",
    "date_created": "2026-03-22T11:23:40.000",
    "date_modified": "2026-03-22T11:23:42.000",
    "request_status": "Pending",
    "responsible_agency": "Department of Sanitation",
    "final_address": "4112 S Derbigny St",
    "address_councildis": "B",
    "status": "Pending",
    "rowid": "1267478",
    "final_x": "3671253.8619",
    "final_y": "526307.35923",
    "longitude": "-90.10060109236817",
    "latitude": "29.9414697504494",
    "geocoded_column": {
      "latitude": "29.9414697504494",
      "longitude": "-90.10060109236817"
    }
  },
  {
    "service_request": "2026-1267477",
    "request_type": "Trash/Recycling",
    "request_reason": "Request a Large Item Pick Up",
    "date_created": "2026-03-22T11:22:03.000",
    "date_modified": "2026-03-22T11:22:05.000",
    "request_status": "Pending",
    "responsible_agency": "Department of Sanitation",
    "final_address": "3502 S Tonti St",
    "address_councildis": "B",
    "status": "Assigned to Contractor",
    "contractor": "IV Waste",
    "rowid": "1267477",
    "final_x": "3671184.07508",
    "final_y": "528260.998272",
    "longitude": "-90.10075507424078",
    "latitude": "29.946843684635024",
    "geocoded_column": {
      "latitude": "29.946843684635024",
      "longitude": "-90.10075507424078"
    }
  },
  {
    "service_request": "2026-1267476",
    "request_type": "Trash/Recycling",
    "request_reason": "Request a Large Item Pick Up",
    "date_created": "2026-03-22T11:20:33.000",
    "date_modified": "2026-03-22T11:20:42.000",
    "request_status": "Pending",
    "responsible_agency": "Department of Sanitation",
    "final_address": "85 Fontainebleau Dr",
    "address_councildis": "A",
    "status": "Assigned to Contractor",
    "contractor": "IV Waste",
    "rowid": "1267476",
    "final_x": "3666954.32385",
    "final_y": "530824.753218",
    "longitude": "-90.11402385891815",
    "latitude": "29.954017607303598",
    "geocoded_column": {
      "latitude": "29.954017607303598",
      "longitude": "-90.11402385891815"
    }
  },
  {
    "service_request": "2026-1267475",
    "request_type": "Trash/Recycling",
    "request_reason": "Request a Large Item Pick Up",
    "date_created": "2026-03-22T11:18:20.000",
    "date_modified": "2026-03-22T11:18:22.000",
    "request_status": "Pending",
    "responsible_agency": "Department of Sanitation",
    "final_address": "5709 Willow St",
    "address_councildis": "A",
    "status": "Assigned to Contractor",
    "contractor": "IV Waste",
    "rowid": "1267475",
    "final_x": "3667482.14625",
    "final_y": "525497.268925",
    "longitude": "-90.11253642948444",
    "latitude": "29.939353298293454",
    "geocoded_column": {
      "latitude": "29.939353298293454",
      "longitude": "-90.11253642948444"
    }
  },
  {
    "service_request": "2026-1267474",
    "request_type": "Trash/Recycling",
    "request_reason": "Repair Trash Cart",
    "date_created": "2026-03-22T11:11:16.000",
    "date_modified": "2026-03-22T11:11:17.000",
    "request_status": "Pending",
    "responsible_agency": "Department of Sanitation",
    "final_address": "4112 S Derbigny St",
    "address_councildis": "B",
    "status": "Assigned to Contractor",
    "contractor": "IV Waste",
    "rowid": "1267474",
    "final_x": "3671253.8619",
    "final_y": "526307.35923",
    "longitude": "-90.10060109236817",
    "latitude": "29.9414697504494",
    "geocoded_column": {
      "latitude": "29.9414697504494",
      "longitude": "-90.10060109236817"
    }
  },
  {
    "service_request": "2026-1267473",
    "request_type": "Abandoned Vehicles",
    "request_reason": "Abandoned/Junk Vehicles",
    "date_created": "2026-03-22T11:11:12.000",
    "date_modified": "2026-03-22T11:11:13.000",
    "request_status": "Pending",
    "responsible_agency": "Department of Public Works",
    "final_address": "3610 Monroe St",
    "address_councildis": "A",
    "status": "Pending",
    "rowid": "1267473",
    "final_x": "3666174.91962",
    "final_y": "536222.099783",
    "longitude": "-90.11630389511892",
    "latitude": "29.96888131777363",
    "geocoded_column": {
      "latitude": "29.96888131777363",
      "longitude": "-90.11630389511892"
    }
  },
  {
    "service_request": "2026-1267472",
    "request_type": "Trash/Recycling",
    "request_reason": "Replace Trash Cart",
    "date_created": "2026-03-22T11:08:39.000",
    "date_modified": "2026-03-22T11:08:41.000",
    "request_status": "Pending",
    "responsible_agency": "Department of Sanitation",
    "final_address": "3931 General Taylor St",
    "address_councildis": "B",
    "status": "Assigned to Contractor",
    "contractor": "IV Waste",
    "rowid": "1267472",
    "final_x": "3670765.18401",
    "final_y": "529150.014592",
    "longitude": "-90.10204750740097",
    "latitude": "29.94930057181577",
    "geocoded_column": {
      "latitude": "29.94930057181577",
      "longitude": "-90.10204750740097"
    }
  },
  {
    "service_request": "2026-1267471",
    "request_type": "Parks & Parkways",
    "request_reason": "Request Tree Service (Right of Way/Public Property)",
    "date_created": "2026-03-22T11:05:21.000",
    "date_modified": "2026-03-22T11:05:22.000",
    "request_status": "Pending",
    "responsible_agency": "Department of Parks & Parkway",
    "final_address": "6600 BLK Parc Brittany Blvd",
    "address_councildis": "E",
    "status": "Pending",
    "rowid": "1267471",
    "final_x": "3702941.41298",
    "final_y": "557100.535193",
    "longitude": "-89.99942625014852",
    "latitude": "30.02516422400554",
    "geocoded_column": {
      "latitude": "30.02516422400554",
      "longitude": "-89.99942625014852"
    }
  },
  {
    "service_request": "2026-1267469",
    "request_type": "Trash/Recycling",
    "request_reason": "Damaged Caused By Contractor",
    "date_created": "2026-03-22T10:35:25.000",
    "date_modified": "2026-03-22T10:35:28.000",
    "request_status": "Pending",
    "responsible_agency": "Department of Sanitation",
    "final_address": "2726 Ursulines Ave",
    "address_councildis": "A",
    "status": "Assigned to Contractor",
    "contractor": "IV Waste",
    "rowid": "1267469",
    "final_x": "3677367.17115",
    "final_y": "538275.243017",
    "longitude": "-90.08088716211188",
    "latitude": "29.974195144545387",
    "geocoded_column": {
      "latitude": "29.974195144545387",
      "longitude": "-90.08088716211188"
    }
  },
  {
    "service_request": "2026-1267468",
    "request_type": "Abandoned Vehicles",
    "request_reason": "Abandoned/Junk Vehicles",
    "date_created": "2026-03-22T10:33:13.000",
    "date_modified": "2026-03-22T10:33:15.000",
    "request_status": "Pending",
    "responsible_agency": "Department of Public Works",
    "final_address": "4623 Cartier Ave",
    "address_councildis": "D",
    "status": "Pending",
    "rowid": "1267468",
    "final_x": "3677969.63118",
    "final_y": "549626.525011",
    "longitude": "-90.07859188136828",
    "latitude": "30.005389078720462",
    "geocoded_column": {
      "latitude": "30.005389078720462",
      "longitude": "-90.07859188136828"
    }
  },
  {
    "service_request": "2026-1267467",
    "request_type": "Trash/Recycling",
    "request_reason": "Request a Large Item Pick Up",
    "date_created": "2026-03-22T10:20:44.000",
    "date_modified": "2026-03-22T10:20:46.000",
    "request_status": "Pending",
    "responsible_agency": "Department of Sanitation",
    "final_address": "139 Middle Park Pl",
    "address_councildis": "A",
    "status": "Assigned to Contractor",
    "contractor": "IV Waste",
    "rowid": "1267467",
    "final_x": "3670253.52494",
    "final_y": "544283.748239",
    "longitude": "-90.10315003415758",
    "latitude": "29.990928369254114",
    "geocoded_column": {
      "latitude": "29.990928369254114",
      "longitude": "-90.10315003415758"
    }
  },
  {
    "service_request": "2026-1267466",
    "request_type": "Trash/Recycling",
    "request_reason": "Replace Trash Cart",
    "date_created": "2026-03-22T10:15:19.000",
    "date_modified": "2026-03-22T10:15:21.000",
    "request_status": "Pending",
    "responsible_agency": "Department of Sanitation",
    "final_address": "5519 Loyola Ave",
    "address_councildis": "A",
    "status": "Assigned to Contractor",
    "contractor": "IV Waste",
    "rowid": "1267466",
    "final_x": "3667213.39489",
    "final_y": "523168.146619",
    "longitude": "-90.11346319958197",
    "latitude": "29.93295682794233",
    "geocoded_column": {
      "latitude": "29.93295682794233",
      "longitude": "-90.11346319958197"
    }
  },
  {
    "service_request": "2026-1267465",
    "request_type": "Property Maintenance",
    "request_reason": "Property Maintenance",
    "date_created": "2026-03-22T09:58:20.000",
    "date_modified": "2026-03-22T09:58:22.000",
    "request_status": "Pending",
    "responsible_agency": "Department of Code Enforcement",
    "final_address": "5582 Tullis Dr",
    "address_councildis": "C",
    "status": "Pending",
    "rowid": "1267465",
    "final_x": "3704650.66743",
    "final_y": "512353.252721",
    "longitude": "-89.99567595098128",
    "latitude": "29.90207060332377",
    "geocoded_column": {
      "latitude": "29.90207060332377",
      "longitude": "-89.99567595098128"
    }
  },
  {
    "service_request": "2026-1267464",
    "request_type": "Trash/Recycling",
    "request_reason": "Request a Large Item Pick Up",
    "date_created": "2026-03-22T09:44:22.000",
    "date_modified": "2026-03-22T09:44:25.000",
    "request_status": "Pending",
    "responsible_agency": "Department of Sanitation",
    "final_address": "3110 Cleveland Ave",
    "address_councildis": "B",
    "status": "Assigned to Contractor",
    "contractor": "IV Waste",
    "rowid": "1267464",
    "final_x": "3673704.57908",
    "final_y": "535777.075527",
    "longitude": "-90.09253993171296",
    "latitude": "29.967435599880453",
    "geocoded_column": {
      "latitude": "29.967435599880453",
      "longitude": "-90.09253993171296"
    }
  },
  {
    "service_request": "2026-1267463",
    "request_type": "Trash/Recycling",
    "request_reason": "Illegal Dumping",
    "date_created": "2026-03-22T09:25:43.000",
    "date_modified": "2026-03-22T09:25:45.000",
    "request_status": "Pending",
    "responsible_agency": "Department of Sanitation",
    "final_address": "5700 Crowder Blvd",
    "address_councildis": "E",
    "status": "Pending",
    "rowid": "1267463",
    "final_x": "3705062.42065",
    "final_y": "557854.943195",
    "longitude": "-89.99269635649384",
    "latitude": "30.02717049048631",
    "geocoded_column": {
      "latitude": "30.02717049048631",
      "longitude": "-89.99269635649384"
    }
  },
  {
    "service_request": "2026-1267462",
    "request_type": "Trash/Recycling",
    "request_reason": "Replace Trash Cart",
    "date_created": "2026-03-22T09:22:38.000",
    "date_modified": "2026-03-22T09:22:41.000",
    "request_status": "Pending",
    "responsible_agency": "Department of Sanitation",
    "final_address": "5805 Elysian Fields Ave",
    "address_councildis": "D",
    "status": "Assigned to Contractor",
    "contractor": "IV Waste",
    "rowid": "1267462",
    "final_x": "3683713.38402",
    "final_y": "554284.2774",
    "longitude": "-90.06028264635007",
    "latitude": "30.01802201024144",
    "geocoded_column": {
      "latitude": "30.01802201024144",
      "longitude": "-90.06028264635007"
    }
  },
  {
    "service_request": "2026-1267461",
    "request_type": "Trash/Recycling",
    "request_reason": "Return Recycling Cart",
    "date_created": "2026-03-22T09:12:47.000",
    "date_modified": "2026-03-22T09:12:50.000",
    "request_status": "Pending",
    "responsible_agency": "Department of Sanitation",
    "final_address": "4524 Laurel St",
    "address_councildis": "B",
    "status": "Pending",
    "rowid": "1267461",
    "final_x": "3670516.8251",
    "final_y": "517954.816822",
    "longitude": "-90.10321117139962",
    "latitude": "29.91852471852496",
    "geocoded_column": {
      "latitude": "29.91852471852496",
      "longitude": "-90.10321117139962"
    }
  },
  {
    "service_request": "2026-1267460",
    "request_type": "Trash/Recycling",
    "request_reason": "Order Recycling Cart",
    "date_created": "2026-03-22T09:03:37.000",
    "date_modified": "2026-03-22T09:03:38.000",
    "request_status": "Pending",
    "responsible_agency": "Department of Sanitation",
    "final_address": "2031 Conti St",
    "address_councildis": "B",
    "status": "Pending",
    "rowid": "1267460",
    "final_x": "3678077.65166",
    "final_y": "534548.946373",
    "longitude": "-90.078772150666",
    "latitude": "29.963927728873163",
    "geocoded_column": {
      "latitude": "29.963927728873163",
      "longitude": "-90.078772150666"
    }
  },
  {
    "service_request": "2026-1267459",
    "request_type": "Trash/Recycling",
    "request_reason": "Order Trash Cart",
    "date_created": "2026-03-22T09:02:10.000",
    "date_modified": "2026-03-22T09:02:11.000",
    "request_status": "Pending",
    "responsible_agency": "Department of Sanitation",
    "final_address": "2031 Conti St",
    "address_councildis": "B",
    "status": "Assigned to Contractor",
    "contractor": "IV Waste",
    "rowid": "1267459",
    "final_x": "3678077.65166",
    "final_y": "534548.946373",
    "longitude": "-90.078772150666",
    "latitude": "29.963927728873163",
    "geocoded_column": {
      "latitude": "29.963927728873163",
      "longitude": "-90.078772150666"
    }
  },
  {
    "service_request": "2026-1267458",
    "request_type": "Trash/Recycling",
    "request_reason": "Illegal Dumping",
    "date_created": "2026-03-22T08:47:58.000",
    "date_modified": "2026-03-22T08:47:59.000",
    "request_status": "Pending",
    "responsible_agency": "Department of Sanitation",
    "final_address": "1935 Montegut St",
    "address_councildis": "D",
    "status": "Pending",
    "rowid": "1267458",
    "final_x": "3689339.44559",
    "final_y": "539402.161866",
    "longitude": "-90.04303598493019",
    "latitude": "29.976928517867577",
    "geocoded_column": {
      "latitude": "29.976928517867577",
      "longitude": "-90.04303598493019"
    }
  },
  {
    "service_request": "2026-1267457",
    "request_type": "Property Maintenance",
    "request_reason": "Property Maintenance",
    "date_created": "2026-03-22T08:47:48.000",
    "date_modified": "2026-03-22T08:47:50.000",
    "request_status": "Pending",
    "responsible_agency": "Department of Code Enforcement",
    "final_address": "2833 Napoleon Ave",
    "address_councildis": "B",
    "status": "Pending",
    "rowid": "1267457",
    "final_x": "3670495.89857",
    "final_y": "525341.129469",
    "longitude": "-90.10302689207099",
    "latitude": "29.938835332072447",
    "geocoded_column": {
      "latitude": "29.938835332072447",
      "longitude": "-90.10302689207099"
    }
  },
  {
    "service_request": "2026-1267456",
    "request_type": "Safety & Permits",
    "request_reason": "Zoning Enforcement",
    "date_created": "2026-03-22T08:42:34.000",
    "date_modified": "2026-03-22T08:42:36.000",
    "request_status": "Pending",
    "responsible_agency": "Safety and Permits",
    "final_address": "1931 Montegut St",
    "address_councildis": "D",
    "status": "Pending",
    "rowid": "1267456",
    "final_x": "3689331.9526",
    "final_y": "539372.078666",
    "longitude": "-90.04306071998771",
    "latitude": "29.976846031723262",
    "geocoded_column": {
      "latitude": "29.976846031723262",
      "longitude": "-90.04306071998771"
    }
  },
  {
    "service_request": "2026-1267455",
    "request_type": "Trash/Recycling",
    "request_reason": "Order Trash Cart",
    "date_created": "2026-03-22T08:09:49.000",
    "date_modified": "2026-03-22T08:09:51.000",
    "request_status": "Pending",
    "responsible_agency": "Department of Sanitation",
    "final_address": "4520 S Roman St",
    "address_councildis": "B",
    "status": "Assigned to Contractor",
    "contractor": "IV Waste",
    "rowid": "1267455",
    "final_x": "3669705.91892",
    "final_y": "526463.077566",
    "longitude": "-90.10548299767811",
    "latitude": "29.941943625634092",
    "geocoded_column": {
      "latitude": "29.941943625634092",
      "longitude": "-90.10548299767811"
    }
  },
  {
    "service_request": "2026-1267454",
    "request_type": "Trash/Recycling",
    "request_reason": "Order Second Trash Cart",
    "date_created": "2026-03-22T08:02:04.000",
    "date_modified": "2026-03-22T08:02:06.000",
    "request_status": "Pending",
    "responsible_agency": "Department of Sanitation",
    "final_address": "334 Spencer Ave",
    "address_councildis": "A",
    "status": "Assigned to Contractor",
    "contractor": "IV Waste",
    "rowid": "1267454",
    "final_x": "3665150.80032",
    "final_y": "553609.402583",
    "longitude": "-90.11895619568023",
    "latitude": "30.0167203472726",
    "geocoded_column": {
      "latitude": "30.0167203472726",
      "longitude": "-90.11895619568023"
    }
  },
  {
    "service_request": "2026-1267452",
    "request_type": "Drainage",
    "request_reason": "Ditch and Culvert Maintenance",
    "date_created": "2026-03-22T07:27:35.000",
    "date_modified": "2026-03-22T07:27:38.000",
    "request_status": "Pending",
    "responsible_agency": "Department of Public Works",
    "final_address": "8100 BLK Plum St",
    "address_councildis": "A",
    "status": "Pending",
    "rowid": "1267452",
    "final_x": "3662080.24831",
    "final_y": "528737.919674",
    "longitude": "-90.12948351431699",
    "latitude": "29.948421200192595",
    "geocoded_column": {
      "latitude": "29.948421200192595",
      "longitude": "-90.12948351431699"
    }
  },
  {
    "service_request": "2026-1267451",
    "request_type": "Drainage",
    "request_reason": "Ditch and Culvert Maintenance",
    "date_created": "2026-03-22T07:27:35.000",
    "date_modified": "2026-03-22T07:27:36.000",
    "request_status": "Pending",
    "responsible_agency": "Department of Public Works",
    "final_address": "8100 BLK Plum St",
    "address_councildis": "A",
    "status": "Pending",
    "rowid": "1267451",
    "final_x": "3662080.24831",
    "final_y": "528737.919674",
    "longitude": "-90.12948351431699",
    "latitude": "29.948421200192595",
    "geocoded_column": {
      "latitude": "29.948421200192595",
      "longitude": "-90.12948351431699"
    }
  },
  {
    "service_request": "2026-1267453",
    "request_type": "Drainage",
    "request_reason": "Ditch and Culvert Maintenance",
    "date_created": "2026-03-22T07:27:35.000",
    "date_modified": "2026-03-22T07:27:37.000",
    "request_status": "Pending",
    "responsible_agency": "Department of Public Works",
    "final_address": "8100 BLK Plum St",
    "address_councildis": "A",
    "status": "Pending",
    "rowid": "1267453",
    "final_x": "3662080.24831",
    "final_y": "528737.919674",
    "longitude": "-90.12948351431699",
    "latitude": "29.948421200192595",
    "geocoded_column": {
      "latitude": "29.948421200192595",
      "longitude": "-90.12948351431699"
    }
  },
  {
    "service_request": "2026-1267450",
    "request_type": "Trash/Recycling",
    "request_reason": "Illegal Dumping",
    "date_created": "2026-03-22T03:18:10.000",
    "date_modified": "2026-03-22T03:18:13.000",
    "request_status": "Pending",
    "responsible_agency": "Department of Sanitation",
    "final_address": "633 N Carrollton Ave",
    "address_councildis": "A",
    "status": "Pending",
    "rowid": "1267450",
    "final_x": "3672450.99227",
    "final_y": "539925.198986",
    "longitude": "-90.09635737141133",
    "latitude": "29.9788788014552",
    "geocoded_column": {
      "latitude": "29.9788788014552",
      "longitude": "-90.09635737141133"
    }
  },
  {
    "service_request": "2026-1267449",
    "request_type": "Abandoned Vehicles",
    "request_reason": "Abandoned/Junk Vehicles",
    "date_created": "2026-03-22T02:14:37.000",
    "date_modified": "2026-03-22T02:14:38.000",
    "request_status": "Pending",
    "responsible_agency": "Department of Public Works",
    "final_address": "2348 Lake Oaks Prkwy",
    "address_councildis": "D",
    "status": "Pending",
    "rowid": "1267449",
    "final_x": "3684425.09193",
    "final_y": "558334.973404",
    "longitude": "-90.05789146117077",
    "latitude": "30.02913816602361",
    "geocoded_column": {
      "latitude": "30.02913816602361",
      "longitude": "-90.05789146117077"
    }
  },
  {
    "service_request": "2026-1267448",
    "request_type": "Trash/Recycling",
    "request_reason": "Order Trash Cart",
    "date_created": "2026-03-21T22:32:57.000",
    "date_modified": "2026-03-21T22:32:59.000",
    "request_status": "Pending",
    "responsible_agency": "Department of Sanitation",
    "final_address": "1200 BLK N dOrgenois St",
    "address_councildis": "C",
    "status": "Assigned to Contractor",
    "contractor": "IV Waste",
    "rowid": "1267448",
    "final_x": "3678370.21245",
    "final_y": "538230.884284",
    "longitude": "-90.0777208596597",
    "latitude": "29.974042988987584",
    "geocoded_column": {
      "latitude": "29.974042988987584",
      "longitude": "-90.0777208596597"
    }
  },
  {
    "service_request": "2026-1267447",
    "request_type": "Trash/Recycling",
    "request_reason": "Request a Large Item Pick Up",
    "date_created": "2026-03-21T21:57:09.000",
    "date_modified": "2026-03-21T21:57:11.000",
    "request_status": "Pending",
    "responsible_agency": "Department of Sanitation",
    "final_address": "7600 Crestmont Rd",
    "address_councildis": "E",
    "status": "Assigned to Contractor",
    "contractor": "Waste Pro",
    "rowid": "1267447",
    "final_x": "3699611.60644",
    "final_y": "560175.156317",
    "longitude": "-90.00983564245122",
    "latitude": "30.03372441175211",
    "geocoded_column": {
      "latitude": "30.03372441175211",
      "longitude": "-90.00983564245122"
    }
  },
  {
    "service_request": "2026-1267446",
    "request_type": "Health Related Request",
    "request_reason": "Noise Ordinance Complaint",
    "date_created": "2026-03-21T20:32:43.000",
    "date_modified": "2026-03-21T20:32:47.000",
    "request_status": "Pending",
    "responsible_agency": "Health Department",
    "final_address": "801 Bourbon St, New Orleans, Louisiana, 70116",
    "address_councildis": "C",
    "status": "Pending",
    "rowid": "1267446",
    "final_x": "3682490.98735",
    "final_y": "533018.672772",
    "longitude": "-90.06488875731978",
    "latitude": "29.959586396383013",
    "geocoded_column": {
      "latitude": "29.959586396383013",
      "longitude": "-90.06488875731978"
    }
  },
  {
    "service_request": "2026-1267445",
    "request_type": "Safety & Permits",
    "request_reason": "Licenses & Permits",
    "date_created": "2026-03-21T20:15:18.000",
    "date_modified": "2026-03-21T20:15:21.000",
    "request_status": "Pending",
    "responsible_agency": "Safety and Permits",
    "final_address": "816 Orleans Ave",
    "address_councildis": "C",
    "status": "Pending",
    "rowid": "1267445",
    "final_x": "3682223.82376",
    "final_y": "532887.010436",
    "longitude": "-90.0657369969134",
    "latitude": "29.95923249929515",
    "geocoded_column": {
      "latitude": "29.95923249929515",
      "longitude": "-90.0657369969134"
    }
  },
  {
    "service_request": "2026-1267444",
    "request_type": "Health Related Request",
    "request_reason": "Noise Ordinance Complaint",
    "date_created": "2026-03-21T19:55:21.000",
    "date_modified": "2026-03-21T19:55:22.000",
    "request_status": "Pending",
    "responsible_agency": "Health Department",
    "final_address": "801 Bourbon St, New Orleans, Louisiana, 70116",
    "address_councildis": "C",
    "status": "Pending",
    "rowid": "1267444",
    "final_x": "3682490.98735",
    "final_y": "533018.672772",
    "longitude": "-90.06488875731978",
    "latitude": "29.959586396383013",
    "geocoded_column": {
      "latitude": "29.959586396383013",
      "longitude": "-90.06488875731978"
    }
  },
  {
    "service_request": "2026-1267443",
    "request_type": "Safety & Permits",
    "request_reason": "Zoning Enforcement",
    "date_created": "2026-03-21T19:46:15.000",
    "date_modified": "2026-03-21T19:46:18.000",
    "request_status": "Pending",
    "responsible_agency": "Safety and Permits",
    "final_address": "1908 New Orleans St",
    "address_councildis": "D",
    "status": "Pending",
    "rowid": "1267443",
    "final_x": "3682132.17576",
    "final_y": "539140.342346",
    "longitude": "-90.06580796362185",
    "latitude": "29.97642979578162",
    "geocoded_column": {
      "latitude": "29.97642979578162",
      "longitude": "-90.06580796362185"
    }
  },
  {
    "service_request": "2026-1267442",
    "request_type": "Health Related Request",
    "request_reason": "Noise Ordinance Complaint",
    "date_created": "2026-03-21T19:39:19.000",
    "date_modified": "2026-03-21T19:39:20.000",
    "request_status": "Pending",
    "responsible_agency": "Health Department",
    "final_address": "801 Bourbon St, New Orleans, Louisiana, 70116",
    "address_councildis": "C",
    "status": "Pending",
    "rowid": "1267442",
    "final_x": "3682490.98735",
    "final_y": "533018.672772",
    "longitude": "-90.06488875731978",
    "latitude": "29.959586396383013",
    "geocoded_column": {
      "latitude": "29.959586396383013",
      "longitude": "-90.06488875731978"
    }
  },
  {
    "service_request": "2026-1267441",
    "request_type": "Trash/Recycling",
    "request_reason": "Order Second Trash Cart",
    "date_created": "2026-03-21T19:36:17.000",
    "date_modified": "2026-03-21T19:36:19.000",
    "request_status": "Pending",
    "responsible_agency": "Department of Sanitation",
    "final_address": "6061 Oxford Pl",
    "address_councildis": "C",
    "status": "Assigned to Contractor",
    "contractor": "Richards Disposal",
    "rowid": "1267441",
    "final_x": "3706508.49425",
    "final_y": "519733.896184",
    "longitude": "-89.98953962281686",
    "latitude": "29.92230506119657",
    "geocoded_column": {
      "latitude": "29.92230506119657",
      "longitude": "-89.98953962281686"
    }
  },
  {
    "service_request": "2026-1267440",
    "request_type": "Property Maintenance",
    "request_reason": "Property Maintenance",
    "date_created": "2026-03-21T19:33:57.000",
    "date_modified": "2026-03-21T19:33:58.000",
    "request_status": "Pending",
    "responsible_agency": "Department of Code Enforcement",
    "final_address": "17 Egret St",
    "address_councildis": "D",
    "status": "Pending",
    "rowid": "1267440",
    "final_x": "3673839.46721",
    "final_y": "554765.151768",
    "longitude": "-90.09146405052076",
    "latitude": "30.01964218447362",
    "geocoded_column": {
      "latitude": "30.01964218447362",
      "longitude": "-90.09146405052076"
    }
  },
  {
    "service_request": "2026-1267439",
    "request_type": "Trash/Recycling",
    "request_reason": "Request a Large Item Pick Up",
    "date_created": "2026-03-21T19:30:54.000",
    "date_modified": "2026-03-21T19:30:56.000",
    "request_status": "Pending",
    "responsible_agency": "Department of Sanitation",
    "final_address": "21 Egret St",
    "address_councildis": "D",
    "status": "Assigned to Contractor",
    "contractor": "IV Waste",
    "rowid": "1267439",
    "final_x": "3673834.24948",
    "final_y": "554811.871256",
    "longitude": "-90.09147893697957",
    "latitude": "30.0197708017816",
    "geocoded_column": {
      "latitude": "30.0197708017816",
      "longitude": "-90.09147893697957"
    }
  },
  {
    "service_request": "2026-1267438",
    "request_type": "Health Related Request",
    "request_reason": "Noise Ordinance Complaint",
    "date_created": "2026-03-21T19:17:27.000",
    "date_modified": "2026-03-21T19:17:29.000",
    "request_status": "Pending",
    "responsible_agency": "Health Department",
    "final_address": "801 Bourbon St, New Orleans, Louisiana, 70116",
    "address_councildis": "C",
    "status": "Pending",
    "rowid": "1267438",
    "final_x": "3682490.98735",
    "final_y": "533018.672772",
    "longitude": "-90.06488875731978",
    "latitude": "29.959586396383013",
    "geocoded_column": {
      "latitude": "29.959586396383013",
      "longitude": "-90.06488875731978"
    }
  },
  {
    "service_request": "2026-1267437",
    "request_type": "Drainage",
    "request_reason": "Catch Basin Frame and Cover Missing or Damaged",
    "date_created": "2026-03-21T18:41:17.000",
    "date_modified": "2026-03-21T18:41:20.000",
    "request_status": "Pending",
    "responsible_agency": "Sewerage & Water Board",
    "final_address": "638 Seguin St",
    "address_councildis": "C",
    "status": "Pending",
    "rowid": "1267437",
    "final_x": "3686888.66351",
    "final_y": "529436.816833",
    "longitude": "-90.05112851003524",
    "latitude": "29.94960292968739",
    "geocoded_column": {
      "latitude": "29.94960292968739",
      "longitude": "-90.05112851003524"
    }
  },
  {
    "service_request": "2026-1267436",
    "request_type": "Trash/Recycling",
    "request_reason": "Request a Large Item Pick Up",
    "date_created": "2026-03-21T18:02:25.000",
    "date_modified": "2026-03-21T18:02:26.000",
    "request_status": "Pending",
    "responsible_agency": "Department of Sanitation",
    "final_address": "422 S Lopez St",
    "address_councildis": "B",
    "status": "Assigned to Contractor",
    "contractor": "IV Waste",
    "rowid": "1267436",
    "final_x": "3673040.73115",
    "final_y": "535070.742982",
    "longitude": "-90.09466049243028",
    "latitude": "29.96551317243648",
    "geocoded_column": {
      "latitude": "29.96551317243648",
      "longitude": "-90.09466049243028"
    }
  },
  {
    "service_request": "2026-1267435",
    "request_type": "Trash/Recycling",
    "request_reason": "Request a Large Item Pick Up",
    "date_created": "2026-03-21T17:57:14.000",
    "date_modified": "2026-03-21T17:57:16.000",
    "request_status": "Pending",
    "responsible_agency": "Department of Sanitation",
    "final_address": "1817 Dublin St",
    "address_councildis": "A",
    "status": "Assigned to Contractor",
    "contractor": "IV Waste",
    "rowid": "1267435",
    "final_x": "3663255.13875",
    "final_y": "530254.916417",
    "longitude": "-90.12572339879524",
    "latitude": "29.9525584589749",
    "geocoded_column": {
      "latitude": "29.9525584589749",
      "longitude": "-90.12572339879524"
    }
  },
  {
    "service_request": "2026-1267434",
    "request_type": "General Services",
    "request_reason": "General Service Request",
    "date_created": "2026-03-21T17:54:49.000",
    "date_modified": "2026-03-21T17:54:51.000",
    "request_status": "Pending",
    "responsible_agency": "Orleans Parish Communication District",
    "final_address": "200 Cypress Grove Ct Unit 76",
    "address_councildis": "C",
    "status": "Pending",
    "rowid": "1267434",
    "final_x": "3704813.2394",
    "final_y": "511994.778544",
    "longitude": "-89.99517609804785",
    "latitude": "29.901079701583026",
    "geocoded_column": {
      "latitude": "29.901079701583026",
      "longitude": "-89.99517609804785"
    }
  },
  {
    "service_request": "2026-1267433",
    "request_type": "Trash/Recycling",
    "request_reason": "Repair Trash Cart",
    "date_created": "2026-03-21T17:29:47.000",
    "date_modified": "2026-03-21T17:29:50.000",
    "request_status": "Pending",
    "responsible_agency": "Department of Sanitation",
    "final_address": "7545 Mercier St",
    "address_councildis": "E",
    "status": "Assigned to Contractor",
    "contractor": "Waste Pro",
    "rowid": "1267433",
    "final_x": "3711855.47896",
    "final_y": "565955.619811",
    "longitude": "-89.97092677659454",
    "latitude": "30.049223823715998",
    "geocoded_column": {
      "latitude": "30.049223823715998",
      "longitude": "-89.97092677659454"
    }
  },
  {
    "service_request": "2026-1267432",
    "request_type": "Abandoned Vehicles",
    "request_reason": "Abandoned/Junk Vehicles",
    "date_created": "2026-03-21T17:04:21.000",
    "date_modified": "2026-03-21T17:04:23.000",
    "request_status": "Pending",
    "responsible_agency": "Department of Public Works",
    "final_address": "533 S Alexander St",
    "address_councildis": "A",
    "status": "Pending",
    "rowid": "1267432",
    "final_x": "3668765.90202",
    "final_y": "537680.406408",
    "longitude": "-90.10807213627888",
    "latitude": "29.97281524928413",
    "geocoded_column": {
      "latitude": "29.97281524928413",
      "longitude": "-90.10807213627888"
    }
  },
  {
    "service_request": "2026-1267431",
    "request_type": "Trash/Recycling",
    "request_reason": "Request a Large Item Pick Up",
    "date_created": "2026-03-21T16:27:07.000",
    "date_modified": "2026-03-21T16:27:10.000",
    "request_status": "Pending",
    "responsible_agency": "Department of Sanitation",
    "final_address": "1438 Pleasant St",
    "address_councildis": "B",
    "status": "Assigned to Contractor",
    "contractor": "IV Waste",
    "rowid": "1267431",
    "final_x": "3674882.09589",
    "final_y": "521096.534137",
    "longitude": "-90.08932464152032",
    "latitude": "29.927033849727923",
    "geocoded_column": {
      "latitude": "29.927033849727923",
      "longitude": "-90.08932464152032"
    }
  },
  {
    "service_request": "2026-1267430",
    "request_type": "Traffic Signals",
    "request_reason": "Traffic Signal Malfunctioning or Damaged",
    "date_created": "2026-03-21T16:25:08.000",
    "date_modified": "2026-03-21T16:25:10.000",
    "request_status": "Pending",
    "responsible_agency": "Department of Public Works",
    "final_address": "4900 Elysian Fields Ave",
    "address_councildis": "D",
    "status": "Pending",
    "rowid": "1267430",
    "final_x": "3683743.09461",
    "final_y": "550803.684309",
    "longitude": "-90.06031095221383",
    "latitude": "30.008450740256997",
    "geocoded_column": {
      "latitude": "30.008450740256997",
      "longitude": "-90.06031095221383"
    }
  },
  {
    "service_request": "2026-1267429",
    "request_type": "Traffic Signals",
    "request_reason": "Traffic Signal Malfunctioning or Damaged",
    "date_created": "2026-03-21T16:14:19.000",
    "date_modified": "2026-03-21T16:14:21.000",
    "request_status": "Pending",
    "responsible_agency": "Department of Public Works",
    "final_address": "5971 Marshal Foch St",
    "address_councildis": "A",
    "status": "Pending",
    "rowid": "1267429",
    "final_x": "3669898.00935",
    "final_y": "547015.784721",
    "longitude": "-90.10418045296613",
    "latitude": "29.99845101673973",
    "geocoded_column": {
      "latitude": "29.99845101673973",
      "longitude": "-90.10418045296613"
    }
  },
  {
    "service_request": "2026-1267428",
    "request_type": "Traffic Signals",
    "request_reason": "Traffic Signal Malfunctioning or Damaged",
    "date_created": "2026-03-21T16:01:25.000",
    "date_modified": "2026-03-21T16:01:30.000",
    "request_status": "Pending",
    "responsible_agency": "Department of Public Works",
    "final_address": "1200 BLK Freret St",
    "address_councildis": "B",
    "status": "Pending",
    "rowid": "1267428",
    "final_x": "3676817.792",
    "final_y": "527972.294237",
    "longitude": "-90.08297730103945",
    "latitude": "29.94588200717631",
    "geocoded_column": {
      "latitude": "29.94588200717631",
      "longitude": "-90.08297730103945"
    }
  },
  {
    "service_request": "2026-1267427",
    "request_type": "Trash/Recycling",
    "request_reason": "Request a Large Item Pick Up",
    "date_created": "2026-03-21T15:24:23.000",
    "date_modified": "2026-03-21T15:24:25.000",
    "request_status": "Pending",
    "responsible_agency": "Department of Sanitation",
    "final_address": "532 Leontine St",
    "address_councildis": "B",
    "status": "Assigned to Contractor",
    "contractor": "IV Waste",
    "rowid": "1267427",
    "final_x": "3666968.8041",
    "final_y": "517471.549174",
    "longitude": "-90.11442666290054",
    "latitude": "29.917300142276066",
    "geocoded_column": {
      "latitude": "29.917300142276066",
      "longitude": "-90.11442666290054"
    }
  },
  {
    "service_request": "2026-1267426",
    "request_type": "Trash/Recycling",
    "request_reason": "Repair Recycling Cart",
    "date_created": "2026-03-21T14:52:11.000",
    "date_modified": "2026-03-21T14:52:12.000",
    "request_status": "Pending",
    "responsible_agency": "Department of Sanitation",
    "final_address": "4769 Sherwood Dr",
    "address_councildis": "E",
    "status": "Pending",
    "rowid": "1267426",
    "final_x": "3718060.67468",
    "final_y": "557055.41481",
    "longitude": "-89.9516540215596",
    "latitude": "30.02454753891973",
    "geocoded_column": {
      "latitude": "30.02454753891973",
      "longitude": "-89.9516540215596"
    }
  },
  {
    "service_request": "2026-1267425",
    "request_type": "Trash/Recycling",
    "request_reason": "Request a Large Item Pick Up",
    "date_created": "2026-03-21T14:43:33.000",
    "date_modified": "2026-03-21T14:43:35.000",
    "request_status": "Pending",
    "responsible_agency": "Department of Sanitation",
    "final_address": "7856 Sail St",
    "address_councildis": "E",
    "status": "Assigned to Contractor",
    "contractor": "Waste Pro",
    "rowid": "1267425",
    "final_x": "3719852.26022",
    "final_y": "574171.723626",
    "longitude": "-89.94533785424076",
    "latitude": "30.07155081506712",
    "geocoded_column": {
      "latitude": "30.07155081506712",
      "longitude": "-89.94533785424076"
    }
  },
  {
    "service_request": "2026-1267424",
    "request_type": "Trash/Recycling",
    "request_reason": "Replace Trash Cart",
    "date_created": "2026-03-21T14:37:24.000",
    "date_modified": "2026-03-21T14:37:26.000",
    "request_status": "Pending",
    "responsible_agency": "Department of Sanitation",
    "final_address": "3121 Orleans Ave",
    "address_councildis": "A",
    "status": "Assigned to Contractor",
    "contractor": "IV Waste",
    "rowid": "1267424",
    "final_x": "3675182.12865",
    "final_y": "538290.144969",
    "longitude": "-90.08778752934143",
    "latitude": "29.974301609846606",
    "geocoded_column": {
      "latitude": "29.974301609846606",
      "longitude": "-90.08778752934143"
    }
  },
  {
    "service_request": "2026-1267423",
    "request_type": "Trash/Recycling",
    "request_reason": "Request a Large Item Pick Up",
    "date_created": "2026-03-21T14:35:15.000",
    "date_modified": "2026-03-21T14:35:17.000",
    "request_status": "Pending",
    "responsible_agency": "Department of Sanitation",
    "final_address": "3121 Orleans Ave",
    "address_councildis": "A",
    "status": "Assigned to Contractor",
    "contractor": "IV Waste",
    "rowid": "1267423",
    "final_x": "3675182.12865",
    "final_y": "538290.144969",
    "longitude": "-90.08778752934143",
    "latitude": "29.974301609846606",
    "geocoded_column": {
      "latitude": "29.974301609846606",
      "longitude": "-90.08778752934143"
    }
  },
  {
    "service_request": "2026-1267422",
    "request_type": "Trash/Recycling",
    "request_reason": "Request a Large Item Pick Up",
    "date_created": "2026-03-21T14:32:43.000",
    "date_modified": "2026-03-21T14:32:46.000",
    "request_status": "Pending",
    "responsible_agency": "Department of Sanitation",
    "final_address": "57 Winners Cir",
    "address_councildis": "E",
    "status": "Assigned to Contractor",
    "contractor": "Waste Pro",
    "rowid": "1267422",
    "final_x": "3715977.65964",
    "final_y": "570315.819751",
    "longitude": "-89.95773288879047",
    "latitude": "30.061077168341413",
    "geocoded_column": {
      "latitude": "30.061077168341413",
      "longitude": "-89.95773288879047"
    }
  },
  {
    "service_request": "2026-1267421",
    "request_type": "Trash/Recycling",
    "request_reason": "Request a Large Item Pick Up",
    "date_created": "2026-03-21T14:15:59.000",
    "date_modified": "2026-03-21T14:16:02.000",
    "request_status": "Pending",
    "responsible_agency": "Department of Sanitation",
    "final_address": "5019 Michoud Blvd",
    "address_councildis": "E",
    "status": "Assigned to Contractor",
    "contractor": "Waste Pro",
    "rowid": "1267421",
    "final_x": "3724963.13868",
    "final_y": "561873.868511",
    "longitude": "-89.92965724026449",
    "latitude": "30.037565655624523",
    "geocoded_column": {
      "latitude": "30.037565655624523",
      "longitude": "-89.92965724026449"
    }
  },