[
  {
    "service_request": "2024-1155221",
    "request_type": "Streetlights",
    "request_reason": "Streetlight Outage/Malfunction",
    "date_created": "2024-12-15T22:54:15.000",
    "date_modified": "2024-12-15T22:54:16.000",
    "request_status": "Pending",
    "responsible_agency": "Department of Public Works",
    "final_address": "4514 Eden St",
    "address_councildis": "B",
    "status": "Pending",
    "contractor": "Legacy Professional Services",
    "rowid": "1155221",
    "final_x": "3669532.33479",
    "final_y": "530854.874178",
    "longitude": "-90.10588250689428",
    "latitude": "29.954024746431813",
    "geocoded_column": {
      "latitude": "29.954024746431813",
      "longitude": "-90.10588250689428"
    }
  },
  {
    "service_request": "2024-1155220",
    "request_type": "Streetlights",
    "request_reason": "Streetlight Outage/Malfunction",
    "date_created": "2024-12-15T22:35:24.000",
    "date_modified": "2024-12-15T22:35:26.000",
    "request_status": "Pending",
    "responsible_agency": "Department of Public Works",
    "final_address": "7000 BLK Cohn St",
    "address_councildis": "A",
    "status": "Pending",
    "contractor": "Legacy Professional Services",
    "rowid": "1155220",
    "final_x": "3665871.91297",
    "final_y": "528337.492653",
    "longitude": "-90.11752501904195",
    "latitude": "29.947210074264646",
    "geocoded_column": {
      "latitude": "29.947210074264646",
      "longitude": "-90.11752501904195"
    }
  },
  {
    "service_request": "2024-1155219",
    "request_type": "Trash/Recycling",
    "request_reason": "Replace Recycling Cart",
    "date_created": "2024-12-15T22:14:10.000",
    "date_modified": "2024-12-15T22:14:10.000",
    "request_status": "Pending",
    "responsible_agency": "Department of Sanitation",
    "final_address": "4114 Stephen Girard Ave",
    "address_councildis": "D",
    "status": "Pending",
    "rowid": "1155219",
    "final_x": "3689644.22723",
    "final_y": "549630.75074",
    "longitude": "-90.0417092382855",
    "latitude": "30.005044013193324",
    "geocoded_column": {
      "latitude": "30.005044013193324",
      "longitude": "-90.0417092382855"
    }
  },
  {
    "service_request": "2024-1155218",
    "request_type": "Trash/Recycling",
    "request_reason": "Illegal Dumping",
    "date_created": "2024-12-15T22:11:11.000",
    "date_modified": "2024-12-15T22:11:11.000",
    "request_status": "Pending",
    "responsible_agency": "Department of Sanitation",
    "final_address": "1802 Benton St",
    "address_councildis": "E",
    "status": "Pending",
    "rowid": "1155218",
    "final_x": "3699805.40068",
    "final_y": "536120.163015",
    "longitude": "-90.01010108208104",
    "latitude": "29.967575998349766",
    "geocoded_column": {
      "latitude": "29.967575998349766",
      "longitude": "-90.01010108208104"
    }
  },
  {
    "service_request": "2024-1155217",
    "request_type": "Trash/Recycling",
    "request_reason": "Request a Large Item Pick Up",
    "date_created": "2024-12-15T21:41:08.000",
    "date_modified": "2024-12-15T21:41:09.000",
    "request_status": "Pending",
    "responsible_agency": "Department of Sanitation",
    "final_address": "10311 Flossmoor Dr",
    "address_councildis": "E",
    "status": "Assigned to Contractor",
    "contractor": "Waste Pro",
    "rowid": "1155217",
    "final_x": "3709955.83768",
    "final_y": "563931.027297",
    "longitude": "-89.97700648445907",
    "latitude": "30.04371897655244",
    "geocoded_column": {
      "latitude": "30.04371897655244",
      "longitude": "-89.97700648445907"
    }
  },
  {
    "service_request": "2024-1155216",
    "request_type": "Abandoned Vehicles",
    "request_reason": "Abandoned/Junk Vehicles",
    "date_created": "2024-12-15T21:39:13.000",
    "date_modified": "2024-12-15T21:39:13.000",
    "request_status": "Pending",
    "responsible_agency": "Department of Public Works",
    "final_address": "900 BLK Filmore Ave",
    "address_councildis": "A",
    "status": "Pending",
    "rowid": "1155216",
    "final_x": "3670333.74296",
    "final_y": "551885.168655",
    "longitude": "-90.1026387517639",
    "latitude": "30.011827259170552",
    "geocoded_column": {
      "latitude": "30.011827259170552",
      "longitude": "-90.1026387517639"
    }
  },
  {
    "service_request": "2024-1155215",
    "request_type": "Streetlights",
    "request_reason": "Streetlight Outage/Malfunction",
    "date_created": "2024-12-15T20:52:09.000",
    "date_modified": "2024-12-15T20:52:10.000",
    "request_status": "Pending",
    "responsible_agency": "Department of Public Works",
    "final_address": "2317 N Villere St",
    "address_councildis": "C",
    "status": "Pending",
    "contractor": "Legacy Professional Services",
    "rowid": "1155215",
    "final_x": "3685842.71458",
    "final_y": "537515.765896",
    "longitude": "-90.05414626360479",
    "latitude": "29.97184939550031",
    "geocoded_column": {
      "latitude": "29.97184939550031",
      "longitude": "-90.05414626360479"
    }
  },
  {
    "service_request": "2024-1155214",
    "request_type": "Trash/Recycling",
    "request_reason": "Request a Large Item Pick Up",
    "date_created": "2024-12-15T20:18:04.000",
    "date_modified": "2024-12-15T20:18:05.000",
    "request_status": "Pending",
    "responsible_agency": "Department of Sanitation",
    "final_address": "4719 Palmyra St",
    "address_councildis": "A",
    "status": "Assigned to Contractor",
    "contractor": "IV Waste",
    "rowid": "1155214",
    "final_x": "3668515.69543",
    "final_y": "539356.269962",
    "longitude": "-90.1088057766721",
    "latitude": "29.977430665154344",
    "geocoded_column": {
      "latitude": "29.977430665154344",
      "longitude": "-90.1088057766721"
    }
  },
  {
    "service_request": "2024-1155213",
    "request_type": "Abandoned Vehicles",
    "request_reason": "Abandoned/Junk Vehicles",
    "date_created": "2024-12-15T19:48:23.000",
    "date_modified": "2024-12-15T19:48:23.000",
    "request_status": "Pending",
    "responsible_agency": "Department of Public Works",
    "final_address": "1640 Poland Ave",
    "address_councildis": "D",
    "status": "Pending",
    "rowid": "1155213",
    "final_x": "3693523.33366",
    "final_y": "537223.57908",
    "longitude": "-90.02990026297283",
    "latitude": "29.970807982645884",
    "geocoded_column": {
      "latitude": "29.970807982645884",
      "longitude": "-90.02990026297283"
    }
  },
  {
    "service_request": "2024-1155212",
    "request_type": "Streetlights",
    "request_reason": "Streetlight Outage/Malfunction",
    "date_created": "2024-12-15T19:29:57.000",
    "date_modified": "2024-12-15T19:29:58.000",
    "request_status": "Pending",
    "responsible_agency": "Department of Public Works",
    "final_address": "3327 Mistletoe St",
    "address_councildis": "A",
    "status": "Pending",
    "contractor": "Legacy Professional Services",
    "rowid": "1155212",
    "final_x": "3664328.75418",
    "final_y": "536655.760711",
    "longitude": "-90.12211975189572",
    "latitude": "29.97012752999164",
    "geocoded_column": {
      "latitude": "29.97012752999164",
      "longitude": "-90.12211975189572"
    }
  },
  {
    "service_request": "2024-1155211",
    "request_type": "Trash/Recycling",
    "request_reason": "Request a Large Item Pick Up",
    "date_created": "2024-12-15T19:29:53.000",
    "date_modified": "2024-12-15T19:29:54.000",
    "request_status": "Pending",
    "responsible_agency": "Department of Sanitation",
    "final_address": "5734 Chatham Dr",
    "address_councildis": "D",
    "status": "Assigned to Contractor",
    "contractor": "IV Waste",
    "rowid": "1155211",
    "final_x": "3679565.59867",
    "final_y": "553829.141335",
    "longitude": "-90.07340388107194",
    "latitude": "30.01689660965046",
    "geocoded_column": {
      "latitude": "30.01689660965046",
      "longitude": "-90.07340388107194"
    }
  },
  {
    "service_request": "2024-1155210",
    "request_type": "Roads and Streets",
    "request_reason": "Push-up/Pavement Expansion",
    "date_created": "2024-12-15T18:58:05.000",
    "date_modified": "2024-12-15T18:58:05.000",
    "request_status": "Pending",
    "responsible_agency": "Department of Public Works",
    "final_address": "109 Kingston Ct",
    "address_councildis": "C",
    "status": "Pending",
    "rowid": "1155210",
    "final_x": "3705917.67236",
    "final_y": "517703.118582",
    "longitude": "-89.99147965871877",
    "latitude": "29.916740166215465",
    "geocoded_column": {
      "latitude": "29.916740166215465",
      "longitude": "-89.99147965871877"
    }
  },
  {
    "service_request": "2024-1155209",
    "request_type": "Parks & Parkways",
    "request_reason": "Request Tree Service (Right of Way/Public Property)",
    "date_created": "2024-12-15T18:53:06.000",
    "date_modified": "2024-12-15T18:53:06.000",
    "request_status": "Pending",
    "responsible_agency": "Department of Parks & Parkway",
    "final_address": "109 Kingston Ct",
    "address_councildis": "C",
    "status": "Pending",
    "rowid": "1155209",
    "final_x": "3705917.67236",
    "final_y": "517703.118582",
    "longitude": "-89.99147965871877",
    "latitude": "29.916740166215465",
    "geocoded_column": {
      "latitude": "29.916740166215465",
      "longitude": "-89.99147965871877"
    }
  },
  {
    "service_request": "2024-1155208",
    "request_type": "Property Maintenance",
    "request_reason": "Property Maintenance",
    "date_created": "2024-12-15T18:45:37.000",
    "date_modified": "2024-12-15T18:45:37.000",
    "request_status": "Pending",
    "responsible_agency": "Department of Code Enforcement",
    "final_address": "107 Kingston Ct",
    "address_councildis": "C",
    "status": "Pending",
    "rowid": "1155208",
    "final_x": "3705824.1715",
    "final_y": "517703.543862",
    "longitude": "-89.99177476798187",
    "latitude": "29.916744346023812",
    "geocoded_column": {
      "latitude": "29.916744346023812",
      "longitude": "-89.99177476798187"
    }
  },
  {
    "service_request": "2024-1155207",
    "request_type": "Trash/Recycling",
    "request_reason": "Request a Large Item Pick Up",
    "date_created": "2024-12-15T18:44:37.000",
    "date_modified": "2024-12-15T18:44:38.000",
    "request_status": "Pending",
    "responsible_agency": "Department of Sanitation",
    "final_address": "107 Kingston Ct",
    "address_councildis": "C",
    "status": "Assigned to Contractor",
    "contractor": "Richards Disposal",
    "rowid": "1155207",
    "final_x": "3705824.1715",
    "final_y": "517703.543862",
    "longitude": "-89.99177476798187",
    "latitude": "29.916744346023812",
    "geocoded_column": {
      "latitude": "29.916744346023812",
      "longitude": "-89.99177476798187"
    }
  },
  {
    "service_request": "2024-1155206",
    "request_type": "Roads and Streets",
    "request_reason": "Pothole",
    "date_created": "2024-12-15T18:42:08.000",
    "date_modified": "2024-12-15T18:42:08.000",
    "request_status": "Pending",
    "responsible_agency": "Department of Public Works",
    "final_address": "ETON ST & GENERAL MEYER AVE & SEAWARD CT",
    "address_councildis": "C",
    "status": "Pending",
    "rowid": "1155206",
    "final_x": "3704222.6",
    "final_y": "522168.08",
    "longitude": "-89.99666556416362",
    "latitude": "29.92907173580962",
    "geocoded_column": {
      "latitude": "29.92907173580962",
      "longitude": "-89.99666556416362"
    }
  },
  {
    "service_request": "2024-1155205",
    "request_type": "Trash/Recycling",
    "request_reason": "Request a Large Item Pick Up",
    "date_created": "2024-12-15T18:38:09.000",
    "date_modified": "2024-12-15T18:38:10.000",
    "request_status": "Pending",
    "responsible_agency": "Department of Sanitation",
    "final_address": "5708 Eads St",
    "address_councildis": "D",
    "status": "Assigned to Contractor",
    "contractor": "IV Waste",
    "rowid": "1155205",
    "final_x": "3686814.51631",
    "final_y": "554222.637464",
    "longitude": "-90.05048645137377",
    "latitude": "30.01775742216201",
    "geocoded_column": {
      "latitude": "30.01775742216201",
      "longitude": "-90.05048645137377"
    }
  },
  {
    "service_request": "2024-1155204",
    "request_type": "Trash/Recycling",
    "request_reason": "Order Trash Cart",
    "date_created": "2024-12-15T18:32:48.000",
    "date_modified": "2024-12-15T18:32:49.000",
    "request_status": "Pending",
    "responsible_agency": "Department of Sanitation",
    "final_address": "7825 S Coronet Ct",
    "address_councildis": "E",
    "status": "Assigned to Contractor",
    "contractor": "Waste Pro",
    "rowid": "1155204",
    "final_x": "3703163.30206",
    "final_y": "557412.916251",
    "longitude": "-89.99871362314818",
    "latitude": "30.02601604676568",
    "geocoded_column": {
      "latitude": "30.02601604676568",
      "longitude": "-89.99871362314818"
    }
  },
  {
    "service_request": "2024-1155203",
    "request_type": "Trash/Recycling",
    "request_reason": "Missed Trash Pick-Up",
    "date_created": "2024-12-15T17:58:28.000",
    "date_modified": "2024-12-15T17:58:29.000",
    "request_status": "Pending",
    "responsible_agency": "Department of Sanitation",
    "final_address": "4860 Wilson Ave",
    "address_councildis": "E",
    "status": "Assigned to Contractor",
    "contractor": "Waste Pro",
    "rowid": "1155203",
    "final_x": "3702864.94398",
    "final_y": "555682.153881",
    "longitude": "-89.99972004174398",
    "latitude": "30.021266669455475",
    "geocoded_column": {
      "latitude": "30.021266669455475",
      "longitude": "-89.99972004174398"
    }
  },
  {
    "service_request": "2024-1155202",
    "request_type": "Trash/Recycling",
    "request_reason": "Request a Large Item Pick Up",
    "date_created": "2024-12-15T17:43:12.000",
    "date_modified": "2024-12-15T17:43:13.000",
    "request_status": "Pending",
    "responsible_agency": "Department of Sanitation",
    "final_address": "3811 Havana Pl",
    "address_councildis": "D",
    "status": "Assigned to Contractor",
    "contractor": "IV Waste",
    "rowid": "1155202",
    "final_x": "3680698.53442",
    "final_y": "546114.628752",
    "longitude": "-90.0700929971573",
    "latitude": "29.995650167292066",
    "geocoded_column": {
      "latitude": "29.995650167292066",
      "longitude": "-90.0700929971573"
    }
  },
  {
    "service_request": "2024-1155201",
    "request_type": "Trash/Recycling",
    "request_reason": "Replace Trash Cart",
    "date_created": "2024-12-15T17:41:11.000",
    "date_modified": "2024-12-15T17:41:12.000",
    "request_status": "Pending",
    "responsible_agency": "Department of Sanitation",
    "final_address": "3515 St Charles Ave",
    "address_councildis": "B",
    "status": "Assigned to Contractor",
    "contractor": "IV Waste",
    "rowid": "1155201",
    "final_x": "3673654.15956",
    "final_y": "521540.628921",
    "longitude": "-90.09318575047564",
    "latitude": "29.928291567121672",
    "geocoded_column": {
      "latitude": "29.928291567121672",
      "longitude": "-90.09318575047564"
    }
  },
  {
    "service_request": "2024-1155200",
    "request_type": "Trash/Recycling",
    "request_reason": "Replace Trash Cart",
    "date_created": "2024-12-15T17:37:28.000",
    "date_modified": "2024-12-15T17:37:29.000",
    "request_status": "Pending",
    "responsible_agency": "Department of Sanitation",
    "final_address": "3515 St Charles Ave",
    "address_councildis": "B",
    "status": "Assigned to Contractor",
    "contractor": "IV Waste",
    "rowid": "1155200",
    "final_x": "3673654.15956",
    "final_y": "521540.628921",
    "longitude": "-90.09318575047564",
    "latitude": "29.928291567121672",
    "geocoded_column": {
      "latitude": "29.928291567121672",
      "longitude": "-90.09318575047564"
    }
  },
  {
    "service_request": "2024-1155199",
    "request_type": "Trash/Recycling",
    "request_reason": "Request a Large Item Pick Up",
    "date_created": "2024-12-15T17:25:50.000",
    "date_modified": "2024-12-15T17:25:51.000",
    "request_status": "Pending",
    "responsible_agency": "Department of Sanitation",
    "final_address": "7032 E Tamaron Blvd",
    "address_councildis": "E",
    "status": "Assigned to Contractor",
    "contractor": "Waste Pro",
    "rowid": "1155199",
    "final_x": "3718914.33522",
    "final_y": "568354.888613",
    "longitude": "-89.94852513246578",
    "latitude": "30.0555881577649",
    "geocoded_column": {
      "latitude": "30.0555881577649",
      "longitude": "-89.94852513246578"
    }
  },
  {
    "service_request": "2024-1155198",
    "request_type": "Abandoned Vehicles",
    "request_reason": "Abandoned/Junk Vehicles",
    "date_created": "2024-12-15T17:17:38.000",
    "date_modified": "2024-12-15T17:17:38.000",
    "request_status": "Pending",
    "responsible_agency": "Department of Public Works",
    "final_address": "1836 Third St",
    "address_councildis": "B",
    "status": "Pending",
    "rowid": "1155198",
    "final_x": "3675845.63432",
    "final_y": "523712.584315",
    "longitude": "-90.08619311585889",
    "latitude": "29.934198338035667",
    "geocoded_column": {
      "latitude": "29.934198338035667",
      "longitude": "-90.08619311585889"
    }
  },
  {
    "service_request": "2024-1155197",
    "request_type": "Trash/Recycling",
    "request_reason": "Request a Large Item Pick Up",
    "date_created": "2024-12-15T17:12:55.000",
    "date_modified": "2024-12-15T17:12:56.000",
    "request_status": "Pending",
    "responsible_agency": "Department of Sanitation",
    "final_address": "7711 Hansbrough Ave",
    "address_councildis": "E",
    "status": "Assigned to Contractor",
    "contractor": "Waste Pro",
    "rowid": "1155197",
    "final_x": "3707535.90993",
    "final_y": "564756.963234",
    "longitude": "-89.98462371346729",
    "latitude": "30.04606851022154",
    "geocoded_column": {
      "latitude": "30.04606851022154",
      "longitude": "-89.98462371346729"
    }
  },
  {
    "service_request": "2024-1155196",
    "request_type": "Trash/Recycling",
    "request_reason": "Request a Large Item Pick Up",
    "date_created": "2024-12-15T17:07:23.000",
    "date_modified": "2024-12-15T17:07:25.000",
    "request_status": "Pending",
    "responsible_agency": "Department of Sanitation",
    "final_address": "2801 Lepage St",
    "address_councildis": "A",
    "status": "Assigned to Contractor",
    "contractor": "IV Waste",
    "rowid": "1155196",
    "final_x": "3677569.67394",
    "final_y": "539865.740554",
    "longitude": "-90.08019267561637",
    "latitude": "29.97856237792439",
    "geocoded_column": {
      "latitude": "29.97856237792439",
      "longitude": "-90.08019267561637"
    }
  },
  {
    "service_request": "2024-1155195",
    "request_type": "Trash/Recycling",
    "request_reason": "Illegal Dumping",
    "date_created": "2024-12-15T16:55:27.000",
    "date_modified": "2024-12-15T16:55:27.000",
    "request_status": "Pending",
    "responsible_agency": "Department of Sanitation",
    "final_address": "2550 Ursulines Ave",
    "address_councildis": "D",
    "status": "Pending",
    "rowid": "1155195",
    "final_x": "3678076.69998",
    "final_y": "537716.914312",
    "longitude": "-90.07866561296773",
    "latitude": "29.97263858844416",
    "geocoded_column": {
      "latitude": "29.97263858844416",
      "longitude": "-90.07866561296773"
    }
  },
  {
    "service_request": "2024-1155194",
    "request_type": "Trash/Recycling",
    "request_reason": "Replace Trash Cart",
    "date_created": "2024-12-15T16:50:10.000",
    "date_modified": "2024-12-15T16:50:11.000",
    "request_status": "Pending",
    "responsible_agency": "Department of Sanitation",
    "final_address": "2423 St Ann St",
    "address_councildis": "D",
    "status": "Assigned to Contractor",
    "contractor": "IV Waste",
    "rowid": "1155194",
    "final_x": "3677877.7748",
    "final_y": "536565.992199",
    "longitude": "-90.07933363446797",
    "latitude": "29.96947993415481",
    "geocoded_column": {
      "latitude": "29.96947993415481",
      "longitude": "-90.07933363446797"
    }
  },
  {
    "service_request": "2024-1155193",
    "request_type": "General Services",
    "request_reason": "General Service Request",
    "date_created": "2024-12-15T16:48:20.000",
    "date_modified": "2024-12-15T16:48:20.000",
    "request_status": "Pending",
    "responsible_agency": "Orleans Parish Communication District",
    "final_address": "7423 Zimpel St, New Orleans, Louisiana, 70118",
    "status": "Pending",
    "rowid": "1155193",
    "longitude": "0.0",
    "latitude": "0.0",
    "geocoded_column": {
      "latitude": "0.0",
      "longitude": "0.0"
    }
  },
  {
    "service_request": "2024-1155192",
    "request_type": "Trash/Recycling",
    "request_reason": "Replace Recycling Cart",
    "date_created": "2024-12-15T16:48:00.000",
    "date_modified": "2024-12-15T16:48:00.000",
    "request_status": "Pending",
    "responsible_agency": "Department of Sanitation",
    "final_address": "1017 Jefferson Ave",
    "address_councildis": "B",
    "status": "Pending",
    "rowid": "1155192",
    "final_x": "3666999.41729",
    "final_y": "519291.241655",
    "longitude": "-90.11426892619464",
    "latitude": "29.922302829678884",
    "geocoded_column": {
      "latitude": "29.922302829678884",
      "longitude": "-90.11426892619464"
    }
  },
  {
    "service_request": "2024-1155191",
    "request_type": "Streetlights",
    "request_reason": "Streetlight Outage/Malfunction",
    "date_created": "2024-12-15T16:34:02.000",
    "date_modified": "2024-12-15T16:34:03.000",
    "request_status": "Pending",
    "responsible_agency": "Department of Public Works",
    "final_address": " & SHADE TREE LN",
    "address_councildis": "C",
    "status": "Pending",
    "contractor": "Legacy Professional Services",
    "rowid": "1155191",
    "final_x": "3695620.33",
    "final_y": "522834.78",
    "longitude": "-90.02379705437441",
    "latitude": "29.93117805604866",
    "geocoded_column": {
      "latitude": "29.93117805604866",
      "longitude": "-90.02379705437441"
    }
  },
  {
    "service_request": "2024-1155190",
    "request_type": "Trash/Recycling",
    "request_reason": "Request a Large Item Pick Up",
    "date_created": "2024-12-15T16:17:24.000",
    "date_modified": "2024-12-15T16:17:25.000",
    "request_status": "Pending",
    "responsible_agency": "Department of Sanitation",
    "final_address": "1017 Orleans Ave",
    "address_councildis": "C",
    "status": "Assigned to Contractor",
    "contractor": "Empire Services",
    "rowid": "1155190",
    "final_x": "3681691.77596",
    "final_y": "533365.816068",
    "longitude": "-90.0674003697587",
    "latitude": "29.96056522483962",
    "geocoded_column": {
      "latitude": "29.96056522483962",
      "longitude": "-90.0674003697587"
    }
  },
  {
    "service_request": "2024-1155189",
    "request_type": "Trash/Recycling",
    "request_reason": "Request a Large Item Pick Up",
    "date_created": "2024-12-15T16:11:12.000",
    "date_modified": "2024-12-15T16:11:13.000",
    "request_status": "Pending",
    "responsible_agency": "Department of Sanitation",
    "final_address": "6438 General Haig St",
    "address_councildis": "A",
    "status": "Assigned to Contractor",
    "contractor": "IV Waste",
    "rowid": "1155189",
    "final_x": "3670740.66471",
    "final_y": "550189.61282",
    "longitude": "-90.10141070474316",
    "latitude": "30.007153053889468",
    "geocoded_column": {
      "latitude": "30.007153053889468",
      "longitude": "-90.10141070474316"
    }
  },
  {
    "service_request": "2024-1155187",
    "request_type": "Trash/Recycling",
    "request_reason": "Replace Trash Cart",
    "date_created": "2024-12-15T16:04:32.000",
    "date_modified": "2024-12-15T16:04:33.000",
    "request_status": "Pending",
    "responsible_agency": "Department of Sanitation",
    "final_address": "2701 Hudson Pl",
    "address_councildis": "C",
    "status": "Assigned to Contractor",
    "contractor": "Richards Disposal",
    "rowid": "1155187",
    "final_x": "3703326.9882",
    "final_y": "520894.817849",
    "longitude": "-89.99953960127331",
    "latitude": "29.925599404395772",
    "geocoded_column": {
      "latitude": "29.925599404395772",
      "longitude": "-89.99953960127331"
    }
  },
  {
    "service_request": "2024-1155185",
    "request_type": "Abandoned Vehicles",
    "request_reason": "Abandoned/Junk Vehicles",
    "date_created": "2024-12-15T15:38:26.000",
    "date_modified": "2024-12-15T15:38:26.000",
    "request_status": "Pending",
    "responsible_agency": "Department of Public Works",
    "final_address": "3714 DHemecourt St",
    "address_councildis": "B",
    "status": "Pending",
    "rowid": "1155185",
    "final_x": "3671004.41089",
    "final_y": "535845.724615",
    "longitude": "-90.10106480023138",
    "latitude": "29.967704483585948",
    "geocoded_column": {
      "latitude": "29.967704483585948",
      "longitude": "-90.10106480023138"
    }
  },
  {
    "service_request": "2024-1155184",
    "request_type": "Alley Ways",
    "request_reason": "Alley Way Regrading",
    "date_created": "2024-12-15T15:11:32.000",
    "date_modified": "2024-12-15T15:11:32.000",
    "request_status": "Pending",
    "responsible_agency": "Department of Public Works",
    "final_address": "6525 Milne Blvd",
    "address_councildis": "A",
    "status": "Pending",
    "rowid": "1155184",
    "final_x": "3667494.69889",
    "final_y": "551033.288533",
    "longitude": "-90.11163722145486",
    "latitude": "30.009568425951155",
    "geocoded_column": {
      "latitude": "30.009568425951155",
      "longitude": "-90.11163722145486"
    }
  },
  {
    "service_request": "2024-1155183",
    "request_type": "Trash/Recycling",
    "request_reason": "Request a Large Item Pick Up",
    "date_created": "2024-12-15T14:57:05.000",
    "date_modified": "2024-12-15T14:57:06.000",
    "request_status": "Pending",
    "responsible_agency": "Department of Sanitation",
    "final_address": "207 Abalon Ct",
    "address_councildis": "C",
    "status": "Assigned to Contractor",
    "contractor": "Richards Disposal",
    "rowid": "1155183",
    "final_x": "3689076.08534",
    "final_y": "530811.114434",
    "longitude": "-90.0441730280628",
    "latitude": "29.953314289491118",
    "geocoded_column": {
      "latitude": "29.953314289491118",
      "longitude": "-90.0441730280628"
    }
  },
  {
    "service_request": "2024-1155182",
    "request_type": "Trash/Recycling",
    "request_reason": "Repair Trash Cart",
    "date_created": "2024-12-15T14:27:47.000",
    "date_modified": "2024-12-15T14:27:48.000",
    "request_status": "Pending",
    "responsible_agency": "Department of Sanitation",
    "final_address": "11175 Winchester Park Dr",
    "address_councildis": "E",
    "status": "Assigned to Contractor",
    "contractor": "Waste Pro",
    "rowid": "1155182",
    "final_x": "3715301.56095",
    "final_y": "561708.544927",
    "longitude": "-89.96019604565342",
    "latitude": "30.037432977014962",
    "geocoded_column": {
      "latitude": "30.037432977014962",
      "longitude": "-89.96019604565342"
    }
  },
  {
    "service_request": "2024-1155181",
    "request_type": "Streetlights",
    "request_reason": "Streetlight Outage/Malfunction",
    "date_created": "2024-12-15T14:22:10.000",
    "date_modified": "2024-12-15T14:22:11.000",
    "request_status": "Pending",
    "responsible_agency": "Department of Public Works",
    "final_address": "7521 Trapier Ave",
    "address_councildis": "E",
    "status": "Pending",
    "contractor": "Legacy Professional Services",
    "rowid": "1155181",
    "final_x": "3706797.63659",
    "final_y": "563322.908832",
    "longitude": "-89.98701026563747",
    "latitude": "30.042149304742022",
    "geocoded_column": {
      "latitude": "30.042149304742022",
      "longitude": "-89.98701026563747"
    }
  },
  {
    "service_request": "2024-1155180",
    "request_type": "Streetlights",
    "request_reason": "Streetlight Outage/Malfunction",
    "date_created": "2024-12-15T14:03:52.000",
    "date_modified": "2024-12-15T14:03:53.000",
    "request_status": "Pending",
    "responsible_agency": "Department of Public Works",
    "final_address": "1000 BLK Kentucky St",
    "address_councildis": "C",
    "status": "Pending",
    "contractor": "Legacy Professional Services",
    "rowid": "1155180",
    "final_x": "3693260.84179",
    "final_y": "534708.362458",
    "longitude": "-90.03081953607649",
    "latitude": "29.96390023418378",
    "geocoded_column": {
      "latitude": "29.96390023418378",
      "longitude": "-90.03081953607649"
    }
  },
  {
    "service_request": "2024-1155179",
    "request_type": "Trash/Recycling",
    "request_reason": "Request a Large Item Pick Up",
    "date_created": "2024-12-15T14:01:57.000",
    "date_modified": "2024-12-15T14:01:58.000",
    "request_status": "Pending",
    "responsible_agency": "Department of Sanitation",
    "final_address": "7231 Ridgefield Dr",
    "address_councildis": "E",
    "status": "Assigned to Contractor",
    "contractor": "Waste Pro",
    "rowid": "1155179",
    "final_x": "3718839.14834",
    "final_y": "570456.635559",
    "longitude": "-89.94868250354513",
    "latitude": "30.061369586278303",
    "geocoded_column": {
      "latitude": "30.061369586278303",
      "longitude": "-89.94868250354513"
    }
  },
  {
    "service_request": "2024-1155178",
    "request_type": "Trash/Recycling",
    "request_reason": "Request a Large Item Pick Up",
    "date_created": "2024-12-15T13:47:34.000",
    "date_modified": "2024-12-15T13:47:35.000",
    "request_status": "Pending",
    "responsible_agency": "Department of Sanitation",
    "final_address": "7920 W Laverne St",
    "address_councildis": "D",
    "status": "Assigned to Contractor",
    "contractor": "Waste Pro",
    "rowid": "1155178",
    "final_x": "3694795.49533",
    "final_y": "559552.588701",
    "longitude": "-90.02507750676695",
    "latitude": "30.032164666468702",
    "geocoded_column": {
      "latitude": "30.032164666468702",
      "longitude": "-90.02507750676695"
    }
  },
  {
    "service_request": "2024-1155177",
    "request_type": "Street and Traffic Signs",
    "request_reason": "One Way Sign Missing or Damaged",
    "date_created": "2024-12-15T13:43:49.000",
    "date_modified": "2024-12-15T13:43:49.000",
    "request_status": "Pending",
    "responsible_agency": "Department of Public Works",
    "final_address": "5302 Warrington Dr",
    "address_councildis": "D",
    "status": "Pending",
    "rowid": "1155177",
    "final_x": "3680847.82178",
    "final_y": "552107.616278",
    "longitude": "-90.06941258986369",
    "latitude": "30.0121242107545",
    "geocoded_column": {
      "latitude": "30.0121242107545",
      "longitude": "-90.06941258986369"
    }
  },
  {
    "service_request": "2024-1155176",
    "request_type": "Trash/Recycling",
    "request_reason": "Request a Large Item Pick Up",
    "date_created": "2024-12-15T13:40:00.000",
    "date_modified": "2024-12-15T13:40:01.000",
    "request_status": "Pending",
    "responsible_agency": "Department of Sanitation",
    "final_address": "4328 Banks St",
    "address_councildis": "A",
    "status": "Assigned to Contractor",
    "contractor": "IV Waste",
    "rowid": "1155176",
    "final_x": "3669316.4882",
    "final_y": "538091.784329",
    "longitude": "-90.10631936398417",
    "latitude": "29.973930200272235",
    "geocoded_column": {
      "latitude": "29.973930200272235",
      "longitude": "-90.10631936398417"
    }
  },
  {
    "service_request": "2024-1155175",
    "request_type": "Street and Traffic Signs",
    "request_reason": "Stop Sign Missing or Damaged",
    "date_created": "2024-12-15T13:35:59.000",
    "date_modified": "2024-12-15T13:35:59.000",
    "request_status": "Pending",
    "responsible_agency": "Department of Public Works",
    "final_address": "3300 Hamilton St",
    "address_councildis": "A",
    "status": "Pending",
    "rowid": "1155175",
    "final_x": "3664402.25959",
    "final_y": "536384.969735",
    "longitude": "-90.12189665466495",
    "latitude": "29.969380807671733",
    "geocoded_column": {
      "latitude": "29.969380807671733",
      "longitude": "-90.12189665466495"
    }
  },
  {
    "service_request": "2024-1155174",
    "request_type": "General Services",
    "request_reason": "General Service Request",
    "date_created": "2024-12-15T13:33:29.000",
    "date_modified": "2024-12-15T13:33:29.000",
    "request_status": "Pending",
    "responsible_agency": "Orleans Parish Communication District",
    "final_address": "MAPLE ST & S CARROLLTON AVE",
    "address_councildis": "A",
    "status": "Pending",
    "rowid": "1155174",
    "final_x": "3661040.4",
    "final_y": "527309.98",
    "longitude": "-90.13281400328965",
    "latitude": "29.944524820534618",
    "geocoded_column": {
      "latitude": "29.944524820534618",
      "longitude": "-90.13281400328965"
    }
  },
  {
    "service_request": "2024-1155173",
    "request_type": "Trash/Recycling",
    "request_reason": "Order Recycling Cart",
    "date_created": "2024-12-15T13:33:28.000",
    "date_modified": "2024-12-15T13:33:28.000",
    "request_status": "Pending",
    "responsible_agency": "Department of Sanitation",
    "final_address": "5142 Desire Dr",
    "address_councildis": "D",
    "status": "Pending",
    "rowid": "1155173",
    "final_x": "3691386.69174",
    "final_y": "552765.998742",
    "longitude": "-90.0360923140736",
    "latitude": "30.01361066503764",
    "geocoded_column": {
      "latitude": "30.01361066503764",
      "longitude": "-90.0360923140736"
    }
  },
  {
    "service_request": "2024-1155172",
    "request_type": "Trash/Recycling",
    "request_reason": "Request a Large Item Pick Up",
    "date_created": "2024-12-15T12:58:13.000",
    "date_modified": "2024-12-15T12:58:15.000",
    "request_status": "Pending",
    "responsible_agency": "Department of Sanitation",
    "final_address": "4006 Annunciation St",
    "address_councildis": "B",
    "status": "Assigned to Contractor",
    "contractor": "IV Waste",
    "rowid": "1155172",
    "final_x": "3672530.69691",
    "final_y": "517853.182198",
    "longitude": "-90.0968578934684",
    "latitude": "29.91818565394963",
    "geocoded_column": {
      "latitude": "29.91818565394963",
      "longitude": "-90.0968578934684"
    }
  },
  {
    "service_request": "2024-1155171",
    "request_type": "Roads and Streets",
    "request_reason": "Abandoned Service Cut",
    "date_created": "2024-12-15T12:36:36.000",
    "date_modified": "2024-12-15T12:36:36.000",
    "request_status": "Pending",
    "responsible_agency": "Department of Public Works",
    "final_address": "CANAL ST & N CLAIBORNE AVE & S CLAIBORNE AVE",
    "address_councildis": "B",
    "status": "Pending",
    "rowid": "1155171",
    "final_x": "3678370.6",
    "final_y": "532873.28",
    "longitude": "-90.07790502374995",
    "latitude": "29.959311391496197",
    "geocoded_column": {
      "latitude": "29.959311391496197",
      "longitude": "-90.07790502374995"
    }
  },
  {
    "service_request": "2024-1155170",
    "request_type": "Property Maintenance",
    "request_reason": "Property Maintenance",
    "date_created": "2024-12-15T11:55:12.000",
    "date_modified": "2024-12-15T11:55:12.000",
    "request_status": "Pending",
    "responsible_agency": "Department of Code Enforcement",
    "final_address": "2300 BLK Fats Domino Ave",
    "address_councildis": "E",
    "status": "Pending",
    "rowid": "1155170",
    "final_x": "3699305.82412",
    "final_y": "538437.479343",
    "longitude": "-90.01159433079042",
    "latitude": "29.973963637163855",
    "geocoded_column": {
      "latitude": "29.973963637163855",
      "longitude": "-90.01159433079042"
    }
  },
  {
    "service_request": "2024-1155169",
    "request_type": "Trash/Recycling",
    "request_reason": "Request a Large Item Pick Up",
    "date_created": "2024-12-15T11:51:12.000",
    "date_modified": "2024-12-15T11:51:16.000",
    "request_status": "Pending",
    "responsible_agency": "Department of Sanitation",
    "final_address": "5600 BLK N Tonti St",
    "address_councildis": "E",
    "status": "Assigned to Contractor",
    "contractor": "Waste Pro",
    "rowid": "1155169",
    "final_x": "3699414.73794",
    "final_y": "538210.511293",
    "longitude": "-90.01125862929948",
    "latitude": "29.973336102153517",
    "geocoded_column": {
      "latitude": "29.973336102153517",
      "longitude": "-90.01125862929948"
    }
  },
  {
    "service_request": "2024-1155168",
    "request_type": "Trash/Recycling",
    "request_reason": "Request a Large Item Pick Up",
    "date_created": "2024-12-15T11:46:57.000",
    "date_modified": "2024-12-15T11:46:58.000",
    "request_status": "Pending",
    "responsible_agency": "Department of Sanitation",
    "final_address": "1375 Harrison Ave",
    "address_councildis": "D",
    "status": "Assigned to Contractor",
    "contractor": "IV Waste",
    "rowid": "1155168",
    "final_x": "3677899.09282",
    "final_y": "547678.979346",
    "longitude": "-90.07888208684565",
    "latitude": "30.000036143442667",
    "geocoded_column": {
      "latitude": "30.000036143442667",
      "longitude": "-90.07888208684565"
    }
  },
  {
    "service_request": "2024-1155167",
    "request_type": "Roads and Streets",
    "request_reason": "Street Subsidence (Sinking)",
    "date_created": "2024-12-15T11:36:23.000",
    "date_modified": "2024-12-15T11:36:23.000",
    "request_status": "Pending",
    "responsible_agency": "Department of Public Works",
    "final_address": "2238 Fats Domino Ave",
    "address_councildis": "E",
    "status": "Pending",
    "rowid": "1155167",
    "final_x": "3699171.07658",
    "final_y": "538213.598665",
    "longitude": "-90.01202804449794",
    "latitude": "29.9733523193546",
    "geocoded_column": {
      "latitude": "29.9733523193546",
      "longitude": "-90.01202804449794"
    }
  },
  {
    "service_request": "2024-1155166",
    "request_type": "Trash/Recycling",
    "request_reason": "Request a Large Item Pick Up",
    "date_created": "2024-12-15T11:29:14.000",
    "date_modified": "2024-12-15T11:29:15.000",
    "request_status": "Pending",
    "responsible_agency": "Department of Sanitation",
    "final_address": "7637 Jonlee Dr",
    "address_councildis": "E",
    "status": "Assigned to Contractor",
    "contractor": "Waste Pro",
    "rowid": "1155166",
    "final_x": "3717114.08824",
    "final_y": "570632.495591",
    "longitude": "-89.9541286505246",
    "latitude": "30.061910333380087",
    "geocoded_column": {
      "latitude": "30.061910333380087",
      "longitude": "-89.9541286505246"
    }
  },
  {
    "service_request": "2024-1155165",
    "request_type": "Abandoned Vehicles",
    "request_reason": "Abandoned/Junk Vehicles",
    "date_created": "2024-12-15T11:25:46.000",
    "date_modified": "2024-12-15T11:25:46.000",
    "request_status": "Pending",
    "responsible_agency": "Department of Public Works",
    "final_address": "1908 N Claiborne Ave",
    "address_councildis": "C",
    "status": "Inspected",
    "rowid": "1155165",
    "final_x": "3683830.41749",
    "final_y": "537900.500425",
    "longitude": "-90.06048790839004",
    "latitude": "29.97296889862898",
    "geocoded_column": {
      "latitude": "29.97296889862898",
      "longitude": "-90.06048790839004"
    }
  },
  {
    "service_request": "2024-1155164",
    "request_type": "General Services",
    "request_reason": "General Service Request",
    "date_created": "2024-12-15T11:17:11.000",
    "date_modified": "2024-12-15T11:17:11.000",
    "request_status": "Pending",
    "responsible_agency": "Orleans Parish Communication District",
    "final_address": "New orleans, la 70118",
    "status": "Pending",
    "rowid": "1155164",
    "longitude": "0.0",
    "latitude": "0.0",
    "geocoded_column": {
      "latitude": "0.0",
      "longitude": "0.0"
    }
  },
  {
    "service_request": "2024-1155163",
    "request_type": "Trash/Recycling",
    "request_reason": "Replace Recycling Cart",
    "date_created": "2024-12-15T11:11:13.000",
    "date_modified": "2024-12-15T11:11:13.000",
    "request_status": "Pending",
    "responsible_agency": "Department of Sanitation",
    "final_address": "3141 Burgundy St",
    "address_councildis": "C",
    "status": "Pending",
    "rowid": "1155163",
    "final_x": "3689134.17993",
    "final_y": "535166.856518",
    "longitude": "-90.04383481202463",
    "latitude": "29.965289271445968",
    "geocoded_column": {
      "latitude": "29.965289271445968",
      "longitude": "-90.04383481202463"
    }
  },
  {
    "service_request": "2024-1155161",
    "request_type": "Property Maintenance",
    "request_reason": "Property Maintenance",
    "date_created": "2024-12-15T11:02:58.000",
    "date_modified": "2024-12-15T11:02:58.000",
    "request_status": "Pending",
    "responsible_agency": "Department of Code Enforcement",
    "final_address": "1808 Allen St",
    "address_councildis": "D",
    "status": "Pending",
    "rowid": "1155161",
    "final_x": "3682423.56706",
    "final_y": "538787.522761",
    "longitude": "-90.06489999797404",
    "latitude": "29.97545079830909",
    "geocoded_column": {
      "latitude": "29.97545079830909",
      "longitude": "-90.06489999797404"
    }
  },
  {
    "service_request": "2024-1155160",
    "request_type": "Mosquito, Termite & Rodent Control",
    "request_reason": "Rodent Complaint (Rats)",
    "date_created": "2024-12-15T10:56:42.000",
    "date_modified": "2024-12-15T10:56:42.000",
    "request_status": "Pending",
    "responsible_agency": "Mosquito, Termite & Rodent Control Board",
    "final_address": "535 Madison St",
    "address_councildis": "C",
    "status": "Pending",
    "rowid": "1155160",
    "final_x": "3683291.09045",
    "final_y": "532639.222596",
    "longitude": "-90.06237550993669",
    "latitude": "29.958518659782698",
    "geocoded_column": {
      "latitude": "29.958518659782698",
      "longitude": "-90.06237550993669"
    }
  },
  {
    "service_request": "2024-1155159",
    "request_type": "Parks & Parkways",
    "request_reason": "Request Tree Service (Right of Way/Public Property)",
    "date_created": "2024-12-15T10:54:19.000",
    "date_modified": "2024-12-15T10:54:19.000",
    "request_status": "Pending",
    "responsible_agency": "Department of Parks & Parkway",
    "final_address": "529 St Ann St",
    "address_councildis": "C",
    "status": "Pending",
    "rowid": "1155159",
    "final_x": "3683229.67368",
    "final_y": "532463.769412",
    "longitude": "-90.06257559196058",
    "latitude": "29.958038096471004",
    "geocoded_column": {
      "latitude": "29.958038096471004",
      "longitude": "-90.06257559196058"
    }
  },
  {
    "service_request": "2024-1155158",
    "request_type": "Trash/Recycling",
    "request_reason": "Request a Large Item Pick Up",
    "date_created": "2024-12-15T10:44:55.000",
    "date_modified": "2024-12-15T10:44:56.000",
    "request_status": "Pending",
    "responsible_agency": "Department of Sanitation",
    "final_address": "5124 Laurel St",
    "address_councildis": "B",
    "status": "Assigned to Contractor",
    "contractor": "IV Waste",
    "rowid": "1155158",
    "final_x": "3668095.27111",
    "final_y": "517827.850806",
    "longitude": "-90.11085903622399",
    "latitude": "29.91824686240218",
    "geocoded_column": {
      "latitude": "29.91824686240218",
      "longitude": "-90.11085903622399"
    }
  },
  {
    "service_request": "2024-1155157",
    "request_type": "Trash/Recycling",
    "request_reason": "Request a Large Item Pick Up",
    "date_created": "2024-12-15T10:25:22.000",
    "date_modified": "2024-12-15T10:25:23.000",
    "request_status": "Pending",
    "responsible_agency": "Department of Sanitation",
    "final_address": "4217 Tchoupitoulas St",
    "address_councildis": "B",
    "status": "Assigned to Contractor",
    "contractor": "IV Waste",
    "rowid": "1155157",
    "final_x": "3671796.50823",
    "final_y": "517566.214326",
    "longitude": "-90.09918509179559",
    "latitude": "29.91741834758617",
    "geocoded_column": {
      "latitude": "29.91741834758617",
      "longitude": "-90.09918509179559"
    }
  },
  {
    "service_request": "2024-1155156",
    "request_type": "Trash/Recycling",
    "request_reason": "Start Trash Service",
    "date_created": "2024-12-15T10:17:03.000",
    "date_modified": "2024-12-15T10:17:04.000",
    "request_status": "Pending",
    "responsible_agency": "Department of Sanitation",
    "final_address": "1724 Frenchmen St",
    "address_councildis": "D",
    "status": "Assigned to Contractor",
    "contractor": "IV Waste",
    "rowid": "1155156",
    "final_x": "3684365.27644",
    "final_y": "538688.057481",
    "longitude": "-90.05877105662731",
    "latitude": "29.975118058168416",
    "geocoded_column": {
      "latitude": "29.975118058168416",
      "longitude": "-90.05877105662731"
    }
  },
  {
    "service_request": "2024-1155155",
    "request_type": "Trash/Recycling",
    "request_reason": "Request a Large Item Pick Up",
    "date_created": "2024-12-15T10:13:17.000",
    "date_modified": "2024-12-15T10:13:18.000",
    "request_status": "Pending",
    "responsible_agency": "Department of Sanitation",
    "final_address": "1927 Montegut St",
    "address_councildis": "D",
    "status": "Assigned to Contractor",
    "contractor": "IV Waste",
    "rowid": "1155155",
    "final_x": "3689282.67203",
    "final_y": "539351.79617",
    "longitude": "-90.04321708434199",
    "latitude": "29.97679178779378",
    "geocoded_column": {
      "latitude": "29.97679178779378",
      "longitude": "-90.04321708434199"
    }
  },
  {
    "service_request": "2024-1155154",
    "request_type": "Trash/Recycling",
    "request_reason": "Request a Large Item Pick Up",
    "date_created": "2024-12-15T09:22:13.000",
    "date_modified": "2024-12-15T09:22:14.000",
    "request_status": "Pending",
    "responsible_agency": "Department of Sanitation",
    "final_address": "7833 Star St",
    "address_councildis": "E",
    "status": "Assigned to Contractor",
    "contractor": "Waste Pro",
    "rowid": "1155154",
    "final_x": "3720637.74047",
    "final_y": "574629.131243",
    "longitude": "-89.94283718804115",
    "latitude": "30.072782306822546",
    "geocoded_column": {
      "latitude": "30.072782306822546",
      "longitude": "-89.94283718804115"
    }
  },
  {
    "service_request": "2024-1155153",
    "request_type": "Abandoned Vehicles",
    "request_reason": "Abandoned/Junk Vehicles",
    "date_created": "2024-12-15T08:41:20.000",
    "date_modified": "2024-12-15T09:18:12.000",
    "request_status": "Pending",
    "responsible_agency": "Department of Public Works",
    "final_address": "2300 First St",
    "address_councildis": "B",
    "status": "Inspected",
    "rowid": "1155153",
    "final_x": "3675528.21582",
    "final_y": "525301.333757",
    "longitude": "-90.08714064746336",
    "latitude": "29.93857637530875",
    "geocoded_column": {
      "latitude": "29.93857637530875",
      "longitude": "-90.08714064746336"
    }
  },
  {
    "service_request": "2024-1155152",
    "request_type": "Abandoned Vehicles",
    "request_reason": "Abandoned/Junk Vehicles",
    "date_created": "2024-12-15T08:40:13.000",
    "date_modified": "2024-12-15T08:48:48.000",
    "request_status": "Pending",
    "responsible_agency": "Department of Public Works",
    "final_address": "3200 Danneel St",
    "address_councildis": "B",
    "status": "Inspected",
    "rowid": "1155152",
    "final_x": "3674177.46683",
    "final_y": "523074.793339",
    "longitude": "-90.09148129415064",
    "latitude": "29.93249443882132",
    "geocoded_column": {
      "latitude": "29.93249443882132",
      "longitude": "-90.09148129415064"
    }
  },
  {
    "service_request": "2024-1155151",
    "request_type": "Trash/Recycling",
    "request_reason": "Request a Large Item Pick Up",
    "date_created": "2024-12-15T07:14:36.000",
    "date_modified": "2024-12-15T07:14:37.000",
    "request_status": "Pending",
    "responsible_agency": "Department of Sanitation",
    "final_address": "533 Huntlee Dr",
    "address_councildis": "C",
    "status": "Assigned to Contractor",
    "contractor": "Richards Disposal",
    "rowid": "1155151",
    "final_x": "3701778.06372",
    "final_y": "521138.343801",
    "longitude": "-90.00442013235366",
    "latitude": "29.926318502139093",
    "geocoded_column": {
      "latitude": "29.926318502139093",
      "longitude": "-90.00442013235366"
    }
  },
  {
    "service_request": "2024-1155150",
    "request_type": "Law Enforcement Services",
    "request_reason": "Off Duty Officer for Hire",
    "date_created": "2024-12-15T06:53:41.000",
    "date_modified": "2024-12-15T06:53:41.000",
    "request_status": "Pending",
    "responsible_agency": "Office of Police Secondary Employment",
    "final_address": "8336 Belfast St",
    "address_councildis": "A",
    "status": "Pending",
    "rowid": "1155150",
    "final_x": "3664841.04768",
    "final_y": "533000.807364",
    "longitude": "-90.12062403281487",
    "latitude": "29.960062711363086",
    "geocoded_column": {
      "latitude": "29.960062711363086",
      "longitude": "-90.12062403281487"
    }
  },
  {
    "service_request": "2024-1155149",
    "request_type": "Trash/Recycling",
    "request_reason": "Request a Large Item Pick Up",
    "date_created": "2024-12-15T06:51:17.000",
    "date_modified": "2024-12-15T06:51:18.000",
    "request_status": "Pending",
    "responsible_agency": "Department of Sanitation",
    "final_address": "2201 Charbonnet St",
    "address_councildis": "E",
    "status": "Assigned to Contractor",
    "contractor": "Waste Pro",
    "rowid": "1155149",
    "final_x": "3699826.84426",
    "final_y": "537748.459464",
    "longitude": "-90.00997397484937",
    "latitude": "29.972052545910675",
    "geocoded_column": {
      "latitude": "29.972052545910675",
      "longitude": "-90.00997397484937"
    }
  },
  {
    "service_request": "2024-1155148",
    "request_type": "Safety & Permits",
    "request_reason": "Licenses & Permits",
    "date_created": "2024-12-15T02:09:30.000",
    "date_modified": "2024-12-15T02:09:30.000",
    "request_status": "Pending",
    "responsible_agency": "Safety and Permits",
    "final_address": "1300 Gordon St",
    "address_councildis": "E",
    "status": "Pending",
    "rowid": "1155148",
    "final_x": "3699423.1",
    "final_y": "534182.190789",
    "longitude": "-90.01137899657638",
    "latitude": "29.962259402449753",
    "geocoded_column": {
      "latitude": "29.962259402449753",
      "longitude": "-90.01137899657638"
    }
  },
  {
    "service_request": "2024-1155147",
    "request_type": "General Services",
    "request_reason": "General Service Request",
    "date_created": "2024-12-15T02:07:40.000",
    "date_modified": "2024-12-15T02:07:40.000",
    "request_status": "Pending",
    "responsible_agency": "Orleans Parish Communication District",
    "final_address": "1300 Gordon St",
    "address_councildis": "E",
    "status": "Pending",
    "rowid": "1155147",
    "final_x": "3699423.1",
    "final_y": "534182.190789",
    "longitude": "-90.01137899657638",
    "latitude": "29.962259402449753",
    "geocoded_column": {
      "latitude": "29.962259402449753",
      "longitude": "-90.01137899657638"
    }
  },
  {
    "service_request": "2024-1155146",
    "request_type": "Property Maintenance",
    "request_reason": "Property Maintenance",
    "date_created": "2024-12-15T02:03:42.000",
    "date_modified": "2024-12-15T02:03:42.000",
    "request_status": "Pending",
    "responsible_agency": "Department of Code Enforcement",
    "final_address": "1300 Gordon St",
    "address_councildis": "E",
    "status": "Pending",
    "rowid": "1155146",
    "final_x": "3699423.1",
    "final_y": "534182.190789",
    "longitude": "-90.01137899657638",
    "latitude": "29.962259402449753",
    "geocoded_column": {
      "latitude": "29.962259402449753",
      "longitude": "-90.01137899657638"
    }
  },
  {
    "service_request": "2024-1155145",
    "request_type": "Health Related Request",
    "request_reason": "Noise Ordinance Complaint",
    "date_created": "2024-12-15T00:39:18.000",
    "date_modified": "2024-12-15T00:39:18.000",
    "request_status": "Pending",
    "responsible_agency": "Health Department",
    "final_address": "ANNUNCIATION ST & LYONS ST",
    "address_councildis": "B",
    "status": "Pending",
    "rowid": "1155145",
    "final_x": "3669347.5",
    "final_y": "517576.08",
    "longitude": "-90.10691491790253",
    "latitude": "29.917517777558064",
    "geocoded_column": {
      "latitude": "29.917517777558064",
      "longitude": "-90.10691491790253"
    }
  },
  {
    "service_request": "2024-1155144",
    "request_type": "Health Related Request",
    "request_reason": "Noise Ordinance Complaint",
    "date_created": "2024-12-14T23:11:17.000",
    "date_modified": "2024-12-14T23:11:17.000",
    "request_status": "Pending",
    "responsible_agency": "Health Department",
    "final_address": "4950 Palace St, New Orleans, Louisiana, 70129",
    "address_councildis": "E",
    "status": "Pending",
    "rowid": "1155144",
    "final_x": "3729038.69043",
    "final_y": "562690.1256",
    "longitude": "-89.91674583935655",
    "latitude": "30.039672115218625",
    "geocoded_column": {
      "latitude": "30.039672115218625",
      "longitude": "-89.91674583935655"
    }
  },
  {
    "service_request": "2024-1155143",
    "request_type": "Trash/Recycling",
    "request_reason": "Request a Large Item Pick Up",
    "date_created": "2024-12-14T22:57:17.000",
    "date_modified": "2024-12-14T22:57:18.000",
    "request_status": "Pending",
    "responsible_agency": "Department of Sanitation",
    "final_address": "5915 Colbert St",
    "address_councildis": "A",
    "status": "Assigned to Contractor",
    "contractor": "IV Waste",
    "rowid": "1155143",
    "final_x": "3667419.15879",
    "final_y": "546906.822865",
    "longitude": "-90.11201483739568",
    "latitude": "29.9982242917632",
    "geocoded_column": {
      "latitude": "29.9982242917632",
      "longitude": "-90.11201483739568"
    }
  },
  {
    "service_request": "2024-1155142",
    "request_type": "Trash/Recycling",
    "request_reason": "Request a Large Item Pick Up",
    "date_created": "2024-12-14T22:37:27.000",
    "date_modified": "2024-12-14T22:37:28.000",
    "request_status": "Pending",
    "responsible_agency": "Department of Sanitation",
    "final_address": "829 Tupelo St",
    "address_councildis": "E",
    "status": "Assigned to Contractor",
    "contractor": "Waste Pro",
    "rowid": "1155142",
    "final_x": "3699177.49994",
    "final_y": "532445.15194",
    "longitude": "-90.01221780459693",
    "latitude": "29.957490952626234",
    "geocoded_column": {
      "latitude": "29.957490952626234",
      "longitude": "-90.01221780459693"
    }
  },
  {
    "service_request": "2024-1155141",
    "request_type": "Streetlights",
    "request_reason": "Streetlight Outage/Malfunction",
    "date_created": "2024-12-14T22:01:52.000",
    "date_modified": "2024-12-14T22:01:53.000",
    "request_status": "Pending",
    "responsible_agency": "Department of Public Works",
    "final_address": "14300 Chef Menteur Hwy",
    "address_councildis": "E",
    "status": "Pending",
    "contractor": "Legacy Professional Services",
    "rowid": "1155141",
    "final_x": "3730117.90202",
    "final_y": "561091.60995",
    "longitude": "-89.9133978588733",
    "latitude": "30.03524013310275",
    "geocoded_column": {
      "latitude": "30.03524013310275",
      "longitude": "-89.9133978588733"
    }
  },
  {
    "service_request": "2024-1155140",
    "request_type": "Streetlights",
    "request_reason": "Streetlight Outage/Malfunction",
    "date_created": "2024-12-14T21:59:03.000",
    "date_modified": "2024-12-14T21:59:04.000",
    "request_status": "Pending",
    "responsible_agency": "Department of Public Works",
    "final_address": "14360 Chef Menteur Hwy",
    "address_councildis": "E",
    "status": "Pending",
    "contractor": "Legacy Professional Services",
    "rowid": "1155140",
    "final_x": "3730359.41606",
    "final_y": "561176.826334",
    "longitude": "-89.91263130827039",
    "latitude": "30.0354662112929",
    "geocoded_column": {
      "latitude": "30.0354662112929",
      "longitude": "-89.91263130827039"
    }
  },
  {
    "service_request": "2024-1155139",
    "request_type": "Streetlights",
    "request_reason": "Streetlight Outage/Malfunction",
    "date_created": "2024-12-14T21:57:09.000",
    "date_modified": "2024-12-14T21:57:11.000",
    "request_status": "Pending",
    "responsible_agency": "Department of Public Works",
    "final_address": "14360 Chef Menteur Hwy",
    "address_councildis": "E",
    "status": "Pending",
    "contractor": "Legacy Professional Services",
    "rowid": "1155139",
    "final_x": "3730359.41606",
    "final_y": "561176.826334",
    "longitude": "-89.91263130827039",
    "latitude": "30.0354662112929",
    "geocoded_column": {
      "latitude": "30.0354662112929",
      "longitude": "-89.91263130827039"
    }
  },
  {
    "service_request": "2024-1155137",
    "request_type": "Streetlights",
    "request_reason": "Streetlight Outage/Malfunction",
    "date_created": "2024-12-14T21:48:28.000",
    "date_modified": "2024-12-14T21:48:29.000",
    "request_status": "Pending",
    "responsible_agency": "Department of Public Works",
    "final_address": "13890 Chef Menteur Hwy",
    "address_councildis": "E",
    "status": "Pending",
    "contractor": "Legacy Professional Services",
    "rowid": "1155137",
    "final_x": "3727786.85395",
    "final_y": "560227.000861",
    "longitude": "-89.92079792303684",
    "latitude": "30.032942035932845",
    "geocoded_column": {
      "latitude": "30.032942035932845",
      "longitude": "-89.92079792303684"
    }
  },
  {
    "service_request": "2024-1155136",
    "request_type": "Property Maintenance",
    "request_reason": "Property Maintenance",
    "date_created": "2024-12-14T21:33:57.000",
    "date_modified": "2024-12-14T21:33:57.000",
    "request_status": "Pending",
    "responsible_agency": "Department of Code Enforcement",
    "final_address": "1131 Cadiz St",
    "address_councildis": "B",
    "status": "Pending",
    "rowid": "1155136",
    "final_x": "3670248.05134",
    "final_y": "519686.53612",
    "longitude": "-90.10400090595793",
    "latitude": "29.923294328821004",
    "geocoded_column": {
      "latitude": "29.923294328821004",
      "longitude": "-90.10400090595793"
    }
  },
  {
    "service_request": "2024-1155135",
    "request_type": "Safety & Permits",
    "request_reason": "Zoning Enforcement",
    "date_created": "2024-12-14T21:08:28.000",
    "date_modified": "2024-12-14T21:08:28.000",
    "request_status": "Pending",
    "responsible_agency": "Safety and Permits",
    "final_address": "1012 N Rampart St",
    "address_councildis": "C",
    "status": "Pending",
    "rowid": "1155135",
    "final_x": "3682166.33576",
    "final_y": "534290.971333",
    "longitude": "-90.06586949054716",
    "latitude": "29.96309466041754",
    "geocoded_column": {
      "latitude": "29.96309466041754",
      "longitude": "-90.06586949054716"
    }
  },
  {
    "service_request": "2024-1155134",
    "request_type": "Trash/Recycling",
    "request_reason": "Order Recycling Cart",
    "date_created": "2024-12-14T20:45:29.000",
    "date_modified": "2024-12-14T20:45:29.000",
    "request_status": "Pending",
    "responsible_agency": "Department of Sanitation",
    "final_address": "1511 Polymnia St",
    "address_councildis": "B",
    "status": "Pending",
    "rowid": "1155134",
    "final_x": "3679084.74255",
    "final_y": "524570.230012",
    "longitude": "-90.07593764881047",
    "latitude": "29.936459244959337",
    "geocoded_column": {
      "latitude": "29.936459244959337",
      "longitude": "-90.07593764881047"
    }
  },
  {
    "service_request": "2024-1155133",
    "request_type": "Street and Traffic Signs",
    "request_reason": "Street Name Sign Damaged or Missing",
    "date_created": "2024-12-14T20:21:36.000",
    "date_modified": "2024-12-14T20:21:36.000",
    "request_status": "Pending",
    "responsible_agency": "Department of Public Works",
    "final_address": "JOSEPHINE ST & CARONDELET ST",
    "address_councildis": "B",
    "status": "Pending",
    "rowid": "1155133",
    "final_x": "3677680.8",
    "final_y": "524234.28",
    "longitude": "-90.08038154789902",
    "latitude": "29.935577780283904",
    "geocoded_column": {
      "latitude": "29.935577780283904",
      "longitude": "-90.08038154789902"
    }
  },
  {
    "service_request": "2024-1155132",
    "request_type": "Abandoned Vehicles",
    "request_reason": "Abandoned/Junk Vehicles",
    "date_created": "2024-12-14T20:18:06.000",
    "date_modified": "2024-12-14T20:18:06.000",
    "request_status": "Pending",
    "responsible_agency": "Department of Public Works",
    "final_address": "2845 Baronne St",
    "address_councildis": "B",
    "status": "Pending",
    "rowid": "1155132",
    "final_x": "3675184.40705",
    "final_y": "522969.222715",
    "longitude": "-90.08830608961844",
    "latitude": "29.93217410799066",
    "geocoded_column": {
      "latitude": "29.93217410799066",
      "longitude": "-90.08830608961844"
    }
  },
  {
    "service_request": "2024-1155131",
    "request_type": "Roads and Streets",
    "request_reason": "Street Subsidence (Sinking)",
    "date_created": "2024-12-14T19:17:47.000",
    "date_modified": "2024-12-14T19:17:47.000",
    "request_status": "Pending",
    "responsible_agency": "Department of Public Works",
    "final_address": "SELMA ST & MUSIC ST",
    "address_councildis": "D",
    "status": "Pending",
    "rowid": "1155131",
    "final_x": "3685555.0",
    "final_y": "551486.68",
    "longitude": "-90.05456249972124",
    "latitude": "30.01027325439725",
    "geocoded_column": {
      "latitude": "30.01027325439725",
      "longitude": "-90.05456249972124"
    }
  },
  {
    "service_request": "2024-1155130",
    "request_type": "Trash/Recycling",
    "request_reason": "Order Trash Cart",
    "date_created": "2024-12-14T19:17:23.000",
    "date_modified": "2024-12-14T19:17:24.000",
    "request_status": "Pending",
    "responsible_agency": "Department of Sanitation",
    "final_address": "4660 Music St",
    "address_councildis": "D",
    "status": "Assigned to Contractor",
    "contractor": "IV Waste",
    "rowid": "1155130",
    "final_x": "3685586.71401",
    "final_y": "550018.990228",
    "longitude": "-90.05451405465294",
    "latitude": "30.006236668413038",
    "geocoded_column": {
      "latitude": "30.006236668413038",
      "longitude": "-90.05451405465294"
    }
  },
  {
    "service_request": "2024-1155129",
    "request_type": "Roads and Streets",
    "request_reason": "Pothole",
    "date_created": "2024-12-14T18:40:53.000",
    "date_modified": "2024-12-14T18:40:53.000",
    "request_status": "Pending",
    "responsible_agency": "Department of Public Works",
    "final_address": "EXPLORERS AVE & WAYFARER ST",
    "address_councildis": "E",
    "status": "Pending",
    "rowid": "1155129",
    "final_x": "3726039.6",
    "final_y": "569814.68",
    "longitude": "-89.92594718886609",
    "latitude": "30.059363267068225",
    "geocoded_column": {
      "latitude": "30.059363267068225",
      "longitude": "-89.92594718886609"
    }
  },
  {
    "service_request": "2024-1155128",
    "request_type": "Roads and Streets",
    "request_reason": "Pothole",
    "date_created": "2024-12-14T18:37:25.000",
    "date_modified": "2024-12-14T18:37:25.000",
    "request_status": "Pending",
    "responsible_agency": "Department of Public Works",
    "final_address": "EXPLORERS AVE & ADVENTURE AVE",
    "address_councildis": "E",
    "status": "Pending",
    "rowid": "1155128",
    "final_x": "3726121.2",
    "final_y": "570039.68",
    "longitude": "-89.9256805237906",
    "latitude": "30.059979165812603",
    "geocoded_column": {
      "latitude": "30.059979165812603",
      "longitude": "-89.9256805237906"
    }
  },
  {
    "service_request": "2024-1155127",
    "request_type": "Drainage",
    "request_reason": "Catch Basin Clogged",
    "date_created": "2024-12-14T18:28:02.000",
    "date_modified": "2024-12-14T18:28:02.000",
    "request_status": "Pending",
    "responsible_agency": "Department of Public Works",
    "final_address": "2000 BLK Marais St",
    "address_councildis": "C",
    "status": "Pending",
    "rowid": "1155127",
    "final_x": "3684382.22798",
    "final_y": "536619.252337",
    "longitude": "-90.05879019645256",
    "latitude": "29.969429045592832",
    "geocoded_column": {
      "latitude": "29.969429045592832",
      "longitude": "-90.05879019645256"
    }
  },
  {
    "service_request": "2024-1155126",
    "request_type": "Streetlights",
    "request_reason": "Streetlight Outage/Malfunction",
    "date_created": "2024-12-14T18:11:54.000",
    "date_modified": "2024-12-14T18:11:55.000",
    "request_status": "Pending",
    "responsible_agency": "Department of Public Works",
    "final_address": "1082 Farragut St",
    "address_councildis": "C",
    "status": "Pending",
    "contractor": "Legacy Professional Services",
    "rowid": "1155126",
    "final_x": "3692446.79049",
    "final_y": "527029.798974",
    "longitude": "-90.0336652573453",
    "latitude": "29.94281227249053",
    "geocoded_column": {
      "latitude": "29.94281227249053",
      "longitude": "-90.0336652573453"
    }
  },
  {
    "service_request": "2024-1155125",
    "request_type": "Streetlights",
    "request_reason": "Streetlight Outage/Malfunction",
    "date_created": "2024-12-14T18:08:44.000",
    "date_modified": "2024-12-14T18:08:45.000",
    "request_status": "Pending",
    "responsible_agency": "Department of Public Works",
    "final_address": "1082 Farragut St",
    "address_councildis": "C",
    "status": "Pending",
    "contractor": "Legacy Professional Services",
    "rowid": "1155125",
    "final_x": "3692446.79049",
    "final_y": "527029.798974",
    "longitude": "-90.0336652573453",
    "latitude": "29.94281227249053",
    "geocoded_column": {
      "latitude": "29.94281227249053",
      "longitude": "-90.0336652573453"
    }
  },
  {
    "service_request": "2024-1155124",
    "request_type": "Trash/Recycling",
    "request_reason": "Request a Large Item Pick Up",
    "date_created": "2024-12-14T16:37:44.000",
    "date_modified": "2024-12-14T16:37:46.000",
    "request_status": "Pending",
    "responsible_agency": "Department of Sanitation",
    "final_address": "4600 De Montluzin St",
    "address_councildis": "D",
    "status": "Assigned to Contractor",
    "contractor": "IV Waste",
    "rowid": "1155124",
    "final_x": "3687178.00022",
    "final_y": "549721.999764",
    "longitude": "-90.04949731457698",
    "latitude": "30.005371124288935",
    "geocoded_column": {
      "latitude": "30.005371124288935",
      "longitude": "-90.04949731457698"
    }
  },
  {
    "service_request": "2024-1155123",
    "request_type": "Trash/Recycling",
    "request_reason": "Repair Trash Cart",
    "date_created": "2024-12-14T16:37:11.000",
    "date_modified": "2024-12-14T16:37:12.000",
    "request_status": "Pending",
    "responsible_agency": "Department of Sanitation",
    "final_address": "1021 Leontine St",
    "address_councildis": "B",
    "status": "Assigned to Contractor",
    "contractor": "IV Waste",
    "rowid": "1155123",
    "final_x": "3667296.8802",
    "final_y": "519283.734839",
    "longitude": "-90.11333020671535",
    "latitude": "29.922273482986924",
    "geocoded_column": {
      "latitude": "29.922273482986924",
      "longitude": "-90.11333020671535"
    }
  },
  {
    "service_request": "2024-1155122",
    "request_type": "Roads and Streets",
    "request_reason": "Curb Damage",
    "date_created": "2024-12-14T16:29:45.000",
    "date_modified": "2024-12-14T16:29:45.000",
    "request_status": "Pending",
    "responsible_agency": "Department of Public Works",
    "final_address": "2757 Danbury Dr",
    "address_councildis": "C",
    "status": "Pending",
    "rowid": "1155122",
    "final_x": "3703588.9955",
    "final_y": "520521.711608",
    "longitude": "-89.99872624869938",
    "latitude": "29.924565102963733",
    "geocoded_column": {
      "latitude": "29.924565102963733",
      "longitude": "-89.99872624869938"
    }
  },
  {
    "service_request": "2024-1155121",
    "request_type": "Trash/Recycling",
    "request_reason": "Illegal Dumping",
    "date_created": "2024-12-14T15:52:48.000",
    "date_modified": "2024-12-14T15:52:48.000",
    "request_status": "Pending",
    "responsible_agency": "Department of Sanitation",
    "final_address": "4400 BLK Martin Luther King, Jr. Blvd",
    "address_councildis": "B",
    "status": "Pending",
    "rowid": "1155121",
    "final_x": "3670131.662",
    "final_y": "531197.804518",
    "longitude": "-90.10397845256277",
    "latitude": "29.954950025108623",
    "geocoded_column": {
      "latitude": "29.954950025108623",
      "longitude": "-90.10397845256277"
    }
  },
  {
    "service_request": "2024-1155120",
    "request_type": "Abandoned Vehicles",
    "request_reason": "Vehicle Blocking Your Driveway",
    "date_created": "2024-12-14T15:08:28.000",
    "date_modified": "2024-12-14T15:08:28.000",
    "request_status": "Pending",
    "responsible_agency": "Department of Public Works",
    "final_address": "2045 Broadway St",
    "address_councildis": "A",
    "status": "Pending",
    "rowid": "1155120",
    "final_x": "3665940.91584",
    "final_y": "529061.001088",
    "longitude": "-90.11728290639834",
    "latitude": "29.949197474985805",
    "geocoded_column": {
      "latitude": "29.949197474985805",
      "longitude": "-90.11728290639834"
    }
  },
  {
    "service_request": "2024-1155119",
    "request_type": "Property Maintenance",
    "request_reason": "Property Maintenance",
    "date_created": "2024-12-14T14:02:37.000",
    "date_modified": "2024-12-14T14:02:37.000",
    "request_status": "Pending",
    "responsible_agency": "Department of Code Enforcement",
    "final_address": "6823 Milne Blvd",
    "address_councildis": "A",
    "status": "Pending",
    "rowid": "1155119",
    "final_x": "3667679.47457",
    "final_y": "553002.089175",
    "longitude": "-90.11098709358923",
    "latitude": "30.01497651871114",
    "geocoded_column": {
      "latitude": "30.01497651871114",
      "longitude": "-90.11098709358923"
    }
  },
  {
    "service_request": "2024-1155118",
    "request_type": "Trash/Recycling",
    "request_reason": "Order Recycling Cart",
    "date_created": "2024-12-14T13:54:02.000",
    "date_modified": "2024-12-14T13:54:02.000",
    "request_status": "Pending",
    "responsible_agency": "Department of Sanitation",
    "final_address": "44 Newcomb Blvd",
    "address_councildis": "A",
    "status": "Pending",
    "rowid": "1155118",
    "final_x": "3664062.74951",
    "final_y": "525622.550333",
    "longitude": "-90.12332777857694",
    "latitude": "29.939797512086955",
    "geocoded_column": {
      "latitude": "29.939797512086955",
      "longitude": "-90.12332777857694"
    }
  },
  {
    "service_request": "2024-1155117",
    "request_type": "Property Maintenance",
    "request_reason": "Property Maintenance",
    "date_created": "2024-12-14T13:53:03.000",
    "date_modified": "2024-12-14T13:53:03.000",
    "request_status": "Pending",
    "responsible_agency": "Department of Code Enforcement",
    "final_address": "1135 Cadiz St",
    "address_councildis": "B",
    "status": "Pending",
    "rowid": "1155117",
    "final_x": "3670246.19866",
    "final_y": "519715.034296",
    "longitude": "-90.10400578905823",
    "latitude": "29.92337274439962",
    "geocoded_column": {
      "latitude": "29.92337274439962",
      "longitude": "-90.10400578905823"
    }
  },
  {
    "service_request": "2024-1155116",
    "request_type": "Abandoned Vehicles",
    "request_reason": "Vehicle Blocking Your Driveway",
    "date_created": "2024-12-14T13:50:42.000",
    "date_modified": "2024-12-14T13:50:42.000",
    "request_status": "Pending",
    "responsible_agency": "Department of Public Works",
    "final_address": "1640 Poland Ave",
    "address_councildis": "D",
    "status": "Pending",
    "rowid": "1155116",
    "final_x": "3693523.33366",
    "final_y": "537223.57908",
    "longitude": "-90.02990026297283",
    "latitude": "29.970807982645884",
    "geocoded_column": {
      "latitude": "29.970807982645884",
      "longitude": "-90.02990026297283"
    }
  },
  {
    "service_request": "2024-1155115",
    "request_type": "Alley Ways",
    "request_reason": "Alley Way Regrading",
    "date_created": "2024-12-14T13:36:54.000",
    "date_modified": "2024-12-14T13:36:54.000",
    "request_status": "Pending",
    "responsible_agency": "Department of Public Works",
    "final_address": "6406 Vicksburg St",
    "address_councildis": "A",
    "status": "Pending",
    "rowid": "1155115",
    "final_x": "3669088.43022",
    "final_y": "550125.222804",
    "longitude": "-90.10663276188474",
    "latitude": "30.00702474396962",
    "geocoded_column": {
      "latitude": "30.00702474396962",
      "longitude": "-90.10663276188474"
    }
  },
  {
    "service_request": "2024-1155114",
    "request_type": "General Services",
    "request_reason": "General Service Request",
    "date_created": "2024-12-14T13:30:05.000",
    "date_modified": "2024-12-14T13:30:05.000",
    "request_status": "Pending",
    "responsible_agency": "Orleans Parish Communication District",
    "final_address": "5640 Bentley Dr",
    "address_councildis": "E",
    "status": "Pending",
    "rowid": "1155114",
    "final_x": "3703778.94513",
    "final_y": "556875.328282",
    "longitude": "-89.99678809851048",
    "latitude": "30.024518156769126",
    "geocoded_column": {
      "latitude": "30.024518156769126",
      "longitude": "-89.99678809851048"
    }
  },
  {
    "service_request": "2024-1155113",
    "request_type": "Abandoned Vehicles",
    "request_reason": "Abandoned/Junk Vehicles",
    "date_created": "2024-12-14T13:25:21.000",
    "date_modified": "2024-12-14T13:25:21.000",
    "request_status": "Pending",
    "responsible_agency": "Department of Public Works",
    "final_address": "5640 Bentley Dr",
    "address_councildis": "E",
    "status": "Pending",
    "rowid": "1155113",
    "final_x": "3703778.94513",
    "final_y": "556875.328282",
    "longitude": "-89.99678809851048",
    "latitude": "30.024518156769126",
    "geocoded_column": {
      "latitude": "30.024518156769126",
      "longitude": "-89.99678809851048"
    }
  },
  {
    "service_request": "2024-1155112",
    "request_type": "Trash/Recycling",
    "request_reason": "Request a Large Item Pick Up",
    "date_created": "2024-12-14T13:25:19.000",
    "date_modified": "2024-12-14T13:25:19.000",
    "request_status": "Pending",
    "responsible_agency": "Department of Sanitation",
    "final_address": "6645 Louis Xiv St, New Orleans, Louisiana, 70124",
    "address_councildis": "A",
    "status": "Assigned to Contractor",
    "contractor": "IV Waste",
    "rowid": "1155112",
    "final_x": "3668588.08417",
    "final_y": "551894.611862",
    "longitude": "-90.10815372532853",
    "latitude": "30.011904663080667",
    "geocoded_column": {
      "latitude": "30.011904663080667",
      "longitude": "-90.10815372532853"
    }
  },
  {
    "service_request": "2024-1155111",
    "request_type": "Trash/Recycling",
    "request_reason": "Request a Large Item Pick Up",
    "date_created": "2024-12-14T13:20:15.000",
    "date_modified": "2024-12-14T13:20:16.000",
    "request_status": "Pending",
    "responsible_agency": "Department of Sanitation",
    "final_address": "5540 Maple Ridge Dr",
    "address_councildis": "E",
    "status": "Assigned to Contractor",
    "contractor": "Waste Pro",
    "rowid": "1155111",
    "final_x": "3724381.38342",
    "final_y": "563882.763361",
    "longitude": "-89.93141802575504",
    "latitude": "30.043108870404946",
    "geocoded_column": {
      "latitude": "30.043108870404946",
      "longitude": "-89.93141802575504"
    }
  },
  {
    "service_request": "2024-1155110",
    "request_type": "Abandoned Vehicles",
    "request_reason": "Abandoned/Junk Vehicles",
    "date_created": "2024-12-14T13:20:10.000",
    "date_modified": "2024-12-15T09:53:31.000",
    "case_close_date": "2024-12-15T03:53:31.000",
    "request_status": "Closed",
    "responsible_agency": "Department of Public Works",
    "final_address": "5640 Bentley Dr",
    "address_councildis": "E",
    "status": "GOA - Gone on Arrival",
    "rowid": "1155110",
    "final_x": "3703778.94513",
    "final_y": "556875.328282",
    "longitude": "-89.99678809851048",
    "latitude": "30.024518156769126",
    "geocoded_column": {
      "latitude": "30.024518156769126",
      "longitude": "-89.99678809851048"
    }
  },
  {
    "service_request": "2024-1155109",
    "request_type": "Property Maintenance",
    "request_reason": "Property Maintenance",
    "date_created": "2024-12-14T13:14:18.000",
    "date_modified": "2024-12-14T13:14:18.000",
    "request_status": "Pending",
    "responsible_agency": "Department of Code Enforcement",
    "final_address": "2531 St Peter St",
    "address_councildis": "D",
    "status": "Pending",
    "rowid": "1155109",
    "final_x": "3677279.68578",
    "final_y": "536435.132807",
    "longitude": "-90.08122696591168",
    "latitude": "29.9691380996196",
    "geocoded_column": {
      "latitude": "29.9691380996196",
      "longitude": "-90.08122696591168"
    }
  },
  {
    "service_request": "2024-1155108",
    "request_type": "Trash/Recycling",
    "request_reason": "Repair Recycling Cart",
    "date_created": "2024-12-14T13:12:06.000",
    "date_modified": "2024-12-14T13:12:06.000",
    "request_status": "Pending",
    "responsible_agency": "Department of Sanitation",
    "final_address": "4809 Laurel St",
    "address_councildis": "B",
    "status": "Pending",
    "rowid": "1155108",
    "final_x": "3669581.6201",
    "final_y": "517947.728502",
    "longitude": "-90.10616336653364",
    "latitude": "29.918532801355603",
    "geocoded_column": {
      "latitude": "29.918532801355603",
      "longitude": "-90.10616336653364"
    }
  },
  {
    "service_request": "2024-1155107",
    "request_type": "General Services",
    "request_reason": "General Service Request",
    "date_created": "2024-12-14T13:12:00.000",
    "date_modified": "2024-12-14T13:12:00.000",
    "request_status": "Pending",
    "responsible_agency": "Orleans Parish Communication District",
    "final_address": "8643 hickory street",
    "address_councildis": "A",
    "status": "Pending",
    "rowid": "1155107",
    "final_x": "3661855.15712",
    "final_y": "531369.613571",
    "longitude": "-90.13010696934349",
    "latitude": "29.95566401239345",
    "geocoded_column": {
      "latitude": "29.95566401239345",
      "longitude": "-90.13010696934349"
    }
  },
  {
    "service_request": "2024-1155106",
    "request_type": "Trash/Recycling",
    "request_reason": "Illegal Dumping",
    "date_created": "2024-12-14T13:06:19.000",
    "date_modified": "2024-12-14T13:06:19.000",
    "request_status": "Pending",
    "responsible_agency": "Department of Sanitation",
    "final_address": "2511 St Peter St",
    "address_councildis": "D",
    "status": "Pending",
    "rowid": "1155106",
    "final_x": "3677392.8964",
    "final_y": "536351.997511",
    "longitude": "-90.08087230824275",
    "latitude": "29.968906103815026",
    "geocoded_column": {
      "latitude": "29.968906103815026",
      "longitude": "-90.08087230824275"
    }
  },
  {
    "service_request": "2024-1155105",
    "request_type": "General Services",
    "request_reason": "General Service Request",
    "date_created": "2024-12-14T13:06:15.000",
    "date_modified": "2024-12-14T13:06:15.000",
    "request_status": "Pending",
    "responsible_agency": "Orleans Parish Communication District",
    "final_address": "8643 Hickory Street",
    "address_councildis": "A",
    "status": "Pending",
    "rowid": "1155105",
    "final_x": "3661855.15712",
    "final_y": "531369.613571",
    "longitude": "-90.13010696934349",
    "latitude": "29.95566401239345",
    "geocoded_column": {
      "latitude": "29.95566401239345",
      "longitude": "-90.13010696934349"
    }
  },
  {
    "service_request": "2024-1155104",
    "request_type": "Traffic Signals",
    "request_reason": "Traffic Signal Malfunctioning or Damaged",
    "date_created": "2024-12-14T13:04:31.000",
    "date_modified": "2024-12-14T13:04:31.000",
    "request_status": "Pending",
    "responsible_agency": "Department of Public Works",
    "final_address": "POYDRAS ST & I 10 E & S CLAIBORNE AVE",
    "address_councildis": "B",
    "status": "Pending",
    "rowid": "1155104",
    "final_x": "3676836.7",
    "final_y": "530857.68",
    "longitude": "-90.0828181784778",
    "latitude": "29.953815289693384",
    "geocoded_column": {
      "latitude": "29.953815289693384",
      "longitude": "-90.0828181784778"
    }
  },
  {
    "service_request": "2024-1155103",
    "request_type": "Alley Ways",
    "request_reason": "Alley Way Regrading",
    "date_created": "2024-12-14T12:31:15.000",
    "date_modified": "2024-12-14T12:31:15.000",
    "request_status": "Pending",
    "responsible_agency": "Department of Public Works",
    "final_address": "6655 Milne Blvd",
    "address_councildis": "A",
    "status": "Pending",
    "rowid": "1155103",
    "final_x": "3667582.22285",
    "final_y": "551986.70159",
    "longitude": "-90.11132857761422",
    "latitude": "30.012187411822993",
    "geocoded_column": {
      "latitude": "30.012187411822993",
      "longitude": "-90.11132857761422"
    }
  },
  {
    "service_request": "2024-1155102",
    "request_type": "Trash/Recycling",
    "request_reason": "Request a Large Item Pick Up",
    "date_created": "2024-12-14T12:30:00.000",
    "date_modified": "2024-12-14T12:30:02.000",
    "request_status": "Pending",
    "responsible_agency": "Department of Sanitation",
    "final_address": "8 Grand Canyon Dr",
    "address_councildis": "C",
    "status": "Assigned to Contractor",
    "contractor": "Richards Disposal",
    "rowid": "1155102",
    "final_x": "3699469.12106",
    "final_y": "517562.31999",
    "longitude": "-90.0118389547415",
    "latitude": "29.916559089228862",
    "geocoded_column": {
      "latitude": "29.916559089228862",
      "longitude": "-90.0118389547415"
    }
  },
  {
    "service_request": "2024-1155101",
    "request_type": "Abandoned Vehicles",
    "request_reason": "Abandoned/Junk Vehicles",
    "date_created": "2024-12-14T12:16:58.000",
    "date_modified": "2024-12-14T12:16:58.000",
    "request_status": "Pending",
    "responsible_agency": "Department of Public Works",
    "final_address": "4230 Dreux Ave",
    "address_councildis": "D",
    "status": "Pending",
    "rowid": "1155101",
    "final_x": "3689618.16265",
    "final_y": "552616.24431",
    "longitude": "-90.04168526169539",
    "latitude": "30.013253830504",
    "geocoded_column": {
      "latitude": "30.013253830504",
      "longitude": "-90.04168526169539"
    }
  },
  {
    "service_request": "2024-1155100",
    "request_type": "Trash/Recycling",
    "request_reason": "Request a Large Item Pick Up",
    "date_created": "2024-12-14T12:12:27.000",
    "date_modified": "2024-12-14T12:12:28.000",
    "request_status": "Pending",
    "responsible_agency": "Department of Sanitation",
    "final_address": "431 Dauphine St",
    "address_councildis": "C",
    "status": "Assigned to Contractor",
    "contractor": "Empire Services",
    "rowid": "1155100",
    "final_x": "3681447.21154",
    "final_y": "532239.815619",
    "longitude": "-90.06821191311111",
    "latitude": "29.9574765341113",
    "geocoded_column": {
      "latitude": "29.9574765341113",
      "longitude": "-90.06821191311111"
    }
  },
  {
    "service_request": "2024-1155099",
    "request_type": "Trash/Recycling",
    "request_reason": "Replace Trash Cart",
    "date_created": "2024-12-14T12:03:43.000",
    "date_modified": "2024-12-14T12:03:44.000",
    "request_status": "Pending",
    "responsible_agency": "Department of Sanitation",
    "final_address": "5540 Lafaye St",
    "address_councildis": "D",
    "status": "Assigned to Contractor",
    "contractor": "IV Waste",
    "rowid": "1155099",
    "final_x": "3687180.9517",
    "final_y": "553633.815255",
    "longitude": "-90.04934950829269",
    "latitude": "30.01612709291275",
    "geocoded_column": {
      "latitude": "30.01612709291275",
      "longitude": "-90.04934950829269"
    }
  },
  {
    "service_request": "2024-1155098",
    "request_type": "Trash/Recycling",
    "request_reason": "Replace Trash Cart",
    "date_created": "2024-12-14T12:00:29.000",
    "date_modified": "2024-12-14T12:00:30.000",
    "request_status": "Pending",
    "responsible_agency": "Department of Sanitation",
    "final_address": "5540 Lafaye St",
    "address_councildis": "D",
    "status": "Assigned to Contractor",
    "contractor": "IV Waste",
    "rowid": "1155098",
    "final_x": "3687180.9517",
    "final_y": "553633.815255",
    "longitude": "-90.04934950829269",
    "latitude": "30.01612709291275",
    "geocoded_column": {
      "latitude": "30.01612709291275",
      "longitude": "-90.04934950829269"
    }
  },
  {
    "service_request": "2024-1155097",
    "request_type": "Traffic Signals",
    "request_reason": "Traffic Signal Malfunctioning or Damaged",
    "date_created": "2024-12-14T11:56:04.000",
    "date_modified": "2024-12-14T11:56:04.000",
    "request_status": "Pending",
    "responsible_agency": "Department of Public Works",
    "final_address": "1001 Canal St",
    "address_councildis": "C",
    "status": "Pending",
    "rowid": "1155097",
    "final_x": "3680355.56827",
    "final_y": "531428.220803",
    "longitude": "-90.07168721453263",
    "latitude": "29.955278019103265",
    "geocoded_column": {
      "latitude": "29.955278019103265",
      "longitude": "-90.07168721453263"
    }
  },
  {
    "service_request": "2024-1155096",
    "request_type": "Trash/Recycling",
    "request_reason": "Replace Trash Cart",
    "date_created": "2024-12-14T11:41:13.000",
    "date_modified": "2024-12-14T11:41:14.000",
    "request_status": "Pending",
    "responsible_agency": "Department of Sanitation",
    "final_address": "12 LaSalle Pl",
    "address_councildis": "A",
    "status": "Assigned to Contractor",
    "contractor": "IV Waste",
    "rowid": "1155096",
    "final_x": "3665896.09396",
    "final_y": "524177.530236",
    "longitude": "-90.11758802920151",
    "latitude": "29.935770807453483",
    "geocoded_column": {
      "latitude": "29.935770807453483",
      "longitude": "-90.11758802920151"
    }
  },
  {
    "service_request": "2024-1155095",
    "request_type": "Abandoned Vehicles",
    "request_reason": "Vehicle Blocking Your Driveway",
    "date_created": "2024-12-14T11:36:34.000",
    "date_modified": "2024-12-15T08:43:42.000",
    "request_status": "Closed",
    "responsible_agency": "Department of Public Works",
    "final_address": "3212 Danneel St",
    "address_councildis": "B",
    "status": "Inspected",
    "rowid": "1155095",
    "final_x": "3674108.79611",
    "final_y": "523038.870267",
    "longitude": "-90.09169931079143",
    "latitude": "29.93239770828291",
    "geocoded_column": {
      "latitude": "29.93239770828291",
      "longitude": "-90.09169931079143"
    }
  },
  {
    "service_request": "2024-1155094",
    "request_type": "Property Maintenance",
    "request_reason": "Property Maintenance",
    "date_created": "2024-12-14T11:35:26.000",
    "date_modified": "2024-12-14T11:35:26.000",
    "request_status": "Pending",
    "responsible_agency": "Department of Code Enforcement",
    "final_address": "924 Deslonde St",
    "address_councildis": "E",
    "status": "Pending",
    "rowid": "1155094",
    "final_x": "3695181.61136",
    "final_y": "533833.776325",
    "longitude": "-90.02478549685054",
    "latitude": "29.96143525568897",
    "geocoded_column": {
      "latitude": "29.96143525568897",
      "longitude": "-90.02478549685054"
    }
  },
  {
    "service_request": "2024-1155093",
    "request_type": "Abandoned Vehicles",
    "request_reason": "Vehicle Blocking Your Driveway",
    "date_created": "2024-12-14T11:28:52.000",
    "date_modified": "2024-12-15T08:44:50.000",
    "request_status": "Closed",
    "responsible_agency": "Department of Public Works",
    "final_address": "3212 Danneel St",
    "address_councildis": "B",
    "status": "Inspected",
    "rowid": "1155093",
    "final_x": "3674108.79611",
    "final_y": "523038.870267",
    "longitude": "-90.09169931079143",
    "latitude": "29.93239770828291",
    "geocoded_column": {
      "latitude": "29.93239770828291",
      "longitude": "-90.09169931079143"
    }
  },
  {
    "service_request": "2024-1155092",
    "request_type": "Abandoned Vehicles",
    "request_reason": "Vehicle Blocking Your Driveway",
    "date_created": "2024-12-14T11:20:22.000",
    "date_modified": "2024-12-14T11:20:22.000",
    "request_status": "Pending",
    "responsible_agency": "Department of Public Works",
    "final_address": "3212 Danneel St",
    "address_councildis": "B",
    "status": "Pending",
    "rowid": "1155092",
    "final_x": "3674108.79611",
    "final_y": "523038.870267",
    "longitude": "-90.09169931079143",
    "latitude": "29.93239770828291",
    "geocoded_column": {
      "latitude": "29.93239770828291",
      "longitude": "-90.09169931079143"
    }
  },
  {
    "service_request": "2024-1155091",
    "request_type": "Trash/Recycling",
    "request_reason": "Request a Large Item Pick Up",
    "date_created": "2024-12-14T11:16:18.000",
    "date_modified": "2024-12-14T11:16:20.000",
    "request_status": "Pending",
    "responsible_agency": "Department of Sanitation",
    "final_address": "306 S Murat St",
    "address_councildis": "A",
    "status": "Assigned to Contractor",
    "contractor": "IV Waste",
    "rowid": "1155091",
    "final_x": "3669207.60308",
    "final_y": "538676.676553",
    "longitude": "-90.10664347293086",
    "latitude": "29.97554166270201",
    "geocoded_column": {
      "latitude": "29.97554166270201",
      "longitude": "-90.10664347293086"
    }
  },
  {
    "service_request": "2024-1155090",
    "request_type": "Roads and Streets",
    "request_reason": "Pothole",
    "date_created": "2024-12-14T11:07:41.000",
    "date_modified": "2024-12-14T11:07:41.000",
    "request_status": "Pending",
    "responsible_agency": "Department of Public Works",
    "final_address": "6075 Laurel St",
    "address_councildis": "A",
    "status": "Pending",
    "rowid": "1155090",
    "final_x": "3663807.83123",
    "final_y": "518463.264694",
    "longitude": "-90.12437107649619",
    "latitude": "29.920119132039794",
    "geocoded_column": {
      "latitude": "29.920119132039794",
      "longitude": "-90.12437107649619"
    }
  },
  {
    "service_request": "2024-1155089",
    "request_type": "Street and Traffic Signs",
    "request_reason": "Street Name Sign Damaged or Missing",
    "date_created": "2024-12-14T11:07:08.000",
    "date_modified": "2024-12-14T11:07:08.000",
    "request_status": "Pending",
    "responsible_agency": "Department of Public Works",
    "final_address": "N MURAT ST & CITY PARK AVE",
    "address_councildis": "A",
    "status": "Pending",
    "rowid": "1155089",
    "final_x": "3671403.8",
    "final_y": "541670.68",
    "longitude": "-90.09960545276316",
    "latitude": "29.983709321989956",
    "geocoded_column": {
      "latitude": "29.983709321989956",
      "longitude": "-90.09960545276316"
    }
  },
  {
    "service_request": "2024-1155088",
    "request_type": "Roads and Streets",
    "request_reason": "Abandoned Service Cut",
    "date_created": "2024-12-14T11:06:11.000",
    "date_modified": "2024-12-14T11:06:11.000",
    "request_status": "Pending",
    "responsible_agency": "Department of Public Works",
    "final_address": "1701 Independence St",
    "address_councildis": "D",
    "status": "Pending",
    "rowid": "1155088",
    "final_x": "3691566.92969",
    "final_y": "537798.155464",
    "longitude": "-90.03605826277577",
    "latitude": "29.97244891221377",
    "geocoded_column": {
      "latitude": "29.97244891221377",
      "longitude": "-90.03605826277577"
    }
  },
  {
    "service_request": "2024-1155087",
    "request_type": "Trash/Recycling",
    "request_reason": "Order Recycling Cart",
    "date_created": "2024-12-14T10:54:23.000",
    "date_modified": "2024-12-14T10:54:23.000",
    "request_status": "Pending",
    "responsible_agency": "Department of Sanitation",
    "final_address": "911 Belleville St",
    "address_councildis": "C",
    "status": "Pending",
    "rowid": "1155087",
    "final_x": "3687733.87593",
    "final_y": "528251.899968",
    "longitude": "-90.04850174950909",
    "latitude": "29.94631877955785",
    "geocoded_column": {
      "latitude": "29.94631877955785",
      "longitude": "-90.04850174950909"
    }
  },
  {
    "service_request": "2024-1155086",
    "request_type": "Trash/Recycling",
    "request_reason": "Missed Trash Pick-Up",
    "date_created": "2024-12-14T10:23:15.000",
    "date_modified": "2024-12-14T10:23:15.000",
    "request_status": "Pending",
    "responsible_agency": "Department of Sanitation",
    "final_address": "5182 St Ferdinand Dr",
    "address_councildis": "D",
    "status": "Pending",
    "rowid": "1155086",
    "final_x": "3688978.75286",
    "final_y": "552675.800854",
    "longitude": "-90.04370333293451",
    "latitude": "30.01343739220101",
    "geocoded_column": {
      "latitude": "30.01343739220101",
      "longitude": "-90.04370333293451"
    }
  },
  {
    "service_request": "2024-1155085",
    "request_type": "Street and Traffic Signs",
    "request_reason": "Street Name Sign Damaged or Missing",
    "date_created": "2024-12-14T10:04:56.000",
    "date_modified": "2024-12-14T10:04:56.000",
    "request_status": "Pending",
    "responsible_agency": "Department of Public Works",
    "final_address": "7TH ST & S LIBERTY ST",
    "address_councildis": "B",
    "status": "Pending",
    "rowid": "1155085",
    "final_x": "3673877.9",
    "final_y": "524167.28",
    "longitude": "-90.09238965047423",
    "latitude": "29.93550734628811",
    "geocoded_column": {
      "latitude": "29.93550734628811",
      "longitude": "-90.09238965047423"
    }
  },
  {
    "service_request": "2024-1155084",
    "request_type": "Mosquito, Termite & Rodent Control",
    "request_reason": "Non-Rodent Complaint (Mice, Possums, Snakes)",
    "date_created": "2024-12-14T09:57:25.000",
    "date_modified": "2024-12-14T09:57:25.000",
    "request_status": "Pending",
    "responsible_agency": "Mosquito, Termite & Rodent Control Board",
    "final_address": "MACARTHUR BLVD & HUDSON PL",
    "address_councildis": "C",
    "status": "Pending",
    "rowid": "1155084",
    "final_x": "3703180.9",
    "final_y": "519889.78",
    "longitude": "-90.00003766973849",
    "latitude": "29.922840573216806",
    "geocoded_column": {
      "latitude": "29.922840573216806",
      "longitude": "-90.00003766973849"
    }
  },
  {
    "service_request": "2024-1155083",
    "request_type": "Trash/Recycling",
    "request_reason": "Request a Large Item Pick Up",
    "date_created": "2024-12-14T09:28:14.000",
    "date_modified": "2024-12-14T09:28:14.000",
    "request_status": "Pending",
    "responsible_agency": "Department of Sanitation",
    "final_address": "13101 River Rd",
    "address_councildis": "C",
    "status": "Pending",
    "rowid": "1155083",
    "final_x": "3731364.13146",
    "final_y": "509168.950958",
    "longitude": "-89.91149569164105",
    "latitude": "29.892430410486305",
    "geocoded_column": {
      "latitude": "29.892430410486305",
      "longitude": "-89.91149569164105"
    }
  },
  {
    "service_request": "2024-1155082",
    "request_type": "Trash/Recycling",
    "request_reason": "Order Trash Cart",
    "date_created": "2024-12-14T09:21:25.000",
    "date_modified": "2024-12-14T09:21:25.000",
    "request_status": "Pending",
    "responsible_agency": "Department of Sanitation",
    "final_address": "8632 Bill St",
    "address_councildis": "E",
    "status": "Pending",
    "rowid": "1155082",
    "final_x": "3703931.4339",
    "final_y": "563238.147552",
    "longitude": "-89.99607162340092",
    "latitude": "30.042008531807397",
    "geocoded_column": {
      "latitude": "30.042008531807397",
      "longitude": "-89.99607162340092"
    }
  },
  {
    "service_request": "2024-1155081",
    "request_type": "Trash/Recycling",
    "request_reason": "Missed Trash Pick-Up",
    "date_created": "2024-12-14T09:15:21.000",
    "date_modified": "2024-12-14T09:15:22.000",
    "request_status": "Pending",
    "responsible_agency": "Department of Sanitation",
    "final_address": "11100 N Parkwood Ct",
    "address_councildis": "E",
    "status": "Assigned to Contractor",
    "contractor": "Waste Pro",
    "rowid": "1155081",
    "final_x": "3716188.46546",
    "final_y": "558862.346844",
    "longitude": "-89.95750125222067",
    "latitude": "30.029577822288733",
    "geocoded_column": {
      "latitude": "30.029577822288733",
      "longitude": "-89.95750125222067"
    }
  },
  {
    "service_request": "2024-1155080",
    "request_type": "Abandoned Vehicles",
    "request_reason": "Abandoned/Junk Vehicles",
    "date_created": "2024-12-14T08:14:39.000",
    "date_modified": "2024-12-14T08:14:39.000",
    "request_status": "Pending",
    "responsible_agency": "Department of Public Works",
    "final_address": "5778 E Louis Prima Dr",
    "address_councildis": "E",
    "status": "Pending",
    "rowid": "1155080",
    "final_x": "3715830.123",
    "final_y": "562532.052448",
    "longitude": "-89.95849445920459",
    "latitude": "30.039679863163755",
    "geocoded_column": {
      "latitude": "30.039679863163755",
      "longitude": "-89.95849445920459"
    }
  },
  {
    "service_request": "2024-1155079",
    "request_type": "Abandoned Vehicles",
    "request_reason": "Abandoned/Junk Vehicles",
    "date_created": "2024-12-14T07:45:27.000",
    "date_modified": "2024-12-14T07:45:27.000",
    "request_status": "Pending",
    "responsible_agency": "Department of Public Works",
    "final_address": "4023 Prentiss Ave",
    "address_councildis": "D",
    "status": "Pending",
    "rowid": "1155079",
    "final_x": "3688762.30806",
    "final_y": "554363.101848",
    "longitude": "-90.04432721219374",
    "latitude": "30.01808354239693",
    "geocoded_column": {
      "latitude": "30.01808354239693",
      "longitude": "-90.04432721219374"
    }
  },