[
  {
    "service_request": "2023-989723",
    "request_type": "Tax and Revenue",
    "request_reason": "Occupational License Tax",
    "date_created": "2023-04-10T01:13:00.000",
    "date_modified": "2023-04-10T01:13:00.000",
    "request_status": "Pending",
    "responsible_agency": "Bureau of Revenue",
    "final_address": "1775 Joseph Guillaume Pl",
    "address_councildis": "C",
    "status": "Pending",
    "rowid": "989723",
    "final_x": "3683462.43785",
    "final_y": "536121.270855",
    "longitude": "-90.06171241725919",
    "latitude": "29.96808786850646",
    "geocoded_column": {
      "latitude": "29.96808786850646",
      "longitude": "-90.06171241725919"
    }
  },
  {
    "service_request": "2023-989722",
    "request_type": "Safety & Permits",
    "request_reason": "Licenses & Permits",
    "date_created": "2023-04-10T01:12:00.000",
    "date_modified": "2023-04-10T01:12:00.000",
    "request_status": "Pending",
    "responsible_agency": "Safety and Permits",
    "status": "Pending",
    "rowid": "989722",
    "longitude": "0.0",
    "latitude": "0.0",
    "geocoded_column": {
      "latitude": "0.0",
      "longitude": "0.0"
    }
  },
  {
    "service_request": "2023-989721",
    "request_type": "Health Related Request",
    "request_reason": "Noise Ordinance Complaint",
    "date_created": "2023-04-10T01:11:19.000",
    "date_modified": "2023-04-10T01:11:19.000",
    "request_status": "Pending",
    "responsible_agency": "Health Department",
    "final_address": "1775 Joseph Guillaume Pl",
    "address_councildis": "C",
    "status": "Pending",
    "rowid": "989721",
    "final_x": "3683462.43785",
    "final_y": "536121.270855",
    "longitude": "-90.06171241725919",
    "latitude": "29.96808786850646",
    "geocoded_column": {
      "latitude": "29.96808786850646",
      "longitude": "-90.06171241725919"
    }
  },
  {
    "service_request": "2023-989720",
    "request_type": "Trash/Recycling",
    "request_reason": "Missed Trash Pick-Up",
    "date_created": "2023-04-10T00:18:22.000",
    "date_modified": "2023-04-10T00:18:22.000",
    "request_status": "Pending",
    "responsible_agency": "Department of Sanitation",
    "final_address": "7018 S Claiborne Ave",
    "address_councildis": "A",
    "status": "Assigned to Contractor",
    "contractor": "Richards Disposal",
    "rowid": "989720",
    "final_x": "3666453.57972",
    "final_y": "529069.961408",
    "longitude": "-90.11566389383616",
    "latitude": "29.949207142694938",
    "geocoded_column": {
      "latitude": "29.949207142694938",
      "longitude": "-90.11566389383616"
    }
  },
  {
    "service_request": "2023-989719",
    "request_type": "Trash/Recycling",
    "request_reason": "Order Recycling Cart",
    "date_created": "2023-04-09T22:33:46.000",
    "date_modified": "2023-04-09T22:33:46.000",
    "request_status": "Pending",
    "responsible_agency": "Department of Sanitation",
    "final_address": "1409 Octavia St",
    "address_councildis": "A",
    "status": "Pending",
    "rowid": "989719",
    "final_x": "3666956.38663",
    "final_y": "520991.088313",
    "longitude": "-90.11434767435445",
    "latitude": "29.92697813006529",
    "geocoded_column": {
      "latitude": "29.92697813006529",
      "longitude": "-90.11434767435445"
    }
  },
  {
    "service_request": "2023-989718",
    "request_type": "Health Related Request",
    "request_reason": "Noise Ordinance Complaint",
    "date_created": "2023-04-09T22:06:24.000",
    "date_modified": "2023-04-09T22:06:24.000",
    "request_status": "Pending",
    "responsible_agency": "Health Department",
    "final_address": "1011 N Claiborne Ave, New Orleans, Louisiana, 70116",
    "address_councildis": "D",
    "status": "Pending",
    "rowid": "989718",
    "final_x": "3680426.3741",
    "final_y": "535647.846086",
    "longitude": "-90.07131688638961",
    "latitude": "29.966878408641293",
    "geocoded_column": {
      "latitude": "29.966878408641293",
      "longitude": "-90.07131688638961"
    }
  },
  {
    "service_request": "2023-989717",
    "request_type": "Health Related Request",
    "request_reason": "Noise Ordinance Complaint",
    "date_created": "2023-04-09T22:05:06.000",
    "date_modified": "2023-04-09T22:05:06.000",
    "request_status": "Pending",
    "responsible_agency": "Health Department",
    "final_address": "711 Bourbon St, New Orleans, Louisiana, 70116",
    "address_councildis": "C",
    "status": "Pending",
    "rowid": "989717",
    "final_x": "3682299.38447",
    "final_y": "532765.705988",
    "longitude": "-90.06550263299877",
    "latitude": "29.95889665479323",
    "geocoded_column": {
      "latitude": "29.95889665479323",
      "longitude": "-90.06550263299877"
    }
  },
  {
    "service_request": "2023-989716",
    "request_type": "Trash/Recycling",
    "request_reason": "Replace Trash Cart",
    "date_created": "2023-04-09T21:57:11.000",
    "date_modified": "2023-04-09T21:57:12.000",
    "request_status": "Pending",
    "responsible_agency": "Department of Sanitation",
    "final_address": "259 Broadway St",
    "address_councildis": "A",
    "status": "Assigned to Contractor",
    "contractor": "Richards Disposal",
    "rowid": "989716",
    "final_x": "3661429.15725",
    "final_y": "522323.76025",
    "longitude": "-90.13175166460076",
    "latitude": "29.930803086581534",
    "geocoded_column": {
      "latitude": "29.930803086581534",
      "longitude": "-90.13175166460076"
    }
  },
  {
    "service_request": "2023-989715",
    "request_type": "Traffic Signals/Signs/Striping/Streetlights",
    "request_reason": "Street Light Outage/Malfunction",
    "date_created": "2023-04-09T21:28:21.000",
    "date_modified": "2023-04-09T21:28:21.000",
    "request_status": "Pending",
    "responsible_agency": "Department of Public Works",
    "final_address": "2931 Baronne St",
    "address_councildis": "B",
    "status": "Assigned to Contractor",
    "contractor": "Legacy Professional Services",
    "rowid": "989715",
    "final_x": "3674847.78497",
    "final_y": "522742.869818",
    "longitude": "-90.08937653160152",
    "latitude": "29.93156176396665",
    "geocoded_column": {
      "latitude": "29.93156176396665",
      "longitude": "-90.08937653160152"
    }
  },
  {
    "service_request": "2023-989714",
    "request_type": "Health Related Request",
    "request_reason": "Noise Ordinance Complaint",
    "date_created": "2023-04-09T21:25:51.000",
    "date_modified": "2023-04-09T21:25:51.000",
    "request_status": "Pending",
    "responsible_agency": "Health Department",
    "final_address": "711 Bourbon St, New Orleans, Louisiana, 70116",
    "address_councildis": "C",
    "status": "Pending",
    "rowid": "989714",
    "final_x": "3682299.38447",
    "final_y": "532765.705988",
    "longitude": "-90.06550263299877",
    "latitude": "29.95889665479323",
    "geocoded_column": {
      "latitude": "29.95889665479323",
      "longitude": "-90.06550263299877"
    }
  },
  {
    "service_request": "2023-989713",
    "request_type": "Trash/Recycling",
    "request_reason": "MIssed Recycling Pick-Up",
    "date_created": "2023-04-09T21:23:25.000",
    "date_modified": "2023-04-09T21:23:25.000",
    "request_status": "Pending",
    "responsible_agency": "Department of Sanitation",
    "status": "Assigned to Contractor",
    "rowid": "989713",
    "longitude": "0.0",
    "latitude": "0.0",
    "geocoded_column": {
      "latitude": "0.0",
      "longitude": "0.0"
    }
  },
  {
    "service_request": "2023-989712",
    "request_type": "Property Maintenance",
    "request_reason": "Property Maintenance",
    "date_created": "2023-04-09T21:10:02.000",
    "date_modified": "2023-04-09T21:10:02.000",
    "request_status": "Pending",
    "responsible_agency": "Department of Code Enforcement",
    "final_address": "6046 Pines Blvd",
    "address_councildis": "D",
    "status": "Pending",
    "rowid": "989712",
    "final_x": "3696185.44323",
    "final_y": "556057.734681",
    "longitude": "-90.02081170516817",
    "latitude": "30.022511441711345",
    "geocoded_column": {
      "latitude": "30.022511441711345",
      "longitude": "-90.02081170516817"
    }
  },
  {
    "service_request": "2023-989711",
    "request_type": "Traffic Signals/Signs/Striping/Streetlights",
    "request_reason": "Traffic Sign Missing/Damaged",
    "date_created": "2023-04-09T20:57:20.000",
    "date_modified": "2023-04-09T20:57:21.000",
    "request_status": "Pending",
    "responsible_agency": "Department of Public Works",
    "final_address": "5609 Canal Blvd",
    "address_councildis": "A",
    "status": "Pending",
    "rowid": "989711",
    "final_x": "3668409.06055",
    "final_y": "544722.813583",
    "longitude": "-90.1089614563456",
    "latitude": "29.99218996901636",
    "geocoded_column": {
      "latitude": "29.99218996901636",
      "longitude": "-90.1089614563456"
    }
  },
  {
    "service_request": "2023-989710",
    "request_type": "Abandoned Vehicles",
    "request_reason": "Abandoned/Junk Vehicles",
    "date_created": "2023-04-09T20:56:43.000",
    "date_modified": "2023-04-09T20:56:43.000",
    "request_status": "Pending",
    "responsible_agency": "Department of Public Works",
    "final_address": "6201 Pines Blvd",
    "address_councildis": "D",
    "status": "Pending",
    "rowid": "989710",
    "final_x": "3696752.08458",
    "final_y": "556368.26761",
    "longitude": "-90.01901000837296",
    "latitude": "30.023347430147776",
    "geocoded_column": {
      "latitude": "30.023347430147776",
      "longitude": "-90.01901000837296"
    }
  },
  {
    "service_request": "2023-989709",
    "request_type": "Trash/Recycling",
    "request_reason": "Request a Large Item Pick Up",
    "date_created": "2023-04-09T20:49:11.000",
    "date_modified": "2023-04-09T20:49:12.000",
    "request_status": "Pending",
    "responsible_agency": "Department of Sanitation",
    "final_address": "420 S Lopez St",
    "address_councildis": "B",
    "status": "Assigned to Contractor",
    "contractor": "Richards Disposal",
    "rowid": "989709",
    "final_x": "3673049.19265",
    "final_y": "535080.69767",
    "longitude": "-90.09463343148737",
    "latitude": "29.965540292969177",
    "geocoded_column": {
      "latitude": "29.965540292969177",
      "longitude": "-90.09463343148737"
    }
  },
  {
    "service_request": "2023-989708",
    "request_type": "Roads/Drainage",
    "request_reason": "Damaged Sidewalk",
    "date_created": "2023-04-09T20:42:12.000",
    "date_modified": "2023-04-09T20:42:12.000",
    "request_status": "Pending",
    "responsible_agency": "Department of Public Works",
    "final_address": "7001 Queensway Dr",
    "address_councildis": "E",
    "status": "Pending",
    "rowid": "989708",
    "final_x": "3719390.3685",
    "final_y": "569303.967206",
    "longitude": "-89.94698420587326",
    "latitude": "30.058181902122055",
    "geocoded_column": {
      "latitude": "30.058181902122055",
      "longitude": "-89.94698420587326"
    }
  },
  {
    "service_request": "2023-989707",
    "request_type": "Health Related Request",
    "request_reason": "Noise Ordinance Complaint",
    "date_created": "2023-04-09T20:36:09.000",
    "date_modified": "2023-04-09T20:36:09.000",
    "request_status": "Pending",
    "responsible_agency": "Health Department",
    "final_address": "711 Bourbon St, New Orleans, Louisiana, 70116",
    "address_councildis": "C",
    "status": "Pending",
    "rowid": "989707",
    "final_x": "3682299.38447",
    "final_y": "532765.705988",
    "longitude": "-90.06550263299877",
    "latitude": "29.95889665479323",
    "geocoded_column": {
      "latitude": "29.95889665479323",
      "longitude": "-90.06550263299877"
    }
  },
  {
    "service_request": "2023-989705",
    "request_type": "Trash/Recycling",
    "request_reason": "Start Trash Service",
    "date_created": "2023-04-09T20:26:24.000",
    "date_modified": "2023-04-09T20:26:25.000",
    "request_status": "Pending",
    "responsible_agency": "Department of Sanitation",
    "final_address": "616 Seventh St",
    "address_councildis": "B",
    "status": "Assigned to Contractor",
    "contractor": "Richards Disposal",
    "rowid": "989705",
    "final_x": "3677258.05",
    "final_y": "518966.761911",
    "longitude": "-90.0818977957304",
    "latitude": "29.921106524014785",
    "geocoded_column": {
      "latitude": "29.921106524014785",
      "longitude": "-90.0818977957304"
    }
  },
  {
    "service_request": "2023-989704",
    "request_type": "Roads/Drainage",
    "request_reason": "Pothole",
    "date_created": "2023-04-09T20:03:51.000",
    "date_modified": "2023-04-09T20:03:51.000",
    "request_status": "Pending",
    "responsible_agency": "Department of Public Works",
    "final_address": "QUEISSER ST & READ BLVD",
    "address_councildis": "E",
    "status": "Pending",
    "rowid": "989704",
    "final_x": "3708679.4",
    "final_y": "564156.88",
    "longitude": "-89.98103211993126",
    "latitude": "30.04438146374777",
    "geocoded_column": {
      "latitude": "30.04438146374777",
      "longitude": "-89.98103211993126"
    }
  },
  {
    "service_request": "2023-989703",
    "request_type": "Trash/Recycling",
    "request_reason": "Illegal Dumping",
    "date_created": "2023-04-09T20:01:05.000",
    "date_modified": "2023-04-09T20:01:05.000",
    "request_status": "Pending",
    "responsible_agency": "Department of Sanitation",
    "final_address": "13117 Chateau Ct",
    "address_councildis": "E",
    "status": "Pending",
    "rowid": "989703",
    "final_x": "3723840.42975",
    "final_y": "561811.175071",
    "longitude": "-89.93320763887905",
    "latitude": "30.03743104316819",
    "geocoded_column": {
      "latitude": "30.03743104316819",
      "longitude": "-89.93320763887905"
    }
  },
  {
    "service_request": "2023-989702",
    "request_type": "Trash/Recycling",
    "request_reason": "Order Recycling Cart",
    "date_created": "2023-04-09T20:00:14.000",
    "date_modified": "2023-04-09T20:00:14.000",
    "request_status": "Pending",
    "responsible_agency": "Department of Sanitation",
    "final_address": "13117 Chateau Ct",
    "address_councildis": "E",
    "status": "Pending",
    "rowid": "989702",
    "final_x": "3723840.42975",
    "final_y": "561811.175071",
    "longitude": "-89.93320763887905",
    "latitude": "30.03743104316819",
    "geocoded_column": {
      "latitude": "30.03743104316819",
      "longitude": "-89.93320763887905"
    }
  },
  {
    "service_request": "2023-989701",
    "request_type": "Trash/Recycling",
    "request_reason": "Illegal Dumping",
    "date_created": "2023-04-09T19:42:32.000",
    "date_modified": "2023-04-09T19:42:32.000",
    "request_status": "Pending",
    "responsible_agency": "Department of Sanitation",
    "final_address": "4555 Wilson Ave",
    "address_councildis": "E",
    "status": "Pending",
    "rowid": "989701",
    "final_x": "3703193.84746",
    "final_y": "554028.326424",
    "longitude": "-89.99874167009608",
    "latitude": "30.016708748912514",
    "geocoded_column": {
      "latitude": "30.016708748912514",
      "longitude": "-89.99874167009608"
    }
  },
  {
    "service_request": "2023-989700",
    "request_type": "Trash/Recycling",
    "request_reason": "Request a Large Item Pick Up",
    "date_created": "2023-04-09T19:40:19.000",
    "date_modified": "2023-04-09T19:40:20.000",
    "request_status": "Pending",
    "responsible_agency": "Department of Sanitation",
    "final_address": "4614 Wilson Ave",
    "address_councildis": "E",
    "status": "Assigned to Contractor",
    "contractor": "Waste Pro",
    "rowid": "989700",
    "final_x": "3702982.85623",
    "final_y": "554261.350488",
    "longitude": "-89.99939973724258",
    "latitude": "30.017356231355677",
    "geocoded_column": {
      "latitude": "30.017356231355677",
      "longitude": "-89.99939973724258"
    }
  },
  {
    "service_request": "2023-989699",
    "request_type": "Trash/Recycling",
    "request_reason": "Request a Large Item Pick Up",
    "date_created": "2023-04-09T19:38:38.000",
    "date_modified": "2023-04-09T19:38:39.000",
    "request_status": "Pending",
    "responsible_agency": "Department of Sanitation",
    "status": "Assigned to Contractor",
    "rowid": "989699",
    "longitude": "0.0",
    "latitude": "0.0",
    "geocoded_column": {
      "latitude": "0.0",
      "longitude": "0.0"
    }
  },
  {
    "service_request": "2023-989698",
    "request_type": "Health Related Request",
    "request_reason": "Noise Ordinance Complaint",
    "date_created": "2023-04-09T19:14:46.000",
    "date_modified": "2023-04-09T19:14:46.000",
    "request_status": "Pending",
    "responsible_agency": "Health Department",
    "final_address": "7910 Earhart Blvd",
    "address_councildis": "B",
    "status": "Pending",
    "rowid": "989698",
    "final_x": "3667005.87399",
    "final_y": "533034.124676",
    "longitude": "-90.11378683341556",
    "latitude": "29.960091146202156",
    "geocoded_column": {
      "latitude": "29.960091146202156",
      "longitude": "-90.11378683341556"
    }
  },
  {
    "service_request": "2023-989697",
    "request_type": "Trash/Recycling",
    "request_reason": "Order Recycling Cart",
    "date_created": "2023-04-09T18:56:54.000",
    "date_modified": "2023-04-09T18:56:54.000",
    "request_status": "Pending",
    "responsible_agency": "Department of Sanitation",
    "final_address": "11706 W Barrington Dr",
    "address_councildis": "E",
    "status": "Pending",
    "rowid": "989697",
    "final_x": "3713750.80133",
    "final_y": "565310.49821",
    "longitude": "-89.96496081982629",
    "latitude": "30.047387901559087",
    "geocoded_column": {
      "latitude": "30.047387901559087",
      "longitude": "-89.96496081982629"
    }
  },
  {
    "service_request": "2023-989696",
    "request_type": "Trash/Recycling",
    "request_reason": "Request a Large Item Pick Up",
    "date_created": "2023-04-09T18:39:41.000",
    "date_modified": "2023-04-09T18:39:42.000",
    "request_status": "Pending",
    "responsible_agency": "Department of Sanitation",
    "final_address": "6824 Louis Xiv St",
    "address_councildis": "A",
    "status": "Assigned to Contractor",
    "contractor": "IV Waste",
    "rowid": "989696",
    "final_x": "3668493.68922",
    "final_y": "552928.129751",
    "longitude": "-90.10841705341161",
    "latitude": "30.014749248448318",
    "geocoded_column": {
      "latitude": "30.014749248448318",
      "longitude": "-90.10841705341161"
    }
  },
  {
    "service_request": "2023-989695",
    "request_type": "Abandoned Vehicles",
    "request_reason": "Vehicle Blocking Your Driveway",
    "date_created": "2023-04-09T18:34:23.000",
    "date_modified": "2023-04-09T18:34:23.000",
    "request_status": "Pending",
    "responsible_agency": "Department of Public Works",
    "final_address": "1624 Broadway St",
    "address_councildis": "A",
    "status": "Pending",
    "rowid": "989695",
    "final_x": "3665042.58196",
    "final_y": "527897.905791",
    "longitude": "-90.1201582364038",
    "latitude": "29.94602552231003",
    "geocoded_column": {
      "latitude": "29.94602552231003",
      "longitude": "-90.1201582364038"
    }
  },
  {
    "service_request": "2023-989694",
    "request_type": "Property Maintenance",
    "request_reason": "Property Maintenance",
    "date_created": "2023-04-09T18:25:47.000",
    "date_modified": "2023-04-09T18:25:47.000",
    "request_status": "Pending",
    "responsible_agency": "Department of Code Enforcement",
    "final_address": "7251 Voyageur Dr",
    "address_councildis": "E",
    "status": "Pending",
    "rowid": "989694",
    "final_x": "3726537.54585",
    "final_y": "569144.418278",
    "longitude": "-89.92439929185109",
    "latitude": "30.05750350463659",
    "geocoded_column": {
      "latitude": "30.05750350463659",
      "longitude": "-89.92439929185109"
    }
  },
  {
    "service_request": "2023-989693",
    "request_type": "Trash/Recycling",
    "request_reason": "Request a Large Item Pick Up",
    "date_created": "2023-04-09T18:19:33.000",
    "date_modified": "2023-04-09T18:19:34.000",
    "request_status": "Pending",
    "responsible_agency": "Department of Sanitation",
    "final_address": "1816 Sixth St",
    "address_councildis": "B",
    "status": "Assigned to Contractor",
    "contractor": "Richards Disposal",
    "rowid": "989693",
    "final_x": "3674980.72763",
    "final_y": "522970.342267",
    "longitude": "-90.08894904805263",
    "latitude": "29.932183270135248",
    "geocoded_column": {
      "latitude": "29.932183270135248",
      "longitude": "-90.08894904805263"
    }
  },
  {
    "service_request": "2023-989692",
    "request_type": "Trash/Recycling",
    "request_reason": "Illegal Dumping",
    "date_created": "2023-04-09T18:14:07.000",
    "date_modified": "2023-04-09T18:14:07.000",
    "request_status": "Pending",
    "responsible_agency": "Department of Sanitation",
    "final_address": "5760 Tullis Dr",
    "address_councildis": "C",
    "status": "Pending",
    "rowid": "989692",
    "final_x": "3705298.61847",
    "final_y": "512925.970545",
    "longitude": "-89.99360993333327",
    "latitude": "29.90362456731717",
    "geocoded_column": {
      "latitude": "29.90362456731717",
      "longitude": "-89.99360993333327"
    }
  },
  {
    "service_request": "2023-989691",
    "request_type": "Trash/Recycling",
    "request_reason": "Request a Large Item Pick Up",
    "date_created": "2023-04-09T17:32:58.000",
    "date_modified": "2023-04-09T17:32:58.000",
    "request_status": "Pending",
    "responsible_agency": "Department of Sanitation",
    "final_address": "3469 Vespasian St",
    "address_councildis": "C",
    "status": "Assigned to Contractor",
    "contractor": "Richards Disposal",
    "rowid": "989691",
    "final_x": "3696053.47414",
    "final_y": "522570.257786",
    "longitude": "-90.02243923494422",
    "latitude": "29.930437091892376",
    "geocoded_column": {
      "latitude": "29.930437091892376",
      "longitude": "-90.02243923494422"
    }
  },
  {
    "service_request": "2023-989690",
    "request_type": "Roads/Drainage",
    "request_reason": "Pothole",
    "date_created": "2023-04-09T17:25:35.000",
    "date_modified": "2023-04-09T17:25:35.000",
    "request_status": "Pending",
    "responsible_agency": "Department of Public Works",
    "final_address": "1121 S Genois St",
    "address_councildis": "B",
    "status": "Pending",
    "rowid": "989690",
    "final_x": "3669515.6377",
    "final_y": "532936.441604",
    "longitude": "-90.10586481983576",
    "latitude": "29.95974886228466",
    "geocoded_column": {
      "latitude": "29.95974886228466",
      "longitude": "-90.10586481983576"
    }
  },
  {
    "service_request": "2023-989689",
    "request_type": "Trash/Recycling",
    "request_reason": "Order Recycling Cart",
    "date_created": "2023-04-09T17:06:40.000",
    "date_modified": "2023-04-09T17:06:40.000",
    "request_status": "Pending",
    "responsible_agency": "Department of Sanitation",
    "final_address": "5012 Perrier St",
    "address_councildis": "B",
    "status": "Pending",
    "rowid": "989689",
    "final_x": "3668540.08628",
    "final_y": "519856.046712",
    "longitude": "-90.10938660652499",
    "latitude": "29.923810704330485",
    "geocoded_column": {
      "latitude": "29.923810704330485",
      "longitude": "-90.10938660652499"
    }
  },
  {
    "service_request": "2023-989688",
    "request_type": "Trash/Recycling",
    "request_reason": "Request a Large Item Pick Up",
    "date_created": "2023-04-09T17:05:07.000",
    "date_modified": "2023-04-09T17:05:08.000",
    "request_status": "Pending",
    "responsible_agency": "Department of Sanitation",
    "final_address": "5012 Perrier St",
    "address_councildis": "B",
    "status": "Assigned to Contractor",
    "contractor": "Richards Disposal",
    "rowid": "989688",
    "final_x": "3668540.08628",
    "final_y": "519856.046712",
    "longitude": "-90.10938660652499",
    "latitude": "29.923810704330485",
    "geocoded_column": {
      "latitude": "29.923810704330485",
      "longitude": "-90.10938660652499"
    }
  },
  {
    "service_request": "2023-989687",
    "request_type": "Traffic Signals/Signs/Striping/Streetlights",
    "request_reason": "Street Light Outage/Malfunction",
    "date_created": "2023-04-09T16:50:30.000",
    "date_modified": "2023-04-09T16:50:30.000",
    "request_status": "Pending",
    "responsible_agency": "Department of Public Works",
    "final_address": "7232 Yorktown Dr",
    "address_councildis": "E",
    "status": "Assigned to Contractor",
    "contractor": "Legacy Professional Services",
    "rowid": "989687",
    "final_x": "3705705.46366",
    "final_y": "561391.831326",
    "longitude": "-89.99053344267604",
    "latitude": "30.03687484436813",
    "geocoded_column": {
      "latitude": "30.03687484436813",
      "longitude": "-89.99053344267604"
    }
  },
  {
    "service_request": "2023-989686",
    "request_type": "Mosquito, Termite & Rodent Control",
    "request_reason": "Non-Rodent Complaint (Mice, Possums, Snakes)",
    "date_created": "2023-04-09T16:32:58.000",
    "date_modified": "2023-04-09T16:32:58.000",
    "request_status": "Pending",
    "responsible_agency": "Mosquito, Termite & Rodent Control Board",
    "final_address": "5642 Chatham Dr",
    "address_councildis": "D",
    "status": "Pending",
    "rowid": "989686",
    "final_x": "3679606.24578",
    "final_y": "553335.493207",
    "longitude": "-90.07329260485847",
    "latitude": "30.01553802716469",
    "geocoded_column": {
      "latitude": "30.01553802716469",
      "longitude": "-90.07329260485847"
    }
  },
  {
    "service_request": "2023-989685",
    "request_type": "Trash/Recycling",
    "request_reason": "Request a Large Item Pick Up",
    "date_created": "2023-04-09T16:15:48.000",
    "date_modified": "2023-04-09T16:15:49.000",
    "request_status": "Pending",
    "responsible_agency": "Department of Sanitation",
    "final_address": "2233 George Nick Connor Dr",
    "address_councildis": "D",
    "status": "Assigned to Contractor",
    "contractor": "IV Waste",
    "rowid": "989685",
    "final_x": "3681314.2685",
    "final_y": "540340.552395",
    "longitude": "-90.06834931271982",
    "latitude": "29.97975480857669",
    "geocoded_column": {
      "latitude": "29.97975480857669",
      "longitude": "-90.06834931271982"
    }
  },
  {
    "service_request": "2023-989684",
    "request_type": "Trash/Recycling",
    "request_reason": "Order Trash Cart",
    "date_created": "2023-04-09T16:06:23.000",
    "date_modified": "2023-04-09T16:06:24.000",
    "request_status": "Pending",
    "responsible_agency": "Department of Sanitation",
    "final_address": "2630 Myrtle St",
    "address_councildis": "D",
    "status": "Assigned to Contractor",
    "contractor": "IV Waste",
    "rowid": "989684",
    "final_x": "3687439.14914",
    "final_y": "546043.9444",
    "longitude": "-90.04880255213672",
    "latitude": "29.995249755893827",
    "geocoded_column": {
      "latitude": "29.995249755893827",
      "longitude": "-90.04880255213672"
    }
  },
  {
    "service_request": "2023-989683",
    "request_type": "Trash/Recycling",
    "request_reason": "Replace Trash Cart",
    "date_created": "2023-04-09T15:41:07.000",
    "date_modified": "2023-04-09T15:41:07.000",
    "request_status": "Pending",
    "responsible_agency": "Department of Sanitation",
    "status": "Assigned to Contractor",
    "rowid": "989683",
    "longitude": "0.0",
    "latitude": "0.0",
    "geocoded_column": {
      "latitude": "0.0",
      "longitude": "0.0"
    }
  },
  {
    "service_request": "2023-989682",
    "request_type": "Trash/Recycling",
    "request_reason": "Request a Large Item Pick Up",
    "date_created": "2023-04-09T14:41:53.000",
    "date_modified": "2023-04-09T14:41:54.000",
    "request_status": "Pending",
    "responsible_agency": "Department of Sanitation",
    "final_address": "44 Gull St",
    "address_councildis": "D",
    "status": "Assigned to Contractor",
    "contractor": "IV Waste",
    "rowid": "989682",
    "final_x": "3675039.84411",
    "final_y": "555755.597017",
    "longitude": "-90.08763722778147",
    "latitude": "30.02232972498351",
    "geocoded_column": {
      "latitude": "30.02232972498351",
      "longitude": "-90.08763722778147"
    }
  },
  {
    "service_request": "2023-989681",
    "request_type": "Parks & Parkways",
    "request_reason": "Request Tree Service (Right of Way/Public Property)",
    "date_created": "2023-04-09T14:35:00.000",
    "date_modified": "2023-04-09T14:35:00.000",
    "request_status": "Pending",
    "responsible_agency": "Department of Parks & Parkway",
    "final_address": "7001 Bullard Ave",
    "address_councildis": "E",
    "status": "Pending",
    "rowid": "989681",
    "final_x": "3714772.26917",
    "final_y": "565501.191074",
    "longitude": "-89.96172524141116",
    "latitude": "30.047878648707098",
    "geocoded_column": {
      "latitude": "30.047878648707098",
      "longitude": "-89.96172524141116"
    }
  },
  {
    "service_request": "2023-989680",
    "request_type": "Abandoned Vehicles",
    "request_reason": "Abandoned/Junk Vehicles",
    "date_created": "2023-04-09T14:32:25.000",
    "date_modified": "2023-04-09T14:32:25.000",
    "request_status": "Pending",
    "responsible_agency": "Department of Public Works",
    "final_address": "1432 Cabrini Ct",
    "address_councildis": "D",
    "status": "Pending",
    "rowid": "989680",
    "final_x": "3677967.02472",
    "final_y": "553007.329815",
    "longitude": "-90.07848314758607",
    "latitude": "30.014685159094594",
    "geocoded_column": {
      "latitude": "30.014685159094594",
      "longitude": "-90.07848314758607"
    }
  },
  {
    "service_request": "2023-989679",
    "request_type": "Trash/Recycling",
    "request_reason": "Repair Trash Cart",
    "date_created": "2023-04-09T14:21:36.000",
    "date_modified": "2023-04-09T14:21:37.000",
    "request_status": "Pending",
    "responsible_agency": "Department of Sanitation",
    "final_address": "201 Alonzo St",
    "address_councildis": "A",
    "status": "Assigned to Contractor",
    "contractor": "Richards Disposal",
    "rowid": "989679",
    "final_x": "3664528.65261",
    "final_y": "517063.695477",
    "longitude": "-90.12214247612597",
    "latitude": "29.916249820809334",
    "geocoded_column": {
      "latitude": "29.916249820809334",
      "longitude": "-90.12214247612597"
    }
  },
  {
    "service_request": "2023-989678",
    "request_type": "Trash/Recycling",
    "request_reason": "Repair Recycling Cart",
    "date_created": "2023-04-09T14:12:20.000",
    "date_modified": "2023-04-09T14:12:20.000",
    "request_status": "Pending",
    "responsible_agency": "Department of Sanitation",
    "final_address": "6315 Patton St",
    "address_councildis": "A",
    "status": "Pending",
    "rowid": "989678",
    "final_x": "3663096.91117",
    "final_y": "519201.378551",
    "longitude": "-90.1265905841598",
    "latitude": "29.922169321054106",
    "geocoded_column": {
      "latitude": "29.922169321054106",
      "longitude": "-90.1265905841598"
    }
  },
  {
    "service_request": "2023-989676",
    "request_type": "Abandoned Vehicles",
    "request_reason": "Abandoned/Junk Vehicles",
    "date_created": "2023-04-09T13:34:15.000",
    "date_modified": "2023-04-09T13:34:15.000",
    "request_status": "Pending",
    "responsible_agency": "Department of Public Works",
    "final_address": "2322 Chippewa St",
    "address_councildis": "B",
    "status": "Pending",
    "rowid": "989676",
    "final_x": "3679281.54107",
    "final_y": "520531.256632",
    "longitude": "-90.07545632807968",
    "latitude": "29.925347453601823",
    "geocoded_column": {
      "latitude": "29.925347453601823",
      "longitude": "-90.07545632807968"
    }
  },
  {
    "service_request": "2023-989675",
    "request_type": "Trash/Recycling",
    "request_reason": "MIssed Recycling Pick-Up",
    "date_created": "2023-04-09T13:27:44.000",
    "date_modified": "2023-04-09T13:27:45.000",
    "request_status": "Pending",
    "responsible_agency": "Department of Sanitation",
    "final_address": "2831 Audubon St",
    "address_councildis": "B",
    "status": "Assigned to Contractor",
    "contractor": "Richards Disposal",
    "rowid": "989675",
    "final_x": "3667694.17434",
    "final_y": "531295.870018",
    "longitude": "-90.11167184375363",
    "latitude": "29.955291355719048",
    "geocoded_column": {
      "latitude": "29.955291355719048",
      "longitude": "-90.11167184375363"
    }
  },
  {
    "service_request": "2023-989674",
    "request_type": "Trash/Recycling",
    "request_reason": "Order Recycling Cart",
    "date_created": "2023-04-09T12:46:30.000",
    "date_modified": "2023-04-09T12:46:30.000",
    "request_status": "Pending",
    "responsible_agency": "Department of Sanitation",
    "final_address": "901 Elysian Fields Ave",
    "address_councildis": "C",
    "status": "Pending",
    "rowid": "989674",
    "final_x": "3685153.95567",
    "final_y": "535620.322758",
    "longitude": "-90.05638817896592",
    "latitude": "29.96665871003181",
    "geocoded_column": {
      "latitude": "29.96665871003181",
      "longitude": "-90.05638817896592"
    }
  },
  {
    "service_request": "2023-989673",
    "request_type": "Traffic Signals/Signs/Striping/Streetlights",
    "request_reason": "Striping/Road Surface Markings",
    "date_created": "2023-04-09T12:38:27.000",
    "date_modified": "2023-04-09T12:38:27.000",
    "request_status": "Pending",
    "responsible_agency": "Department of Public Works",
    "final_address": "LOUISA ST & CHEF MENTEUR HWY & LOUISA DR",
    "address_councildis": "D",
    "status": "Pending",
    "rowid": "989673",
    "final_x": "3691328.1",
    "final_y": "549777.98",
    "longitude": "-90.03638428836813",
    "latitude": "30.00539654090171",
    "geocoded_column": {
      "latitude": "30.00539654090171",
      "longitude": "-90.03638428836813"
    }
  },
  {
    "service_request": "2023-989672",
    "request_type": "Trash/Recycling",
    "request_reason": "Replace Trash Cart",
    "date_created": "2023-04-09T12:27:54.000",
    "date_modified": "2023-04-09T12:27:54.000",
    "request_status": "Pending",
    "responsible_agency": "Department of Sanitation",
    "final_address": "326 S Norman C Francis Prkwy",
    "address_councildis": "B",
    "status": "Assigned to Contractor",
    "contractor": "Richards Disposal",
    "rowid": "989672",
    "final_x": "3672721.52283",
    "final_y": "535835.162375",
    "longitude": "-90.09564246539215",
    "latitude": "29.96762455321833",
    "geocoded_column": {
      "latitude": "29.96762455321833",
      "longitude": "-90.09564246539215"
    }
  },
  {
    "service_request": "2023-989671",
    "request_type": "Traffic Signals/Signs/Striping/Streetlights",
    "request_reason": "Street Light Outage/Malfunction",
    "date_created": "2023-04-09T11:42:12.000",
    "date_modified": "2023-04-09T11:42:12.000",
    "request_status": "Pending",
    "responsible_agency": "Department of Public Works",
    "final_address": "823 Delachaise St",
    "address_councildis": "B",
    "status": "Assigned to Contractor",
    "contractor": "Legacy Professional Services",
    "rowid": "989671",
    "final_x": "3675058.45211",
    "final_y": "518657.297655",
    "longitude": "-90.08885155921963",
    "latitude": "29.92032146891454",
    "geocoded_column": {
      "latitude": "29.92032146891454",
      "longitude": "-90.08885155921963"
    }
  },
  {
    "service_request": "2023-989670",
    "request_type": "Mayor's Request",
    "request_reason": "Requests to the Mayor",
    "date_created": "2023-04-09T11:16:55.000",
    "date_modified": "2023-04-09T11:16:55.000",
    "request_status": "Pending",
    "responsible_agency": "Executive Office of the Mayor",
    "final_address": "1820 Audubon St",
    "address_councildis": "A",
    "status": "Pending",
    "rowid": "989670",
    "final_x": "3665689.33082",
    "final_y": "528294.453376",
    "longitude": "-90.11810294338615",
    "latitude": "29.947097055853725",
    "geocoded_column": {
      "latitude": "29.947097055853725",
      "longitude": "-90.11810294338615"
    }
  },
  {
    "service_request": "2023-989669",
    "request_type": "Trash/Recycling",
    "request_reason": "Order Recycling Cart",
    "date_created": "2023-04-09T11:04:22.000",
    "date_modified": "2023-04-09T11:04:22.000",
    "request_status": "Pending",
    "responsible_agency": "Department of Sanitation",
    "final_address": "1914 Amelia St",
    "address_councildis": "B",
    "status": "Pending",
    "rowid": "989669",
    "final_x": "3672799.37723",
    "final_y": "522359.09273",
    "longitude": "-90.09585621148621",
    "latitude": "29.93056748940546",
    "geocoded_column": {
      "latitude": "29.93056748940546",
      "longitude": "-90.09585621148621"
    }
  },
  {
    "service_request": "2023-989668",
    "request_type": "Trash/Recycling",
    "request_reason": "Request a Large Item Pick Up",
    "date_created": "2023-04-09T10:33:42.000",
    "date_modified": "2023-04-09T10:33:43.000",
    "request_status": "Pending",
    "responsible_agency": "Department of Sanitation",
    "final_address": "10718 Hayne Blvd",
    "address_councildis": "E",
    "status": "Assigned to Contractor",
    "contractor": "Waste Pro",
    "rowid": "989668",
    "final_x": "3709039.41112",
    "final_y": "566631.971235",
    "longitude": "-89.97980192923237",
    "latitude": "30.051175282418487",
    "geocoded_column": {
      "latitude": "30.051175282418487",
      "longitude": "-89.97980192923237"
    }
  },
  {
    "service_request": "2023-989667",
    "request_type": "Trash/Recycling",
    "request_reason": "Illegal Dumping",
    "date_created": "2023-04-09T10:32:37.000",
    "date_modified": "2023-04-09T10:32:37.000",
    "request_status": "Pending",
    "responsible_agency": "Department of Sanitation",
    "final_address": "13200 Hayne Blvd",
    "address_councildis": "E",
    "status": "Pending",
    "rowid": "989667",
    "final_x": "3715676.16376",
    "final_y": "571360.763048",
    "longitude": "-89.95864627429889",
    "latitude": "30.063960277741643",
    "geocoded_column": {
      "latitude": "30.063960277741643",
      "longitude": "-89.95864627429889"
    }
  },
  {
    "service_request": "2023-989665",
    "request_type": "Trash/Recycling",
    "request_reason": "Start Trash Service",
    "date_created": "2023-04-09T10:03:56.000",
    "date_modified": "2023-04-09T10:03:57.000",
    "request_status": "Pending",
    "responsible_agency": "Department of Sanitation",
    "final_address": "6611 Canal Blvd",
    "address_councildis": "A",
    "status": "Assigned to Contractor",
    "contractor": "IV Waste",
    "rowid": "989665",
    "final_x": "3669026.46497",
    "final_y": "551502.241813",
    "longitude": "-90.10678195936926",
    "latitude": "30.0108128875537",
    "geocoded_column": {
      "latitude": "30.0108128875537",
      "longitude": "-90.10678195936926"
    }
  },
  {
    "service_request": "2023-989664",
    "request_type": "EMS",
    "request_reason": "EMS Complaint",
    "date_created": "2023-04-09T09:49:52.000",
    "date_modified": "2023-04-09T09:49:52.000",
    "request_status": "Pending",
    "responsible_agency": "Emergency Medical Services",
    "final_address": "1841 Gentilly Blvd",
    "address_councildis": "A",
    "status": "Pending",
    "rowid": "989664",
    "final_x": "3678739.7837",
    "final_y": "542696.410189",
    "longitude": "-90.07639896464114",
    "latitude": "29.986310497305812",
    "geocoded_column": {
      "latitude": "29.986310497305812",
      "longitude": "-90.07639896464114"
    }
  },
  {
    "service_request": "2023-989663",
    "request_type": "Trash/Recycling",
    "request_reason": "Order Recycling Cart",
    "date_created": "2023-04-09T09:14:16.000",
    "date_modified": "2023-04-09T09:14:16.000",
    "request_status": "Pending",
    "responsible_agency": "Department of Sanitation",
    "final_address": "4925 Laurel St",
    "address_councildis": "B",
    "status": "Pending",
    "rowid": "989663",
    "final_x": "3668762.98535",
    "final_y": "517930.168246",
    "longitude": "-90.10874796363831",
    "latitude": "29.918508598333798",
    "geocoded_column": {
      "latitude": "29.918508598333798",
      "longitude": "-90.10874796363831"
    }
  },
  {
    "service_request": "2023-989662",
    "request_type": "Trash/Recycling",
    "request_reason": "Order Trash Cart",
    "date_created": "2023-04-09T09:13:17.000",
    "date_modified": "2023-04-09T09:13:17.000",
    "request_status": "Pending",
    "responsible_agency": "Department of Sanitation",
    "final_address": "4925 Laurel St",
    "address_councildis": "B",
    "status": "Assigned to Contractor",
    "contractor": "Richards Disposal",
    "rowid": "989662",
    "final_x": "3668762.98535",
    "final_y": "517930.168246",
    "longitude": "-90.10874796363831",
    "latitude": "29.918508598333798",
    "geocoded_column": {
      "latitude": "29.918508598333798",
      "longitude": "-90.10874796363831"
    }
  },
  {
    "service_request": "2023-989661",
    "request_type": "Traffic Signals/Signs/Striping/Streetlights",
    "request_reason": "Street Name Sign Damaged or Missing",
    "date_created": "2023-04-09T09:03:18.000",
    "date_modified": "2023-04-09T09:03:18.000",
    "request_status": "Pending",
    "responsible_agency": "Department of Public Works",
    "status": "Pending",
    "rowid": "989661",
    "longitude": "0.0",
    "latitude": "0.0",
    "geocoded_column": {
      "latitude": "0.0",
      "longitude": "0.0"
    }
  },
  {
    "service_request": "2023-989660",
    "request_type": "Trash/Recycling",
    "request_reason": "Missed Trash Pick-Up",
    "date_created": "2023-04-09T08:46:36.000",
    "date_modified": "2023-04-09T08:46:36.000",
    "request_status": "Pending",
    "responsible_agency": "Department of Sanitation",
    "final_address": "2111 Danneel St",
    "address_councildis": "B",
    "status": "Assigned to Contractor",
    "contractor": "Richards Disposal",
    "rowid": "989660",
    "final_x": "3676863.2948",
    "final_y": "525181.321725",
    "longitude": "-90.08292979509278",
    "latitude": "29.938206388823982",
    "geocoded_column": {
      "latitude": "29.938206388823982",
      "longitude": "-90.08292979509278"
    }
  },
  {
    "service_request": "2023-989659",
    "request_type": "Abandoned Vehicles",
    "request_reason": "Vehicle Blocking Your Driveway",
    "date_created": "2023-04-09T08:34:34.000",
    "date_modified": "2023-04-09T08:34:34.000",
    "request_status": "Pending",
    "responsible_agency": "Department of Public Works",
    "final_address": "3328 Loyola Ave",
    "address_councildis": "B",
    "status": "Pending",
    "rowid": "989659",
    "final_x": "3673515.38849",
    "final_y": "523549.899067",
    "longitude": "-90.09355519267086",
    "latitude": "29.93382053938682",
    "geocoded_column": {
      "latitude": "29.93382053938682",
      "longitude": "-90.09355519267086"
    }
  },
  {
    "service_request": "2023-989658",
    "request_type": "Property Maintenance",
    "request_reason": "Property Maintenance",
    "date_created": "2023-04-09T08:32:54.000",
    "date_modified": "2023-04-09T08:32:54.000",
    "request_status": "Pending",
    "responsible_agency": "Department of Code Enforcement",
    "final_address": "2783 Wisteria St",
    "address_councildis": "D",
    "status": "Pending",
    "rowid": "989658",
    "final_x": "3688261.39043",
    "final_y": "548551.52597",
    "longitude": "-90.04611619753513",
    "latitude": "30.002119326301322",
    "geocoded_column": {
      "latitude": "30.002119326301322",
      "longitude": "-90.04611619753513"
    }
  },
  {
    "service_request": "2023-989657",
    "request_type": "Property Maintenance",
    "request_reason": "Property Maintenance",
    "date_created": "2023-04-09T08:29:22.000",
    "date_modified": "2023-04-09T08:29:22.000",
    "request_status": "Pending",
    "responsible_agency": "Department of Code Enforcement",
    "status": "Pending",
    "rowid": "989657",
    "longitude": "0.0",
    "latitude": "0.0",
    "geocoded_column": {
      "latitude": "0.0",
      "longitude": "0.0"
    }
  },
  {
    "service_request": "2023-989656",
    "request_type": "Abandoned Vehicles",
    "request_reason": "Vehicle Blocking Your Driveway",
    "date_created": "2023-04-09T08:24:43.000",
    "date_modified": "2023-04-09T08:24:43.000",
    "request_status": "Pending",
    "responsible_agency": "Department of Public Works",
    "final_address": "2137 Louisiana Ave",
    "address_councildis": "B",
    "status": "Pending",
    "rowid": "989656",
    "final_x": "3673418.88072",
    "final_y": "523504.846779",
    "longitude": "-90.09386140231399",
    "latitude": "29.93369953104816",
    "geocoded_column": {
      "latitude": "29.93369953104816",
      "longitude": "-90.09386140231399"
    }
  },
  {
    "service_request": "2023-989655",
    "request_type": "Trash/Recycling",
    "request_reason": "Request a Large Item Pick Up",
    "date_created": "2023-04-09T07:54:30.000",
    "date_modified": "2023-04-09T07:54:31.000",
    "request_status": "Pending",
    "responsible_agency": "Department of Sanitation",
    "final_address": "949 Navarre Ave, New Orleans, Louisiana, 70124",
    "status": "Assigned to Contractor",
    "rowid": "989655",
    "longitude": "0.0",
    "latitude": "0.0",
    "geocoded_column": {
      "latitude": "0.0",
      "longitude": "0.0"
    }
  },
  {
    "service_request": "2023-989654",
    "request_type": "Trash/Recycling",
    "request_reason": "Request a Large Item Pick Up",
    "date_created": "2023-04-09T07:42:24.000",
    "date_modified": "2023-04-09T07:42:25.000",
    "request_status": "Pending",
    "responsible_agency": "Department of Sanitation",
    "final_address": "1239 S Carrollton Ave",
    "address_councildis": "A",
    "status": "Assigned to Contractor",
    "contractor": "Richards Disposal",
    "rowid": "989654",
    "final_x": "3662288.7824",
    "final_y": "528483.84544",
    "longitude": "-90.12883351500743",
    "latitude": "29.947716551560887",
    "geocoded_column": {
      "latitude": "29.947716551560887",
      "longitude": "-90.12883351500743"
    }
  },
  {
    "service_request": "2023-989653",
    "request_type": "Traffic Signals/Signs/Striping/Streetlights",
    "request_reason": "Traffic Signal Malfunctioning/Damaged",
    "date_created": "2023-04-09T00:10:55.000",
    "date_modified": "2023-04-09T00:10:56.000",
    "request_status": "Pending",
    "responsible_agency": "Department of Public Works",
    "final_address": "CANAL ST & CONVENTION CENTER BLVD",
    "address_councildis": "B",
    "status": "Pending",
    "rowid": "989653",
    "final_x": "3682611.7",
    "final_y": "529527.28",
    "longitude": "-90.06462964670948",
    "latitude": "29.949982577545665",
    "geocoded_column": {
      "latitude": "29.949982577545665",
      "longitude": "-90.06462964670948"
    }
  },
  {
    "service_request": "2023-989652",
    "request_type": "Health Related Request",
    "request_reason": "Noise Ordinance Complaint",
    "date_created": "2023-04-09T00:10:42.000",
    "date_modified": "2023-04-09T00:10:42.000",
    "request_status": "Pending",
    "responsible_agency": "Health Department",
    "final_address": "600 N Broad St",
    "address_councildis": "D",
    "status": "Pending",
    "rowid": "989652",
    "final_x": "3676514.68328",
    "final_y": "536431.051079",
    "longitude": "-90.0836430411453",
    "latitude": "29.969149839828454",
    "geocoded_column": {
      "latitude": "29.969149839828454",
      "longitude": "-90.0836430411453"
    }
  },
  {
    "service_request": "2023-989650",
    "request_type": "Health Related Request",
    "request_reason": "Noise Ordinance Complaint",
    "date_created": "2023-04-08T23:44:15.000",
    "date_modified": "2023-04-08T23:44:15.000",
    "request_status": "Pending",
    "responsible_agency": "Health Department",
    "final_address": "1775 Joseph Guillaume Pl",
    "address_councildis": "C",
    "status": "Pending",
    "rowid": "989650",
    "final_x": "3683462.43785",
    "final_y": "536121.270855",
    "longitude": "-90.06171241725919",
    "latitude": "29.96808786850646",
    "geocoded_column": {
      "latitude": "29.96808786850646",
      "longitude": "-90.06171241725919"
    }
  },
  {
    "service_request": "2023-989649",
    "request_type": "Abandoned Vehicles",
    "request_reason": "Abandoned/Junk Vehicles",
    "date_created": "2023-04-08T22:50:07.000",
    "date_modified": "2023-04-08T22:50:07.000",
    "request_status": "Pending",
    "responsible_agency": "Department of Public Works",
    "final_address": "2126 Marais St",
    "address_councildis": "C",
    "status": "Pending",
    "rowid": "989649",
    "final_x": "3684778.44789",
    "final_y": "536615.262535",
    "longitude": "-90.05753904436688",
    "latitude": "29.969405950681146",
    "geocoded_column": {
      "latitude": "29.969405950681146",
      "longitude": "-90.05753904436688"
    }
  },
  {
    "service_request": "2023-989648",
    "request_type": "Health Related Request",
    "request_reason": "Noise Ordinance Complaint",
    "date_created": "2023-04-08T21:55:18.000",
    "date_modified": "2023-04-08T21:55:19.000",
    "request_status": "Pending",
    "responsible_agency": "Health Department",
    "final_address": "2426 Allen St",
    "address_councildis": "D",
    "status": "Pending",
    "rowid": "989648",
    "final_x": "3682344.17148",
    "final_y": "541180.836556",
    "longitude": "-90.06506708717679",
    "latitude": "29.982033992587013",
    "geocoded_column": {
      "latitude": "29.982033992587013",
      "longitude": "-90.06506708717679"
    }
  },
  {
    "service_request": "2023-989647",
    "request_type": "Property Maintenance",
    "request_reason": "Property Maintenance",
    "date_created": "2023-04-08T21:46:50.000",
    "date_modified": "2023-04-08T21:46:50.000",
    "request_status": "Pending",
    "responsible_agency": "Department of Code Enforcement",
    "final_address": "12 Versailles Blvd",
    "address_councildis": "A",
    "status": "Pending",
    "rowid": "989647",
    "final_x": "3666973.57786",
    "final_y": "529091.836352",
    "longitude": "-90.1140212894626",
    "latitude": "29.94925208690848",
    "geocoded_column": {
      "latitude": "29.94925208690848",
      "longitude": "-90.1140212894626"
    }
  },
  {
    "service_request": "2023-989646",
    "request_type": "Trash/Recycling",
    "request_reason": "Order Recycling Cart",
    "date_created": "2023-04-08T21:35:31.000",
    "date_modified": "2023-04-08T21:35:31.000",
    "request_status": "Pending",
    "responsible_agency": "Department of Sanitation",
    "final_address": "4610 Orleans Ave",
    "address_councildis": "A",
    "status": "Pending",
    "rowid": "989646",
    "final_x": "3670697.16481",
    "final_y": "541504.044556",
    "longitude": "-90.10184304558328",
    "latitude": "29.98327203278501",
    "geocoded_column": {
      "latitude": "29.98327203278501",
      "longitude": "-90.10184304558328"
    }
  },
  {
    "service_request": "2023-989645",
    "request_type": "Trash/Recycling",
    "request_reason": "Request a Large Item Pick Up",
    "date_created": "2023-04-08T21:15:34.000",
    "date_modified": "2023-04-08T21:15:35.000",
    "request_status": "Pending",
    "responsible_agency": "Department of Sanitation",
    "final_address": "13310 Granville St",
    "address_councildis": "E",
    "status": "Assigned to Contractor",
    "contractor": "Waste Pro",
    "rowid": "989645",
    "final_x": "3725212.33971",
    "final_y": "561997.226207",
    "longitude": "-89.92886493882328",
    "latitude": "30.037896442187023",
    "geocoded_column": {
      "latitude": "30.037896442187023",
      "longitude": "-89.92886493882328"
    }
  },
  {
    "service_request": "2023-989644",
    "request_type": "Traffic Signals/Signs/Striping/Streetlights",
    "request_reason": "Traffic Signal Malfunctioning/Damaged",
    "date_created": "2023-04-08T21:08:28.000",
    "date_modified": "2023-04-08T21:08:28.000",
    "request_status": "Pending",
    "responsible_agency": "Department of Public Works",
    "final_address": "CHEF MENTEUR HWY & I 510 N",
    "address_councildis": "E",
    "status": "Pending",
    "rowid": "989644",
    "final_x": "3721964.4",
    "final_y": "557972.78",
    "longitude": "-89.93928382991413",
    "latitude": "30.026939914988635",
    "geocoded_column": {
      "latitude": "30.026939914988635",
      "longitude": "-89.93928382991413"
    }
  },
  {
    "service_request": "2023-989643",
    "request_type": "Traffic Signals/Signs/Striping/Streetlights",
    "request_reason": "Street Light Outage/Malfunction",
    "date_created": "2023-04-08T21:06:19.000",
    "date_modified": "2023-04-08T21:06:20.000",
    "request_status": "Pending",
    "responsible_agency": "Department of Public Works",
    "final_address": "GENTILLY BLVD & ST BERNARD AVE",
    "address_councildis": "A",
    "status": "Assigned to Contractor",
    "contractor": "Legacy Professional Services",
    "rowid": "989643",
    "final_x": "3679197.4",
    "final_y": "543495.48",
    "longitude": "-90.07492581176469",
    "latitude": "29.988493849016464",
    "geocoded_column": {
      "latitude": "29.988493849016464",
      "longitude": "-90.07492581176469"
    }
  },
  {
    "service_request": "2023-989642",
    "request_type": "Traffic Signals/Signs/Striping/Streetlights",
    "request_reason": "Street Light Outage/Malfunction",
    "date_created": "2023-04-08T20:44:56.000",
    "date_modified": "2023-04-08T20:44:56.000",
    "request_status": "Pending",
    "responsible_agency": "Department of Public Works",
    "final_address": "6846 Marshal Foch St",
    "address_councildis": "A",
    "status": "Assigned to Contractor",
    "contractor": "Legacy Professional Services",
    "rowid": "989642",
    "final_x": "3670258.77678",
    "final_y": "552967.049431",
    "longitude": "-90.10283889578156",
    "latitude": "30.01480426274456",
    "geocoded_column": {
      "latitude": "30.01480426274456",
      "longitude": "-90.10283889578156"
    }
  },
  {
    "service_request": "2023-989641",
    "request_type": "Safety & Permits",
    "request_reason": "Licenses & Permits",
    "date_created": "2023-04-08T20:43:44.000",
    "date_modified": "2023-04-08T20:43:44.000",
    "request_status": "Pending",
    "responsible_agency": "Safety and Permits",
    "status": "Pending",
    "rowid": "989641",
    "longitude": "0.0",
    "latitude": "0.0",
    "geocoded_column": {
      "latitude": "0.0",
      "longitude": "0.0"
    }
  },
  {
    "service_request": "2023-989639",
    "request_type": "Parks & Parkways",
    "request_reason": "Request Tree Service (Right of Way/Public Property)",
    "date_created": "2023-04-08T20:32:22.000",
    "date_modified": "2023-04-08T20:32:22.000",
    "request_status": "Pending",
    "responsible_agency": "Department of Parks & Parkway",
    "final_address": "2721 Danbury Dr",
    "address_councildis": "C",
    "status": "Pending",
    "rowid": "989639",
    "final_x": "3703591.5226",
    "final_y": "520783.086969",
    "longitude": "-89.99870866149085",
    "latitude": "29.925283713642234",
    "geocoded_column": {
      "latitude": "29.925283713642234",
      "longitude": "-89.99870866149085"
    }
  },
  {
    "service_request": "2023-989638",
    "request_type": "Trash/Recycling",
    "request_reason": "Request a Large Item Pick Up",
    "date_created": "2023-04-08T20:26:09.000",
    "date_modified": "2023-04-08T20:26:10.000",
    "request_status": "Pending",
    "responsible_agency": "Department of Sanitation",
    "final_address": "5524 Hawthorne Pl",
    "address_councildis": "A",
    "status": "Assigned to Contractor",
    "contractor": "IV Waste",
    "rowid": "989638",
    "final_x": "3667722.81927",
    "final_y": "544490.092175",
    "longitude": "-90.11113700475914",
    "latitude": "29.99157020941061",
    "geocoded_column": {
      "latitude": "29.99157020941061",
      "longitude": "-90.11113700475914"
    }
  },
  {
    "service_request": "2023-989637",
    "request_type": "Abandoned Vehicles",
    "request_reason": "Abandoned/Junk Vehicles",
    "date_created": "2023-04-08T19:08:58.000",
    "date_modified": "2023-04-08T19:08:58.000",
    "request_status": "Pending",
    "responsible_agency": "Department of Public Works",
    "final_address": "702 N Tonti St",
    "address_councildis": "D",
    "status": "Pending",
    "rowid": "989637",
    "final_x": "3677734.59106",
    "final_y": "535951.713991",
    "longitude": "-90.07980704329276",
    "latitude": "29.96779518650213",
    "geocoded_column": {
      "latitude": "29.96779518650213",
      "longitude": "-90.07980704329276"
    }
  },
  {
    "service_request": "2023-989636",
    "request_type": "Trash/Recycling",
    "request_reason": "Replace Trash Cart",
    "date_created": "2023-04-08T19:08:33.000",
    "date_modified": "2023-04-08T19:08:34.000",
    "request_status": "Pending",
    "responsible_agency": "Department of Sanitation",
    "final_address": "3212 Dryades St Apt 2A",
    "address_councildis": "B",
    "status": "Assigned to Contractor",
    "contractor": "Richards Disposal",
    "rowid": "989636",
    "final_x": "3674281.6395",
    "final_y": "522708.791738",
    "longitude": "-90.09116495538224",
    "latitude": "29.93148494828964",
    "geocoded_column": {
      "latitude": "29.93148494828964",
      "longitude": "-90.09116495538224"
    }
  },
  {
    "service_request": "2023-989635",
    "request_type": "Trash/Recycling",
    "request_reason": "Replace Trash Cart",
    "date_created": "2023-04-08T18:27:34.000",
    "date_modified": "2023-04-08T18:27:34.000",
    "request_status": "Pending",
    "responsible_agency": "Department of Sanitation",
    "final_address": "2515 Milan St",
    "address_councildis": "B",
    "status": "Assigned to Contractor",
    "contractor": "Richards Disposal",
    "rowid": "989635",
    "final_x": "3671317.80635",
    "final_y": "524250.24582",
    "longitude": "-90.10046908645111",
    "latitude": "29.93581146401201",
    "geocoded_column": {
      "latitude": "29.93581146401201",
      "longitude": "-90.10046908645111"
    }
  },
  {
    "service_request": "2023-989634",
    "request_type": "Roads/Drainage",
    "request_reason": "Damaged Sidewalk",
    "date_created": "2023-04-08T17:55:45.000",
    "date_modified": "2023-04-08T17:55:45.000",
    "request_status": "Pending",
    "responsible_agency": "Department of Public Works",
    "final_address": "111 Bourbon St",
    "address_councildis": "C",
    "status": "Pending",
    "rowid": "989634",
    "final_x": "3680985.92226",
    "final_y": "531054.299202",
    "longitude": "-90.06970980977562",
    "latitude": "29.954230761821293",
    "geocoded_column": {
      "latitude": "29.954230761821293",
      "longitude": "-90.06970980977562"
    }
  },
  {
    "service_request": "2023-989633",
    "request_type": "Trash/Recycling",
    "request_reason": "Missed Trash Pick-Up",
    "date_created": "2023-04-08T17:53:47.000",
    "date_modified": "2023-04-08T17:53:48.000",
    "request_status": "Pending",
    "responsible_agency": "Department of Sanitation",
    "final_address": "7800 BLK Buffalo St",
    "address_councildis": "E",
    "status": "Assigned to Contractor",
    "contractor": "Waste Pro",
    "rowid": "989633",
    "final_x": "3719691.47429",
    "final_y": "573715.080048",
    "longitude": "-89.9458636229248",
    "latitude": "30.070300592445996",
    "geocoded_column": {
      "latitude": "30.070300592445996",
      "longitude": "-89.9458636229248"
    }
  },
  {
    "service_request": "2023-989632",
    "request_type": "Trash/Recycling",
    "request_reason": "Request a Large Item Pick Up",
    "date_created": "2023-04-08T17:38:59.000",
    "date_modified": "2023-04-08T17:39:00.000",
    "request_status": "Pending",
    "responsible_agency": "Department of Sanitation",
    "final_address": "1307 Marengo St",
    "address_councildis": "B",
    "status": "Assigned to Contractor",
    "contractor": "Richards Disposal",
    "rowid": "989632",
    "final_x": "3672071.18081",
    "final_y": "520257.117432",
    "longitude": "-90.09822655000916",
    "latitude": "29.924809336239925",
    "geocoded_column": {
      "latitude": "29.924809336239925",
      "longitude": "-90.09822655000916"
    }
  },
  {
    "service_request": "2023-989631",
    "request_type": "Roads/Drainage",
    "request_reason": "Catch Basin - Broken/Damage",
    "date_created": "2023-04-08T17:20:17.000",
    "date_modified": "2023-04-08T17:20:17.000",
    "request_status": "Pending",
    "responsible_agency": "Department of Public Works",
    "final_address": "939 Elysian Fields Ave",
    "address_councildis": "C",
    "status": "Pending",
    "rowid": "989631",
    "final_x": "3685121.99733",
    "final_y": "535882.615303",
    "longitude": "-90.05647987274602",
    "latitude": "29.967380902870318",
    "geocoded_column": {
      "latitude": "29.967380902870318",
      "longitude": "-90.05647987274602"
    }
  },
  {
    "service_request": "2023-989630",
    "request_type": "Trash/Recycling",
    "request_reason": "Repair Recycling Cart",
    "date_created": "2023-04-08T17:17:26.000",
    "date_modified": "2023-04-08T17:17:26.000",
    "request_status": "Pending",
    "responsible_agency": "Department of Sanitation",
    "final_address": "929 Elysian Fields Ave",
    "address_councildis": "C",
    "status": "Pending",
    "rowid": "989630",
    "final_x": "3685125.65647",
    "final_y": "535805.028551",
    "longitude": "-90.05647104751445",
    "latitude": "29.967167454083555",
    "geocoded_column": {
      "latitude": "29.967167454083555",
      "longitude": "-90.05647104751445"
    }
  },
  {
    "service_request": "2023-989629",
    "request_type": "Roads/Drainage",
    "request_reason": "Pothole",
    "date_created": "2023-04-08T16:39:34.000",
    "date_modified": "2023-04-08T16:39:34.000",
    "request_status": "Pending",
    "responsible_agency": "Department of Public Works",
    "final_address": "722 N Galvez St",
    "address_councildis": "D",
    "status": "Pending",
    "rowid": "989629",
    "final_x": "3678519.72187",
    "final_y": "535845.446407",
    "longitude": "-90.0773312554221",
    "latitude": "29.96747934626919",
    "geocoded_column": {
      "latitude": "29.96747934626919",
      "longitude": "-90.0773312554221"
    }
  },
  {
    "service_request": "2023-989628",
    "request_type": "Abandoned Vehicles",
    "request_reason": "Abandoned/Junk Vehicles",
    "date_created": "2023-04-08T16:37:04.000",
    "date_modified": "2023-04-08T16:37:04.000",
    "request_status": "Pending",
    "responsible_agency": "Department of Public Works",
    "final_address": "6435 Baccich St",
    "address_councildis": "D",
    "status": "Pending",
    "rowid": "989628",
    "final_x": "3687381.99951",
    "final_y": "557118.792282",
    "longitude": "-90.04859082970434",
    "latitude": "30.025703291003662",
    "geocoded_column": {
      "latitude": "30.025703291003662",
      "longitude": "-90.04859082970434"
    }
  },
  {
    "service_request": "2023-989627",
    "request_type": "Abandoned Vehicles",
    "request_reason": "Abandoned/Junk Vehicles",
    "date_created": "2023-04-08T16:37:04.000",
    "date_modified": "2023-04-08T16:37:04.000",
    "request_status": "Pending",
    "responsible_agency": "Department of Public Works",
    "final_address": "1432 Cabrini Ct, New Orleans, Louisiana, 70122",
    "address_councildis": "D",
    "status": "Pending",
    "rowid": "989627",
    "final_x": "3677967.02472",
    "final_y": "553007.329815",
    "longitude": "-90.07848314758607",
    "latitude": "30.014685159094594",
    "geocoded_column": {
      "latitude": "30.014685159094594",
      "longitude": "-90.07848314758607"
    }
  },
  {
    "service_request": "2023-989626",
    "request_type": "Trash/Recycling",
    "request_reason": "Replace Trash Cart",
    "date_created": "2023-04-08T16:14:20.000",
    "date_modified": "2023-04-08T16:14:21.000",
    "request_status": "Pending",
    "responsible_agency": "Department of Sanitation",
    "final_address": "4225 Laurel St",
    "address_councildis": "B",
    "status": "Assigned to Contractor",
    "contractor": "Richards Disposal",
    "rowid": "989626",
    "final_x": "3671660.22177",
    "final_y": "518144.854198",
    "longitude": "-90.09959560672687",
    "latitude": "29.91901345920342",
    "geocoded_column": {
      "latitude": "29.91901345920342",
      "longitude": "-90.09959560672687"
    }
  },
  {
    "service_request": "2023-989624",
    "request_type": "Trash/Recycling",
    "request_reason": "Replace Trash Cart",
    "date_created": "2023-04-08T15:32:27.000",
    "date_modified": "2023-04-08T15:32:27.000",
    "request_status": "Pending",
    "responsible_agency": "Department of Sanitation",
    "final_address": "8731 Grant St",
    "address_councildis": "E",
    "status": "Assigned to Contractor",
    "contractor": "Waste Pro",
    "rowid": "989624",
    "final_x": "3707861.32702",
    "final_y": "554502.563928",
    "longitude": "-89.9839768920327",
    "latitude": "30.017862413300456",
    "geocoded_column": {
      "latitude": "30.017862413300456",
      "longitude": "-89.9839768920327"
    }
  },
  {
    "service_request": "2023-989623",
    "request_type": "Abandoned Vehicles",
    "request_reason": "Abandoned/Junk Vehicles",
    "date_created": "2023-04-08T15:30:55.000",
    "date_modified": "2023-04-08T15:30:56.000",
    "request_status": "Pending",
    "responsible_agency": "Department of Public Works",
    "final_address": "3010 Baudin St",
    "address_councildis": "B",
    "status": "Pending",
    "rowid": "989623",
    "final_x": "3673268.12731",
    "final_y": "534626.311942",
    "longitude": "-90.09395756450276",
    "latitude": "29.964284375212095",
    "geocoded_column": {
      "latitude": "29.964284375212095",
      "longitude": "-90.09395756450276"
    }
  },
  {
    "service_request": "2023-989622",
    "request_type": "Trash/Recycling",
    "request_reason": "Request a Large Item Pick Up",
    "date_created": "2023-04-08T15:28:28.000",
    "date_modified": "2023-04-08T15:28:29.000",
    "request_status": "Pending",
    "responsible_agency": "Department of Sanitation",
    "final_address": "4525 Viola St",
    "address_councildis": "E",
    "status": "Assigned to Contractor",
    "contractor": "Waste Pro",
    "rowid": "989622",
    "final_x": "3704175.68113",
    "final_y": "553741.335575",
    "longitude": "-89.99565010011791",
    "latitude": "30.015888153672638",
    "geocoded_column": {
      "latitude": "30.015888153672638",
      "longitude": "-89.99565010011791"
    }
  },
  {
    "service_request": "2023-989621",
    "request_type": "Trash/Recycling",
    "request_reason": "Request a Large Item Pick Up",
    "date_created": "2023-04-08T15:27:18.000",
    "date_modified": "2023-04-08T15:27:19.000",
    "request_status": "Pending",
    "responsible_agency": "Department of Sanitation",
    "final_address": "1839 Pauger St",
    "address_councildis": "C",
    "status": "Assigned to Contractor",
    "contractor": "IV Waste",
    "rowid": "989621",
    "final_x": "3683880.3853",
    "final_y": "536517.809479",
    "longitude": "-90.06037861298866",
    "latitude": "29.969165452203427",
    "geocoded_column": {
      "latitude": "29.969165452203427",
      "longitude": "-90.06037861298866"
    }
  },
  {
    "service_request": "2023-989620",
    "request_type": "Trash/Recycling",
    "request_reason": "Request a Large Item Pick Up",
    "date_created": "2023-04-08T15:25:45.000",
    "date_modified": "2023-04-08T15:25:45.000",
    "request_status": "Pending",
    "responsible_agency": "Department of Sanitation",
    "final_address": "1837 Alvar St",
    "address_councildis": "D",
    "status": "Assigned to Contractor",
    "contractor": "IV Waste",
    "rowid": "989620",
    "final_x": "3692264.00835",
    "final_y": "538304.175241",
    "longitude": "-90.03383865025924",
    "latitude": "29.973818568110463",
    "geocoded_column": {
      "latitude": "29.973818568110463",
      "longitude": "-90.03383865025924"
    }
  },
  {
    "service_request": "2023-989619",
    "request_type": "Property Maintenance",
    "request_reason": "Property Maintenance",
    "date_created": "2023-04-08T15:23:50.000",
    "date_modified": "2023-04-08T15:23:50.000",
    "request_status": "Pending",
    "responsible_agency": "Department of Code Enforcement",
    "final_address": "13200 Hayne Blvd",
    "address_councildis": "E",
    "status": "Pending",
    "rowid": "989619",
    "final_x": "3715676.16376",
    "final_y": "571360.763048",
    "longitude": "-89.95864627429889",
    "latitude": "30.063960277741643",
    "geocoded_column": {
      "latitude": "30.063960277741643",
      "longitude": "-89.95864627429889"
    }
  },
  {
    "service_request": "2023-989618",
    "request_type": "Trash/Recycling",
    "request_reason": "Request a Large Item Pick Up",
    "date_created": "2023-04-08T15:20:47.000",
    "date_modified": "2023-04-08T15:20:48.000",
    "request_status": "Pending",
    "responsible_agency": "Department of Sanitation",
    "final_address": "2600 Danbury Dr ",
    "address_councildis": "C",
    "status": "Assigned to Contractor",
    "contractor": "Richards Disposal",
    "rowid": "989618",
    "final_x": "3703734.98314",
    "final_y": "521447.726393",
    "longitude": "-89.99823135940608",
    "latitude": "29.927106645835472",
    "geocoded_column": {
      "latitude": "29.927106645835472",
      "longitude": "-89.99823135940608"
    }
  },
  {
    "service_request": "2023-989616",
    "request_type": "Health Related Request",
    "request_reason": "Noise Ordinance Complaint",
    "date_created": "2023-04-08T15:05:10.000",
    "date_modified": "2023-04-08T15:05:10.000",
    "request_status": "Pending",
    "responsible_agency": "Health Department",
    "final_address": "1916 Magazine St, New Orleans, Louisiana, 70130",
    "address_councildis": "B",
    "status": "Pending",
    "rowid": "989616",
    "final_x": "3679668.99618",
    "final_y": "522674.240954",
    "longitude": "-90.0741589158219",
    "latitude": "29.93122825766833",
    "geocoded_column": {
      "latitude": "29.93122825766833",
      "longitude": "-90.0741589158219"
    }
  },
  {
    "service_request": "2023-989615",
    "request_type": "Trash/Recycling",
    "request_reason": "Missed Trash Pick-Up",
    "date_created": "2023-04-08T14:51:11.000",
    "date_modified": "2023-04-08T14:51:12.000",
    "request_status": "Pending",
    "responsible_agency": "Department of Sanitation",
    "final_address": "8720 Stroelitz St",
    "address_councildis": "A",
    "status": "Assigned to Contractor",
    "contractor": "Richards Disposal",
    "rowid": "989615",
    "final_x": "3666233.59207",
    "final_y": "536454.044807",
    "longitude": "-90.11611082177843",
    "latitude": "29.96951737595733",
    "geocoded_column": {
      "latitude": "29.96951737595733",
      "longitude": "-90.11611082177843"
    }
  },
  {
    "service_request": "2023-989614",
    "request_type": "Property Maintenance",
    "request_reason": "Property Maintenance",
    "date_created": "2023-04-08T14:22:46.000",
    "date_modified": "2023-04-08T14:22:46.000",
    "request_status": "Pending",
    "responsible_agency": "Department of Code Enforcement",
    "final_address": "11755 Chef Menteur Hwy",
    "address_councildis": "E",
    "status": "Pending",
    "rowid": "989614",
    "final_x": "3719151.64575",
    "final_y": "556962.103706",
    "longitude": "-89.94821035046573",
    "latitude": "30.024254753884783",
    "geocoded_column": {
      "latitude": "30.024254753884783",
      "longitude": "-89.94821035046573"
    }
  },
  {
    "service_request": "2023-989612",
    "request_type": "Trash/Recycling",
    "request_reason": "Request a Large Item Pick Up",
    "date_created": "2023-04-08T14:05:58.000",
    "date_modified": "2023-04-08T14:05:59.000",
    "request_status": "Pending",
    "responsible_agency": "Department of Sanitation",
    "status": "Assigned to Contractor",
    "rowid": "989612",
    "longitude": "0.0",
    "latitude": "0.0",
    "geocoded_column": {
      "latitude": "0.0",
      "longitude": "0.0"
    }
  },
  {
    "service_request": "2023-989611",
    "request_type": "Abandoned Vehicles",
    "request_reason": "Vehicle Blocking Your Driveway",
    "date_created": "2023-04-08T14:04:48.000",
    "date_modified": "2023-04-08T14:04:49.000",
    "request_status": "Pending",
    "responsible_agency": "Department of Public Works",
    "final_address": "SELMA ST & PEOPLES AVE",
    "address_councildis": "D",
    "status": "Pending",
    "rowid": "989611",
    "final_x": "3688102.2",
    "final_y": "551691.38",
    "longitude": "-90.04650770101738",
    "latitude": "30.010757694241292",
    "geocoded_column": {
      "latitude": "30.010757694241292",
      "longitude": "-90.04650770101738"
    }
  },
  {
    "service_request": "2023-989610",
    "request_type": "Property Maintenance",
    "request_reason": "Property Maintenance",
    "date_created": "2023-04-08T14:04:01.000",
    "date_modified": "2023-04-08T14:04:01.000",
    "request_status": "Pending",
    "responsible_agency": "Department of Code Enforcement",
    "status": "Pending",
    "rowid": "989610",
    "longitude": "0.0",
    "latitude": "0.0",
    "geocoded_column": {
      "latitude": "0.0",
      "longitude": "0.0"
    }
  },
  {
    "service_request": "2023-989609",
    "request_type": "Tax and Revenue",
    "request_reason": "Personal Property Tax Question",
    "date_created": "2023-04-08T14:02:28.000",
    "date_modified": "2023-04-08T14:02:28.000",
    "request_status": "Pending",
    "responsible_agency": "Bureau of Treasury",
    "final_address": "3012 Delachaise St",
    "address_councildis": "B",
    "status": "Pending",
    "rowid": "989609",
    "final_x": "3671786.21729",
    "final_y": "526248.82483",
    "longitude": "-90.09892232913019",
    "latitude": "29.941293041127032",
    "geocoded_column": {
      "latitude": "29.941293041127032",
      "longitude": "-90.09892232913019"
    }
  },
  {
    "service_request": "2023-989608",
    "request_type": "Trash/Recycling",
    "request_reason": "Replace Trash Cart",
    "date_created": "2023-04-08T14:00:32.000",
    "date_modified": "2023-04-08T14:00:33.000",
    "request_status": "Pending",
    "responsible_agency": "Department of Sanitation",
    "final_address": "302 Neil Ave",
    "address_councildis": "C",
    "status": "Assigned to Contractor",
    "contractor": "Richards Disposal",
    "rowid": "989608",
    "final_x": "3707130.81995",
    "final_y": "518808.856631",
    "longitude": "-89.98760950613516",
    "latitude": "29.91974144201791",
    "geocoded_column": {
      "latitude": "29.91974144201791",
      "longitude": "-89.98760950613516"
    }
  },
  {
    "service_request": "2023-989607",
    "request_type": "Trash/Recycling",
    "request_reason": "Dead Animal Pick Up",
    "date_created": "2023-04-08T13:56:05.000",
    "date_modified": "2023-04-08T13:56:05.000",
    "request_status": "Pending",
    "responsible_agency": "Department of Sanitation",
    "final_address": "7110 Hanover Rd",
    "address_councildis": "E",
    "status": "Assigned to Contractor",
    "contractor": "Waste Pro",
    "rowid": "989607",
    "final_x": "3709797.00229",
    "final_y": "562668.271456",
    "longitude": "-89.97755568870741",
    "latitude": "30.04025207168541",
    "geocoded_column": {
      "latitude": "30.04025207168541",
      "longitude": "-89.97755568870741"
    }
  },
  {
    "service_request": "2023-989606",
    "request_type": "Trash/Recycling",
    "request_reason": "Repair Trash Cart",
    "date_created": "2023-04-08T13:40:27.000",
    "date_modified": "2023-04-08T13:40:28.000",
    "request_status": "Pending",
    "responsible_agency": "Department of Sanitation",
    "final_address": "3950 Jennifer St",
    "address_councildis": "C",
    "status": "Assigned to Contractor",
    "contractor": "Richards Disposal",
    "rowid": "989606",
    "final_x": "3709633.58398",
    "final_y": "516082.511988",
    "longitude": "-89.97981123903466",
    "latitude": "29.91216388587492",
    "geocoded_column": {
      "latitude": "29.91216388587492",
      "longitude": "-89.97981123903466"
    }
  },
  {
    "service_request": "2023-989605",
    "request_type": "Property Maintenance",
    "request_reason": "Property Maintenance",
    "date_created": "2023-04-08T13:39:43.000",
    "date_modified": "2023-04-08T13:39:43.000",
    "request_status": "Pending",
    "responsible_agency": "Department of Code Enforcement",
    "final_address": "3036 Fern St",
    "address_councildis": "B",
    "status": "Pending",
    "rowid": "989605",
    "final_x": "3667057.37933",
    "final_y": "532861.239108",
    "longitude": "-90.11363000130208",
    "latitude": "29.959614260327633",
    "geocoded_column": {
      "latitude": "29.959614260327633",
      "longitude": "-90.11363000130208"
    }
  },
  {
    "service_request": "2023-989604",
    "request_type": "Trash/Recycling",
    "request_reason": "Replace Trash Cart",
    "date_created": "2023-04-08T13:38:35.000",
    "date_modified": "2023-04-08T13:38:36.000",
    "request_status": "Pending",
    "responsible_agency": "Department of Sanitation",
    "final_address": "3950 Jennifer St, New Orleans, Louisiana, 70131",
    "address_councildis": "C",
    "status": "Assigned to Contractor",
    "contractor": "Richards Disposal",
    "rowid": "989604",
    "final_x": "3709633.58398",
    "final_y": "516082.511988",
    "longitude": "-89.97981123903466",
    "latitude": "29.91216388587492",
    "geocoded_column": {
      "latitude": "29.91216388587492",
      "longitude": "-89.97981123903466"
    }
  },
  {
    "service_request": "2023-989603",
    "request_type": "Trash/Recycling",
    "request_reason": "Request a Large Item Pick Up",
    "date_created": "2023-04-08T13:35:08.000",
    "date_modified": "2023-04-08T13:35:09.000",
    "request_status": "Pending",
    "responsible_agency": "Department of Sanitation",
    "final_address": "724 Greenwood Dr, New Orleans, Louisiana, 70124",
    "status": "Assigned to Contractor",
    "rowid": "989603",
    "longitude": "0.0",
    "latitude": "0.0",
    "geocoded_column": {
      "latitude": "0.0",
      "longitude": "0.0"
    }
  },
  {
    "service_request": "2023-989602",
    "request_type": "Trash/Recycling",
    "request_reason": "Request a Large Item Pick Up",
    "date_created": "2023-04-08T13:31:22.000",
    "date_modified": "2023-04-08T13:31:23.000",
    "request_status": "Pending",
    "responsible_agency": "Department of Sanitation",
    "final_address": "1229 Governor Nicholls St",
    "address_councildis": "C",
    "status": "Assigned to Contractor",
    "contractor": "Richards Disposal",
    "rowid": "989602",
    "final_x": "3682014.20962",
    "final_y": "535274.299718",
    "longitude": "-90.06631555004992",
    "latitude": "29.965803102282084",
    "geocoded_column": {
      "latitude": "29.965803102282084",
      "longitude": "-90.06631555004992"
    }
  },
  {
    "service_request": "2023-989601",
    "request_type": "Traffic Signals/Signs/Striping/Streetlights",
    "request_reason": "Street Light Knocked Down/Leaning",
    "date_created": "2023-04-08T13:12:23.000",
    "date_modified": "2023-04-08T13:12:24.000",
    "request_status": "Pending",
    "responsible_agency": "Department of Public Works",
    "final_address": "1017 Allen Toussaint Blvd",
    "address_councildis": "D",
    "status": "Pending",
    "contractor": "Legacy Professional Services",
    "rowid": "989601",
    "final_x": "3672830.88526",
    "final_y": "554482.413848",
    "longitude": "-90.094660501015",
    "latitude": "30.018894774370303",
    "geocoded_column": {
      "latitude": "30.018894774370303",
      "longitude": "-90.094660501015"
    }
  },
  {
    "service_request": "2023-989600",
    "request_type": "Trash/Recycling",
    "request_reason": "Illegal Dumping",
    "date_created": "2023-04-08T13:00:51.000",
    "date_modified": "2023-04-08T13:00:51.000",
    "request_status": "Pending",
    "responsible_agency": "Department of Sanitation",
    "final_address": "1601 Rev. John Raphael, Jr. Way",
    "address_councildis": "B",
    "status": "Pending",
    "rowid": "989600",
    "final_x": "3676445.65435",
    "final_y": "526871.002238",
    "longitude": "-90.08419017182757",
    "latitude": "29.942864978986865",
    "geocoded_column": {
      "latitude": "29.942864978986865",
      "longitude": "-90.08419017182757"
    }
  },
  {
    "service_request": "2023-989599",
    "request_type": "Trash/Recycling",
    "request_reason": "Illegal Dumping",
    "date_created": "2023-04-08T12:58:25.000",
    "date_modified": "2023-04-08T12:58:25.000",
    "request_status": "Pending",
    "responsible_agency": "Department of Sanitation",
    "final_address": "2218 Felicity St",
    "address_councildis": "B",
    "status": "Pending",
    "rowid": "989599",
    "final_x": "3676528.37544",
    "final_y": "526471.37203",
    "longitude": "-90.08394275877643",
    "latitude": "29.941763647904185",
    "geocoded_column": {
      "latitude": "29.941763647904185",
      "longitude": "-90.08394275877643"
    }
  },
  {
    "service_request": "2023-989598",
    "request_type": "Trash/Recycling",
    "request_reason": "Illegal Dumping",
    "date_created": "2023-04-08T12:58:24.000",
    "date_modified": "2023-04-08T12:58:24.000",
    "request_status": "Pending",
    "responsible_agency": "Department of Sanitation",
    "final_address": "2218 Felicity St",
    "address_councildis": "B",
    "status": "Pending",
    "rowid": "989598",
    "final_x": "3676528.37544",
    "final_y": "526471.37203",
    "longitude": "-90.08394275877643",
    "latitude": "29.941763647904185",
    "geocoded_column": {
      "latitude": "29.941763647904185",
      "longitude": "-90.08394275877643"
    }
  },
  {
    "service_request": "2023-989597",
    "request_type": "Trash/Recycling",
    "request_reason": "Request a Large Item Pick Up",
    "date_created": "2023-04-08T12:51:35.000",
    "date_modified": "2023-04-08T12:51:35.000",
    "request_status": "Pending",
    "responsible_agency": "Department of Sanitation",
    "final_address": "2138 New Orleans St",
    "address_councildis": "D",
    "status": "Assigned to Contractor",
    "contractor": "IV Waste",
    "rowid": "989597",
    "final_x": "3682061.79285",
    "final_y": "540058.442251",
    "longitude": "-90.0659981830645",
    "latitude": "29.978956391397",
    "geocoded_column": {
      "latitude": "29.978956391397",
      "longitude": "-90.0659981830645"
    }
  },
  {
    "service_request": "2023-989596",
    "request_type": "Property Maintenance",
    "request_reason": "Property Maintenance",
    "date_created": "2023-04-08T12:48:09.000",
    "date_modified": "2023-04-08T12:48:09.000",
    "request_status": "Pending",
    "responsible_agency": "Department of Code Enforcement",
    "final_address": "1514 Rev. John Raphael, Jr. Way",
    "address_councildis": "B",
    "status": "Pending",
    "rowid": "989596",
    "final_x": "3676610.06984",
    "final_y": "526976.91891",
    "longitude": "-90.08366742515913",
    "latitude": "29.943151285368664",
    "geocoded_column": {
      "latitude": "29.943151285368664",
      "longitude": "-90.08366742515913"
    }
  },
  {
    "service_request": "2023-989595",
    "request_type": "Trash/Recycling",
    "request_reason": "Missed Trash Pick-Up",
    "date_created": "2023-04-08T12:44:43.000",
    "date_modified": "2023-04-08T12:44:44.000",
    "request_status": "Pending",
    "responsible_agency": "Department of Sanitation",
    "final_address": "11021 Dreux Ave",
    "address_councildis": "E",
    "status": "Assigned to Contractor",
    "contractor": "Waste Pro",
    "rowid": "989595",
    "final_x": "3716074.64063",
    "final_y": "556359.116954",
    "longitude": "-89.95795588000402",
    "latitude": "30.02269869503725",
    "geocoded_column": {
      "latitude": "30.02269869503725",
      "longitude": "-89.95795588000402"
    }
  },
  {
    "service_request": "2023-989594",
    "request_type": "Trash/Recycling",
    "request_reason": "Illegal Dumping",
    "date_created": "2023-04-08T12:42:29.000",
    "date_modified": "2023-04-08T12:42:29.000",
    "request_status": "Pending",
    "responsible_agency": "Department of Sanitation",
    "final_address": "2313 St Andrew St",
    "address_councildis": "B",
    "status": "Pending",
    "rowid": "989594",
    "final_x": "3676483.3755",
    "final_y": "526350.292926",
    "longitude": "-90.08408900063935",
    "latitude": "29.94143206937625",
    "geocoded_column": {
      "latitude": "29.94143206937625",
      "longitude": "-90.08408900063935"
    }
  },
  {
    "service_request": "2023-989593",
    "request_type": "Abandoned Vehicles",
    "request_reason": "Abandoned/Junk Vehicles",
    "date_created": "2023-04-08T12:41:20.000",
    "date_modified": "2023-04-08T12:41:20.000",
    "request_status": "Pending",
    "responsible_agency": "Department of Public Works",
    "final_address": "2541 Burgundy St",
    "address_councildis": "C",
    "status": "Pending",
    "rowid": "989593",
    "final_x": "3686876.24271",
    "final_y": "535762.369351",
    "longitude": "-90.05094420064852",
    "latitude": "29.96699640086907",
    "geocoded_column": {
      "latitude": "29.96699640086907",
      "longitude": "-90.05094420064852"
    }
  },
  {
    "service_request": "2023-989592",
    "request_type": "Property Maintenance",
    "request_reason": "Property Maintenance",
    "date_created": "2023-04-08T12:39:53.000",
    "date_modified": "2023-04-08T12:39:53.000",
    "request_status": "Pending",
    "responsible_agency": "Department of Code Enforcement",
    "final_address": "1809 S Liberty St",
    "address_councildis": "B",
    "status": "Pending",
    "rowid": "989592",
    "final_x": "3676578.91214",
    "final_y": "526333.45523",
    "longitude": "-90.08378795231235",
    "latitude": "29.941382906913656",
    "geocoded_column": {
      "latitude": "29.941382906913656",
      "longitude": "-90.08378795231235"
    }
  },
  {
    "service_request": "2023-989591",
    "request_type": "Abandoned Vehicles",
    "request_reason": "Abandoned/Junk Vehicles",
    "date_created": "2023-04-08T12:38:40.000",
    "date_modified": "2023-04-08T12:38:40.000",
    "request_status": "Pending",
    "responsible_agency": "Department of Public Works",
    "final_address": "2523 Burgundy St",
    "address_councildis": "C",
    "status": "Pending",
    "rowid": "989591",
    "final_x": "3686751.94543",
    "final_y": "535754.261127",
    "longitude": "-90.05133701751512",
    "latitude": "29.9669779305266",
    "geocoded_column": {
      "latitude": "29.9669779305266",
      "longitude": "-90.05133701751512"
    }
  },
  {
    "service_request": "2023-989590",
    "request_type": "Abandoned Vehicles",
    "request_reason": "Abandoned/Junk Vehicles",
    "date_created": "2023-04-08T12:36:39.000",
    "date_modified": "2023-04-08T12:36:39.000",
    "request_status": "Pending",
    "responsible_agency": "Department of Public Works",
    "final_address": "2505 Burgundy St",
    "address_councildis": "C",
    "status": "Pending",
    "rowid": "989590",
    "final_x": "3686620.79996",
    "final_y": "535740.766663",
    "longitude": "-90.05175165103758",
    "latitude": "29.966944859335655",
    "geocoded_column": {
      "latitude": "29.966944859335655",
      "longitude": "-90.05175165103758"
    }
  },
  {
    "service_request": "2023-989589",
    "request_type": "Property Maintenance",
    "request_reason": "Property Maintenance",
    "date_created": "2023-04-08T12:36:11.000",
    "date_modified": "2023-04-08T12:36:11.000",
    "request_status": "Pending",
    "responsible_agency": "Department of Code Enforcement",
    "final_address": "1613 S Liberty St",
    "address_councildis": "B",
    "status": "Pending",
    "rowid": "989589",
    "final_x": "3676694.19822",
    "final_y": "526587.614398",
    "longitude": "-90.08341521843158",
    "latitude": "29.942078303391234",
    "geocoded_column": {
      "latitude": "29.942078303391234",
      "longitude": "-90.08341521843158"
    }
  },
  {
    "service_request": "2023-989588",
    "request_type": "Abandoned Vehicles",
    "request_reason": "Abandoned/Junk Vehicles",
    "date_created": "2023-04-08T12:34:17.000",
    "date_modified": "2023-04-08T12:34:17.000",
    "request_status": "Pending",
    "responsible_agency": "Department of Public Works",
    "final_address": "2479 Burgundy St",
    "address_councildis": "C",
    "status": "Pending",
    "rowid": "989588",
    "final_x": "3686486.74914",
    "final_y": "535726.096775",
    "longitude": "-90.05217550086692",
    "latitude": "29.96690864415267",
    "geocoded_column": {
      "latitude": "29.96690864415267",
      "longitude": "-90.05217550086692"
    }
  },
  {
    "service_request": "2023-989587",
    "request_type": "Abandoned Vehicles",
    "request_reason": "Abandoned/Junk Vehicles",
    "date_created": "2023-04-08T12:32:14.000",
    "date_modified": "2023-04-08T12:32:14.000",
    "request_status": "Pending",
    "responsible_agency": "Department of Public Works",
    "final_address": "2461 Burgundy St",
    "address_councildis": "C",
    "status": "Pending",
    "rowid": "989587",
    "final_x": "3686356.6157",
    "final_y": "535720.174215",
    "longitude": "-90.05258667056614",
    "latitude": "29.966896359320224",
    "geocoded_column": {
      "latitude": "29.966896359320224",
      "longitude": "-90.05258667056614"
    }
  },
  {
    "service_request": "2023-989586",
    "request_type": "Property Maintenance",
    "request_reason": "Property Maintenance",
    "date_created": "2023-04-08T12:31:34.000",
    "date_modified": "2023-04-08T12:31:34.000",
    "request_status": "Pending",
    "responsible_agency": "Department of Code Enforcement",
    "final_address": "2215 Terpsichore St",
    "address_councildis": "B",
    "status": "Pending",
    "rowid": "989586",
    "final_x": "3676697.10625",
    "final_y": "526793.547006",
    "longitude": "-90.0833989447593",
    "latitude": "29.942644462854982",
    "geocoded_column": {
      "latitude": "29.942644462854982",
      "longitude": "-90.0833989447593"
    }
  },
  {
    "service_request": "2023-989585",
    "request_type": "Abandoned Vehicles",
    "request_reason": "Abandoned/Junk Vehicles",
    "date_created": "2023-04-08T12:29:57.000",
    "date_modified": "2023-04-08T12:29:57.000",
    "request_status": "Pending",
    "responsible_agency": "Department of Public Works",
    "final_address": "2462 Burgundy St",
    "address_councildis": "C",
    "status": "Pending",
    "rowid": "989585",
    "final_x": "3686356.13026",
    "final_y": "535661.11879",
    "longitude": "-90.05259028811939",
    "latitude": "29.96673399234638",
    "geocoded_column": {
      "latitude": "29.96673399234638",
      "longitude": "-90.05259028811939"
    }
  },
  {
    "service_request": "2023-989584",
    "request_type": "Property Maintenance",
    "request_reason": "Property Maintenance",
    "date_created": "2023-04-08T12:28:48.000",
    "date_modified": "2023-04-08T12:28:48.000",
    "request_status": "Pending",
    "responsible_agency": "Department of Code Enforcement",
    "final_address": "2304 Martin Luther King, Jr. Blvd",
    "address_councildis": "B",
    "status": "Pending",
    "rowid": "989584",
    "final_x": "3676863.86869",
    "final_y": "526923.345854",
    "longitude": "-90.08286796421419",
    "latitude": "29.942996363767403",
    "geocoded_column": {
      "latitude": "29.942996363767403",
      "longitude": "-90.08286796421419"
    }
  },
  {
    "service_request": "2023-989583",
    "request_type": "Trash/Recycling",
    "request_reason": "Order Trash Cart",
    "date_created": "2023-04-08T12:28:43.000",
    "date_modified": "2023-04-08T12:28:43.000",
    "request_status": "Pending",
    "responsible_agency": "Department of Sanitation",
    "final_address": "2618 Dauphine St",
    "address_councildis": "C",
    "status": "Assigned to Contractor",
    "contractor": "IV Waste",
    "rowid": "989583",
    "final_x": "3686974.44418",
    "final_y": "535258.431942",
    "longitude": "-90.05065189567226",
    "latitude": "29.965607725957625",
    "geocoded_column": {
      "latitude": "29.965607725957625",
      "longitude": "-90.05065189567226"
    }
  },
  {
    "service_request": "2023-989582",
    "request_type": "Abandoned Vehicles",
    "request_reason": "Abandoned/Junk Vehicles",
    "date_created": "2023-04-08T12:27:33.000",
    "date_modified": "2023-04-08T12:27:33.000",
    "request_status": "Pending",
    "responsible_agency": "Department of Public Works",
    "final_address": "2450 Burgundy St",
    "address_councildis": "C",
    "status": "Pending",
    "rowid": "989582",
    "final_x": "3686254.34185",
    "final_y": "535651.855878",
    "longitude": "-90.05291206165111",
    "latitude": "29.966711650508966",
    "geocoded_column": {
      "latitude": "29.966711650508966",
      "longitude": "-90.05291206165111"
    }
  },
  {
    "service_request": "2023-989581",
    "request_type": "Property Maintenance",
    "request_reason": "Property Maintenance",
    "date_created": "2023-04-08T12:27:05.000",
    "date_modified": "2023-04-08T12:27:05.000",
    "request_status": "Pending",
    "responsible_agency": "Department of Code Enforcement",
    "final_address": "2300 Martin Luther King, Jr. Blvd",
    "address_councildis": "B",
    "status": "Pending",
    "rowid": "989581",
    "final_x": "3676893.60219",
    "final_y": "526905.784766",
    "longitude": "-90.08277469333801",
    "latitude": "29.94294718432226",
    "geocoded_column": {
      "latitude": "29.94294718432226",
      "longitude": "-90.08277469333801"
    }
  },
  {
    "service_request": "2023-989580",
    "request_type": "Abandoned Vehicles",
    "request_reason": "Abandoned/Junk Vehicles",
    "date_created": "2023-04-08T12:25:28.000",
    "date_modified": "2023-04-08T12:25:28.000",
    "request_status": "Pending",
    "responsible_agency": "Department of Public Works",
    "final_address": "2450 Burgundy St",
    "address_councildis": "C",
    "status": "Pending",
    "rowid": "989580",
    "final_x": "3686254.34185",
    "final_y": "535651.855878",
    "longitude": "-90.05291206165111",
    "latitude": "29.966711650508966",
    "geocoded_column": {
      "latitude": "29.966711650508966",
      "longitude": "-90.05291206165111"
    }
  },
  {
    "service_request": "2023-989579",
    "request_type": "Abandoned Vehicles",
    "request_reason": "Abandoned/Junk Vehicles",
    "date_created": "2023-04-08T12:23:40.000",
    "date_modified": "2023-04-08T12:23:40.000",
    "request_status": "Pending",
    "responsible_agency": "Department of Public Works",
    "final_address": "2445 Burgundy St",
    "address_councildis": "C",
    "status": "Pending",
    "rowid": "989579",
    "final_x": "3686236.19145",
    "final_y": "535707.347271",
    "longitude": "-90.05296742224411",
    "latitude": "29.966864790237395",
    "geocoded_column": {
      "latitude": "29.966864790237395",
      "longitude": "-90.05296742224411"
    }
  },
  {
    "service_request": "2023-989578",
    "request_type": "Property Maintenance",
    "request_reason": "Property Maintenance",
    "date_created": "2023-04-08T12:22:38.000",
    "date_modified": "2023-04-08T12:22:38.000",
    "request_status": "Pending",
    "responsible_agency": "Department of Code Enforcement",
    "final_address": "1519 S Liberty St",
    "address_councildis": "B",
    "status": "Pending",
    "rowid": "989578",
    "final_x": "3676820.83227",
    "final_y": "526796.098622",
    "longitude": "-90.08300822465814",
    "latitude": "29.942647767261164",
    "geocoded_column": {
      "latitude": "29.942647767261164",
      "longitude": "-90.08300822465814"
    }
  },
  {
    "service_request": "2023-989577",
    "request_type": "Abandoned Vehicles",
    "request_reason": "Abandoned/Junk Vehicles",
    "date_created": "2023-04-08T12:21:14.000",
    "date_modified": "2023-04-08T12:21:14.000",
    "request_status": "Pending",
    "responsible_agency": "Department of Public Works",
    "final_address": "2435 Burgundy St",
    "address_councildis": "C",
    "status": "Pending",
    "rowid": "989577",
    "final_x": "3686126.95561",
    "final_y": "535697.803463",
    "longitude": "-90.05331272494924",
    "latitude": "29.966841903872748",
    "geocoded_column": {
      "latitude": "29.966841903872748",
      "longitude": "-90.05331272494924"
    }
  },
  {
    "service_request": "2023-989576",
    "request_type": "Abandoned Vehicles",
    "request_reason": "Abandoned/Junk Vehicles",
    "date_created": "2023-04-08T12:18:56.000",
    "date_modified": "2023-04-08T12:18:56.000",
    "request_status": "Pending",
    "responsible_agency": "Department of Public Works",
    "final_address": "2424 Burgundy St",
    "address_councildis": "C",
    "status": "Pending",
    "rowid": "989576",
    "final_x": "3686060.2607",
    "final_y": "535635.598918",
    "longitude": "-90.05352554105403",
    "latitude": "29.966672911440398",
    "geocoded_column": {
      "latitude": "29.966672911440398",
      "longitude": "-90.05352554105403"
    }
  },
  {
    "service_request": "2023-989575",
    "request_type": "Abandoned Vehicles",
    "request_reason": "Abandoned/Junk Vehicles",
    "date_created": "2023-04-08T12:16:38.000",
    "date_modified": "2023-04-08T12:16:38.000",
    "request_status": "Pending",
    "responsible_agency": "Department of Public Works",
    "final_address": "2329 Burgundy St",
    "address_councildis": "C",
    "status": "Pending",
    "rowid": "989575",
    "final_x": "3685721.22614",
    "final_y": "535682.506439",
    "longitude": "-90.0545945547506",
    "latitude": "29.966812298703633",
    "geocoded_column": {
      "latitude": "29.966812298703633",
      "longitude": "-90.0545945547506"
    }
  },
  {
    "service_request": "2023-989574",
    "request_type": "Abandoned Vehicles",
    "request_reason": "Abandoned/Junk Vehicles",
    "date_created": "2023-04-08T12:13:07.000",
    "date_modified": "2023-04-08T12:13:07.000",
    "request_status": "Pending",
    "responsible_agency": "Department of Public Works",
    "final_address": "729 Marigny St",
    "address_councildis": "C",
    "status": "Pending",
    "rowid": "989574",
    "final_x": "3685543.27004",
    "final_y": "535150.535686",
    "longitude": "-90.05517527825016",
    "latitude": "29.96535502301678",
    "geocoded_column": {
      "latitude": "29.96535502301678",
      "longitude": "-90.05517527825016"
    }
  },
  {
    "service_request": "2023-989573",
    "request_type": "Abandoned Vehicles",
    "request_reason": "Abandoned/Junk Vehicles",
    "date_created": "2023-04-08T12:10:18.000",
    "date_modified": "2023-04-08T12:10:18.000",
    "request_status": "Pending",
    "responsible_agency": "Department of Public Works",
    "status": "Pending",
    "rowid": "989573",
    "longitude": "0.0",
    "latitude": "0.0",
    "geocoded_column": {
      "latitude": "0.0",
      "longitude": "0.0"
    }
  },