[
  {
    "service_request": "2022-865806",
    "request_type": "Trash/Recycling",
    "request_reason": "Request a Large Item Pick Up",
    "date_created": "2022-03-10T01:09:10.000",
    "date_modified": "2022-03-10T01:09:11.000",
    "request_status": "Pending",
    "responsible_agency": "Department of Sanitation",
    "final_address": "5173 Painters St",
    "address_councildis": "D",
    "status": "Assigned to Contractor",
    "contractor": "Metro Disposal",
    "rowid": "865806",
    "final_x": "3686171.3142",
    "final_y": "552038.585494",
    "longitude": "-90.0525958472252",
    "latitude": "30.011771865946262",
    "geocoded_column": {
      "latitude": "30.011771865946262",
      "longitude": "-90.0525958472252"
    }
  },
  {
    "service_request": "2022-865805",
    "request_type": "Traffic Signals/Signs/Striping/Streetlights",
    "request_reason": "Traffic Signal Malfunctioning/Damaged",
    "date_created": "2022-03-10T00:08:00.000",
    "date_modified": "2022-03-10T00:08:00.000",
    "request_status": "Pending",
    "responsible_agency": "Department of Public Works",
    "final_address": "S CLAIBORNE AVE & TULANE AVE",
    "address_councildis": "B",
    "status": "Pending",
    "rowid": "865805",
    "final_x": "3677861.38",
    "final_y": "531973.19",
    "longitude": "-90.07954411965169",
    "latitude": "29.95685177850218",
    "geocoded_column": {
      "latitude": "29.95685177850218",
      "longitude": "-90.07954411965169"
    }
  },
  {
    "service_request": "2022-865804",
    "request_type": "Abandoned Vehicles",
    "request_reason": "Vehicle Blocking Your Driveway",
    "date_created": "2022-03-09T22:45:12.000",
    "date_modified": "2022-03-09T22:45:12.000",
    "request_status": "Pending",
    "responsible_agency": "Department of Public Works",
    "final_address": "547 Baronne St",
    "address_councildis": "B",
    "status": "Pending",
    "rowid": "865804",
    "final_x": "3679801.53653",
    "final_y": "529192.781888",
    "longitude": "-90.07351425149481",
    "latitude": "29.9491480761366",
    "geocoded_column": {
      "latitude": "29.9491480761366",
      "longitude": "-90.07351425149481"
    }
  },
  {
    "service_request": "2022-865803",
    "request_type": "Traffic Signals/Signs/Striping/Streetlights",
    "request_reason": "Traffic Signal Malfunctioning/Damaged",
    "date_created": "2022-03-09T22:01:17.000",
    "date_modified": "2022-03-09T22:01:17.000",
    "request_status": "Pending",
    "responsible_agency": "Department of Public Works",
    "final_address": "CLEVELAND AVE & S CLAIBORNE AVE",
    "address_councildis": "B",
    "status": "Pending",
    "rowid": "865803",
    "final_x": "3678195.7",
    "final_y": "532412.38",
    "longitude": "-90.0784732551096",
    "latitude": "29.958049340020203",
    "geocoded_column": {
      "latitude": "29.958049340020203",
      "longitude": "-90.0784732551096"
    }
  },
  {
    "service_request": "2022-865802",
    "request_type": "Traffic Signals/Signs/Striping/Streetlights",
    "request_reason": "Traffic Sign Missing/Damaged",
    "date_created": "2022-03-09T21:47:34.000",
    "date_modified": "2022-03-09T21:47:34.000",
    "request_status": "Pending",
    "responsible_agency": "Department of Public Works",
    "final_address": "7837 Plum St",
    "address_councildis": "A",
    "status": "Pending",
    "rowid": "865802",
    "final_x": "3662860.9257",
    "final_y": "528080.388671",
    "longitude": "-90.12704043537094",
    "latitude": "29.946590624994997",
    "geocoded_column": {
      "latitude": "29.946590624994997",
      "longitude": "-90.12704043537094"
    }
  },
  {
    "service_request": "2022-865801",
    "request_type": "Abandoned Vehicles",
    "request_reason": "Abandoned/Junk Vehicles",
    "date_created": "2022-03-09T21:02:12.000",
    "date_modified": "2022-03-09T21:02:12.000",
    "request_status": "Pending",
    "responsible_agency": "Department of Public Works",
    "final_address": "1631 Second St",
    "address_councildis": "B",
    "status": "Pending",
    "rowid": "865801",
    "final_x": "3676552.69006",
    "final_y": "523322.062011",
    "longitude": "-90.08397440548256",
    "latitude": "29.93310334989885",
    "geocoded_column": {
      "latitude": "29.93310334989885",
      "longitude": "-90.08397440548256"
    }
  },
  {
    "service_request": "2022-865800",
    "request_type": "Traffic Signals/Signs/Striping/Streetlights",
    "request_reason": "Traffic Signal Malfunctioning/Damaged",
    "date_created": "2022-03-09T20:11:27.000",
    "date_modified": "2022-03-09T20:14:15.000",
    "request_status": "Pending",
    "responsible_agency": "Department of Public Works",
    "final_address": "NAPOLEON AVE & MAGNOLIA ST",
    "address_councildis": "B",
    "status": "Pending",
    "rowid": "865800",
    "final_x": "3670505.2",
    "final_y": "524746.48",
    "longitude": "-90.10301768416616",
    "latitude": "29.937199963751222",
    "geocoded_column": {
      "latitude": "29.937199963751222",
      "longitude": "-90.10301768416616"
    }
  },
  {
    "service_request": "2022-865799",
    "request_type": "Property Maintenance",
    "request_reason": "Property Maintenance",
    "date_created": "2022-03-09T20:02:46.000",
    "date_modified": "2022-03-09T20:02:47.000",
    "request_status": "Pending",
    "responsible_agency": "Department of Code Enforcement",
    "final_address": "3400 Louisa St",
    "address_councildis": "D",
    "status": "Pending",
    "rowid": "865799",
    "final_x": "3691764.61628",
    "final_y": "544971.709455",
    "longitude": "-90.03517726735387",
    "latitude": "29.99216745930264",
    "geocoded_column": {
      "latitude": "29.99216745930264",
      "longitude": "-90.03517726735387"
    }
  },
  {
    "service_request": "2022-865798",
    "request_type": "Trash/Recycling",
    "request_reason": "Replace Trash Cart",
    "date_created": "2022-03-09T19:40:13.000",
    "date_modified": "2022-03-09T19:40:14.000",
    "request_status": "Pending",
    "responsible_agency": "Department of Sanitation",
    "final_address": "37 Versailles Blvd",
    "address_councildis": "A",
    "status": "Assigned to Contractor",
    "contractor": "Richards Disposal",
    "rowid": "865798",
    "final_x": "3667437.72186",
    "final_y": "529516.114561",
    "longitude": "-90.112541503764",
    "latitude": "29.950405125027203",
    "geocoded_column": {
      "latitude": "29.950405125027203",
      "longitude": "-90.112541503764"
    }
  },
  {
    "service_request": "2022-865796",
    "request_type": "Property Maintenance",
    "request_reason": "Property Maintenance",
    "date_created": "2022-03-09T19:34:29.000",
    "date_modified": "2022-03-09T19:34:29.000",
    "request_status": "Pending",
    "responsible_agency": "Department of Code Enforcement",
    "final_address": "2700 Louisa St",
    "address_councildis": "D",
    "status": "Pending",
    "rowid": "865796",
    "final_x": "3691093.65052",
    "final_y": "542289.438733",
    "longitude": "-90.03739253315334",
    "latitude": "29.98481306583817",
    "geocoded_column": {
      "latitude": "29.98481306583817",
      "longitude": "-90.03739253315334"
    }
  },
  {
    "service_request": "2022-865795",
    "request_type": "Property Maintenance",
    "request_reason": "Property Maintenance",
    "date_created": "2022-03-09T19:25:43.000",
    "date_modified": "2022-03-09T19:25:44.000",
    "request_status": "Pending",
    "responsible_agency": "Department of Code Enforcement",
    "final_address": "3723 Metropolitan St",
    "address_councildis": "D",
    "status": "Pending",
    "rowid": "865795",
    "final_x": "3691664.99331",
    "final_y": "546429.701841",
    "longitude": "-90.0354397887325",
    "latitude": "29.99617951191788",
    "geocoded_column": {
      "latitude": "29.99617951191788",
      "longitude": "-90.0354397887325"
    }
  },
  {
    "service_request": "2022-865794",
    "request_type": "Abandoned Vehicles",
    "request_reason": "Abandoned/Junk Vehicles",
    "date_created": "2022-03-09T19:15:22.000",
    "date_modified": "2022-03-09T19:15:22.000",
    "request_status": "Pending",
    "responsible_agency": "Department of Public Works",
    "final_address": "427 Leboeuf St",
    "address_councildis": "C",
    "status": "Pending",
    "rowid": "865794",
    "final_x": "3689790.86364",
    "final_y": "530029.864769",
    "longitude": "-90.0419438742041",
    "latitude": "29.95114399069553",
    "geocoded_column": {
      "latitude": "29.95114399069553",
      "longitude": "-90.0419438742041"
    }
  },
  {
    "service_request": "2022-865793",
    "request_type": "Trash/Recycling",
    "request_reason": "Missed Trash Pick-Up",
    "date_created": "2022-03-09T19:11:58.000",
    "date_modified": "2022-03-09T19:11:59.000",
    "request_status": "Pending",
    "responsible_agency": "Department of Sanitation",
    "final_address": "4514 Werner Dr",
    "address_councildis": "E",
    "status": "Assigned to Contractor",
    "contractor": "Metro Disposal",
    "rowid": "865793",
    "final_x": "3704832.87838",
    "final_y": "553821.121303",
    "longitude": "-89.99357072040763",
    "latitude": "30.016086421460653",
    "geocoded_column": {
      "latitude": "30.016086421460653",
      "longitude": "-89.99357072040763"
    }
  },
  {
    "service_request": "2022-865792",
    "request_type": "Property Maintenance",
    "request_reason": "Property Maintenance",
    "date_created": "2022-03-09T19:04:24.000",
    "date_modified": "2022-03-09T19:04:24.000",
    "request_status": "Pending",
    "responsible_agency": "Department of Code Enforcement",
    "final_address": "3868 Metropolitan St",
    "address_councildis": "D",
    "status": "Pending",
    "rowid": "865792",
    "final_x": "3691493.48585",
    "final_y": "547463.928081",
    "longitude": "-90.03594457495905",
    "latitude": "29.99902859768503",
    "geocoded_column": {
      "latitude": "29.99902859768503",
      "longitude": "-90.03594457495905"
    }
  },
  {
    "service_request": "2022-865791",
    "request_type": "Trash/Recycling",
    "request_reason": "Replace Trash Cart",
    "date_created": "2022-03-09T18:51:44.000",
    "date_modified": "2022-03-09T18:51:44.000",
    "request_status": "Pending",
    "responsible_agency": "Department of Sanitation",
    "final_address": "2000 Comet St",
    "address_councildis": "C",
    "status": "Assigned to Contractor",
    "contractor": "Richards Disposal",
    "rowid": "865791",
    "final_x": "3700289.01444",
    "final_y": "523702.312635",
    "longitude": "-90.0090270655971",
    "latitude": "29.933415931844596",
    "geocoded_column": {
      "latitude": "29.933415931844596",
      "longitude": "-90.0090270655971"
    }
  },
  {
    "service_request": "2022-865790",
    "request_type": "Abandoned Vehicles",
    "request_reason": "Abandoned/Junk Vehicles",
    "date_created": "2022-03-09T18:49:02.000",
    "date_modified": "2022-03-09T18:49:02.000",
    "request_status": "Pending",
    "responsible_agency": "Department of Public Works",
    "final_address": "714 S Gayoso St",
    "address_councildis": "B",
    "status": "Pending",
    "rowid": "865790",
    "final_x": "3672810.91118",
    "final_y": "533779.418437",
    "longitude": "-90.09543031131383",
    "latitude": "29.961969291868236",
    "geocoded_column": {
      "latitude": "29.961969291868236",
      "longitude": "-90.09543031131383"
    }
  },
  {
    "service_request": "2022-865789",
    "request_type": "Abandoned Vehicles",
    "request_reason": "Abandoned/Junk Vehicles",
    "date_created": "2022-03-09T18:28:31.000",
    "date_modified": "2022-03-09T18:28:31.000",
    "request_status": "Pending",
    "responsible_agency": "Department of Public Works",
    "final_address": "7837 Buffalo St",
    "address_councildis": "E",
    "status": "Pending",
    "rowid": "865789",
    "final_x": "3719717.69644",
    "final_y": "573801.458218",
    "longitude": "-89.94577742185285",
    "latitude": "30.070537222866275",
    "geocoded_column": {
      "latitude": "30.070537222866275",
      "longitude": "-89.94577742185285"
    }
  },
  {
    "service_request": "2022-865788",
    "request_type": "Abandoned Vehicles",
    "request_reason": "Abandoned/Junk Vehicles",
    "date_created": "2022-03-09T18:26:21.000",
    "date_modified": "2022-03-09T18:26:21.000",
    "request_status": "Pending",
    "responsible_agency": "Department of Public Works",
    "final_address": "7837 Buffalo St",
    "address_councildis": "E",
    "status": "Pending",
    "rowid": "865788",
    "final_x": "3719717.69644",
    "final_y": "573801.458218",
    "longitude": "-89.94577742185285",
    "latitude": "30.070537222866275",
    "geocoded_column": {
      "latitude": "30.070537222866275",
      "longitude": "-89.94577742185285"
    }
  },
  {
    "service_request": "2022-865786",
    "request_type": "Trash/Recycling",
    "request_reason": "MIssed Recycling Pick-Up",
    "date_created": "2022-03-09T17:56:36.000",
    "date_modified": "2022-03-09T17:56:36.000",
    "request_status": "Pending",
    "responsible_agency": "Department of Sanitation",
    "final_address": "219 N Tonti St",
    "address_councildis": "B",
    "status": "Assigned to Contractor",
    "contractor": "Richards Disposal",
    "rowid": "865786",
    "final_x": "3676708.91105",
    "final_y": "534839.579974",
    "longitude": "-90.08308449486326",
    "latitude": "29.96476800860436",
    "geocoded_column": {
      "latitude": "29.96476800860436",
      "longitude": "-90.08308449486326"
    }
  },
  {
    "service_request": "2022-865784",
    "request_type": "Trash/Recycling",
    "request_reason": "Request a Large Item Pick Up",
    "date_created": "2022-03-09T17:39:46.000",
    "date_modified": "2022-03-09T17:39:46.000",
    "request_status": "Pending",
    "responsible_agency": "Department of Sanitation",
    "final_address": "7022 Wuerpel St",
    "address_councildis": "A",
    "status": "Assigned to Contractor",
    "contractor": "Metro Disposal",
    "rowid": "865784",
    "final_x": "3667315.93978",
    "final_y": "554370.729368",
    "longitude": "-90.11208960603747",
    "latitude": "30.018750455080134",
    "geocoded_column": {
      "latitude": "30.018750455080134",
      "longitude": "-90.11208960603747"
    }
  },
  {
    "service_request": "2022-865783",
    "request_type": "Trash/Recycling",
    "request_reason": "Missed Trash Pick-Up",
    "date_created": "2022-03-09T17:34:04.000",
    "date_modified": "2022-03-09T17:34:06.000",
    "request_status": "Pending",
    "responsible_agency": "Department of Sanitation",
    "final_address": "1461 Annunciation St Unit B",
    "address_councildis": "B",
    "status": "Assigned to Contractor",
    "contractor": "Richards Disposal",
    "rowid": "865783",
    "final_x": "3680958.85115",
    "final_y": "523842.661435",
    "longitude": "-90.07004634441836",
    "latitude": "29.93440199046448",
    "geocoded_column": {
      "latitude": "29.93440199046448",
      "longitude": "-90.07004634441836"
    }
  },
  {
    "service_request": "2022-865781",
    "request_type": "Trash/Recycling",
    "request_reason": "Illegal Dumping",
    "date_created": "2022-03-09T17:23:27.000",
    "date_modified": "2022-03-09T17:23:27.000",
    "request_status": "Pending",
    "responsible_agency": "Department of Sanitation",
    "final_address": "POYDRAS ST & S CLAIBORNE AV OVERPASS",
    "address_councildis": "B",
    "status": "Pending",
    "rowid": "865781",
    "final_x": "3676840.0",
    "final_y": "530788.08",
    "longitude": "-90.08281015689269",
    "latitude": "29.95362381394783",
    "geocoded_column": {
      "latitude": "29.95362381394783",
      "longitude": "-90.08281015689269"
    }
  },
  {
    "service_request": "2022-865780",
    "request_type": "Property Maintenance",
    "request_reason": "Property Maintenance",
    "date_created": "2022-03-09T17:18:28.000",
    "date_modified": "2022-03-09T17:18:28.000",
    "request_status": "Pending",
    "responsible_agency": "Department of Code Enforcement",
    "final_address": "2000 St Andrew St",
    "address_councildis": "B",
    "status": "Pending",
    "rowid": "865780",
    "final_x": "3677183.76661",
    "final_y": "525426.221181",
    "longitude": "-90.08190959104485",
    "latitude": "29.93887016179482",
    "geocoded_column": {
      "latitude": "29.93887016179482",
      "longitude": "-90.08190959104485"
    }
  },
  {
    "service_request": "2022-865779",
    "request_type": "Trash/Recycling",
    "request_reason": "Illegal Dumping",
    "date_created": "2022-03-09T17:17:03.000",
    "date_modified": "2022-03-09T17:17:03.000",
    "request_status": "Pending",
    "responsible_agency": "Department of Sanitation",
    "final_address": "2011 St Andrew St",
    "address_councildis": "B",
    "status": "Pending",
    "rowid": "865779",
    "final_x": "3677074.74325",
    "final_y": "525651.199037",
    "longitude": "-90.08224603522518",
    "latitude": "29.939492050384665",
    "geocoded_column": {
      "latitude": "29.939492050384665",
      "longitude": "-90.08224603522518"
    }
  },
  {
    "service_request": "2022-865778",
    "request_type": "Trash/Recycling",
    "request_reason": "Illegal Dumping",
    "date_created": "2022-03-09T17:15:43.000",
    "date_modified": "2022-03-09T17:15:43.000",
    "request_status": "Pending",
    "responsible_agency": "Department of Sanitation",
    "final_address": "2130 St Andrew St",
    "address_councildis": "B",
    "status": "Pending",
    "rowid": "865778",
    "final_x": "3676842.39137",
    "final_y": "525825.984125",
    "longitude": "-90.08297358012769",
    "latitude": "29.93997962551702",
    "geocoded_column": {
      "latitude": "29.93997962551702",
      "longitude": "-90.08297358012769"
    }
  },
  {
    "service_request": "2022-865777",
    "request_type": "Abandoned Vehicles",
    "request_reason": "Abandoned/Junk Vehicles",
    "date_created": "2022-03-09T17:11:26.000",
    "date_modified": "2022-03-09T17:11:26.000",
    "request_status": "Pending",
    "responsible_agency": "Department of Public Works",
    "final_address": "3323 Palmyra St",
    "address_councildis": "B",
    "status": "Pending",
    "rowid": "865777",
    "final_x": "3672983.72616",
    "final_y": "536004.510791",
    "longitude": "-90.09480863885169",
    "latitude": "29.968082414087743",
    "geocoded_column": {
      "latitude": "29.968082414087743",
      "longitude": "-90.09480863885169"
    }
  },
  {
    "service_request": "2022-865776",
    "request_type": "Trash/Recycling",
    "request_reason": "Illegal Dumping",
    "date_created": "2022-03-09T17:11:12.000",
    "date_modified": "2022-03-09T17:11:13.000",
    "request_status": "Pending",
    "responsible_agency": "Department of Sanitation",
    "final_address": "BAUDIN ST & S DUPRE ST",
    "address_councildis": "B",
    "status": "Pending",
    "rowid": "865776",
    "final_x": "3673644.1",
    "final_y": "534387.38",
    "longitude": "-90.09277844055548",
    "latitude": "29.963616205391816",
    "geocoded_column": {
      "latitude": "29.963616205391816",
      "longitude": "-90.09277844055548"
    }
  },
  {
    "service_request": "2022-865775",
    "request_type": "Trash/Recycling",
    "request_reason": "Repair Trash Cart",
    "date_created": "2022-03-09T16:59:39.000",
    "date_modified": "2022-03-09T16:59:55.000",
    "request_status": "Pending",
    "responsible_agency": "Department of Sanitation",
    "final_address": "6223 Rhodes Ave",
    "address_councildis": "C",
    "status": "Assigned to Contractor",
    "contractor": "Richards Disposal",
    "rowid": "865775",
    "final_x": "3707152.36804",
    "final_y": "519335.079735",
    "longitude": "-89.98752198095922",
    "latitude": "29.921187676389614",
    "geocoded_column": {
      "latitude": "29.921187676389614",
      "longitude": "-89.98752198095922"
    }
  },
  {
    "service_request": "2022-865773",
    "request_type": "Property Maintenance",
    "request_reason": "Property Maintenance",
    "date_created": "2022-03-09T16:50:14.000",
    "date_modified": "2022-03-09T16:50:14.000",
    "request_status": "Pending",
    "responsible_agency": "Department of Code Enforcement",
    "final_address": "2014 Desire St",
    "address_councildis": "D",
    "status": "Pending",
    "rowid": "865773",
    "final_x": "3691001.01744",
    "final_y": "539199.917514",
    "longitude": "-90.03779545331803",
    "latitude": "29.97632086587864",
    "geocoded_column": {
      "latitude": "29.97632086587864",
      "longitude": "-90.03779545331803"
    }
  },
  {
    "service_request": "2022-865772",
    "request_type": "Trash/Recycling",
    "request_reason": "Start Trash Service",
    "date_created": "2022-03-09T16:45:57.000",
    "date_modified": "2022-03-09T16:45:58.000",
    "request_status": "Pending",
    "responsible_agency": "Department of Sanitation",
    "final_address": "4220 N Rampart St",
    "address_councildis": "C",
    "status": "Assigned to Contractor",
    "contractor": "Metro Disposal",
    "rowid": "865772",
    "final_x": "3692445.58512",
    "final_y": "534649.552198",
    "longitude": "-90.03339613632902",
    "latitude": "29.963763983307473",
    "geocoded_column": {
      "latitude": "29.963763983307473",
      "longitude": "-90.03339613632902"
    }
  },
  {
    "service_request": "2022-865771",
    "request_type": "Trash/Recycling",
    "request_reason": "Order Trash Cart",
    "date_created": "2022-03-09T16:45:48.000",
    "date_modified": "2022-03-09T16:45:49.000",
    "request_status": "Pending",
    "responsible_agency": "Department of Sanitation",
    "final_address": "4220 N Rampart St",
    "address_councildis": "C",
    "status": "Assigned to Contractor",
    "contractor": "Metro Disposal",
    "rowid": "865771",
    "final_x": "3692445.58512",
    "final_y": "534649.552198",
    "longitude": "-90.03339613632902",
    "latitude": "29.963763983307473",
    "geocoded_column": {
      "latitude": "29.963763983307473",
      "longitude": "-90.03339613632902"
    }
  },
  {
    "service_request": "2022-865770",
    "request_type": "Trash/Recycling",
    "request_reason": "Order Trash Cart",
    "date_created": "2022-03-09T16:38:31.000",
    "date_modified": "2022-03-09T16:38:32.000",
    "request_status": "Pending",
    "responsible_agency": "Department of Sanitation",
    "final_address": "2916 General Ogden St",
    "address_councildis": "A",
    "status": "Assigned to Contractor",
    "contractor": "Richards Disposal",
    "rowid": "865770",
    "final_x": "3664054.1353",
    "final_y": "534932.291398",
    "longitude": "-90.1230445208967",
    "latitude": "29.965396536414435",
    "geocoded_column": {
      "latitude": "29.965396536414435",
      "longitude": "-90.1230445208967"
    }
  },
  {
    "service_request": "2022-865769",
    "request_type": "Roads/Drainage",
    "request_reason": "Street Subsidence (Sinking)",
    "date_created": "2022-03-09T16:21:03.000",
    "date_modified": "2022-03-09T16:21:03.000",
    "request_status": "Pending",
    "responsible_agency": "Department of Public Works",
    "final_address": "1200 BLK N dOrgenois St",
    "address_councildis": "D",
    "status": "Pending",
    "rowid": "865769",
    "final_x": "3678370.21245",
    "final_y": "538230.884284",
    "longitude": "-90.0777208596597",
    "latitude": "29.974042988987584",
    "geocoded_column": {
      "latitude": "29.974042988987584",
      "longitude": "-90.0777208596597"
    }
  },
  {
    "service_request": "2022-865768",
    "request_type": "Traffic Signals/Signs/Striping/Streetlights",
    "request_reason": "Street Light Outage/Malfunction",
    "date_created": "2022-03-09T16:18:30.000",
    "date_modified": "2022-03-09T16:18:31.000",
    "request_status": "Pending",
    "responsible_agency": "Department of Public Works",
    "final_address": "3600 St Ferdinand St",
    "address_councildis": "D",
    "status": "Pending",
    "contractor": "Royal Engineering",
    "rowid": "865768",
    "final_x": "3689924.53545",
    "final_y": "546232.854032",
    "longitude": "-90.04094476478022",
    "latitude": "29.995692343898398",
    "geocoded_column": {
      "latitude": "29.995692343898398",
      "longitude": "-90.04094476478022"
    }
  },
  {
    "service_request": "2022-865767",
    "request_type": "Mosquito, Termite & Rodent Control",
    "request_reason": "Non-Rodent Complaint (Mice, Possums, Snakes)",
    "date_created": "2022-03-09T16:08:24.000",
    "date_modified": "2022-03-09T16:08:24.000",
    "request_status": "Pending",
    "responsible_agency": "Mosquito, Termite & Rodent Control Board",
    "final_address": "923 Gordon St",
    "address_councildis": "E",
    "status": "Pending",
    "rowid": "865767",
    "final_x": "3698975.86948",
    "final_y": "532858.693572",
    "longitude": "-90.0128394410079",
    "latitude": "29.958634435974176",
    "geocoded_column": {
      "latitude": "29.958634435974176",
      "longitude": "-90.0128394410079"
    }
  },
  {
    "service_request": "2022-865765",
    "request_type": "Trash/Recycling",
    "request_reason": "Repair Trash Cart",
    "date_created": "2022-03-09T16:05:06.000",
    "date_modified": "2022-03-09T16:05:07.000",
    "request_status": "Pending",
    "responsible_agency": "Department of Sanitation",
    "final_address": "6319 Rhodes Ave",
    "address_councildis": "C",
    "status": "Assigned to Contractor",
    "contractor": "Richards Disposal",
    "rowid": "865765",
    "final_x": "3707511.24286",
    "final_y": "519335.315959",
    "longitude": "-89.98638917422232",
    "latitude": "29.921176731052455",
    "geocoded_column": {
      "latitude": "29.921176731052455",
      "longitude": "-89.98638917422232"
    }
  },
  {
    "service_request": "2022-865764",
    "request_type": "Trash/Recycling",
    "request_reason": "Order Recycling Cart",
    "date_created": "2022-03-09T16:04:43.000",
    "date_modified": "2022-03-09T16:04:43.000",
    "request_status": "Pending",
    "responsible_agency": "Department of Sanitation",
    "final_address": "7911 Freret St",
    "address_councildis": "A",
    "status": "Pending",
    "rowid": "865764",
    "final_x": "3662007.33453",
    "final_y": "527446.227391",
    "longitude": "-90.1297565738208",
    "latitude": "29.9448715657",
    "geocoded_column": {
      "latitude": "29.9448715657",
      "longitude": "-90.1297565738208"
    }
  },
  {
    "service_request": "2022-865763",
    "request_type": "Trash/Recycling",
    "request_reason": "Illegal Dumping",
    "date_created": "2022-03-09T16:04:08.000",
    "date_modified": "2022-03-09T16:04:08.000",
    "request_status": "Pending",
    "responsible_agency": "Department of Sanitation",
    "final_address": "6800 BLK Cindy Pl",
    "address_councildis": "E",
    "status": "Pending",
    "rowid": "865763",
    "final_x": "3706913.07498",
    "final_y": "559369.877439",
    "longitude": "-89.9867922520959",
    "latitude": "30.031276299724937",
    "geocoded_column": {
      "latitude": "30.031276299724937",
      "longitude": "-89.9867922520959"
    }
  },
  {
    "service_request": "2022-865762",
    "request_type": "Trash/Recycling",
    "request_reason": "Repair Trash Cart",
    "date_created": "2022-03-09T16:03:53.000",
    "date_modified": "2022-03-09T16:03:54.000",
    "request_status": "Pending",
    "responsible_agency": "Department of Sanitation",
    "final_address": "1451 Seventh St",
    "address_councildis": "B",
    "status": "Assigned to Contractor",
    "contractor": "Richards Disposal",
    "rowid": "865762",
    "final_x": "3675740.41384",
    "final_y": "521569.478137",
    "longitude": "-90.08659890823601",
    "latitude": "29.928308641684577",
    "geocoded_column": {
      "latitude": "29.928308641684577",
      "longitude": "-90.08659890823601"
    }
  },
  {
    "service_request": "2022-865761",
    "request_type": "Trash/Recycling",
    "request_reason": "Illegal Dumping",
    "date_created": "2022-03-09T16:03:16.000",
    "date_modified": "2022-03-09T16:03:16.000",
    "request_status": "Pending",
    "responsible_agency": "Department of Sanitation",
    "final_address": "9000 BLK Wendy Ln",
    "address_councildis": "E",
    "status": "Pending",
    "rowid": "865761",
    "final_x": "3707220.85389",
    "final_y": "559128.233565",
    "longitude": "-89.98582864705826",
    "latitude": "30.030601925294434",
    "geocoded_column": {
      "latitude": "30.030601925294434",
      "longitude": "-89.98582864705826"
    }
  },
  {
    "service_request": "2022-865760",
    "request_type": "Traffic Signals/Signs/Striping/Streetlights",
    "request_reason": "Additional signage",
    "date_created": "2022-03-09T16:01:57.000",
    "date_modified": "2022-03-09T16:01:57.000",
    "request_status": "Pending",
    "responsible_agency": "Department of Public Works",
    "final_address": "LEAKE AVE & MAGAZINE ST",
    "address_councildis": "A",
    "status": "Pending",
    "rowid": "865760",
    "final_x": "3660865.4",
    "final_y": "521193.78",
    "longitude": "-90.13356872697719",
    "latitude": "29.927712237578344",
    "geocoded_column": {
      "latitude": "29.927712237578344",
      "longitude": "-90.13356872697719"
    }
  },
  {
    "service_request": "2022-865759",
    "request_type": "Trash/Recycling",
    "request_reason": "Missed Trash Pick-Up",
    "date_created": "2022-03-09T15:57:49.000",
    "date_modified": "2022-03-09T15:57:50.000",
    "request_status": "Pending",
    "responsible_agency": "Department of Sanitation",
    "final_address": "1225 Amelia St",
    "address_councildis": "B",
    "status": "Assigned to Contractor",
    "contractor": "Richards Disposal",
    "rowid": "865759",
    "final_x": "3673550.60033",
    "final_y": "519740.946424",
    "longitude": "-90.0935741333045",
    "latitude": "29.923346100348226",
    "geocoded_column": {
      "latitude": "29.923346100348226",
      "longitude": "-90.0935741333045"
    }
  },
  {
    "service_request": "2022-865758",
    "request_type": "Abandoned Vehicles",
    "request_reason": "Abandoned/Junk Vehicles",
    "date_created": "2022-03-09T15:50:17.000",
    "date_modified": "2022-03-09T15:50:17.000",
    "request_status": "Pending",
    "responsible_agency": "Department of Public Works",
    "status": "Pending",
    "rowid": "865758",
    "longitude": "0.0",
    "latitude": "0.0",
    "geocoded_column": {
      "latitude": "0.0",
      "longitude": "0.0"
    }
  },
  {
    "service_request": "2022-865757",
    "request_type": "Trash/Recycling",
    "request_reason": "Missed Trash Pick-Up",
    "date_created": "2022-03-09T15:47:40.000",
    "date_modified": "2022-03-09T15:47:41.000",
    "request_status": "Pending",
    "responsible_agency": "Department of Sanitation",
    "final_address": "919 Antonine St",
    "address_councildis": "B",
    "status": "Assigned to Contractor",
    "contractor": "Richards Disposal",
    "rowid": "865757",
    "final_x": "3674089.47451",
    "final_y": "518678.922231",
    "longitude": "-90.09190942868536",
    "latitude": "29.920409831437752",
    "geocoded_column": {
      "latitude": "29.920409831437752",
      "longitude": "-90.09190942868536"
    }
  },
  {
    "service_request": "2022-865756",
    "request_type": "Trash/Recycling",
    "request_reason": "Order Trash Cart",
    "date_created": "2022-03-09T15:38:46.000",
    "date_modified": "2022-03-09T15:38:47.000",
    "request_status": "Pending",
    "responsible_agency": "Department of Sanitation",
    "final_address": "3528 Hamilton St",
    "address_councildis": "A",
    "status": "Assigned to Contractor",
    "contractor": "Richards Disposal",
    "rowid": "865756",
    "final_x": "3665011.62765",
    "final_y": "537017.824456",
    "longitude": "-90.11995104972398",
    "latitude": "29.971103219648956",
    "geocoded_column": {
      "latitude": "29.971103219648956",
      "longitude": "-90.11995104972398"
    }
  },
  {
    "service_request": "2022-865755",
    "request_type": "Roads/Drainage",
    "request_reason": "Damaged Sidewalk",
    "date_created": "2022-03-09T15:38:27.000",
    "date_modified": "2022-03-09T15:38:27.000",
    "request_status": "Pending",
    "responsible_agency": "Department of Public Works",
    "final_address": "513 Arabella St",
    "address_councildis": "A",
    "status": "Pending",
    "rowid": "865755",
    "final_x": "3665662.03885",
    "final_y": "518046.946614",
    "longitude": "-90.11853213980099",
    "latitude": "29.918920463942538",
    "geocoded_column": {
      "latitude": "29.918920463942538",
      "longitude": "-90.11853213980099"
    }
  },
  {
    "service_request": "2022-865754",
    "request_type": "Roads/Drainage",
    "request_reason": "Damaged Sidewalk",
    "date_created": "2022-03-09T15:36:17.000",
    "date_modified": "2022-03-09T15:36:17.000",
    "request_status": "Pending",
    "responsible_agency": "Department of Public Works",
    "final_address": "3002 Gentilly Blvd",
    "address_councildis": "D",
    "status": "Pending",
    "rowid": "865754",
    "final_x": "3683463.86332",
    "final_y": "546605.599697",
    "longitude": "-90.06134036390357",
    "latitude": "29.996916044968092",
    "geocoded_column": {
      "latitude": "29.996916044968092",
      "longitude": "-90.06134036390357"
    }
  },
  {
    "service_request": "2022-865753",
    "request_type": "Traffic Signals/Signs/Striping/Streetlights",
    "request_reason": "Street Light Outage/Malfunction",
    "date_created": "2022-03-09T15:28:12.000",
    "date_modified": "2022-03-09T15:28:14.000",
    "request_status": "Pending",
    "responsible_agency": "Department of Public Works",
    "final_address": "2710 Gentilly Blvd",
    "address_councildis": "D",
    "status": "Pending",
    "contractor": "Royal Engineering",
    "rowid": "865753",
    "final_x": "3682580.64719",
    "final_y": "545644.107216",
    "longitude": "-90.0641640397315",
    "latitude": "29.994299212438552",
    "geocoded_column": {
      "latitude": "29.994299212438552",
      "longitude": "-90.0641640397315"
    }
  },
  {
    "service_request": "2022-865752",
    "request_type": "Trash/Recycling",
    "request_reason": "Illegal Dumping",
    "date_created": "2022-03-09T15:26:48.000",
    "date_modified": "2022-03-09T15:26:48.000",
    "request_status": "Pending",
    "responsible_agency": "Department of Sanitation",
    "final_address": "830 Mazant St",
    "address_councildis": "C",
    "status": "Pending",
    "rowid": "865752",
    "final_x": "3691853.42576",
    "final_y": "534321.230853",
    "longitude": "-90.0352778553731",
    "latitude": "29.962879673579707",
    "geocoded_column": {
      "latitude": "29.962879673579707",
      "longitude": "-90.0352778553731"
    }
  },
  {
    "service_request": "2022-865751",
    "request_type": "Traffic Signals/Signs/Striping/Streetlights",
    "request_reason": "Street Light Outage/Malfunction",
    "date_created": "2022-03-09T15:25:39.000",
    "date_modified": "2022-03-09T15:25:40.000",
    "request_status": "Pending",
    "responsible_agency": "Department of Public Works",
    "final_address": "3708 Garden Oaks Dr",
    "address_councildis": "C",
    "status": "Pending",
    "contractor": "Royal Engineering",
    "rowid": "865751",
    "final_x": "3696008.42646",
    "final_y": "518022.273206",
    "longitude": "-90.02274565818763",
    "latitude": "29.917933096949646",
    "geocoded_column": {
      "latitude": "29.917933096949646",
      "longitude": "-90.02274565818763"
    }
  },
  {
    "service_request": "2022-865750",
    "request_type": "Trash/Recycling",
    "request_reason": "Missed Trash Pick-Up",
    "date_created": "2022-03-09T15:24:08.000",
    "date_modified": "2022-03-09T15:24:09.000",
    "request_status": "Pending",
    "responsible_agency": "Department of Sanitation",
    "final_address": "917 Antonine St",
    "address_councildis": "B",
    "status": "Assigned to Contractor",
    "contractor": "Richards Disposal",
    "rowid": "865750",
    "final_x": "3674101.68654",
    "final_y": "518658.609079",
    "longitude": "-90.09187157568448",
    "latitude": "29.920353612962217",
    "geocoded_column": {
      "latitude": "29.920353612962217",
      "longitude": "-90.09187157568448"
    }
  },
  {
    "service_request": "2022-865749",
    "request_type": "Traffic Signals/Signs/Striping/Streetlights",
    "request_reason": "Street Light Outage/Malfunction",
    "date_created": "2022-03-09T15:23:52.000",
    "date_modified": "2022-03-09T17:58:38.000",
    "case_close_date": "2022-03-09T11:58:38.000",
    "request_status": "Pending",
    "responsible_agency": "Department of Public Works",
    "final_address": "215 Warrington Dr, New Orleans, Louisiana, 70122",
    "address_councildis": "D",
    "status": "Pending",
    "contractor": "Royal Engineering",
    "rowid": "865749",
    "final_x": "3682480.98492",
    "final_y": "547255.330641",
    "longitude": "-90.06442249639046",
    "latitude": "29.99873253765721",
    "geocoded_column": {
      "latitude": "29.99873253765721",
      "longitude": "-90.06442249639046"
    }
  },
  {
    "service_request": "2022-865748",
    "request_type": "Trash/Recycling",
    "request_reason": "Replace Trash Cart",
    "date_created": "2022-03-09T15:22:06.000",
    "date_modified": "2022-03-09T15:22:07.000",
    "request_status": "Pending",
    "responsible_agency": "Department of Sanitation",
    "final_address": "1902 Iberville St",
    "address_councildis": "B",
    "status": "Assigned to Contractor",
    "contractor": "Richards Disposal",
    "rowid": "865748",
    "final_x": "3678015.35566",
    "final_y": "533567.777925",
    "longitude": "-90.07900279373604",
    "latitude": "29.961231723481983",
    "geocoded_column": {
      "latitude": "29.961231723481983",
      "longitude": "-90.07900279373604"
    }
  },
  {
    "service_request": "2022-865747",
    "request_type": "Trash/Recycling",
    "request_reason": "Replace Trash Cart",
    "date_created": "2022-03-09T15:21:20.000",
    "date_modified": "2022-03-09T15:21:21.000",
    "request_status": "Pending",
    "responsible_agency": "Department of Sanitation",
    "final_address": "34 Vivian Ct, New Orleans, Louisiana, 70131",
    "address_councildis": "C",
    "status": "Assigned to Contractor",
    "contractor": "Richards Disposal",
    "rowid": "865747",
    "final_x": "3702284.50135",
    "final_y": "521010.723897",
    "longitude": "-90.00282614141814",
    "latitude": "29.925951431624426",
    "geocoded_column": {
      "latitude": "29.925951431624426",
      "longitude": "-90.00282614141814"
    }
  },
  {
    "service_request": "2022-865746",
    "request_type": "Trash/Recycling",
    "request_reason": "Replace Trash Cart",
    "date_created": "2022-03-09T15:21:09.000",
    "date_modified": "2022-03-09T15:21:09.000",
    "request_status": "Pending",
    "responsible_agency": "Department of Sanitation",
    "final_address": "1900 Iberville St",
    "address_councildis": "B",
    "status": "Assigned to Contractor",
    "contractor": "Richards Disposal",
    "rowid": "865746",
    "final_x": "3678025.37966",
    "final_y": "533561.095301",
    "longitude": "-90.07897137073434",
    "latitude": "29.9612130468008",
    "geocoded_column": {
      "latitude": "29.9612130468008",
      "longitude": "-90.07897137073434"
    }
  },
  {
    "service_request": "2022-865743",
    "request_type": "Trash/Recycling",
    "request_reason": "Replace Recycling Cart",
    "date_created": "2022-03-09T15:09:15.000",
    "date_modified": "2022-03-09T15:09:15.000",
    "request_status": "Pending",
    "responsible_agency": "Department of Sanitation",
    "final_address": "614 Hagan Ave, New Orleans, Louisiana, 70119",
    "status": "Pending",
    "rowid": "865743",
    "longitude": "0.0",
    "latitude": "0.0",
    "geocoded_column": {
      "latitude": "0.0",
      "longitude": "0.0"
    }
  },
  {
    "service_request": "2022-865741",
    "request_type": "Trash/Recycling",
    "request_reason": "MIssed Recycling Pick-Up",
    "date_created": "2022-03-09T14:44:22.000",
    "date_modified": "2022-03-09T14:44:23.000",
    "request_status": "Pending",
    "responsible_agency": "Department of Sanitation",
    "final_address": "1625 Flanders St",
    "address_councildis": "C",
    "status": "Assigned to Contractor",
    "contractor": "Richards Disposal",
    "rowid": "865741",
    "final_x": "3696619.77226",
    "final_y": "525248.792061",
    "longitude": "-90.02055465168178",
    "latitude": "29.93778431338986",
    "geocoded_column": {
      "latitude": "29.93778431338986",
      "longitude": "-90.02055465168178"
    }
  },
  {
    "service_request": "2022-865740",
    "request_type": "Trash/Recycling",
    "request_reason": "Illegal Dumping",
    "date_created": "2022-03-09T14:41:00.000",
    "date_modified": "2022-03-09T14:41:00.000",
    "request_status": "Pending",
    "responsible_agency": "Department of Sanitation",
    "final_address": "2708 Erato St",
    "address_councildis": "B",
    "status": "Pending",
    "rowid": "865740",
    "final_x": "3676101.72123",
    "final_y": "528171.870144",
    "longitude": "-90.08523131534237",
    "latitude": "29.946452240931393",
    "geocoded_column": {
      "latitude": "29.946452240931393",
      "longitude": "-90.08523131534237"
    }
  },
  {
    "service_request": "2022-865739",
    "request_type": "Trash/Recycling",
    "request_reason": "Illegal Dumping",
    "date_created": "2022-03-09T14:39:19.000",
    "date_modified": "2022-03-09T14:39:19.000",
    "request_status": "Pending",
    "responsible_agency": "Department of Sanitation",
    "final_address": "2828 Erato St",
    "address_councildis": "B",
    "status": "Pending",
    "rowid": "865739",
    "final_x": "3675741.58235",
    "final_y": "528358.4672",
    "longitude": "-90.08636199087051",
    "latitude": "29.946976102553",
    "geocoded_column": {
      "latitude": "29.946976102553",
      "longitude": "-90.08636199087051"
    }
  },
  {
    "service_request": "2022-865738",
    "request_type": "Property Maintenance",
    "request_reason": "Property Maintenance",
    "date_created": "2022-03-09T14:36:49.000",
    "date_modified": "2022-03-09T14:36:49.000",
    "request_status": "Pending",
    "responsible_agency": "Department of Code Enforcement",
    "final_address": "2511 Erato St",
    "address_councildis": "B",
    "status": "Pending",
    "rowid": "865738",
    "final_x": "3676651.54203",
    "final_y": "527893.900351",
    "longitude": "-90.08350490820219",
    "latitude": "29.945671437204506",
    "geocoded_column": {
      "latitude": "29.945671437204506",
      "longitude": "-90.08350490820219"
    }
  },
  {
    "service_request": "2022-865737",
    "request_type": "Abandoned Vehicles",
    "request_reason": "Abandoned/Junk Vehicles",
    "date_created": "2022-03-09T14:36:20.000",
    "date_modified": "2022-03-09T14:36:20.000",
    "request_status": "Pending",
    "responsible_agency": "Department of Public Works",
    "final_address": "910 N Dorgenois St",
    "address_councildis": "D",
    "status": "Pending",
    "rowid": "865737",
    "final_x": "3677673.56347",
    "final_y": "537234.38676",
    "longitude": "-90.07995546149222",
    "latitude": "29.97132393436578",
    "geocoded_column": {
      "latitude": "29.97132393436578",
      "longitude": "-90.07995546149222"
    }
  },
  {
    "service_request": "2022-865736",
    "request_type": "Trash/Recycling",
    "request_reason": "Order Recycling Cart",
    "date_created": "2022-03-09T14:35:11.000",
    "date_modified": "2022-03-09T14:35:11.000",
    "request_status": "Pending",
    "responsible_agency": "Department of Sanitation",
    "final_address": "3117 Palmyra St",
    "address_councildis": "B",
    "status": "Pending",
    "rowid": "865736",
    "final_x": "3673497.58888",
    "final_y": "535560.928902",
    "longitude": "-90.09320099922218",
    "latitude": "29.96684743104238",
    "geocoded_column": {
      "latitude": "29.96684743104238",
      "longitude": "-90.09320099922218"
    }
  },
  {
    "service_request": "2022-865735",
    "request_type": "Trash/Recycling",
    "request_reason": "Order Recycling Cart",
    "date_created": "2022-03-09T14:34:55.000",
    "date_modified": "2022-03-09T14:34:55.000",
    "request_status": "Pending",
    "responsible_agency": "Department of Sanitation",
    "final_address": "3119 Palmyra St",
    "address_councildis": "B",
    "status": "Pending",
    "rowid": "865735",
    "final_x": "3673478.19713",
    "final_y": "535573.534278",
    "longitude": "-90.09326180764226",
    "latitude": "29.966882668651184",
    "geocoded_column": {
      "latitude": "29.966882668651184",
      "longitude": "-90.09326180764226"
    }
  },
  {
    "service_request": "2022-865734",
    "request_type": "Trash/Recycling",
    "request_reason": "Replace Trash Cart",
    "date_created": "2022-03-09T14:32:29.000",
    "date_modified": "2022-03-09T14:32:30.000",
    "request_status": "Pending",
    "responsible_agency": "Department of Sanitation",
    "final_address": "53 Egret St",
    "address_councildis": "D",
    "status": "Assigned to Contractor",
    "contractor": "Metro Disposal",
    "rowid": "865734",
    "final_x": "3673742.20891",
    "final_y": "555207.715097",
    "longitude": "-90.0917562033446",
    "latitude": "30.020861972659812",
    "geocoded_column": {
      "latitude": "30.020861972659812",
      "longitude": "-90.0917562033446"
    }
  },
  {
    "service_request": "2022-865733",
    "request_type": "Trash/Recycling",
    "request_reason": "Replace Recycling Cart",
    "date_created": "2022-03-09T14:30:37.000",
    "date_modified": "2022-03-09T14:30:37.000",
    "request_status": "Pending",
    "responsible_agency": "Department of Sanitation",
    "final_address": "3456 Desaix Blvd, New Orleans, Louisiana, 70119",
    "address_councildis": "A",
    "status": "Pending",
    "rowid": "865733",
    "final_x": "3676407.44968",
    "final_y": "543560.093198",
    "longitude": "-90.08373616588163",
    "latitude": "29.988755468047405",
    "geocoded_column": {
      "latitude": "29.988755468047405",
      "longitude": "-90.08373616588163"
    }
  },
  {
    "service_request": "2022-865732",
    "request_type": "Trash/Recycling",
    "request_reason": "Repair Trash Cart",
    "date_created": "2022-03-09T14:28:15.000",
    "date_modified": "2022-03-09T14:28:16.000",
    "request_status": "Pending",
    "responsible_agency": "Department of Sanitation",
    "final_address": "3214 Sabine St",
    "address_councildis": "C",
    "status": "Assigned to Contractor",
    "contractor": "Richards Disposal",
    "rowid": "865732",
    "final_x": "3694753.29014",
    "final_y": "518185.183286",
    "longitude": "-90.0267015527812",
    "latitude": "29.91842045939851",
    "geocoded_column": {
      "latitude": "29.91842045939851",
      "longitude": "-90.0267015527812"
    }
  },
  {
    "service_request": "2022-865731",
    "request_type": "Property Maintenance",
    "request_reason": "Property Maintenance",
    "date_created": "2022-03-09T14:27:45.000",
    "date_modified": "2022-03-09T14:27:45.000",
    "request_status": "Pending",
    "responsible_agency": "Department of Code Enforcement",
    "final_address": "2503 S Dorgenois St",
    "address_councildis": "B",
    "status": "Pending",
    "rowid": "865731",
    "final_x": "3672213.92257",
    "final_y": "529759.608897",
    "longitude": "-90.09745242700505",
    "latitude": "29.950933869849905",
    "geocoded_column": {
      "latitude": "29.950933869849905",
      "longitude": "-90.09745242700505"
    }
  },
  {
    "service_request": "2022-865728",
    "request_type": "Abandoned Vehicles",
    "request_reason": "Abandoned/Junk Vehicles",
    "date_created": "2022-03-09T14:17:00.000",
    "date_modified": "2022-03-09T14:17:00.000",
    "request_status": "Pending",
    "responsible_agency": "Department of Public Works",
    "final_address": "4868 Constance St",
    "address_councildis": "B",
    "status": "Pending",
    "rowid": "865728",
    "final_x": "3669051.36455",
    "final_y": "518157.146614",
    "longitude": "-90.1078300379664",
    "latitude": "29.919124239683313",
    "geocoded_column": {
      "latitude": "29.919124239683313",
      "longitude": "-90.1078300379664"
    }
  },
  {
    "service_request": "2022-865727",
    "request_type": "Abandoned Vehicles",
    "request_reason": "Vehicle Blocking Your Driveway",
    "date_created": "2022-03-09T14:16:23.000",
    "date_modified": "2022-03-09T17:44:34.000",
    "request_status": "Pending",
    "responsible_agency": "Department of Public Works",
    "final_address": "218 S Norman C Francis Pkwy, New Orleans, Louisiana, 70119",
    "address_councildis": "B",
    "rowid": "865727",
    "final_x": "3672956.00603",
    "final_y": "536170.012039",
    "longitude": "-90.0948905312567",
    "latitude": "29.96853831058137",
    "geocoded_column": {
      "latitude": "29.96853831058137",
      "longitude": "-90.0948905312567"
    }
  },
  {
    "service_request": "2022-865726",
    "request_type": "Trash/Recycling",
    "request_reason": "Illegal Dumping",
    "date_created": "2022-03-09T14:09:37.000",
    "date_modified": "2022-03-09T14:09:37.000",
    "request_status": "Pending",
    "responsible_agency": "Department of Sanitation",
    "final_address": "3 Bamboo Rd",
    "address_councildis": "A",
    "status": "Pending",
    "rowid": "865726",
    "final_x": "3663551.84787",
    "final_y": "539671.666314",
    "longitude": "-90.12447282941095",
    "latitude": "29.978442828067173",
    "geocoded_column": {
      "latitude": "29.978442828067173",
      "longitude": "-90.12447282941095"
    }
  },
  {
    "service_request": "2022-865725",
    "request_type": "Roads/Drainage",
    "request_reason": "Pothole",
    "date_created": "2022-03-09T14:08:00.000",
    "date_modified": "2022-03-09T14:08:00.000",
    "request_status": "Pending",
    "responsible_agency": "Department of Public Works",
    "final_address": "5734 Cameron Blvd",
    "address_councildis": "D",
    "status": "Pending",
    "rowid": "865725",
    "final_x": "3682337.18844",
    "final_y": "554192.112216",
    "longitude": "-90.06463412097872",
    "latitude": "30.017810559238374",
    "geocoded_column": {
      "latitude": "30.017810559238374",
      "longitude": "-90.06463412097872"
    }
  },
  {
    "service_request": "2022-865724",
    "request_type": "Abandoned Vehicles",
    "request_reason": "Abandoned/Junk Vehicles",
    "date_created": "2022-03-09T14:07:41.000",
    "date_modified": "2022-03-09T14:07:41.000",
    "request_status": "Pending",
    "responsible_agency": "Department of Public Works",
    "final_address": "1100 BLK Lizardi St",
    "address_councildis": "E",
    "status": "Pending",
    "rowid": "865724",
    "final_x": "3696588.99425",
    "final_y": "534336.901258",
    "longitude": "-90.02032304216053",
    "latitude": "29.962774402593578",
    "geocoded_column": {
      "latitude": "29.962774402593578",
      "longitude": "-90.02032304216053"
    }
  },
  {
    "service_request": "2022-865723",
    "request_type": "Traffic Signals/Signs/Striping/Streetlights",
    "request_reason": "Traffic Sign Missing/Damaged",
    "date_created": "2022-03-09T14:06:42.000",
    "date_modified": "2022-03-09T14:06:42.000",
    "request_status": "Pending",
    "responsible_agency": "Department of Public Works",
    "final_address": "2020 Calhoun St",
    "address_councildis": "A",
    "status": "Pending",
    "rowid": "865723",
    "final_x": "3665531.88128",
    "final_y": "524629.439612",
    "longitude": "-90.11872273597085",
    "latitude": "29.93702403476182",
    "geocoded_column": {
      "latitude": "29.93702403476182",
      "longitude": "-90.11872273597085"
    }
  },
  {
    "service_request": "2022-865722",
    "request_type": "Trash/Recycling",
    "request_reason": "Order Recycling Cart",
    "date_created": "2022-03-09T14:06:40.000",
    "date_modified": "2022-03-09T14:06:40.000",
    "request_status": "Pending",
    "responsible_agency": "Department of Sanitation",
    "final_address": "1207 Milan St",
    "address_councildis": "B",
    "status": "Pending",
    "rowid": "865722",
    "final_x": "3671745.00827",
    "final_y": "519975.902008",
    "longitude": "-90.09926573169858",
    "latitude": "29.92404574704063",
    "geocoded_column": {
      "latitude": "29.92404574704063",
      "longitude": "-90.09926573169858"
    }
  },
  {
    "service_request": "2022-865721",
    "request_type": "Property Maintenance",
    "request_reason": "Property Maintenance",
    "date_created": "2022-03-09T14:06:05.000",
    "date_modified": "2022-03-09T14:06:05.000",
    "request_status": "Pending",
    "responsible_agency": "Department of Code Enforcement",
    "final_address": "3275 Bloomingdale Ct",
    "address_councildis": "B",
    "status": "Pending",
    "rowid": "865721",
    "final_x": "3668974.37134",
    "final_y": "532536.603908",
    "longitude": "-90.10758752862165",
    "latitude": "29.95866537279469",
    "geocoded_column": {
      "latitude": "29.95866537279469",
      "longitude": "-90.10758752862165"
    }
  },
  {
    "service_request": "2022-865720",
    "request_type": "Trash/Recycling",
    "request_reason": "Order Trash Cart",
    "date_created": "2022-03-09T14:06:01.000",
    "date_modified": "2022-03-09T14:06:07.000",
    "request_status": "Pending",
    "responsible_agency": "Department of Sanitation",
    "final_address": "1207 Milan St",
    "address_councildis": "B",
    "status": "Assigned to Contractor",
    "contractor": "Richards Disposal",
    "rowid": "865720",
    "final_x": "3671745.00827",
    "final_y": "519975.902008",
    "longitude": "-90.09926573169858",
    "latitude": "29.92404574704063",
    "geocoded_column": {
      "latitude": "29.92404574704063",
      "longitude": "-90.09926573169858"
    }
  },
  {
    "service_request": "2022-865719",
    "request_type": "Property Maintenance",
    "request_reason": "Property Maintenance",
    "date_created": "2022-03-09T14:05:18.000",
    "date_modified": "2022-03-09T14:05:18.000",
    "request_status": "Pending",
    "responsible_agency": "Department of Code Enforcement",
    "final_address": "3236 Bloomingdale Ct",
    "address_councildis": "B",
    "status": "Pending",
    "rowid": "865719",
    "final_x": "3668836.21812",
    "final_y": "532274.678851",
    "longitude": "-90.10803262643147",
    "latitude": "29.957949228186454",
    "geocoded_column": {
      "latitude": "29.957949228186454",
      "longitude": "-90.10803262643147"
    }
  },
  {
    "service_request": "2022-865718",
    "request_type": "Property Maintenance",
    "request_reason": "Property Maintenance",
    "date_created": "2022-03-09T14:03:20.000",
    "date_modified": "2022-03-09T14:03:20.000",
    "request_status": "Pending",
    "responsible_agency": "Department of Code Enforcement",
    "final_address": "3243 Bloomingdale Ct",
    "address_councildis": "B",
    "status": "Pending",
    "rowid": "865718",
    "final_x": "3668895.47457",
    "final_y": "532311.841795",
    "longitude": "-90.10784425565062",
    "latitude": "29.95804967155425",
    "geocoded_column": {
      "latitude": "29.95804967155425",
      "longitude": "-90.10784425565062"
    }
  },
  {
    "service_request": "2022-865717",
    "request_type": "Roads/Drainage",
    "request_reason": "Accessibility Ramps, Curbs and Sidewalk Repair",
    "date_created": "2022-03-09T14:02:57.000",
    "date_modified": "2022-03-09T14:02:57.000",
    "request_status": "Pending",
    "responsible_agency": "Department of Public Works",
    "final_address": "6611 Dorchester St",
    "address_councildis": "E",
    "status": "Pending",
    "rowid": "865717",
    "final_x": "3697722.68426",
    "final_y": "558958.889116",
    "longitude": "-90.01584901640473",
    "latitude": "30.030440000728728",
    "geocoded_column": {
      "latitude": "30.030440000728728",
      "longitude": "-90.01584901640473"
    }
  },
  {
    "service_request": "2022-865716",
    "request_type": "Trash/Recycling",
    "request_reason": "Missed Trash Pick-Up",
    "date_created": "2022-03-09T14:02:27.000",
    "date_modified": "2022-03-09T14:02:28.000",
    "request_status": "Pending",
    "responsible_agency": "Department of Sanitation",
    "final_address": "814 Antonine St",
    "address_councildis": "B",
    "status": "Assigned to Contractor",
    "contractor": "Richards Disposal",
    "rowid": "865716",
    "final_x": "3674132.20987",
    "final_y": "518316.20095",
    "longitude": "-90.09178693874796",
    "latitude": "29.91941119076291",
    "geocoded_column": {
      "latitude": "29.91941119076291",
      "longitude": "-90.09178693874796"
    }
  },
  {
    "service_request": "2022-865715",
    "request_type": "Trash/Recycling",
    "request_reason": "Illegal Dumping",
    "date_created": "2022-03-09T14:01:44.000",
    "date_modified": "2022-03-09T14:01:44.000",
    "request_status": "Pending",
    "responsible_agency": "Department of Sanitation",
    "final_address": "CHEF MENTEUR ONRAMP & CHEF MENTEUR HWY & FRANCE RD",
    "address_councildis": "D",
    "status": "Pending",
    "rowid": "865715",
    "final_x": "3693437.8",
    "final_y": "550559.28",
    "longitude": "-90.02969122979614",
    "latitude": "30.007478999108844",
    "geocoded_column": {
      "latitude": "30.007478999108844",
      "longitude": "-90.02969122979614"
    }
  },
  {
    "service_request": "2022-865714",
    "request_type": "Property Maintenance",
    "request_reason": "Property Maintenance",
    "date_created": "2022-03-09T14:01:14.000",
    "date_modified": "2022-03-09T14:01:14.000",
    "request_status": "Pending",
    "responsible_agency": "Department of Code Enforcement",
    "final_address": "3280 Bloomingdale Ct",
    "address_councildis": "B",
    "status": "Pending",
    "rowid": "865714",
    "final_x": "3668952.4907",
    "final_y": "532603.05722",
    "longitude": "-90.10765437757308",
    "latitude": "29.958848741054883",
    "geocoded_column": {
      "latitude": "29.958848741054883",
      "longitude": "-90.10765437757308"
    }
  },
  {
    "service_request": "2022-865713",
    "request_type": "Trash/Recycling",
    "request_reason": "Illegal Dumping",
    "date_created": "2022-03-09T13:59:59.000",
    "date_modified": "2022-03-09T13:59:59.000",
    "request_status": "Pending",
    "responsible_agency": "Department of Sanitation",
    "final_address": "WINDSOR DR & WILTON DR",
    "address_councildis": "D",
    "status": "Pending",
    "rowid": "865713",
    "final_x": "3681808.6",
    "final_y": "551068.88",
    "longitude": "-90.06641336413388",
    "latitude": "30.0092388864393",
    "geocoded_column": {
      "latitude": "30.0092388864393",
      "longitude": "-90.06641336413388"
    }
  },
  {
    "service_request": "2022-865712",
    "request_type": "Safety & Permits",
    "request_reason": "Licenses & Permits",
    "date_created": "2022-03-09T13:53:03.000",
    "date_modified": "2022-03-09T13:53:03.000",
    "request_status": "Pending",
    "responsible_agency": "Safety and Permits",
    "status": "Pending",
    "rowid": "865712",
    "longitude": "0.0",
    "latitude": "0.0",
    "geocoded_column": {
      "latitude": "0.0",
      "longitude": "0.0"
    }
  },
  {
    "service_request": "2022-865711",
    "request_type": "Traffic Signals/Signs/Striping/Streetlights",
    "request_reason": "Street Light Outage/Malfunction",
    "date_created": "2022-03-09T13:52:47.000",
    "date_modified": "2022-03-09T13:52:48.000",
    "request_status": "Pending",
    "responsible_agency": "Department of Public Works",
    "final_address": "1001 Stanton Rd",
    "address_councildis": "C",
    "status": "Pending",
    "contractor": "Royal Engineering",
    "rowid": "865711",
    "final_x": "3721620.78527",
    "final_y": "518114.21599",
    "longitude": "-89.94189904242201",
    "latitude": "29.917355551016247",
    "geocoded_column": {
      "latitude": "29.917355551016247",
      "longitude": "-89.94189904242201"
    }
  },
  {
    "service_request": "2022-865710",
    "request_type": "Trash/Recycling",
    "request_reason": "Illegal Dumping",
    "date_created": "2022-03-09T13:50:39.000",
    "date_modified": "2022-03-09T13:50:40.000",
    "case_close_date": "2022-01-17T18:00:00.000",
    "request_status": "Pending",
    "responsible_agency": "Department of Sanitation",
    "final_address": "TULLIS DR & WOODLAND DR",
    "address_councildis": "C",
    "status": "Pending",
    "rowid": "865710",
    "final_x": "3705893.5",
    "final_y": "513292.78",
    "longitude": "-89.99171894879369",
    "latitude": "29.904614029594768",
    "geocoded_column": {
      "latitude": "29.904614029594768",
      "longitude": "-89.99171894879369"
    }
  },
  {
    "service_request": "2022-865709",
    "request_type": "Traffic Signals/Signs/Striping/Streetlights",
    "request_reason": "Traffic Sign Missing/Damaged",
    "date_created": "2022-03-09T13:46:42.000",
    "date_modified": "2022-03-09T13:46:45.000",
    "request_status": "Pending",
    "responsible_agency": "Department of Public Works",
    "final_address": "GENERAL MEYER AVE & SHIRLEY DR",
    "address_councildis": "C",
    "status": "Pending",
    "rowid": "865709",
    "final_x": "3693172.5",
    "final_y": "527521.78",
    "longitude": "-90.03135637952057",
    "latitude": "29.944142397456922",
    "geocoded_column": {
      "latitude": "29.944142397456922",
      "longitude": "-90.03135637952057"
    }
  },
  {
    "service_request": "2022-865708",
    "request_type": "Trash/Recycling",
    "request_reason": "Order Recycling Cart",
    "date_created": "2022-03-09T13:43:20.000",
    "date_modified": "2022-03-09T13:43:20.000",
    "request_status": "Pending",
    "responsible_agency": "Department of Sanitation",
    "final_address": "2221 Iberville St, New Orleans, Louisiana, 70119",
    "address_councildis": "B",
    "status": "Pending",
    "rowid": "865708",
    "final_x": "3677081.35861",
    "final_y": "534378.717829",
    "longitude": "-90.08192422413629",
    "latitude": "29.963489614363294",
    "geocoded_column": {
      "latitude": "29.963489614363294",
      "longitude": "-90.08192422413629"
    }
  },
  {
    "service_request": "2022-865707",
    "request_type": "Trash/Recycling",
    "request_reason": "Repair Trash Cart",
    "date_created": "2022-03-09T13:41:06.000",
    "date_modified": "2022-03-09T13:41:07.000",
    "request_status": "Pending",
    "responsible_agency": "Department of Sanitation",
    "final_address": "1501 Paula St",
    "address_councildis": "D",
    "status": "Assigned to Contractor",
    "contractor": "Metro Disposal",
    "rowid": "865707",
    "final_x": "3678781.98517",
    "final_y": "549349.256083",
    "longitude": "-90.07603508815741",
    "latitude": "30.004602203352512",
    "geocoded_column": {
      "latitude": "30.004602203352512",
      "longitude": "-90.07603508815741"
    }
  },
  {
    "service_request": "2022-865706",
    "request_type": "Traffic Signals/Signs/Striping/Streetlights",
    "request_reason": "Additional signage",
    "date_created": "2022-03-09T13:37:44.000",
    "date_modified": "2022-03-09T13:37:44.000",
    "request_status": "Pending",
    "responsible_agency": "Department of Public Works",
    "final_address": "3501 Jourdan Rd",
    "address_councildis": "E",
    "status": "Pending",
    "rowid": "865706",
    "final_x": "3696473.53853",
    "final_y": "548430.19093",
    "longitude": "-90.02017760175312",
    "latitude": "30.001529478787578",
    "geocoded_column": {
      "latitude": "30.001529478787578",
      "longitude": "-90.02017760175312"
    }
  },
  {
    "service_request": "2022-865705",
    "request_type": "Trash/Recycling",
    "request_reason": "Order Recycling Cart",
    "date_created": "2022-03-09T13:37:30.000",
    "date_modified": "2022-03-09T13:37:30.000",
    "request_status": "Pending",
    "responsible_agency": "Department of Sanitation",
    "final_address": "206 N Miro St, New Orleans, Louisiana, 70119",
    "address_councildis": "B",
    "status": "Pending",
    "rowid": "865705",
    "final_x": "3677050.89486",
    "final_y": "534457.432197",
    "longitude": "-90.0820177109301",
    "latitude": "29.963706967018457",
    "geocoded_column": {
      "latitude": "29.963706967018457",
      "longitude": "-90.0820177109301"
    }
  },
  {
    "service_request": "2022-865704",
    "request_type": "Trash/Recycling",
    "request_reason": "Order Recycling Cart",
    "date_created": "2022-03-09T13:36:36.000",
    "date_modified": "2022-03-09T13:36:36.000",
    "request_status": "Pending",
    "responsible_agency": "Department of Sanitation",
    "final_address": "2300 Iberville St, New Orleans, Louisiana, 70119",
    "address_councildis": "B",
    "status": "Pending",
    "rowid": "865704",
    "final_x": "3676913.28245",
    "final_y": "534423.154373",
    "longitude": "-90.08245345911288",
    "latitude": "29.963616846066493",
    "geocoded_column": {
      "latitude": "29.963616846066493",
      "longitude": "-90.08245345911288"
    }
  },
  {
    "service_request": "2022-865703",
    "request_type": "Trash/Recycling",
    "request_reason": "Order Recycling Cart",
    "date_created": "2022-03-09T13:35:38.000",
    "date_modified": "2022-03-09T13:35:38.000",
    "request_status": "Pending",
    "responsible_agency": "Department of Sanitation",
    "final_address": "2224 Iberville St, New Orleans, Louisiana, 70119",
    "address_councildis": "B",
    "status": "Pending",
    "rowid": "865703",
    "final_x": "3677012.45294",
    "final_y": "534330.284293",
    "longitude": "-90.08214349110446",
    "latitude": "29.963358507581784",
    "geocoded_column": {
      "latitude": "29.963358507581784",
      "longitude": "-90.08214349110446"
    }
  },
  {
    "service_request": "2022-865702",
    "request_type": "Trash/Recycling",
    "request_reason": "Order Recycling Cart",
    "date_created": "2022-03-09T13:34:28.000",
    "date_modified": "2022-03-09T13:34:28.000",
    "request_status": "Pending",
    "responsible_agency": "Department of Sanitation",
    "final_address": "2222 Iberville St, New Orleans, Louisiana, 70119",
    "address_councildis": "B",
    "status": "Pending",
    "rowid": "865702",
    "final_x": "3677033.19067",
    "final_y": "534304.531013",
    "longitude": "-90.08207889169574",
    "latitude": "29.963287072116803",
    "geocoded_column": {
      "latitude": "29.963287072116803",
      "longitude": "-90.08207889169574"
    }
  },
  {
    "service_request": "2022-865701",
    "request_type": "Traffic Signals/Signs/Striping/Streetlights",
    "request_reason": "Street Light Outage/Malfunction",
    "date_created": "2022-03-09T13:30:08.000",
    "date_modified": "2022-03-09T13:30:14.000",
    "request_status": "Pending",
    "responsible_agency": "Department of Public Works",
    "final_address": "1958 Duels St",
    "address_councildis": "D",
    "status": "Pending",
    "contractor": "Royal Engineering",
    "rowid": "865701",
    "final_x": "3682817.99989",
    "final_y": "542327.619469",
    "longitude": "-90.06353037190823",
    "latitude": "29.98517281358152",
    "geocoded_column": {
      "latitude": "29.98517281358152",
      "longitude": "-90.06353037190823"
    }
  },
  {
    "service_request": "2022-865700",
    "request_type": "Trash/Recycling",
    "request_reason": "Order Trash Cart",
    "date_created": "2022-03-09T13:27:00.000",
    "date_modified": "2022-03-09T13:27:01.000",
    "request_status": "Pending",
    "responsible_agency": "Department of Sanitation",
    "final_address": "2222 Iberville St, New Orleans, Louisiana, 70119",
    "address_councildis": "B",
    "status": "Assigned to Contractor",
    "contractor": "Richards Disposal",
    "rowid": "865700",
    "final_x": "3677033.19067",
    "final_y": "534304.531013",
    "longitude": "-90.08207889169574",
    "latitude": "29.963287072116803",
    "geocoded_column": {
      "latitude": "29.963287072116803",
      "longitude": "-90.08207889169574"
    }
  },
  {
    "service_request": "2022-865699",
    "request_type": "Trash/Recycling",
    "request_reason": "Request a Large Item Pick Up",
    "date_created": "2022-03-09T13:25:55.000",
    "date_modified": "2022-03-09T13:25:56.000",
    "request_status": "Pending",
    "responsible_agency": "Department of Sanitation",
    "final_address": "125 N Miro St, New Orleans, Louisiana, 70119",
    "address_councildis": "D",
    "status": "Assigned to Contractor",
    "contractor": "Metro Disposal",
    "rowid": "865699",
    "final_x": "3690222.97033",
    "final_y": "540140.010635",
    "longitude": "-90.04021924332929",
    "latitude": "29.978929953674253",
    "geocoded_column": {
      "latitude": "29.978929953674253",
      "longitude": "-90.04021924332929"
    }
  },
  {
    "service_request": "2022-865698",
    "request_type": "Trash/Recycling",
    "request_reason": "Request a Large Item Pick Up",
    "date_created": "2022-03-09T13:24:26.000",
    "date_modified": "2022-03-09T13:24:27.000",
    "request_status": "Pending",
    "responsible_agency": "Department of Sanitation",
    "final_address": "2300 Iberville St, New Orleans, Louisiana, 70119",
    "address_councildis": "B",
    "status": "Assigned to Contractor",
    "contractor": "Richards Disposal",
    "rowid": "865698",
    "final_x": "3676913.28245",
    "final_y": "534423.154373",
    "longitude": "-90.08245345911288",
    "latitude": "29.963616846066493",
    "geocoded_column": {
      "latitude": "29.963616846066493",
      "longitude": "-90.08245345911288"
    }
  },
  {
    "service_request": "2022-865697",
    "request_type": "Roads/Drainage",
    "request_reason": "Catch Basin - Clogged",
    "date_created": "2022-03-09T13:20:32.000",
    "date_modified": "2022-03-09T13:20:32.000",
    "request_status": "Pending",
    "responsible_agency": "Department of Public Works",
    "final_address": "4767 Charlene Dr",
    "address_councildis": "E",
    "status": "Pending",
    "rowid": "865697",
    "final_x": "3707953.78379",
    "final_y": "555735.276377",
    "longitude": "-89.98363888876929",
    "latitude": "30.021248899856143",
    "geocoded_column": {
      "latitude": "30.021248899856143",
      "longitude": "-89.98363888876929"
    }
  },
  {
    "service_request": "2022-865696",
    "request_type": "Trash/Recycling",
    "request_reason": "Repair Trash Cart",
    "date_created": "2022-03-09T13:20:31.000",
    "date_modified": "2022-03-09T13:20:32.000",
    "request_status": "Pending",
    "responsible_agency": "Department of Sanitation",
    "final_address": "52 Yellowstone Dr",
    "address_councildis": "C",
    "status": "Assigned to Contractor",
    "contractor": "Richards Disposal",
    "rowid": "865696",
    "final_x": "3700288.09335",
    "final_y": "517015.456309",
    "longitude": "-90.00927390658961",
    "latitude": "29.915029403820903",
    "geocoded_column": {
      "latitude": "29.915029403820903",
      "longitude": "-90.00927390658961"
    }
  },
  {
    "service_request": "2022-865695",
    "request_type": "Trash/Recycling",
    "request_reason": "Request a Large Item Pick Up",
    "date_created": "2022-03-09T13:19:26.000",
    "date_modified": "2022-03-09T13:19:32.000",
    "request_status": "Pending",
    "responsible_agency": "Department of Sanitation",
    "final_address": "1540 Camp St Apt 2",
    "address_councildis": "B",
    "status": "Assigned to Contractor",
    "contractor": "Richards Disposal",
    "rowid": "865695",
    "final_x": "3679789.06274",
    "final_y": "523589.640571",
    "longitude": "-90.07374811447323",
    "latitude": "29.933741676872344",
    "geocoded_column": {
      "latitude": "29.933741676872344",
      "longitude": "-90.07374811447323"
    }
  },
  {
    "service_request": "2022-865694",
    "request_type": "Trash/Recycling",
    "request_reason": "Repair Trash Cart",
    "date_created": "2022-03-09T13:13:29.000",
    "date_modified": "2022-03-09T13:13:38.000",
    "request_status": "Pending",
    "responsible_agency": "Department of Sanitation",
    "final_address": "1021 Leontine St",
    "address_councildis": "B",
    "status": "Assigned to Contractor",
    "contractor": "Richards Disposal",
    "rowid": "865694",
    "final_x": "3667296.8802",
    "final_y": "519283.734839",
    "longitude": "-90.11333020671535",
    "latitude": "29.922273482986924",
    "geocoded_column": {
      "latitude": "29.922273482986924",
      "longitude": "-90.11333020671535"
    }
  },
  {
    "service_request": "2022-865693",
    "request_type": "Trash/Recycling",
    "request_reason": "Missed Trash Pick-Up",
    "date_created": "2022-03-09T13:12:05.000",
    "date_modified": "2022-03-09T13:12:13.000",
    "request_status": "Pending",
    "responsible_agency": "Department of Sanitation",
    "final_address": "4901 Haydel St",
    "address_councildis": "E",
    "status": "Assigned to Contractor",
    "contractor": "Metro Disposal",
    "rowid": "865693",
    "final_x": "3699017.12599",
    "final_y": "555257.084633",
    "longitude": "-90.01189349276677",
    "latitude": "30.020220468313415",
    "geocoded_column": {
      "latitude": "30.020220468313415",
      "longitude": "-90.01189349276677"
    }
  },
  {
    "service_request": "2022-865692",
    "request_type": "Trash/Recycling",
    "request_reason": "Request a Large Item Pick Up",
    "date_created": "2022-03-09T13:11:09.000",
    "date_modified": "2022-03-09T13:11:10.000",
    "request_status": "Pending",
    "responsible_agency": "Department of Sanitation",
    "final_address": "1420 Hendee St",
    "address_councildis": "C",
    "status": "Assigned to Contractor",
    "contractor": "Richards Disposal",
    "rowid": "865692",
    "final_x": "3690761.87593",
    "final_y": "525948.817341",
    "longitude": "-90.03902346717162",
    "latitude": "29.939892383876092",
    "geocoded_column": {
      "latitude": "29.939892383876092",
      "longitude": "-90.03902346717162"
    }
  },
  {
    "service_request": "2022-865691",
    "request_type": "Trash/Recycling",
    "request_reason": "Order Trash Cart",
    "date_created": "2022-03-09T13:08:57.000",
    "date_modified": "2022-03-09T13:08:58.000",
    "request_status": "Pending",
    "responsible_agency": "Department of Sanitation",
    "final_address": "New Orleans,LA",
    "status": "Assigned to Contractor",
    "rowid": "865691",
    "longitude": "0.0",
    "latitude": "0.0",
    "geocoded_column": {
      "latitude": "0.0",
      "longitude": "0.0"
    }
  },
  {
    "service_request": "2022-865690",
    "request_type": "Roads/Drainage",
    "request_reason": "Service Cut",
    "date_created": "2022-03-09T13:07:54.000",
    "date_modified": "2022-03-09T14:17:52.000",
    "case_close_date": "2022-03-09T08:17:52.000",
    "request_status": "Closed",
    "responsible_agency": "Department of Public Works",
    "final_address": "PARIS AVE & PRENTISS AVE",
    "address_councildis": "D",
    "status": "Referred to External Agency",
    "rowid": "865690",
    "final_x": "3679072.3",
    "final_y": "553406.48",
    "longitude": "-90.07497716534098",
    "latitude": "30.01574934918511",
    "geocoded_column": {
      "latitude": "30.01574934918511",
      "longitude": "-90.07497716534098"
    }
  },
  {
    "service_request": "2022-865689",
    "request_type": "Trash/Recycling",
    "request_reason": "Request a Large Item Pick Up",
    "date_created": "2022-03-09T13:07:41.000",
    "date_modified": "2022-03-09T13:07:42.000",
    "request_status": "Pending",
    "responsible_agency": "Department of Sanitation",
    "final_address": "1418 Hendee St",
    "address_councildis": "C",
    "status": "Assigned to Contractor",
    "contractor": "Richards Disposal",
    "rowid": "865689",
    "final_x": "3690763.69513",
    "final_y": "525981.665405",
    "longitude": "-90.03901655227057",
    "latitude": "29.939982648345435",
    "geocoded_column": {
      "latitude": "29.939982648345435",
      "longitude": "-90.03901655227057"
    }
  },
  {
    "service_request": "2022-865688",
    "request_type": "Trash/Recycling",
    "request_reason": "Repair Trash Cart",
    "date_created": "2022-03-09T13:03:46.000",
    "date_modified": "2022-03-09T13:04:34.000",
    "request_status": "Pending",
    "responsible_agency": "Department of Sanitation",
    "final_address": "2220 Iberville St",
    "address_councildis": "B",
    "status": "Assigned to Contractor",
    "contractor": "Richards Disposal",
    "rowid": "865688",
    "final_x": "3677056.72565",
    "final_y": "534295.872901",
    "longitude": "-90.08200486943744",
    "latitude": "29.96326255855136",
    "geocoded_column": {
      "latitude": "29.96326255855136",
      "longitude": "-90.08200486943744"
    }
  },
  {
    "service_request": "2022-865687",
    "request_type": "Trash/Recycling",
    "request_reason": "MIssed Recycling Pick-Up",
    "date_created": "2022-03-09T12:57:18.000",
    "date_modified": "2022-03-09T12:57:19.000",
    "request_status": "Pending",
    "responsible_agency": "Department of Sanitation",
    "final_address": "4316 State Street Dr",
    "address_councildis": "B",
    "status": "Assigned to Contractor",
    "contractor": "Richards Disposal",
    "rowid": "865687",
    "final_x": "3668529.31527",
    "final_y": "531409.528515",
    "longitude": "-90.10903093174993",
    "latitude": "29.955579369737148",
    "geocoded_column": {
      "latitude": "29.955579369737148",
      "longitude": "-90.10903093174993"
    }
  },
  {
    "service_request": "2022-865686",
    "request_type": "Traffic Signals/Signs/Striping/Streetlights",
    "request_reason": "Street Light Outage/Malfunction",
    "date_created": "2022-03-09T12:49:59.000",
    "date_modified": "2022-03-09T12:50:00.000",
    "request_status": "Pending",
    "responsible_agency": "Department of Public Works",
    "final_address": "3219 Coliseum St",
    "address_councildis": "B",
    "status": "Pending",
    "contractor": "Royal Engineering",
    "rowid": "865686",
    "final_x": "3675138.38357",
    "final_y": "520894.682489",
    "longitude": "-90.08852252936254",
    "latitude": "29.92647116960814",
    "geocoded_column": {
      "latitude": "29.92647116960814",
      "longitude": "-90.08852252936254"
    }
  },
  {
    "service_request": "2022-865685",
    "request_type": "Trash/Recycling",
    "request_reason": "Order Trash Cart",
    "date_created": "2022-03-09T12:37:33.000",
    "date_modified": "2022-03-09T12:37:34.000",
    "request_status": "Pending",
    "responsible_agency": "Department of Sanitation",
    "final_address": "1405 Tupelo St",
    "address_councildis": "E",
    "status": "Assigned to Contractor",
    "contractor": "Metro Disposal",
    "rowid": "865685",
    "final_x": "3699969.508",
    "final_y": "534408.122053",
    "longitude": "-90.00964528912364",
    "latitude": "29.96286328776832",
    "geocoded_column": {
      "latitude": "29.96286328776832",
      "longitude": "-90.00964528912364"
    }
  },
  {
    "service_request": "2022-865684",
    "request_type": "Roads/Drainage",
    "request_reason": "Man hole cover issue",
    "date_created": "2022-03-09T12:34:15.000",
    "date_modified": "2022-03-09T12:34:15.000",
    "request_status": "Pending",
    "responsible_agency": "Department of Public Works",
    "final_address": "3805 Baronne St",
    "address_councildis": "B",
    "status": "Pending",
    "rowid": "865684",
    "final_x": "3672644.45032",
    "final_y": "521861.257402",
    "longitude": "-90.09636225951887",
    "latitude": "29.92920320242597",
    "geocoded_column": {
      "latitude": "29.92920320242597",
      "longitude": "-90.09636225951887"
    }
  },
  {
    "service_request": "2022-865683",
    "request_type": "Traffic Signals/Signs/Striping/Streetlights",
    "request_reason": "Street Light Outage/Malfunction",
    "date_created": "2022-03-09T12:33:10.000",
    "date_modified": "2022-03-09T12:33:11.000",
    "request_status": "Pending",
    "responsible_agency": "Department of Public Works",
    "final_address": "8821 Plum St",
    "address_councildis": "A",
    "status": "Pending",
    "contractor": "Royal Engineering",
    "rowid": "865683",
    "final_x": "3660258.68768",
    "final_y": "530454.210626",
    "longitude": "-90.13517830660916",
    "latitude": "29.953192948003185",
    "geocoded_column": {
      "latitude": "29.953192948003185",
      "longitude": "-90.13517830660916"
    }
  },
  {
    "service_request": "2022-865682",
    "request_type": "Traffic Signals/Signs/Striping/Streetlights",
    "request_reason": "Street Light Outage/Malfunction",
    "date_created": "2022-03-09T12:32:11.000",
    "date_modified": "2022-03-09T12:32:12.000",
    "request_status": "Pending",
    "responsible_agency": "Department of Public Works",
    "final_address": "LAW ST & PAUGER ST",
    "address_councildis": "D",
    "status": "Pending",
    "contractor": "Royal Engineering",
    "rowid": "865682",
    "final_x": "3683429.6",
    "final_y": "541737.78",
    "longitude": "-90.06161926415488",
    "latitude": "29.983532312360953",
    "geocoded_column": {
      "latitude": "29.983532312360953",
      "longitude": "-90.06161926415488"
    }
  },
  {
    "service_request": "2022-865681",
    "request_type": "Roads/Drainage",
    "request_reason": "Damaged Sidewalk",
    "date_created": "2022-03-09T12:29:02.000",
    "date_modified": "2022-03-09T12:29:02.000",
    "request_status": "Pending",
    "responsible_agency": "Department of Public Works",
    "final_address": "5500 Paris Ave",
    "address_councildis": "D",
    "status": "Pending",
    "rowid": "865681",
    "final_x": "3678794.34613",
    "final_y": "552818.48431",
    "longitude": "-90.07587576162345",
    "latitude": "30.01414096363432",
    "geocoded_column": {
      "latitude": "30.01414096363432",
      "longitude": "-90.07587576162345"
    }
  },
  {
    "service_request": "2022-865680",
    "request_type": "Trash/Recycling",
    "request_reason": "Replace Trash Cart",
    "date_created": "2022-03-09T12:24:42.000",
    "date_modified": "2022-03-09T12:57:11.000",
    "case_close_date": "2022-03-09T06:57:11.000",
    "request_status": "Closed",
    "responsible_agency": "Department of Sanitation",
    "final_address": "2305 Toledano St",
    "address_councildis": "B",
    "status": "Duplicate Case",
    "contractor": "Richards Disposal",
    "rowid": "865680",
    "final_x": "3673575.14644",
    "final_y": "524052.5447",
    "longitude": "-90.0933493671814",
    "latitude": "29.935200873697312",
    "geocoded_column": {
      "latitude": "29.935200873697312",
      "longitude": "-90.0933493671814"
    }
  },
  {
    "service_request": "2022-865679",
    "request_type": "Trash/Recycling",
    "request_reason": "Replace Trash Cart",
    "date_created": "2022-03-09T12:24:07.000",
    "date_modified": "2022-03-09T14:43:39.000",
    "case_close_date": "2022-03-09T08:43:39.000",
    "request_status": "Closed",
    "responsible_agency": "Department of Sanitation",
    "final_address": "2305 Toledano St",
    "address_councildis": "B",
    "status": "Duplicate Case",
    "contractor": "Richards Disposal",
    "rowid": "865679",
    "final_x": "3673575.14644",
    "final_y": "524052.5447",
    "longitude": "-90.0933493671814",
    "latitude": "29.935200873697312",
    "geocoded_column": {
      "latitude": "29.935200873697312",
      "longitude": "-90.0933493671814"
    }
  },
  {
    "service_request": "2022-865678",
    "request_type": "Abandoned Vehicles",
    "request_reason": "Abandoned/Junk Vehicles",
    "date_created": "2022-03-09T12:19:13.000",
    "date_modified": "2022-03-09T12:19:13.000",
    "request_status": "Pending",
    "responsible_agency": "Department of Public Works",
    "final_address": "7417 Pearl St",
    "address_councildis": "A",
    "status": "Pending",
    "rowid": "865678",
    "final_x": "3662197.30093",
    "final_y": "524891.947324",
    "longitude": "-90.129241535523",
    "latitude": "29.937842619732262",
    "geocoded_column": {
      "latitude": "29.937842619732262",
      "longitude": "-90.129241535523"
    }
  },
  {
    "service_request": "2022-865677",
    "request_type": "Abandoned Vehicles",
    "request_reason": "Abandoned/Junk Vehicles",
    "date_created": "2022-03-09T12:17:14.000",
    "date_modified": "2022-03-09T12:17:14.000",
    "request_status": "Pending",
    "responsible_agency": "Department of Public Works",
    "final_address": "7417 Pearl St, New Orleans, Louisiana, 70118",
    "address_councildis": "A",
    "status": "Pending",
    "rowid": "865677",
    "final_x": "3662197.30093",
    "final_y": "524891.947324",
    "longitude": "-90.129241535523",
    "latitude": "29.937842619732262",
    "geocoded_column": {
      "latitude": "29.937842619732262",
      "longitude": "-90.129241535523"
    }
  },
  {
    "service_request": "2022-865676",
    "request_type": "Traffic Signals/Signs/Striping/Streetlights",
    "request_reason": "Street Light Knocked Down/Leaning",
    "date_created": "2022-03-09T12:07:41.000",
    "date_modified": "2022-03-09T12:07:42.000",
    "request_status": "Pending",
    "responsible_agency": "Department of Public Works",
    "final_address": "1600 St Roch Ave",
    "address_councildis": "D",
    "status": "Pending",
    "contractor": "Royal Engineering",
    "rowid": "865676",
    "final_x": "3686258.76156",
    "final_y": "538293.784393",
    "longitude": "-90.05280486533707",
    "latitude": "29.973975896426182",
    "geocoded_column": {
      "latitude": "29.973975896426182",
      "longitude": "-90.05280486533707"
    }
  },
  {
    "service_request": "2022-865675",
    "request_type": "Traffic Signals/Signs/Striping/Streetlights",
    "request_reason": "Street Light Knocked Down/Leaning",
    "date_created": "2022-03-09T12:03:02.000",
    "date_modified": "2022-03-09T12:03:03.000",
    "request_status": "Pending",
    "responsible_agency": "Department of Public Works",
    "final_address": "1600 St Roch Ave",
    "address_councildis": "D",
    "status": "Pending",
    "contractor": "Royal Engineering",
    "rowid": "865675",
    "final_x": "3686258.76156",
    "final_y": "538293.784393",
    "longitude": "-90.05280486533707",
    "latitude": "29.973975896426182",
    "geocoded_column": {
      "latitude": "29.973975896426182",
      "longitude": "-90.05280486533707"
    }
  },
  {
    "service_request": "2022-865674",
    "request_type": "Trash/Recycling",
    "request_reason": "MIssed Recycling Pick-Up",
    "date_created": "2022-03-09T12:02:59.000",
    "date_modified": "2022-03-09T12:03:00.000",
    "request_status": "Pending",
    "responsible_agency": "Department of Sanitation",
    "final_address": "2700 BLK dAbadie St",
    "address_councildis": "D",
    "status": "Assigned to Contractor",
    "contractor": "Metro Disposal",
    "rowid": "865674",
    "final_x": "3679103.47968",
    "final_y": "541085.171882",
    "longitude": "-90.07530606456962",
    "latitude": "29.981869178328807",
    "geocoded_column": {
      "latitude": "29.981869178328807",
      "longitude": "-90.07530606456962"
    }
  },
  {
    "service_request": "2022-865673",
    "request_type": "Trash/Recycling",
    "request_reason": "Change Size of Trash Cart",
    "date_created": "2022-03-09T11:59:13.000",
    "date_modified": "2022-03-09T11:59:15.000",
    "request_status": "Pending",
    "responsible_agency": "Department of Sanitation",
    "final_address": "4424 Banks St",
    "address_councildis": "A",
    "status": "Assigned to Contractor",
    "contractor": "Richards Disposal",
    "rowid": "865673",
    "final_x": "3669039.91233",
    "final_y": "538298.485449",
    "longitude": "-90.10718586937826",
    "latitude": "29.974506699610046",
    "geocoded_column": {
      "latitude": "29.974506699610046",
      "longitude": "-90.10718586937826"
    }
  },
  {
    "service_request": "2022-865672",
    "request_type": "Trash/Recycling",
    "request_reason": "Replace Recycling Cart",
    "date_created": "2022-03-09T11:58:24.000",
    "date_modified": "2022-03-09T11:58:24.000",
    "request_status": "Pending",
    "responsible_agency": "Department of Sanitation",
    "final_address": "310 S Olympia St",
    "address_councildis": "A",
    "status": "Pending",
    "rowid": "865672",
    "final_x": "3668901.92046",
    "final_y": "538876.222153",
    "longitude": "-90.10760216385857",
    "latitude": "29.976099340671464",
    "geocoded_column": {
      "latitude": "29.976099340671464",
      "longitude": "-90.10760216385857"
    }
  },
  {
    "service_request": "2022-865671",
    "request_type": "Traffic Signals/Signs/Striping/Streetlights",
    "request_reason": "Street Light Knocked Down/Leaning",
    "date_created": "2022-03-09T11:56:21.000",
    "date_modified": "2022-03-09T11:56:24.000",
    "request_status": "Pending",
    "responsible_agency": "Department of Public Works",
    "final_address": "1600 St Roch Ave",
    "address_councildis": "D",
    "status": "Pending",
    "contractor": "Royal Engineering",
    "rowid": "865671",
    "final_x": "3686258.76156",
    "final_y": "538293.784393",
    "longitude": "-90.05280486533707",
    "latitude": "29.973975896426182",
    "geocoded_column": {
      "latitude": "29.973975896426182",
      "longitude": "-90.05280486533707"
    }
  },
  {
    "service_request": "2022-865670",
    "request_type": "Trash/Recycling",
    "request_reason": "Order Recycling Cart",
    "date_created": "2022-03-09T11:55:40.000",
    "date_modified": "2022-03-09T11:55:40.000",
    "request_status": "Pending",
    "responsible_agency": "Department of Sanitation",
    "final_address": "3413 Camp St",
    "address_councildis": "B",
    "status": "Pending",
    "rowid": "865670",
    "final_x": "3674726.85877",
    "final_y": "519948.705848",
    "longitude": "-90.08985400686382",
    "latitude": "29.923882325219097",
    "geocoded_column": {
      "latitude": "29.923882325219097",
      "longitude": "-90.08985400686382"
    }
  },
  {
    "service_request": "2022-865669",
    "request_type": "Traffic Signals/Signs/Striping/Streetlights",
    "request_reason": "Street Light Outage/Malfunction",
    "date_created": "2022-03-09T11:53:49.000",
    "date_modified": "2022-03-09T11:53:50.000",
    "request_status": "Pending",
    "responsible_agency": "Department of Public Works",
    "final_address": "1600 St Roch Ave",
    "address_councildis": "D",
    "status": "Pending",
    "contractor": "Royal Engineering",
    "rowid": "865669",
    "final_x": "3686258.76156",
    "final_y": "538293.784393",
    "longitude": "-90.05280486533707",
    "latitude": "29.973975896426182",
    "geocoded_column": {
      "latitude": "29.973975896426182",
      "longitude": "-90.05280486533707"
    }
  },
  {
    "service_request": "2022-865668",
    "request_type": "Trash/Recycling",
    "request_reason": "MIssed Recycling Pick-Up",
    "date_created": "2022-03-09T11:53:19.000",
    "date_modified": "2022-03-09T11:53:19.000",
    "request_status": "Pending",
    "responsible_agency": "Department of Sanitation",
    "final_address": "4162 Orleans Ave",
    "address_councildis": "A",
    "status": "Assigned to Contractor",
    "contractor": "Richards Disposal",
    "rowid": "865668",
    "final_x": "3672205.25703",
    "final_y": "540364.078411",
    "longitude": "-90.09711854352578",
    "latitude": "29.980092862290128",
    "geocoded_column": {
      "latitude": "29.980092862290128",
      "longitude": "-90.09711854352578"
    }
  },
  {
    "service_request": "2022-865667",
    "request_type": "Traffic Signals/Signs/Striping/Streetlights",
    "request_reason": "Street Light Outage/Malfunction",
    "date_created": "2022-03-09T11:53:05.000",
    "date_modified": "2022-03-09T11:53:05.000",
    "request_status": "Pending",
    "responsible_agency": "Department of Public Works",
    "final_address": "23 Charlotte Dr",
    "address_councildis": "D",
    "status": "Pending",
    "contractor": "Royal Engineering",
    "rowid": "865667",
    "final_x": "3680207.13941",
    "final_y": "551734.479317",
    "longitude": "-90.07144976501442",
    "latitude": "30.01111763504725",
    "geocoded_column": {
      "latitude": "30.01111763504725",
      "longitude": "-90.07144976501442"
    }
  },
  {
    "service_request": "2022-865666",
    "request_type": "Traffic Signals/Signs/Striping/Streetlights",
    "request_reason": "Street Light Outage/Malfunction",
    "date_created": "2022-03-09T11:51:41.000",
    "date_modified": "2022-03-09T11:51:42.000",
    "request_status": "Pending",
    "responsible_agency": "Department of Public Works",
    "final_address": "1600 St Roch Ave",
    "address_councildis": "D",
    "status": "Pending",
    "contractor": "Royal Engineering",
    "rowid": "865666",
    "final_x": "3686258.76156",
    "final_y": "538293.784393",
    "longitude": "-90.05280486533707",
    "latitude": "29.973975896426182",
    "geocoded_column": {
      "latitude": "29.973975896426182",
      "longitude": "-90.05280486533707"
    }
  },
  {
    "service_request": "2022-865665",
    "request_type": "Trash/Recycling",
    "request_reason": "Request a Large Item Pick Up",
    "date_created": "2022-03-09T11:50:48.000",
    "date_modified": "2022-03-09T11:50:49.000",
    "request_status": "Pending",
    "responsible_agency": "Department of Sanitation",
    "final_address": "6033 Kuebel Dr",
    "address_councildis": "E",
    "status": "Assigned to Contractor",
    "contractor": "Metro Disposal",
    "rowid": "865665",
    "final_x": "3695062.80688",
    "final_y": "559792.973213",
    "longitude": "-90.02422410963558",
    "latitude": "30.032817237292633",
    "geocoded_column": {
      "latitude": "30.032817237292633",
      "longitude": "-90.02422410963558"
    }
  },
  {
    "service_request": "2022-865664",
    "request_type": "Traffic Signals/Signs/Striping/Streetlights",
    "request_reason": "Disabled Parking Sign ",
    "date_created": "2022-03-09T11:50:09.000",
    "date_modified": "2022-03-09T11:50:10.000",
    "request_status": "Pending",
    "responsible_agency": "Department of Public Works",
    "final_address": "2721 Calhoun St",
    "address_councildis": "A",
    "status": "Pending",
    "rowid": "865664",
    "final_x": "3666555.63572",
    "final_y": "526766.055998",
    "longitude": "-90.11541897703643",
    "latitude": "29.942869164990935",
    "geocoded_column": {
      "latitude": "29.942869164990935",
      "longitude": "-90.11541897703643"
    }
  },
  {
    "service_request": "2022-865663",
    "request_type": "Trash/Recycling",
    "request_reason": "Replace Trash Cart",
    "date_created": "2022-03-09T11:50:03.000",
    "date_modified": "2022-03-09T11:50:05.000",
    "request_status": "Pending",
    "responsible_agency": "Department of Sanitation",
    "final_address": "640 Camp St",
    "address_councildis": "B",
    "status": "Assigned to Contractor",
    "contractor": "Empire Services",
    "rowid": "865663",
    "final_x": "3680961.23458",
    "final_y": "528498.175616",
    "longitude": "-90.06987676048098",
    "latitude": "29.947203031472903",
    "geocoded_column": {
      "latitude": "29.947203031472903",
      "longitude": "-90.06987676048098"
    }
  },
  {
    "service_request": "2022-865662",
    "request_type": "Trash/Recycling",
    "request_reason": "Replace Trash Cart",
    "date_created": "2022-03-09T11:49:54.000",
    "date_modified": "2022-03-09T15:29:32.000",
    "case_close_date": "2022-03-09T09:29:32.000",
    "request_status": "Closed",
    "responsible_agency": "Department of Sanitation",
    "final_address": "640 Camp St",
    "address_councildis": "B",
    "status": "Assigned to Contractor",
    "contractor": "Empire Services",
    "contractor_action": "Completed",
    "rowid": "865662",
    "final_x": "3680961.23458",
    "final_y": "528498.175616",
    "longitude": "-90.06987676048098",
    "latitude": "29.947203031472903",
    "geocoded_column": {
      "latitude": "29.947203031472903",
      "longitude": "-90.06987676048098"
    }
  },
  {
    "service_request": "2022-865661",
    "request_type": "Trash/Recycling",
    "request_reason": "Order Trash Cart",
    "date_created": "2022-03-09T11:48:40.000",
    "date_modified": "2022-03-09T11:48:41.000",
    "request_status": "Pending",
    "responsible_agency": "Department of Sanitation",
    "final_address": "6035 Kuebel Dr",
    "address_councildis": "E",
    "status": "Assigned to Contractor",
    "contractor": "Metro Disposal",
    "rowid": "865661",
    "final_x": "3695088.28995",
    "final_y": "559804.584925",
    "longitude": "-90.02414316202794",
    "latitude": "30.03284836450167",
    "geocoded_column": {
      "latitude": "30.03284836450167",
      "longitude": "-90.02414316202794"
    }
  },
  {
    "service_request": "2022-865660",
    "request_type": "Trash/Recycling",
    "request_reason": "Order Trash Cart",
    "date_created": "2022-03-09T11:47:56.000",
    "date_modified": "2022-03-09T11:47:57.000",
    "request_status": "Pending",
    "responsible_agency": "Department of Sanitation",
    "final_address": "6033 Kuebel Dr",
    "address_councildis": "E",
    "status": "Assigned to Contractor",
    "contractor": "Metro Disposal",
    "rowid": "865660",
    "final_x": "3695062.80688",
    "final_y": "559792.973213",
    "longitude": "-90.02422410963558",
    "latitude": "30.032817237292633",
    "geocoded_column": {
      "latitude": "30.032817237292633",
      "longitude": "-90.02422410963558"
    }
  },
  {
    "service_request": "2022-865659",
    "request_type": "Traffic Signals/Signs/Striping/Streetlights",
    "request_reason": "Street Light Outage/Malfunction",
    "date_created": "2022-03-09T11:46:53.000",
    "date_modified": "2022-03-09T11:46:54.000",
    "request_status": "Pending",
    "responsible_agency": "Department of Public Works",
    "final_address": "1600 St Roch Ave",
    "address_councildis": "D",
    "status": "Pending",
    "contractor": "Royal Engineering",
    "rowid": "865659",
    "final_x": "3686258.76156",
    "final_y": "538293.784393",
    "longitude": "-90.05280486533707",
    "latitude": "29.973975896426182",
    "geocoded_column": {
      "latitude": "29.973975896426182",
      "longitude": "-90.05280486533707"
    }
  },
  {
    "service_request": "2022-865658",
    "request_type": "Trash/Recycling",
    "request_reason": "Request a Large Item Pick Up",
    "date_created": "2022-03-09T11:45:46.000",
    "date_modified": "2022-03-09T11:45:48.000",
    "request_status": "Pending",
    "responsible_agency": "Department of Sanitation",
    "final_address": "5419 Dayna Ct",
    "address_councildis": "A",
    "status": "Assigned to Contractor",
    "contractor": "Metro Disposal",
    "rowid": "865658",
    "final_x": "3664613.18356",
    "final_y": "543791.722062",
    "longitude": "-90.12098304842777",
    "latitude": "29.98974076397246",
    "geocoded_column": {
      "latitude": "29.98974076397246",
      "longitude": "-90.12098304842777"
    }
  },
  {
    "service_request": "2022-865657",
    "request_type": "Traffic Signals/Signs/Striping/Streetlights",
    "request_reason": "Street Light Knocked Down/Leaning",
    "date_created": "2022-03-09T11:39:30.000",
    "date_modified": "2022-03-09T11:39:38.000",
    "request_status": "Pending",
    "responsible_agency": "Department of Public Works",
    "final_address": "1600 St Roch Ave",
    "address_councildis": "D",
    "status": "Pending",
    "contractor": "Royal Engineering",
    "rowid": "865657",
    "final_x": "3686258.76156",
    "final_y": "538293.784393",
    "longitude": "-90.05280486533707",
    "latitude": "29.973975896426182",
    "geocoded_column": {
      "latitude": "29.973975896426182",
      "longitude": "-90.05280486533707"
    }
  },