[
  {
    "service_request": "2023-1000983",
    "request_type": "Trash/Recycling",
    "request_reason": "Start Trash Service",
    "date_created": "2023-05-18T22:25:38.000",
    "date_modified": "2023-05-18T22:25:39.000",
    "request_status": "Pending",
    "responsible_agency": "Department of Sanitation",
    "final_address": "503 Homer St",
    "address_councildis": "C",
    "status": "Assigned to Contractor",
    "contractor": "Richards Disposal",
    "rowid": "1000983",
    "final_x": "3687005.50383",
    "final_y": "528279.444608",
    "longitude": "-90.05080049593118",
    "latitude": "29.946416955014897",
    "geocoded_column": {
      "latitude": "29.946416955014897",
      "longitude": "-90.05080049593118"
    }
  },
  {
    "service_request": "2023-1000982",
    "request_type": "Trash/Recycling",
    "request_reason": "Start Trash Service",
    "date_created": "2023-05-18T22:23:43.000",
    "date_modified": "2023-05-18T22:23:44.000",
    "request_status": "Pending",
    "responsible_agency": "Department of Sanitation",
    "final_address": "503 Homer St",
    "address_councildis": "C",
    "status": "Assigned to Contractor",
    "contractor": "Richards Disposal",
    "rowid": "1000982",
    "final_x": "3687005.50383",
    "final_y": "528279.444608",
    "longitude": "-90.05080049593118",
    "latitude": "29.946416955014897",
    "geocoded_column": {
      "latitude": "29.946416955014897",
      "longitude": "-90.05080049593118"
    }
  },
  {
    "service_request": "2023-1000981",
    "request_type": "Property Maintenance",
    "request_reason": "Property Maintenance",
    "date_created": "2023-05-18T22:22:03.000",
    "date_modified": "2023-05-18T22:22:03.000",
    "request_status": "Pending",
    "responsible_agency": "Department of Code Enforcement",
    "final_address": "4120 Urquhart St",
    "address_councildis": "D",
    "status": "Pending",
    "rowid": "1000981",
    "final_x": "3692416.7512",
    "final_y": "535869.022791",
    "longitude": "-90.03344350368955",
    "latitude": "29.967117997370618",
    "geocoded_column": {
      "latitude": "29.967117997370618",
      "longitude": "-90.03344350368955"
    }
  },
  {
    "service_request": "2023-1000980",
    "request_type": "Mosquito, Termite & Rodent Control",
    "request_reason": "Rodent Complaint (Rats)",
    "date_created": "2023-05-18T22:17:28.000",
    "date_modified": "2023-05-18T22:17:28.000",
    "request_status": "Pending",
    "responsible_agency": "Mosquito, Termite & Rodent Control Board",
    "final_address": "4120 Urquhart St",
    "address_councildis": "D",
    "status": "Pending",
    "rowid": "1000980",
    "final_x": "3692416.7512",
    "final_y": "535869.022791",
    "longitude": "-90.03344350368955",
    "latitude": "29.967117997370618",
    "geocoded_column": {
      "latitude": "29.967117997370618",
      "longitude": "-90.03344350368955"
    }
  },
  {
    "service_request": "2023-1000968",
    "request_type": "Traffic Signals/Signs/Striping/Streetlights",
    "request_reason": "Street Name Sign Damaged or Missing",
    "date_created": "2023-05-18T21:33:47.000",
    "date_modified": "2023-05-18T21:33:47.000",
    "request_status": "Pending",
    "responsible_agency": "Department of Public Works",
    "final_address": "GENERAL MEYER AVE & HUDSON PL & NAVIGATIONAL CT",
    "address_councildis": "C",
    "status": "Pending",
    "rowid": "1000968",
    "final_x": "3703643.1",
    "final_y": "522455.28",
    "longitude": "-89.99848435634496",
    "latitude": "29.929880011019712",
    "geocoded_column": {
      "latitude": "29.929880011019712",
      "longitude": "-89.99848435634496"
    }
  },
  {
    "service_request": "2023-1000960",
    "request_type": "Trash/Recycling",
    "request_reason": "Request a Large Item Pick Up",
    "date_created": "2023-05-18T21:21:38.000",
    "date_modified": "2023-05-18T21:21:38.000",
    "request_status": "Pending",
    "responsible_agency": "Department of Sanitation",
    "final_address": "2028 Broadway St",
    "address_councildis": "A",
    "status": "Assigned to Contractor",
    "contractor": "Richards Disposal",
    "rowid": "1000960",
    "final_x": "3665837.76698",
    "final_y": "529078.096576",
    "longitude": "-90.11760802139321",
    "latitude": "29.949247491678328",
    "geocoded_column": {
      "latitude": "29.949247491678328",
      "longitude": "-90.11760802139321"
    }
  },
  {
    "service_request": "2023-1000958",
    "request_type": "Traffic Signals/Signs/Striping/Streetlights",
    "request_reason": "Road Surface Marking Maintenance-Traffic Control",
    "date_created": "2023-05-18T21:18:27.000",
    "date_modified": "2023-05-18T21:18:27.000",
    "request_status": "Pending",
    "responsible_agency": "Department of Public Works",
    "final_address": "BIENVILLE ST & N ALEXANDER ST",
    "address_councildis": "A",
    "status": "Pending",
    "rowid": "1000958",
    "final_x": "3670461.98",
    "final_y": "539792.16",
    "longitude": "-90.10264395735041",
    "latitude": "29.978571880327262",
    "geocoded_column": {
      "latitude": "29.978571880327262",
      "longitude": "-90.10264395735041"
    }
  },
  {
    "service_request": "2023-1000956",
    "request_type": "Property Maintenance",
    "request_reason": "Property Maintenance",
    "date_created": "2023-05-18T21:15:41.000",
    "date_modified": "2023-05-18T21:15:41.000",
    "request_status": "Pending",
    "responsible_agency": "Department of Code Enforcement",
    "final_address": "BIENVILLE ST & N ALEXANDER ST",
    "address_councildis": "A",
    "status": "Pending",
    "rowid": "1000956",
    "final_x": "3670461.98",
    "final_y": "539792.16",
    "longitude": "-90.10264395735041",
    "latitude": "29.978571880327262",
    "geocoded_column": {
      "latitude": "29.978571880327262",
      "longitude": "-90.10264395735041"
    }
  },
  {
    "service_request": "2023-1000952",
    "request_type": "Traffic Signals/Signs/Striping/Streetlights",
    "request_reason": "Street Light Outage/Malfunction",
    "date_created": "2023-05-18T20:46:54.000",
    "date_modified": "2023-05-18T20:46:54.000",
    "request_status": "Pending",
    "responsible_agency": "Department of Public Works",
    "final_address": "1521 Ursulines Ave",
    "address_councildis": "C",
    "status": "Assigned to Contractor",
    "contractor": "Legacy Professional Services",
    "rowid": "1000952",
    "final_x": "3681084.20699",
    "final_y": "535496.987974",
    "longitude": "-90.06924470697969",
    "latitude": "29.966443662089375",
    "geocoded_column": {
      "latitude": "29.966443662089375",
      "longitude": "-90.06924470697969"
    }
  },
  {
    "service_request": "2023-1000951",
    "request_type": "Traffic Signals/Signs/Striping/Streetlights",
    "request_reason": "Additional signage",
    "date_created": "2023-05-18T20:44:22.000",
    "date_modified": "2023-05-18T20:44:22.000",
    "request_status": "Pending",
    "responsible_agency": "Department of Public Works",
    "final_address": "4300 BLK Bienville Ave",
    "address_councildis": "A",
    "status": "Pending",
    "rowid": "1000951",
    "final_x": "3670628.09768",
    "final_y": "539701.961394",
    "longitude": "-90.10212235592586",
    "latitude": "29.978318957804753",
    "geocoded_column": {
      "latitude": "29.978318957804753",
      "longitude": "-90.10212235592586"
    }
  },
  {
    "service_request": "2023-1000950",
    "request_type": "Trash/Recycling",
    "request_reason": "Replace Trash Cart",
    "date_created": "2023-05-18T20:36:09.000",
    "date_modified": "2023-05-18T20:36:10.000",
    "request_status": "Pending",
    "responsible_agency": "Department of Sanitation",
    "final_address": "7935 Trout St",
    "address_councildis": "E",
    "status": "Assigned to Contractor",
    "contractor": "Waste Pro",
    "rowid": "1000950",
    "final_x": "3699545.53821",
    "final_y": "561457.534815",
    "longitude": "-90.00999762247628",
    "latitude": "30.037252553313923",
    "geocoded_column": {
      "latitude": "30.037252553313923",
      "longitude": "-90.00999762247628"
    }
  },
  {
    "service_request": "2023-1000949",
    "request_type": "Roads/Drainage",
    "request_reason": "Catch Basin - Broken/Damage",
    "date_created": "2023-05-18T20:32:50.000",
    "date_modified": "2023-05-18T20:32:50.000",
    "request_status": "Pending",
    "responsible_agency": "Department of Public Works",
    "final_address": "3633 Havana St",
    "address_councildis": "D",
    "status": "Pending",
    "rowid": "1000949",
    "final_x": "3680872.99439",
    "final_y": "545888.084752",
    "longitude": "-90.0695497868596",
    "latitude": "29.995021961922607",
    "geocoded_column": {
      "latitude": "29.995021961922607",
      "longitude": "-90.0695497868596"
    }
  },
  {
    "service_request": "2023-1000948",
    "request_type": "Roads/Drainage",
    "request_reason": "Catch Basin - Clogged",
    "date_created": "2023-05-18T20:27:36.000",
    "date_modified": "2023-05-18T20:27:36.000",
    "request_status": "Pending",
    "responsible_agency": "Department of Public Works",
    "final_address": "7408 Edward St",
    "address_councildis": "E",
    "status": "Pending",
    "rowid": "1000948",
    "final_x": "3701208.4602",
    "final_y": "560271.627997",
    "longitude": "-90.00478589743425",
    "latitude": "30.033938859569496",
    "geocoded_column": {
      "latitude": "30.033938859569496",
      "longitude": "-90.00478589743425"
    }
  },
  {
    "service_request": "2023-1000947",
    "request_type": "Trash/Recycling",
    "request_reason": "Request a Large Item Pick Up",
    "date_created": "2023-05-18T20:15:11.000",
    "date_modified": "2023-05-18T20:15:12.000",
    "request_status": "Pending",
    "responsible_agency": "Department of Sanitation",
    "final_address": "4717 Mithra St",
    "address_councildis": "D",
    "status": "Assigned to Contractor",
    "contractor": "IV Waste",
    "rowid": "1000947",
    "final_x": "3691203.00361",
    "final_y": "553618.558167",
    "longitude": "-90.0366421882599",
    "latitude": "30.015960603555243",
    "geocoded_column": {
      "latitude": "30.015960603555243",
      "longitude": "-90.0366421882599"
    }
  },
  {
    "service_request": "2023-1000946",
    "request_type": "Trash/Recycling",
    "request_reason": "Damaged Caused By Contractor",
    "date_created": "2023-05-18T19:39:04.000",
    "date_modified": "2023-05-18T19:39:04.000",
    "request_status": "Pending",
    "responsible_agency": "Department of Sanitation",
    "final_address": "88 Versailles Blvd",
    "address_councildis": "B",
    "status": "Assigned to Contractor",
    "contractor": "Richards Disposal",
    "rowid": "1000946",
    "final_x": "3668020.12225",
    "final_y": "530990.539522",
    "longitude": "-90.11065290406768",
    "latitude": "29.954442237369555",
    "geocoded_column": {
      "latitude": "29.954442237369555",
      "longitude": "-90.11065290406768"
    }
  },
  {
    "service_request": "2023-1000945",
    "request_type": "Roads/Drainage",
    "request_reason": "Catch Basin - Clogged",
    "date_created": "2023-05-18T19:25:27.000",
    "date_modified": "2023-05-18T19:25:27.000",
    "request_status": "Pending",
    "responsible_agency": "Department of Public Works",
    "final_address": "13800 BLK Michoud Blvd",
    "address_councildis": "E",
    "status": "Pending",
    "rowid": "1000945",
    "final_x": "3725213.13353",
    "final_y": "570714.278306",
    "longitude": "-89.92852469066472",
    "latitude": "30.061864667859812",
    "geocoded_column": {
      "latitude": "30.061864667859812",
      "longitude": "-89.92852469066472"
    }
  },
  {
    "service_request": "2023-1000944",
    "request_type": "Roads/Drainage",
    "request_reason": "Construction debris",
    "date_created": "2023-05-18T19:12:05.000",
    "date_modified": "2023-05-18T19:12:05.000",
    "request_status": "Pending",
    "responsible_agency": "Department of Public Works",
    "final_address": "339 N Olympia St",
    "address_councildis": "A",
    "status": "Pending",
    "rowid": "1000944",
    "final_x": "3670070.92366",
    "final_y": "540548.298827",
    "longitude": "-90.10385343652078",
    "latitude": "29.980662548805945",
    "geocoded_column": {
      "latitude": "29.980662548805945",
      "longitude": "-90.10385343652078"
    }
  },
  {
    "service_request": "2023-1000943",
    "request_type": "Roads/Drainage",
    "request_reason": "Catch Basin - Clogged",
    "date_created": "2023-05-18T18:44:45.000",
    "date_modified": "2023-05-18T18:44:45.000",
    "request_status": "Pending",
    "responsible_agency": "Department of Public Works",
    "final_address": "2005 Josephine St",
    "address_councildis": "B",
    "status": "Pending",
    "rowid": "1000943",
    "final_x": "3676928.65966",
    "final_y": "525280.477949",
    "longitude": "-90.08272001531691",
    "latitude": "29.938477074341552",
    "geocoded_column": {
      "latitude": "29.938477074341552",
      "longitude": "-90.08272001531691"
    }
  },
  {
    "service_request": "2023-1000942",
    "request_type": "Roads/Drainage",
    "request_reason": "Catch Basin - Clogged",
    "date_created": "2023-05-18T18:44:07.000",
    "date_modified": "2023-05-18T18:44:07.000",
    "request_status": "Pending",
    "responsible_agency": "Department of Public Works",
    "final_address": "2005 Josephine St",
    "address_councildis": "B",
    "status": "Pending",
    "rowid": "1000942",
    "final_x": "3676928.65966",
    "final_y": "525280.477949",
    "longitude": "-90.08272001531691",
    "latitude": "29.938477074341552",
    "geocoded_column": {
      "latitude": "29.938477074341552",
      "longitude": "-90.08272001531691"
    }
  },
  {
    "service_request": "2023-1000941",
    "request_type": "Roads/Drainage",
    "request_reason": "Catch Basin - Clogged",
    "date_created": "2023-05-18T18:43:33.000",
    "date_modified": "2023-05-18T18:43:33.000",
    "request_status": "Pending",
    "responsible_agency": "Department of Public Works",
    "final_address": "2005 Josephine St",
    "address_councildis": "B",
    "status": "Pending",
    "rowid": "1000941",
    "final_x": "3676928.65966",
    "final_y": "525280.477949",
    "longitude": "-90.08272001531691",
    "latitude": "29.938477074341552",
    "geocoded_column": {
      "latitude": "29.938477074341552",
      "longitude": "-90.08272001531691"
    }
  },
  {
    "service_request": "2023-1000940",
    "request_type": "Roads/Drainage",
    "request_reason": "Catch Basin - Clogged",
    "date_created": "2023-05-18T18:42:53.000",
    "date_modified": "2023-05-18T18:42:53.000",
    "request_status": "Pending",
    "responsible_agency": "Department of Public Works",
    "final_address": "2005 Josephine St",
    "address_councildis": "B",
    "status": "Pending",
    "rowid": "1000940",
    "final_x": "3676928.65966",
    "final_y": "525280.477949",
    "longitude": "-90.08272001531691",
    "latitude": "29.938477074341552",
    "geocoded_column": {
      "latitude": "29.938477074341552",
      "longitude": "-90.08272001531691"
    }
  },
  {
    "service_request": "2023-1000939",
    "request_type": "Abandoned Vehicles",
    "request_reason": "Abandoned/Junk Vehicles",
    "date_created": "2023-05-18T18:38:59.000",
    "date_modified": "2023-05-18T18:38:59.000",
    "request_status": "Pending",
    "responsible_agency": "Department of Public Works",
    "final_address": "1517 Dumaine St",
    "address_councildis": "C",
    "status": "Pending",
    "rowid": "1000939",
    "final_x": "3680668.01416",
    "final_y": "534878.838598",
    "longitude": "-90.07058055051647",
    "latitude": "29.964756581199534",
    "geocoded_column": {
      "latitude": "29.964756581199534",
      "longitude": "-90.07058055051647"
    }
  },
  {
    "service_request": "2023-1000938",
    "request_type": "Roads/Drainage",
    "request_reason": "Catch Basin - Clogged",
    "date_created": "2023-05-18T18:30:39.000",
    "date_modified": "2023-05-18T18:30:40.000",
    "request_status": "Pending",
    "responsible_agency": "Department of Public Works",
    "final_address": "1800 BLK Josephine St",
    "address_councildis": "B",
    "status": "Pending",
    "rowid": "1000938",
    "final_x": "3677223.76888",
    "final_y": "524834.465211",
    "longitude": "-90.08180370487277",
    "latitude": "29.937241826202133",
    "geocoded_column": {
      "latitude": "29.937241826202133",
      "longitude": "-90.08180370487277"
    }
  },
  {
    "service_request": "2023-1000935",
    "request_type": "Abandoned Vehicles",
    "request_reason": "Abandoned/Junk Vehicles",
    "date_created": "2023-05-18T18:09:08.000",
    "date_modified": "2023-05-18T18:09:09.000",
    "request_status": "Pending",
    "responsible_agency": "Department of Public Works",
    "final_address": "4900 Bonita Dr",
    "address_councildis": "E",
    "status": "Pending",
    "rowid": "1000935",
    "final_x": "3704363.20516",
    "final_y": "556040.714457",
    "longitude": "-89.99497275660384",
    "latitude": "30.022204539874544",
    "geocoded_column": {
      "latitude": "30.022204539874544",
      "longitude": "-89.99497275660384"
    }
  },
  {
    "service_request": "2023-1000934",
    "request_type": "Roads/Drainage",
    "request_reason": "Pothole",
    "date_created": "2023-05-18T18:09:06.000",
    "date_modified": "2023-05-18T18:09:06.000",
    "request_status": "Pending",
    "responsible_agency": "Department of Public Works",
    "final_address": "706 Franklin Ave",
    "address_councildis": "C",
    "status": "Pending",
    "rowid": "1000934",
    "final_x": "3686725.08201",
    "final_y": "535091.60743",
    "longitude": "-90.05144526334986",
    "latitude": "29.965156689581736",
    "geocoded_column": {
      "latitude": "29.965156689581736",
      "longitude": "-90.05144526334986"
    }
  },
  {
    "service_request": "2023-1000933",
    "request_type": "Abandoned Vehicles",
    "request_reason": "Abandoned/Junk Vehicles",
    "date_created": "2023-05-18T18:06:37.000",
    "date_modified": "2023-05-18T18:06:38.000",
    "request_status": "Pending",
    "responsible_agency": "Department of Public Works",
    "final_address": "2415 Peniston St",
    "address_councildis": "B",
    "status": "Pending",
    "rowid": "1000933",
    "final_x": "3672262.10036",
    "final_y": "524036.298172",
    "longitude": "-90.09749521269318",
    "latitude": "29.93519520654297",
    "geocoded_column": {
      "latitude": "29.93519520654297",
      "longitude": "-90.09749521269318"
    }
  },
  {
    "service_request": "2023-1000932",
    "request_type": "Trash/Recycling",
    "request_reason": "Replace Trash Cart",
    "date_created": "2023-05-18T17:56:39.000",
    "date_modified": "2023-05-18T17:56:40.000",
    "request_status": "Pending",
    "responsible_agency": "Department of Sanitation",
    "final_address": "2506 St Thomas St",
    "address_councildis": "B",
    "status": "Assigned to Contractor",
    "contractor": "Richards Disposal",
    "rowid": "1000932",
    "final_x": "3678780.87694",
    "final_y": "519731.91948",
    "longitude": "-90.07706443218284",
    "latitude": "29.923164639616722",
    "geocoded_column": {
      "latitude": "29.923164639616722",
      "longitude": "-90.07706443218284"
    }
  },
  {
    "service_request": "2023-1000931",
    "request_type": "Trash/Recycling",
    "request_reason": "Request a Large Item Pick Up",
    "date_created": "2023-05-18T17:50:22.000",
    "date_modified": "2023-05-18T17:50:22.000",
    "request_status": "Pending",
    "responsible_agency": "Department of Sanitation",
    "final_address": "5516 S Robertson St",
    "address_councildis": "A",
    "status": "Assigned to Contractor",
    "contractor": "Richards Disposal",
    "rowid": "1000931",
    "final_x": "3667488.18477",
    "final_y": "524354.552508",
    "longitude": "-90.11255580151756",
    "latitude": "29.93621101795264",
    "geocoded_column": {
      "latitude": "29.93621101795264",
      "longitude": "-90.11255580151756"
    }
  },
  {
    "service_request": "2023-1000930",
    "request_type": "Trash/Recycling",
    "request_reason": "Illegal Dumping",
    "date_created": "2023-05-18T17:49:35.000",
    "date_modified": "2023-05-18T17:49:36.000",
    "request_status": "Pending",
    "responsible_agency": "Department of Sanitation",
    "final_address": "3301 Palmyra St",
    "address_councildis": "B",
    "status": "Pending",
    "rowid": "1000930",
    "final_x": "3673117.0219",
    "final_y": "535910.155655",
    "longitude": "-90.09439090692761",
    "latitude": "29.967819006939354",
    "geocoded_column": {
      "latitude": "29.967819006939354",
      "longitude": "-90.09439090692761"
    }
  },
  {
    "service_request": "2023-1000929",
    "request_type": "Trash/Recycling",
    "request_reason": "Replace Trash Cart",
    "date_created": "2023-05-18T17:45:07.000",
    "date_modified": "2023-05-18T17:45:08.000",
    "request_status": "Pending",
    "responsible_agency": "Department of Sanitation",
    "final_address": "312 S Genois St",
    "address_councildis": "B",
    "status": "Assigned to Contractor",
    "contractor": "Richards Disposal",
    "rowid": "1000929",
    "final_x": "3672061.14561",
    "final_y": "536426.030791",
    "longitude": "-90.09770783487232",
    "latitude": "29.969268839802982",
    "geocoded_column": {
      "latitude": "29.969268839802982",
      "longitude": "-90.09770783487232"
    }
  },
  {
    "service_request": "2023-1000928",
    "request_type": "Trash/Recycling",
    "request_reason": "Report a Missed Trash/Recycling Pick Up",
    "date_created": "2023-05-18T17:42:02.000",
    "date_modified": "2023-05-18T17:42:03.000",
    "request_status": "Pending",
    "responsible_agency": "Department of Sanitation",
    "final_address": "521 Third St",
    "address_councildis": "B",
    "contractor": "Richards Disposal",
    "rowid": "1000928",
    "final_x": "3678745.00674",
    "final_y": "519487.520439",
    "longitude": "-90.07718611810891",
    "latitude": "29.92249370293357",
    "geocoded_column": {
      "latitude": "29.92249370293357",
      "longitude": "-90.07718611810891"
    }
  },
  {
    "service_request": "2023-1000927",
    "request_type": "Trash/Recycling",
    "request_reason": "Missed Trash Pick-Up",
    "date_created": "2023-05-18T17:38:40.000",
    "date_modified": "2023-05-18T17:38:41.000",
    "request_status": "Pending",
    "responsible_agency": "Department of Sanitation",
    "final_address": "5006 N Galvez St",
    "address_councildis": "E",
    "status": "Assigned to Contractor",
    "contractor": "Waste Pro",
    "rowid": "1000927",
    "final_x": "3697065.836",
    "final_y": "537903.945161",
    "longitude": "-90.01868800928291",
    "latitude": "29.972567466573878",
    "geocoded_column": {
      "latitude": "29.972567466573878",
      "longitude": "-90.01868800928291"
    }
  },
  {
    "service_request": "2023-1000926",
    "request_type": "Trash/Recycling",
    "request_reason": "Missed Trash Pick-Up",
    "date_created": "2023-05-18T17:38:35.000",
    "date_modified": "2023-05-18T17:38:36.000",
    "request_status": "Pending",
    "responsible_agency": "Department of Sanitation",
    "final_address": "4559 Shalimar Dr",
    "address_councildis": "D",
    "status": "Assigned to Contractor",
    "contractor": "Waste Pro",
    "rowid": "1000926",
    "final_x": "3697295.61162",
    "final_y": "553364.302551",
    "longitude": "-90.01740159634141",
    "latitude": "30.015070510167206",
    "geocoded_column": {
      "latitude": "30.015070510167206",
      "longitude": "-90.01740159634141"
    }
  },
  {
    "service_request": "2023-1000925",
    "request_type": "Roads/Drainage",
    "request_reason": "Leaking Hydrant",
    "date_created": "2023-05-18T17:35:35.000",
    "date_modified": "2023-05-18T17:35:35.000",
    "request_status": "Pending",
    "responsible_agency": "Department of Public Works",
    "final_address": "4401 Downman Rd",
    "address_councildis": "D",
    "status": "Pending",
    "rowid": "1000925",
    "final_x": "3696196.36515",
    "final_y": "553129.753367",
    "longitude": "-90.0208831641077",
    "latitude": "30.01446025421112",
    "geocoded_column": {
      "latitude": "30.01446025421112",
      "longitude": "-90.0208831641077"
    }
  },
  {
    "service_request": "2023-1000924",
    "request_type": "Trash/Recycling",
    "request_reason": "MIssed Recycling Pick-Up",
    "date_created": "2023-05-18T17:34:13.000",
    "date_modified": "2023-05-18T17:34:14.000",
    "request_status": "Pending",
    "responsible_agency": "Department of Sanitation",
    "final_address": "8522 Dixon St",
    "address_councildis": "A",
    "status": "Assigned to Contractor",
    "contractor": "Richards Disposal",
    "rowid": "1000924",
    "final_x": "3667183.91533",
    "final_y": "536487.479815",
    "longitude": "-90.11310848624369",
    "latitude": "29.969581518362162",
    "geocoded_column": {
      "latitude": "29.969581518362162",
      "longitude": "-90.11310848624369"
    }
  },
  {
    "service_request": "2023-1000923",
    "request_type": "Traffic Signals/Signs/Striping/Streetlights",
    "request_reason": "Additional signage",
    "date_created": "2023-05-18T17:25:57.000",
    "date_modified": "2023-05-18T17:25:58.000",
    "request_status": "Pending",
    "responsible_agency": "Department of Public Works",
    "final_address": "3346 Trafalgar St",
    "address_councildis": "A",
    "status": "Pending",
    "rowid": "1000923",
    "final_x": "3677751.58779",
    "final_y": "543145.697741",
    "longitude": "-90.07950476794628",
    "latitude": "29.987575650887152",
    "geocoded_column": {
      "latitude": "29.987575650887152",
      "longitude": "-90.07950476794628"
    }
  },
  {
    "service_request": "2023-1000922",
    "request_type": "Traffic Signals/Signs/Striping/Streetlights",
    "request_reason": "Street Light Outage/Malfunction",
    "date_created": "2023-05-18T17:21:01.000",
    "date_modified": "2023-05-18T17:21:01.000",
    "request_status": "Pending",
    "responsible_agency": "Department of Public Works",
    "final_address": "401 Magazine St",
    "address_councildis": "B",
    "status": "Assigned to Contractor",
    "contractor": "Legacy Professional Services",
    "rowid": "1000922",
    "final_x": "3681520.44264",
    "final_y": "529373.893697",
    "longitude": "-90.06808059956207",
    "latitude": "29.94959399508666",
    "geocoded_column": {
      "latitude": "29.94959399508666",
      "longitude": "-90.06808059956207"
    }
  },
  {
    "service_request": "2023-1000921",
    "request_type": "Traffic Signals/Signs/Striping/Streetlights",
    "request_reason": "Street Light Outage/Malfunction",
    "date_created": "2023-05-18T17:19:43.000",
    "date_modified": "2023-05-18T17:19:43.000",
    "request_status": "Pending",
    "responsible_agency": "Department of Public Works",
    "final_address": "321 Magazine St",
    "address_councildis": "B",
    "status": "Assigned to Contractor",
    "contractor": "Legacy Professional Services",
    "rowid": "1000921",
    "final_x": "3681449.4493",
    "final_y": "529590.329217",
    "longitude": "-90.06829721281886",
    "latitude": "29.950191275169388",
    "geocoded_column": {
      "latitude": "29.950191275169388",
      "longitude": "-90.06829721281886"
    }
  },
  {
    "service_request": "2023-1000920",
    "request_type": "Traffic Signals/Signs/Striping/Streetlights",
    "request_reason": "Street Light Outage/Malfunction",
    "date_created": "2023-05-18T17:18:39.000",
    "date_modified": "2023-05-18T17:18:40.000",
    "request_status": "Pending",
    "responsible_agency": "Department of Public Works",
    "final_address": "322 Magazine St",
    "address_councildis": "B",
    "status": "Assigned to Contractor",
    "contractor": "Legacy Professional Services",
    "rowid": "1000920",
    "final_x": "3681633.17205",
    "final_y": "529493.935745",
    "longitude": "-90.06772047553095",
    "latitude": "29.949920647072624",
    "geocoded_column": {
      "latitude": "29.949920647072624",
      "longitude": "-90.06772047553095"
    }
  },
  {
    "service_request": "2023-1000919",
    "request_type": "Roads/Drainage",
    "request_reason": "Pothole",
    "date_created": "2023-05-18T17:14:56.000",
    "date_modified": "2023-05-18T17:14:56.000",
    "request_status": "Pending",
    "responsible_agency": "Department of Public Works",
    "final_address": "4600 BLK Deanne St",
    "address_councildis": "D",
    "status": "Pending",
    "rowid": "1000919",
    "final_x": "3696395.96905",
    "final_y": "553655.908552",
    "longitude": "-90.02023346711835",
    "latitude": "30.015900695130426",
    "geocoded_column": {
      "latitude": "30.015900695130426",
      "longitude": "-90.02023346711835"
    }
  },
  {
    "service_request": "2023-1000918",
    "request_type": "Trash/Recycling",
    "request_reason": "Missed Trash Pick-Up",
    "date_created": "2023-05-18T17:07:14.000",
    "date_modified": "2023-05-18T17:07:15.000",
    "request_status": "Pending",
    "responsible_agency": "Department of Sanitation",
    "final_address": "700 BLK Toledano St",
    "address_councildis": "B",
    "status": "Assigned to Contractor",
    "contractor": "Richards Disposal",
    "rowid": "1000918",
    "final_x": "3675933.69436",
    "final_y": "518560.419032",
    "longitude": "-90.08609215901922",
    "latitude": "29.92002891671215",
    "geocoded_column": {
      "latitude": "29.92002891671215",
      "longitude": "-90.08609215901922"
    }
  },
  {
    "service_request": "2023-1000917",
    "request_type": "Abandoned Vehicles",
    "request_reason": "Abandoned/Junk Vehicles",
    "date_created": "2023-05-18T17:03:18.000",
    "date_modified": "2023-05-18T17:03:18.000",
    "request_status": "Pending",
    "responsible_agency": "Department of Public Works",
    "final_address": "1027 Eliza St",
    "address_councildis": "C",
    "status": "Pending",
    "rowid": "1000917",
    "final_x": "3688760.1087",
    "final_y": "529827.772417",
    "longitude": "-90.0452056491381",
    "latitude": "29.950620208302546",
    "geocoded_column": {
      "latitude": "29.950620208302546",
      "longitude": "-90.0452056491381"
    }
  },
  {
    "service_request": "2023-1000916",
    "request_type": "Trash/Recycling",
    "request_reason": "Request a Large Item Pick Up",
    "date_created": "2023-05-18T17:02:30.000",
    "date_modified": "2023-05-18T17:02:31.000",
    "request_status": "Pending",
    "responsible_agency": "Department of Sanitation",
    "final_address": "3120 State Street Dr",
    "address_councildis": "A",
    "status": "Assigned to Contractor",
    "contractor": "Richards Disposal",
    "rowid": "1000916",
    "final_x": "3667390.30881",
    "final_y": "527652.602303",
    "longitude": "-90.11275388799065",
    "latitude": "29.945282460065723",
    "geocoded_column": {
      "latitude": "29.945282460065723",
      "longitude": "-90.11275388799065"
    }
  },
  {
    "service_request": "2023-1000915",
    "request_type": "Trash/Recycling",
    "request_reason": "Request a Large Item Pick Up",
    "date_created": "2023-05-18T16:58:39.000",
    "date_modified": "2023-05-18T16:58:40.000",
    "request_status": "Pending",
    "responsible_agency": "Department of Sanitation",
    "final_address": "7700 BLK W Laverne St",
    "address_councildis": "D",
    "status": "Assigned to Contractor",
    "contractor": "Waste Pro",
    "rowid": "1000915",
    "final_x": "3695011.4833",
    "final_y": "559087.454447",
    "longitude": "-90.02441176399317",
    "latitude": "30.030878942600815",
    "geocoded_column": {
      "latitude": "30.030878942600815",
      "longitude": "-90.02441176399317"
    }
  },
  {
    "service_request": "2023-1000914",
    "request_type": "Trash/Recycling",
    "request_reason": "Repair Trash Cart",
    "date_created": "2023-05-18T16:53:51.000",
    "date_modified": "2023-05-18T17:18:28.000",
    "request_status": "Pending",
    "responsible_agency": "Department of Sanitation",
    "final_address": "2604 Clara St",
    "address_councildis": "B",
    "status": "Assigned to Contractor",
    "contractor": "Richards Disposal",
    "rowid": "1000914",
    "final_x": "3674080.27419",
    "final_y": "526325.069438",
    "longitude": "-90.09167693466061",
    "latitude": "29.941434534626552",
    "geocoded_column": {
      "latitude": "29.941434534626552",
      "longitude": "-90.09167693466061"
    }
  },
  {
    "service_request": "2023-1000913",
    "request_type": "Trash/Recycling",
    "request_reason": "Repair Trash Cart",
    "date_created": "2023-05-18T16:52:39.000",
    "date_modified": "2023-05-18T16:52:40.000",
    "request_status": "Pending",
    "responsible_agency": "Department of Sanitation",
    "final_address": "7825 Forshey St",
    "address_councildis": "B",
    "status": "Assigned to Contractor",
    "contractor": "Richards Disposal",
    "rowid": "1000913",
    "final_x": "3667733.85729",
    "final_y": "533315.078852",
    "longitude": "-90.11147855008055",
    "latitude": "29.960842352790436",
    "geocoded_column": {
      "latitude": "29.960842352790436",
      "longitude": "-90.11147855008055"
    }
  },
  {
    "service_request": "2023-1000912",
    "request_type": "Roads/Drainage",
    "request_reason": "Pothole",
    "date_created": "2023-05-18T16:51:56.000",
    "date_modified": "2023-05-18T16:51:56.000",
    "request_status": "Pending",
    "responsible_agency": "Department of Public Works",
    "final_address": "2604 CLARA ST NEW ORLEANS LOUISIANA 70113",
    "address_councildis": "B",
    "status": "Reviewed",
    "rowid": "1000912",
    "final_x": "3674080.27419",
    "final_y": "526325.069438",
    "longitude": "-90.09167693466061",
    "latitude": "29.941434534626552",
    "geocoded_column": {
      "latitude": "29.941434534626552",
      "longitude": "-90.09167693466061"
    }
  },
  {
    "service_request": "2023-1000911",
    "request_type": "Trash/Recycling",
    "request_reason": "Request a Large Item Pick Up",
    "date_created": "2023-05-18T16:50:25.000",
    "date_modified": "2023-05-18T16:50:26.000",
    "request_status": "Pending",
    "responsible_agency": "Department of Sanitation",
    "final_address": "936 Florida Blvd",
    "address_councildis": "A",
    "status": "Assigned to Contractor",
    "contractor": "IV Waste",
    "rowid": "1000911",
    "final_x": "3670053.60858",
    "final_y": "545125.725711",
    "longitude": "-90.10375298420362",
    "latitude": "29.993249417585318",
    "geocoded_column": {
      "latitude": "29.993249417585318",
      "longitude": "-90.10375298420362"
    }
  },
  {
    "service_request": "2023-1000910",
    "request_type": "Utility Poles",
    "request_reason": "Utility Pole Leaning",
    "date_created": "2023-05-18T16:48:23.000",
    "date_modified": "2023-05-18T16:48:28.000",
    "request_status": "Pending",
    "responsible_agency": "Utility Company Collective",
    "final_address": "2130 Perdido St",
    "address_councildis": "B",
    "status": "Pending",
    "rowid": "1000910",
    "final_x": "3675609.30229",
    "final_y": "531912.165187",
    "longitude": "-90.08665757097846",
    "latitude": "29.956751546943305",
    "geocoded_column": {
      "latitude": "29.956751546943305",
      "longitude": "-90.08665757097846"
    }
  },
  {
    "service_request": "2023-1000909",
    "request_type": "Trash/Recycling",
    "request_reason": "Report a Missed Trash/Recycling Pick Up",
    "date_created": "2023-05-18T16:45:11.000",
    "date_modified": "2023-05-18T16:45:12.000",
    "request_status": "Pending",
    "responsible_agency": "Department of Sanitation",
    "final_address": "1617 Reynes St",
    "address_councildis": "E",
    "contractor": "Waste Pro",
    "rowid": "1000909",
    "final_x": "3696638.98237",
    "final_y": "536262.979335",
    "longitude": "-90.02009547837477",
    "latitude": "29.96806885680955",
    "geocoded_column": {
      "latitude": "29.96806885680955",
      "longitude": "-90.02009547837477"
    }
  },
  {
    "service_request": "2023-1000908",
    "request_type": "Trash/Recycling",
    "request_reason": "Request a Large Item Pick Up",
    "date_created": "2023-05-18T16:42:41.000",
    "date_modified": "2023-05-18T16:42:41.000",
    "request_status": "Pending",
    "responsible_agency": "Department of Sanitation",
    "final_address": "1835 Governor Nicholls St",
    "address_councildis": "D",
    "status": "Assigned to Contractor",
    "contractor": "Richards Disposal",
    "rowid": "1000908",
    "final_x": "3680370.93935",
    "final_y": "536507.038407",
    "longitude": "-90.0714620683943",
    "latitude": "29.969242571497904",
    "geocoded_column": {
      "latitude": "29.969242571497904",
      "longitude": "-90.0714620683943"
    }
  },
  {
    "service_request": "2023-1000907",
    "request_type": "Trash/Recycling",
    "request_reason": "Request a Large Item Pick Up",
    "date_created": "2023-05-18T16:32:20.000",
    "date_modified": "2023-05-18T16:32:20.000",
    "request_status": "Pending",
    "responsible_agency": "Department of Sanitation",
    "final_address": "8229 Cohn St",
    "address_councildis": "A",
    "status": "Assigned to Contractor",
    "contractor": "Richards Disposal",
    "rowid": "1000907",
    "final_x": "3663207.90829",
    "final_y": "530622.585474",
    "longitude": "-90.1258602981124",
    "latitude": "29.953570798657598",
    "geocoded_column": {
      "latitude": "29.953570798657598",
      "longitude": "-90.1258602981124"
    }
  },
  {
    "service_request": "2023-1000906",
    "request_type": "Property Maintenance",
    "request_reason": "Property Maintenance",
    "date_created": "2023-05-18T16:27:29.000",
    "date_modified": "2023-05-18T16:27:29.000",
    "request_status": "Pending",
    "responsible_agency": "Department of Code Enforcement",
    "final_address": "5917 Debore Dr",
    "address_councildis": "D",
    "status": "Pending",
    "rowid": "1000906",
    "final_x": "3691351.35062",
    "final_y": "555825.624345",
    "longitude": "-90.036094532445",
    "latitude": "30.022024594436857",
    "geocoded_column": {
      "latitude": "30.022024594436857",
      "longitude": "-90.036094532445"
    }
  },
  {
    "service_request": "2023-1000905",
    "request_type": "Property Maintenance",
    "request_reason": "Property Maintenance",
    "date_created": "2023-05-18T16:25:14.000",
    "date_modified": "2023-05-18T16:25:14.000",
    "request_status": "Pending",
    "responsible_agency": "Department of Code Enforcement",
    "final_address": "907 Moss St",
    "address_councildis": "A",
    "status": "Pending",
    "rowid": "1000905",
    "final_x": "3674508.52232",
    "final_y": "539653.004938",
    "longitude": "-90.08986822995014",
    "latitude": "29.978069125837617",
    "geocoded_column": {
      "latitude": "29.978069125837617",
      "longitude": "-90.08986822995014"
    }
  },
  {
    "service_request": "2023-1000904",
    "request_type": "Trash/Recycling",
    "request_reason": "Request a Large Item Pick Up",
    "date_created": "2023-05-18T16:21:13.000",
    "date_modified": "2023-05-18T16:21:14.000",
    "request_status": "Pending",
    "responsible_agency": "Department of Sanitation",
    "final_address": "1526 Jefferson Ave",
    "address_councildis": "A",
    "status": "Assigned to Contractor",
    "contractor": "Richards Disposal",
    "rowid": "1000904",
    "final_x": "3667141.89319",
    "final_y": "520775.686521",
    "longitude": "-90.11376931384396",
    "latitude": "29.9263804155845",
    "geocoded_column": {
      "latitude": "29.9263804155845",
      "longitude": "-90.11376931384396"
    }
  },
  {
    "service_request": "2023-1000903",
    "request_type": "Trash/Recycling",
    "request_reason": "Missed Trash Pick-Up",
    "date_created": "2023-05-18T16:16:24.000",
    "date_modified": "2023-05-18T16:16:24.000",
    "request_status": "Pending",
    "responsible_agency": "Department of Sanitation",
    "final_address": "3805 Octavia St",
    "address_councildis": "A",
    "status": "Assigned to Contractor",
    "contractor": "Richards Disposal",
    "rowid": "1000903",
    "final_x": "3668826.2827",
    "final_y": "529392.729665",
    "longitude": "-90.1081613042878",
    "latitude": "29.950025105536138",
    "geocoded_column": {
      "latitude": "29.950025105536138",
      "longitude": "-90.1081613042878"
    }
  },
  {
    "service_request": "2023-1000902",
    "request_type": "Trash/Recycling",
    "request_reason": "Missed Trash Pick-Up",
    "date_created": "2023-05-18T16:15:49.000",
    "date_modified": "2023-05-18T16:15:49.000",
    "request_status": "Pending",
    "responsible_agency": "Department of Sanitation",
    "final_address": "3805 Octavia St",
    "address_councildis": "A",
    "status": "Assigned to Contractor",
    "contractor": "Richards Disposal",
    "rowid": "1000902",
    "final_x": "3668826.2827",
    "final_y": "529392.729665",
    "longitude": "-90.1081613042878",
    "latitude": "29.950025105536138",
    "geocoded_column": {
      "latitude": "29.950025105536138",
      "longitude": "-90.1081613042878"
    }
  },
  {
    "service_request": "2023-1000901",
    "request_type": "Trash/Recycling",
    "request_reason": "Order Trash Cart",
    "date_created": "2023-05-18T16:15:46.000",
    "date_modified": "2023-05-18T16:15:46.000",
    "request_status": "Pending",
    "responsible_agency": "Department of Sanitation",
    "final_address": "2114 Painters St",
    "address_councildis": "D",
    "status": "Assigned to Contractor",
    "contractor": "IV Waste",
    "rowid": "1000901",
    "final_x": "3687224.76956",
    "final_y": "540320.670219",
    "longitude": "-90.04968228998106",
    "latitude": "29.979519399048026",
    "geocoded_column": {
      "latitude": "29.979519399048026",
      "longitude": "-90.04968228998106"
    }
  },
  {
    "service_request": "2023-1000900",
    "request_type": "Trash/Recycling",
    "request_reason": "Missed Trash Pick-Up",
    "date_created": "2023-05-18T16:14:28.000",
    "date_modified": "2023-05-18T16:14:28.000",
    "request_status": "Pending",
    "responsible_agency": "Department of Sanitation",
    "final_address": "5438 N Rampart St",
    "address_councildis": "E",
    "status": "Assigned to Contractor",
    "contractor": "Waste Pro",
    "rowid": "1000900",
    "final_x": "3697350.15875",
    "final_y": "533415.78234",
    "longitude": "-90.01795278847887",
    "latitude": "29.960217647694172",
    "geocoded_column": {
      "latitude": "29.960217647694172",
      "longitude": "-90.01795278847887"
    }
  },
  {
    "service_request": "2023-1000899",
    "request_type": "Roads/Drainage",
    "request_reason": "Debris in Roadway",
    "date_created": "2023-05-18T16:14:24.000",
    "date_modified": "2023-05-18T16:14:24.000",
    "request_status": "Pending",
    "responsible_agency": "Department of Public Works",
    "final_address": "2600 BLK Gentilly Blvd",
    "address_councildis": "D",
    "status": "Pending",
    "rowid": "1000899",
    "final_x": "3682257.79654",
    "final_y": "545538.855888",
    "longitude": "-90.06518756105588",
    "latitude": "29.994019637443454",
    "geocoded_column": {
      "latitude": "29.994019637443454",
      "longitude": "-90.06518756105588"
    }
  },
  {
    "service_request": "2023-1000898",
    "request_type": "Trash/Recycling",
    "request_reason": "Missed Trash Pick-Up",
    "date_created": "2023-05-18T16:13:54.000",
    "date_modified": "2023-05-18T16:14:05.000",
    "request_status": "Closed",
    "responsible_agency": "Department of Sanitation",
    "final_address": "5438 N Rampart St",
    "address_councildis": "E",
    "status": "Assigned to Contractor",
    "contractor": "Waste Pro",
    "contractor_action": "Completed",
    "rowid": "1000898",
    "final_x": "3697350.15875",
    "final_y": "533415.78234",
    "longitude": "-90.01795278847887",
    "latitude": "29.960217647694172",
    "geocoded_column": {
      "latitude": "29.960217647694172",
      "longitude": "-90.01795278847887"
    }
  },
  {
    "service_request": "2023-1000897",
    "request_type": "Roads/Drainage",
    "request_reason": "Debris in Roadway",
    "date_created": "2023-05-18T16:12:50.000",
    "date_modified": "2023-05-18T16:12:50.000",
    "request_status": "Pending",
    "responsible_agency": "Department of Public Works",
    "final_address": "2300 BLK Gentilly Blvd",
    "address_councildis": "D",
    "status": "Pending",
    "rowid": "1000897",
    "final_x": "3681201.39084",
    "final_y": "544785.842631",
    "longitude": "-90.06855085178505",
    "latitude": "29.99198122301257",
    "geocoded_column": {
      "latitude": "29.99198122301257",
      "longitude": "-90.06855085178505"
    }
  },
  {
    "service_request": "2023-1000896",
    "request_type": "Roads/Drainage",
    "request_reason": "Debris in Roadway",
    "date_created": "2023-05-18T16:11:59.000",
    "date_modified": "2023-05-18T16:11:59.000",
    "request_status": "Pending",
    "responsible_agency": "Department of Public Works",
    "final_address": "2200 BLK Gentilly Blvd",
    "address_councildis": "D",
    "status": "Pending",
    "rowid": "1000896",
    "final_x": "3680850.91877",
    "final_y": "544531.757837",
    "longitude": "-90.06966677190135",
    "latitude": "29.99129321192457",
    "geocoded_column": {
      "latitude": "29.99129321192457",
      "longitude": "-90.06966677190135"
    }
  },
  {
    "service_request": "2023-1000895",
    "request_type": "Trash/Recycling",
    "request_reason": "Missed Trash Pick-Up",
    "date_created": "2023-05-18T16:10:51.000",
    "date_modified": "2023-05-18T16:10:51.000",
    "request_status": "Pending",
    "responsible_agency": "Department of Sanitation",
    "final_address": "7690 Breakwater Dr",
    "address_councildis": "A",
    "status": "Assigned to Contractor",
    "contractor": "IV Waste",
    "rowid": "1000895",
    "final_x": "3664790.23802",
    "final_y": "556899.81513",
    "longitude": "-90.11998533703446",
    "latitude": "30.025778324489767",
    "geocoded_column": {
      "latitude": "30.025778324489767",
      "longitude": "-90.11998533703446"
    }
  },
  {
    "service_request": "2023-1000894",
    "request_type": "Roads/Drainage",
    "request_reason": "Debris in Roadway",
    "date_created": "2023-05-18T16:10:35.000",
    "date_modified": "2023-05-18T16:10:35.000",
    "request_status": "Pending",
    "responsible_agency": "Department of Public Works",
    "final_address": "2100 BLK Gentilly Blvd",
    "address_councildis": "D",
    "status": "Pending",
    "rowid": "1000894",
    "final_x": "3680550.06242",
    "final_y": "544322.765473",
    "longitude": "-90.07062438333936",
    "latitude": "29.99072767629497",
    "geocoded_column": {
      "latitude": "29.99072767629497",
      "longitude": "-90.07062438333936"
    }
  },
  {
    "service_request": "2023-1000893",
    "request_type": "Trash/Recycling",
    "request_reason": "MIssed Recycling Pick-Up",
    "date_created": "2023-05-18T16:07:26.000",
    "date_modified": "2023-05-18T16:07:27.000",
    "request_status": "Pending",
    "responsible_agency": "Department of Sanitation",
    "final_address": "3802 State Street Dr",
    "address_councildis": "A",
    "status": "Assigned to Contractor",
    "contractor": "Richards Disposal",
    "rowid": "1000893",
    "final_x": "3667983.10484",
    "final_y": "529462.759873",
    "longitude": "-90.11082126017182",
    "latitude": "29.950242428610746",
    "geocoded_column": {
      "latitude": "29.950242428610746",
      "longitude": "-90.11082126017182"
    }
  },
  {
    "service_request": "2023-1000892",
    "request_type": "Trash/Recycling",
    "request_reason": "Request a Large Item Pick Up",
    "date_created": "2023-05-18T15:58:58.000",
    "date_modified": "2023-05-18T15:58:58.000",
    "request_status": "Pending",
    "responsible_agency": "Department of Sanitation",
    "final_address": "3435 Upperline St",
    "address_councildis": "B",
    "status": "Assigned to Contractor",
    "contractor": "Richards Disposal",
    "rowid": "1000892",
    "final_x": "3669327.65684",
    "final_y": "527686.614655",
    "longitude": "-90.10663589884156",
    "latitude": "29.945319095464626",
    "geocoded_column": {
      "latitude": "29.945319095464626",
      "longitude": "-90.10663589884156"
    }
  },
  {
    "service_request": "2023-1000891",
    "request_type": "Roads/Drainage",
    "request_reason": "Street Subsidence (Sinking)",
    "date_created": "2023-05-18T15:54:32.000",
    "date_modified": "2023-05-18T15:54:33.000",
    "request_status": "Pending",
    "responsible_agency": "Department of Public Works",
    "final_address": "728 City Park Ave",
    "address_councildis": "A",
    "status": "Pending",
    "rowid": "1000891",
    "final_x": "3670319.75758",
    "final_y": "541706.95918",
    "longitude": "-90.10302821512421",
    "latitude": "29.98384112651",
    "geocoded_column": {
      "latitude": "29.98384112651",
      "longitude": "-90.10302821512421"
    }
  },
  {
    "service_request": "2023-1000890",
    "request_type": "Trash/Recycling",
    "request_reason": "MIssed Recycling Pick-Up",
    "date_created": "2023-05-18T15:52:52.000",
    "date_modified": "2023-05-18T15:52:53.000",
    "request_status": "Pending",
    "responsible_agency": "Department of Sanitation",
    "final_address": "11120 Ivy Ln",
    "address_councildis": "E",
    "status": "Assigned to Contractor",
    "contractor": "Waste Pro",
    "rowid": "1000890",
    "final_x": "3716076.40204",
    "final_y": "559783.560605",
    "longitude": "-89.95782042193746",
    "latitude": "30.03211449043783",
    "geocoded_column": {
      "latitude": "30.03211449043783",
      "longitude": "-89.95782042193746"
    }
  },
  {
    "service_request": "2023-1000889",
    "request_type": "Trash/Recycling",
    "request_reason": "Order Trash Cart",
    "date_created": "2023-05-18T15:46:01.000",
    "date_modified": "2023-05-18T15:46:01.000",
    "request_status": "Pending",
    "responsible_agency": "Department of Sanitation",
    "final_address": "4256 Vincennes Pl",
    "address_councildis": "B",
    "status": "Assigned to Contractor",
    "contractor": "Richards Disposal",
    "rowid": "1000889",
    "final_x": "3668819.6146",
    "final_y": "531759.910531",
    "longitude": "-90.10810243700307",
    "latitude": "29.95653427301452",
    "geocoded_column": {
      "latitude": "29.95653427301452",
      "longitude": "-90.10810243700307"
    }
  },
  {
    "service_request": "2023-1000888",
    "request_type": "Trash/Recycling",
    "request_reason": "MIssed Recycling Pick-Up",
    "date_created": "2023-05-18T15:43:17.000",
    "date_modified": "2023-05-18T15:43:18.000",
    "request_status": "Pending",
    "responsible_agency": "Department of Sanitation",
    "final_address": "6211 S Tonti St",
    "address_councildis": "A",
    "status": "Assigned to Contractor",
    "contractor": "Richards Disposal",
    "rowid": "1000888",
    "final_x": "3667546.68449",
    "final_y": "528458.592448",
    "longitude": "-90.11223303959976",
    "latitude": "29.947494090496356",
    "geocoded_column": {
      "latitude": "29.947494090496356",
      "longitude": "-90.11223303959976"
    }
  },
  {
    "service_request": "2023-1000887",
    "request_type": "Abandoned Vehicles",
    "request_reason": "Abandoned/Junk Vehicles",
    "date_created": "2023-05-18T15:41:22.000",
    "date_modified": "2023-05-18T15:41:22.000",
    "request_status": "Pending",
    "responsible_agency": "Department of Public Works",
    "final_address": "4034 Hollygrove St",
    "address_councildis": "A",
    "status": "Pending",
    "rowid": "1000887",
    "final_x": "3666460.58145",
    "final_y": "538127.919433",
    "longitude": "-90.1153377763723",
    "latitude": "29.974113341408575",
    "geocoded_column": {
      "latitude": "29.974113341408575",
      "longitude": "-90.1153377763723"
    }
  },
  {
    "service_request": "2023-1000886",
    "request_type": "Property Maintenance",
    "request_reason": "Property Maintenance",
    "date_created": "2023-05-18T15:34:53.000",
    "date_modified": "2023-05-18T15:34:53.000",
    "request_status": "Pending",
    "responsible_agency": "Department of Code Enforcement",
    "final_address": "2525 Memorial Park Dr",
    "address_councildis": "C",
    "status": "Pending",
    "rowid": "1000886",
    "final_x": "3692766.18371",
    "final_y": "521079.566969",
    "longitude": "-90.03287007438414",
    "latitude": "29.92644119738659",
    "geocoded_column": {
      "latitude": "29.92644119738659",
      "longitude": "-90.03287007438414"
    }
  },
  {
    "service_request": "2023-1000885",
    "request_type": "Trash/Recycling",
    "request_reason": "Request a Large Item Pick Up",
    "date_created": "2023-05-18T15:31:05.000",
    "date_modified": "2023-05-18T15:31:05.000",
    "request_status": "Pending",
    "responsible_agency": "Department of Sanitation",
    "final_address": "2518 Touro St",
    "address_councildis": "D",
    "status": "Assigned to Contractor",
    "contractor": "IV Waste",
    "rowid": "1000885",
    "final_x": "3683774.1005",
    "final_y": "541562.28718",
    "longitude": "-90.06053730857842",
    "latitude": "29.98303925122965",
    "geocoded_column": {
      "latitude": "29.98303925122965",
      "longitude": "-90.06053730857842"
    }
  },
  {
    "service_request": "2023-1000884",
    "request_type": "Roads/Drainage",
    "request_reason": "Pothole",
    "date_created": "2023-05-18T15:30:54.000",
    "date_modified": "2023-05-18T15:31:46.000",
    "case_close_date": "2023-05-18T10:31:46.000",
    "request_status": "Closed",
    "responsible_agency": "Department of Public Works",
    "final_address": "2400 BLK Dublin St",
    "address_councildis": "A",
    "status": "Resolved",
    "rowid": "1000884",
    "final_x": "3664739.38046",
    "final_y": "531942.708868",
    "longitude": "-90.12098042936734",
    "latitude": "29.957156244274483",
    "geocoded_column": {
      "latitude": "29.957156244274483",
      "longitude": "-90.12098042936734"
    }
  },
  {
    "service_request": "2023-1000883",
    "request_type": "Trash/Recycling",
    "request_reason": "MIssed Recycling Pick-Up",
    "date_created": "2023-05-18T15:30:06.000",
    "date_modified": "2023-05-18T15:30:06.000",
    "request_status": "Pending",
    "responsible_agency": "Department of Sanitation",
    "final_address": "1205 St Philip St Apt A",
    "address_councildis": "C",
    "status": "Assigned to Contractor",
    "contractor": "Richards Disposal",
    "rowid": "1000883",
    "final_x": "3681709.84719",
    "final_y": "534565.614469",
    "longitude": "-90.06730144310768",
    "latitude": "29.96386371130163",
    "geocoded_column": {
      "latitude": "29.96386371130163",
      "longitude": "-90.06730144310768"
    }
  },
  {
    "service_request": "2023-1000881",
    "request_type": "Roads/Drainage",
    "request_reason": "Street Subsidence (Sinking)",
    "date_created": "2023-05-18T15:23:49.000",
    "date_modified": "2023-05-18T15:23:49.000",
    "request_status": "Pending",
    "responsible_agency": "Department of Public Works",
    "final_address": "CONSTANCE ST & BORDEAUX ST",
    "address_councildis": "B",
    "status": "Pending",
    "rowid": "1000881",
    "final_x": "3669627.7",
    "final_y": "518275.98",
    "longitude": "-90.10600681825592",
    "latitude": "29.919434032228303",
    "geocoded_column": {
      "latitude": "29.919434032228303",
      "longitude": "-90.10600681825592"
    }
  },
  {
    "service_request": "2023-1000880",
    "request_type": "Traffic Signals/Signs/Striping/Streetlights",
    "request_reason": "Street Light Outage/Malfunction",
    "date_created": "2023-05-18T15:21:03.000",
    "date_modified": "2023-05-18T15:21:04.000",
    "request_status": "Pending",
    "responsible_agency": "Department of Public Works",
    "final_address": "1104 Webster St",
    "address_councildis": "A",
    "status": "Assigned to Contractor",
    "contractor": "Legacy Professional Services",
    "rowid": "1000880",
    "final_x": "3664443.73056",
    "final_y": "520454.963896",
    "longitude": "-90.12229739260702",
    "latitude": "29.925577217600168",
    "geocoded_column": {
      "latitude": "29.925577217600168",
      "longitude": "-90.12229739260702"
    }
  },
  {
    "service_request": "2023-1000879",
    "request_type": "Roads/Drainage",
    "request_reason": "Pothole",
    "date_created": "2023-05-18T15:14:41.000",
    "date_modified": "2023-05-18T15:14:41.000",
    "request_status": "Pending",
    "responsible_agency": "Department of Public Works",
    "final_address": "6077 Wildair Dr",
    "address_councildis": "D",
    "status": "Pending",
    "rowid": "1000879",
    "final_x": "3681503.27932",
    "final_y": "555253.059801",
    "longitude": "-90.06723190901232",
    "latitude": "30.02075313922928",
    "geocoded_column": {
      "latitude": "30.02075313922928",
      "longitude": "-90.06723190901232"
    }
  },
  {
    "service_request": "2023-1000878",
    "request_type": "Parks & Parkways",
    "request_reason": "Request Tree Service (Right of Way/Public Property)",
    "date_created": "2023-05-18T15:14:03.000",
    "date_modified": "2023-05-18T15:14:03.000",
    "request_status": "Pending",
    "responsible_agency": "Department of Parks & Parkway",
    "final_address": "7522 Jeannette St",
    "address_councildis": "A",
    "status": "Pending",
    "rowid": "1000878",
    "final_x": "3664069.328",
    "final_y": "527748.667711",
    "longitude": "-90.12323612034218",
    "latitude": "29.945643463521094",
    "geocoded_column": {
      "latitude": "29.945643463521094",
      "longitude": "-90.12323612034218"
    }
  },
  {
    "service_request": "2023-1000877",
    "request_type": "Trash/Recycling",
    "request_reason": "Request a Large Item Pick Up",
    "date_created": "2023-05-18T15:10:14.000",
    "date_modified": "2023-05-18T15:10:15.000",
    "request_status": "Pending",
    "responsible_agency": "Department of Sanitation",
    "final_address": "4518 N Robertson St",
    "address_councildis": "D",
    "status": "Assigned to Contractor",
    "contractor": "IV Waste",
    "rowid": "1000877",
    "final_x": "3693838.1023",
    "final_y": "536340.381959",
    "longitude": "-90.02893794092603",
    "latitude": "29.968369654976225",
    "geocoded_column": {
      "latitude": "29.968369654976225",
      "longitude": "-90.02893794092603"
    }
  },
  {
    "service_request": "2023-1000876",
    "request_type": "Trash/Recycling",
    "request_reason": "Missed Trash Pick-Up",
    "date_created": "2023-05-18T15:04:51.000",
    "date_modified": "2023-05-18T15:52:36.000",
    "case_close_date": "2023-05-18T10:52:36.000",
    "request_status": "Closed",
    "responsible_agency": "Department of Sanitation",
    "final_address": "2460 N Miro St",
    "address_councildis": "D",
    "status": "Assigned to Contractor",
    "contractor": "IV Waste",
    "contractor_action": "Invalid Pick-Up",
    "rowid": "1000876",
    "final_x": "3686733.75138",
    "final_y": "540488.865419",
    "longitude": "-90.05122717432144",
    "latitude": "29.97999699242306",
    "geocoded_column": {
      "latitude": "29.97999699242306",
      "longitude": "-90.05122717432144"
    }
  },
  {
    "service_request": "2023-1000875",
    "request_type": "Trash/Recycling",
    "request_reason": "Request a Large Item Pick Up",
    "date_created": "2023-05-18T15:01:18.000",
    "date_modified": "2023-05-18T15:01:18.000",
    "request_status": "Pending",
    "responsible_agency": "Department of Sanitation",
    "final_address": "5179 Basinview Dr",
    "address_councildis": "E",
    "status": "Assigned to Contractor",
    "contractor": "Waste Pro",
    "rowid": "1000875",
    "final_x": "3698753.44714",
    "final_y": "556598.676314",
    "longitude": "-90.01267777364443",
    "latitude": "30.023917692628",
    "geocoded_column": {
      "latitude": "30.023917692628",
      "longitude": "-90.01267777364443"
    }
  },
  {
    "service_request": "2023-1000874",
    "request_type": "Trash/Recycling",
    "request_reason": "Order Trash Cart",
    "date_created": "2023-05-18T14:59:57.000",
    "date_modified": "2023-05-18T14:59:58.000",
    "request_status": "Pending",
    "responsible_agency": "Department of Sanitation",
    "final_address": "7220 Briarheath Dr",
    "address_councildis": "E",
    "status": "Assigned to Contractor",
    "contractor": "Waste Pro",
    "rowid": "1000874",
    "final_x": "3714421.0924",
    "final_y": "566113.500963",
    "longitude": "-89.96281199922313",
    "latitude": "30.049573805439678",
    "geocoded_column": {
      "latitude": "30.049573805439678",
      "longitude": "-89.96281199922313"
    }
  },
  {
    "service_request": "2023-1000873",
    "request_type": "Trash/Recycling",
    "request_reason": "MIssed Recycling Pick-Up",
    "date_created": "2023-05-18T14:59:45.000",
    "date_modified": "2023-05-18T14:59:46.000",
    "request_status": "Pending",
    "responsible_agency": "Department of Sanitation",
    "final_address": "822 Camp St",
    "address_councildis": "B",
    "status": "Assigned to Contractor",
    "contractor": "Empire Services",
    "rowid": "1000873",
    "final_x": "3680783.10402",
    "final_y": "527713.594815",
    "longitude": "-90.07046648783425",
    "latitude": "29.94505109660232",
    "geocoded_column": {
      "latitude": "29.94505109660232",
      "longitude": "-90.07046648783425"
    }
  },
  {
    "service_request": "2023-1000872",
    "request_type": "Trash/Recycling",
    "request_reason": "Request a Large Item Pick Up",
    "date_created": "2023-05-18T14:59:39.000",
    "date_modified": "2023-05-18T14:59:40.000",
    "request_status": "Pending",
    "responsible_agency": "Department of Sanitation",
    "final_address": "6324 Laurel St",
    "address_councildis": "A",
    "status": "Assigned to Contractor",
    "contractor": "Richards Disposal",
    "rowid": "1000872",
    "final_x": "3662819.98771",
    "final_y": "518806.370679",
    "longitude": "-90.12747784290879",
    "latitude": "29.921091188703873",
    "geocoded_column": {
      "latitude": "29.921091188703873",
      "longitude": "-90.12747784290879"
    }
  },
  {
    "service_request": "2023-1000871",
    "request_type": "Parks & Parkways",
    "request_reason": "Request Tree Service (Right of Way/Public Property)",
    "date_created": "2023-05-18T14:56:48.000",
    "date_modified": "2023-05-18T14:56:48.000",
    "request_status": "Pending",
    "responsible_agency": "Department of Parks & Parkway",
    "final_address": "1125 Fern St",
    "address_councildis": "A",
    "status": "Pending",
    "rowid": "1000871",
    "final_x": "3662460.68211",
    "final_y": "527707.613823",
    "longitude": "-90.12831653170896",
    "latitude": "29.945577193372827",
    "geocoded_column": {
      "latitude": "29.945577193372827",
      "longitude": "-90.12831653170896"
    }
  },
  {
    "service_request": "2023-1000870",
    "request_type": "Trash/Recycling",
    "request_reason": "Missed Trash Pick-Up",
    "date_created": "2023-05-18T14:54:26.000",
    "date_modified": "2023-05-18T14:54:26.000",
    "request_status": "Pending",
    "responsible_agency": "Department of Sanitation",
    "final_address": "4408 Majestic Oaks Dr",
    "address_councildis": "D",
    "status": "Assigned to Contractor",
    "contractor": "Waste Pro",
    "rowid": "1000870",
    "final_x": "3697807.86",
    "final_y": "552519.723798",
    "longitude": "-90.01581382631223",
    "latitude": "30.01273205116139",
    "geocoded_column": {
      "latitude": "30.01273205116139",
      "longitude": "-90.01581382631223"
    }
  },
  {
    "service_request": "2023-1000869",
    "request_type": "Trash/Recycling",
    "request_reason": "Order Recycling Cart",
    "date_created": "2023-05-18T14:54:19.000",
    "date_modified": "2023-05-18T14:54:20.000",
    "request_status": "Pending",
    "responsible_agency": "Department of Sanitation",
    "final_address": "4958 Nottingham Dr",
    "address_councildis": "E",
    "status": "Pending",
    "rowid": "1000869",
    "final_x": "3716209.62604",
    "final_y": "557961.370587",
    "longitude": "-89.95746857188223",
    "latitude": "30.027099798953525",
    "geocoded_column": {
      "latitude": "30.027099798953525",
      "longitude": "-89.95746857188223"
    }
  },
  {
    "service_request": "2023-1000868",
    "request_type": "Trash/Recycling",
    "request_reason": "Missed Trash Pick-Up",
    "date_created": "2023-05-18T14:52:47.000",
    "date_modified": "2023-05-18T15:26:42.000",
    "case_close_date": "2023-05-18T10:26:42.000",
    "request_status": "Closed",
    "responsible_agency": "Department of Sanitation",
    "final_address": "5006 N Galvez St",
    "address_councildis": "E",
    "status": "Invalid Request",
    "contractor": "Waste Pro",
    "contractor_action": "Invalid Pick-Up",
    "rowid": "1000868",
    "final_x": "3697065.836",
    "final_y": "537903.945161",
    "longitude": "-90.01868800928291",
    "latitude": "29.972567466573878",
    "geocoded_column": {
      "latitude": "29.972567466573878",
      "longitude": "-90.01868800928291"
    }
  },
  {
    "service_request": "2023-1000867",
    "request_type": "Roads/Drainage",
    "request_reason": "Pothole",
    "date_created": "2023-05-18T14:50:18.000",
    "date_modified": "2023-05-18T14:50:18.000",
    "request_status": "Pending",
    "responsible_agency": "Department of Public Works",
    "final_address": "IBERVILLE ST & BURGUNDY ST",
    "address_councildis": "C",
    "status": "Pending",
    "rowid": "1000867",
    "final_x": "3680592.5",
    "final_y": "531668.98",
    "longitude": "-90.07093069575095",
    "latitude": "29.9559328500531",
    "geocoded_column": {
      "latitude": "29.9559328500531",
      "longitude": "-90.07093069575095"
    }
  },
  {
    "service_request": "2023-1000866",
    "request_type": "Trash/Recycling",
    "request_reason": "Missed Trash Pick-Up",
    "date_created": "2023-05-18T14:49:16.000",
    "date_modified": "2023-05-18T14:49:16.000",
    "request_status": "Pending",
    "responsible_agency": "Department of Sanitation",
    "final_address": "4220 Darby St",
    "address_councildis": "E",
    "status": "Assigned to Contractor",
    "contractor": "Waste Pro",
    "rowid": "1000866",
    "final_x": "3711724.86181",
    "final_y": "553782.870103",
    "longitude": "-89.97179675663008",
    "latitude": "30.01575786920723",
    "geocoded_column": {
      "latitude": "30.01575786920723",
      "longitude": "-89.97179675663008"
    }
  },
  {
    "service_request": "2023-1000865",
    "request_type": "Trash/Recycling",
    "request_reason": "Order Recycling Cart",
    "date_created": "2023-05-18T14:47:11.000",
    "date_modified": "2023-05-18T14:47:12.000",
    "request_status": "Pending",
    "responsible_agency": "Department of Sanitation",
    "final_address": "7609 Ligustrum Dr",
    "address_councildis": "E",
    "status": "Pending",
    "rowid": "1000865",
    "final_x": "3701602.88727",
    "final_y": "561120.785182",
    "longitude": "-90.00350832464713",
    "latitude": "30.036261130598234",
    "geocoded_column": {
      "latitude": "30.036261130598234",
      "longitude": "-90.00350832464713"
    }
  },
  {
    "service_request": "2023-1000864",
    "request_type": "Abandoned Vehicles",
    "request_reason": "Abandoned/Junk Vehicles",
    "date_created": "2023-05-18T14:46:27.000",
    "date_modified": "2023-05-18T14:52:45.000",
    "request_status": "Pending",
    "responsible_agency": "Department of Public Works",
    "final_address": "1830 Halsey Ave",
    "address_councildis": "C",
    "status": "Pending",
    "rowid": "1000864",
    "final_x": "3697847.92554",
    "final_y": "524059.277564",
    "longitude": "-90.01672044713366",
    "latitude": "29.934474812598925",
    "geocoded_column": {
      "latitude": "29.934474812598925",
      "longitude": "-90.01672044713366"
    }
  },
  {
    "service_request": "2023-1000863",
    "request_type": "Tax and Revenue",
    "request_reason": "Sales Tax Question",
    "date_created": "2023-05-18T14:45:30.000",
    "date_modified": "2023-05-18T14:45:31.000",
    "request_status": "Pending",
    "responsible_agency": "Bureau of Revenue",
    "status": "Pending",
    "rowid": "1000863",
    "longitude": "0.0",
    "latitude": "0.0",
    "geocoded_column": {
      "latitude": "0.0",
      "longitude": "0.0"
    }
  },
  {
    "service_request": "2023-1000862",
    "request_type": "Property Maintenance",
    "request_reason": "Property Maintenance",
    "date_created": "2023-05-18T14:43:50.000",
    "date_modified": "2023-05-18T14:43:50.000",
    "request_status": "Pending",
    "responsible_agency": "Department of Code Enforcement",
    "final_address": "6939 Pinebrook Dr",
    "address_councildis": "E",
    "status": "Pending",
    "rowid": "1000862",
    "final_x": "3720061.10866",
    "final_y": "569277.898534",
    "longitude": "-89.94486509450095",
    "latitude": "30.058087893279666",
    "geocoded_column": {
      "latitude": "30.058087893279666",
      "longitude": "-89.94486509450095"
    }
  },
  {
    "service_request": "2023-1000861",
    "request_type": "Trash/Recycling",
    "request_reason": "Order Recycling Cart",
    "date_created": "2023-05-18T14:38:04.000",
    "date_modified": "2023-05-18T14:38:04.000",
    "request_status": "Pending",
    "responsible_agency": "Department of Sanitation",
    "final_address": "3018 Gravier St",
    "address_councildis": "B",
    "status": "Pending",
    "rowid": "1000861",
    "final_x": "3672671.51758",
    "final_y": "533923.041413",
    "longitude": "-90.09586559745748",
    "latitude": "29.962368347099115",
    "geocoded_column": {
      "latitude": "29.962368347099115",
      "longitude": "-90.09586559745748"
    }
  },
  {
    "service_request": "2023-1000860",
    "request_type": "Trash/Recycling",
    "request_reason": "Repair Recycling Cart",
    "date_created": "2023-05-18T14:29:04.000",
    "date_modified": "2023-05-18T14:29:04.000",
    "request_status": "Pending",
    "responsible_agency": "Department of Sanitation",
    "final_address": "802 N Carrollton Ave",
    "address_councildis": "A",
    "status": "Pending",
    "rowid": "1000860",
    "final_x": "3672872.90644",
    "final_y": "540129.836939",
    "longitude": "-90.09501781876081",
    "latitude": "29.979428955352773",
    "geocoded_column": {
      "latitude": "29.979428955352773",
      "longitude": "-90.09501781876081"
    }
  },
  {
    "service_request": "2023-1000859",
    "request_type": "Trash/Recycling",
    "request_reason": "Order Recycling Cart",
    "date_created": "2023-05-18T14:27:44.000",
    "date_modified": "2023-05-18T14:27:44.000",
    "request_status": "Pending",
    "responsible_agency": "Department of Sanitation",
    "final_address": "4950 Copernicus St",
    "address_councildis": "C",
    "status": "Pending",
    "rowid": "1000859",
    "final_x": "3702438.21783",
    "final_y": "522561.923258",
    "longitude": "-90.0022840258505",
    "latitude": "29.930211783047223",
    "geocoded_column": {
      "latitude": "29.930211783047223",
      "longitude": "-90.0022840258505"
    }
  },
  {
    "service_request": "2023-1000858",
    "request_type": "Abandoned Vehicles",
    "request_reason": "Abandoned/Junk Vehicles",
    "date_created": "2023-05-18T14:25:26.000",
    "date_modified": "2023-05-18T14:25:26.000",
    "request_status": "Pending",
    "responsible_agency": "Department of Public Works",
    "final_address": "2826 N Rocheblave St",
    "address_councildis": "D",
    "status": "Pending",
    "rowid": "1000858",
    "final_x": "3688133.07625",
    "final_y": "541340.500044",
    "longitude": "-90.04677733590053",
    "latitude": "29.98229555903598",
    "geocoded_column": {
      "latitude": "29.98229555903598",
      "longitude": "-90.04677733590053"
    }
  },
  {
    "service_request": "2023-1000857",
    "request_type": "Trash/Recycling",
    "request_reason": "Order Trash Cart",
    "date_created": "2023-05-18T14:21:42.000",
    "date_modified": "2023-05-18T14:21:43.000",
    "request_status": "Pending",
    "responsible_agency": "Department of Sanitation",
    "final_address": "2485 Royal St",
    "address_councildis": "C",
    "status": "Assigned to Contractor",
    "contractor": "IV Waste",
    "rowid": "1000857",
    "final_x": "3686576.3622",
    "final_y": "535011.596166",
    "longitude": "-90.05191773703375",
    "latitude": "29.964941260348645",
    "geocoded_column": {
      "latitude": "29.964941260348645",
      "longitude": "-90.05191773703375"
    }
  },
  {
    "service_request": "2023-1000856",
    "request_type": "Trash/Recycling",
    "request_reason": "Order Trash Cart",
    "date_created": "2023-05-18T14:21:19.000",
    "date_modified": "2023-05-18T14:21:20.000",
    "request_status": "Pending",
    "responsible_agency": "Department of Sanitation",
    "final_address": "2483 Royal St",
    "address_councildis": "C",
    "status": "Assigned to Contractor",
    "contractor": "IV Waste",
    "rowid": "1000856",
    "final_x": "3686561.67721",
    "final_y": "535009.762054",
    "longitude": "-90.05196417600004",
    "latitude": "29.96493666873159",
    "geocoded_column": {
      "latitude": "29.96493666873159",
      "longitude": "-90.05196417600004"
    }
  },
  {
    "service_request": "2023-1000855",
    "request_type": "Property Maintenance",
    "request_reason": "Property Maintenance",
    "date_created": "2023-05-18T14:21:16.000",
    "date_modified": "2023-05-18T14:21:16.000",
    "request_status": "Pending",
    "responsible_agency": "Department of Code Enforcement",
    "final_address": "1270 Foy St",
    "address_councildis": "D",
    "status": "Pending",
    "rowid": "1000855",
    "final_x": "3677228.09064",
    "final_y": "546391.208016",
    "longitude": "-90.08104627802766",
    "latitude": "29.996515408425143",
    "geocoded_column": {
      "latitude": "29.996515408425143",
      "longitude": "-90.08104627802766"
    }
  },
  {
    "service_request": "2023-1000854",
    "request_type": "Trash/Recycling",
    "request_reason": "Order Trash Cart",
    "date_created": "2023-05-18T14:20:45.000",
    "date_modified": "2023-05-18T14:20:46.000",
    "request_status": "Pending",
    "responsible_agency": "Department of Sanitation",
    "final_address": "2479 Royal St",
    "address_councildis": "C",
    "status": "Assigned to Contractor",
    "contractor": "IV Waste",
    "rowid": "1000854",
    "final_x": "3686544.97206",
    "final_y": "535011.593158",
    "longitude": "-90.05201686505875",
    "latitude": "29.96494221728554",
    "geocoded_column": {
      "latitude": "29.96494221728554",
      "longitude": "-90.05201686505875"
    }
  },
  {
    "service_request": "2023-1000853",
    "request_type": "Trash/Recycling",
    "request_reason": "Order Trash Cart",
    "date_created": "2023-05-18T14:20:20.000",
    "date_modified": "2023-05-18T14:20:21.000",
    "request_status": "Pending",
    "responsible_agency": "Department of Sanitation",
    "final_address": "2477 Royal St",
    "address_councildis": "C",
    "status": "Assigned to Contractor",
    "contractor": "IV Waste",
    "rowid": "1000853",
    "final_x": "3686529.13871",
    "final_y": "535010.343174",
    "longitude": "-90.05206690983673",
    "latitude": "29.964939267090802",
    "geocoded_column": {
      "latitude": "29.964939267090802",
      "longitude": "-90.05206690983673"
    }
  },
  {
    "service_request": "2023-1000852",
    "request_type": "Trash/Recycling",
    "request_reason": "Start Trash Service",
    "date_created": "2023-05-18T14:17:14.000",
    "date_modified": "2023-05-18T14:17:15.000",
    "request_status": "Pending",
    "responsible_agency": "Department of Sanitation",
    "final_address": "4217 Vincennes Pl",
    "address_councildis": "B",
    "status": "Assigned to Contractor",
    "contractor": "Richards Disposal",
    "rowid": "1000852",
    "final_x": "3668809.25614",
    "final_y": "531353.570434",
    "longitude": "-90.10814886511454",
    "latitude": "29.955417275911277",
    "geocoded_column": {
      "latitude": "29.955417275911277",
      "longitude": "-90.10814886511454"
    }
  },
  {
    "service_request": "2023-1000851",
    "request_type": "Traffic Signals/Signs/Striping/Streetlights",
    "request_reason": "Street Light Outage/Malfunction",
    "date_created": "2023-05-18T14:11:56.000",
    "date_modified": "2023-05-18T14:11:56.000",
    "request_status": "Pending",
    "responsible_agency": "Department of Public Works",
    "final_address": "2810 Danbury Dr",
    "address_councildis": "C",
    "status": "Assigned to Contractor",
    "contractor": "Legacy Professional Services",
    "rowid": "1000851",
    "final_x": "3703699.03428",
    "final_y": "520347.2078",
    "longitude": "-89.99838531375813",
    "latitude": "29.924081753363485",
    "geocoded_column": {
      "latitude": "29.924081753363485",
      "longitude": "-89.99838531375813"
    }
  },
  {
    "service_request": "2023-1000850",
    "request_type": "Trash/Recycling",
    "request_reason": "Request a Large Item Pick Up",
    "date_created": "2023-05-18T14:09:23.000",
    "date_modified": "2023-05-18T14:09:24.000",
    "request_status": "Pending",
    "responsible_agency": "Department of Sanitation",
    "final_address": "7400 Fieldston Rd",
    "address_councildis": "E",
    "status": "Assigned to Contractor",
    "contractor": "Waste Pro",
    "rowid": "1000850",
    "final_x": "3700641.00356",
    "final_y": "559915.356189",
    "longitude": "-90.00659215483287",
    "latitude": "30.03297732895083",
    "geocoded_column": {
      "latitude": "30.03297732895083",
      "longitude": "-90.00659215483287"
    }
  },
  {
    "service_request": "2023-1000849",
    "request_type": "Traffic Signals/Signs/Striping/Streetlights",
    "request_reason": "Street Light Outage/Malfunction",
    "date_created": "2023-05-18T14:06:20.000",
    "date_modified": "2023-05-18T14:06:21.000",
    "request_status": "Pending",
    "responsible_agency": "Department of Public Works",
    "final_address": "1104 Webster St",
    "address_councildis": "A",
    "status": "Assigned to Contractor",
    "contractor": "Legacy Professional Services",
    "rowid": "1000849",
    "final_x": "3664443.73056",
    "final_y": "520454.963896",
    "longitude": "-90.12229739260702",
    "latitude": "29.925577217600168",
    "geocoded_column": {
      "latitude": "29.925577217600168",
      "longitude": "-90.12229739260702"
    }
  },
  {
    "service_request": "2023-1000848",
    "request_type": "Trash/Recycling",
    "request_reason": "Repair Trash Cart",
    "date_created": "2023-05-18T14:06:09.000",
    "date_modified": "2023-05-18T14:06:09.000",
    "request_status": "Pending",
    "responsible_agency": "Department of Sanitation",
    "final_address": "2735 George Nick Connor Dr",
    "address_councildis": "D",
    "status": "Assigned to Contractor",
    "contractor": "IV Waste",
    "rowid": "1000848",
    "final_x": "3681090.81301",
    "final_y": "542614.735821",
    "longitude": "-90.06897581853352",
    "latitude": "29.98601479928032",
    "geocoded_column": {
      "latitude": "29.98601479928032",
      "longitude": "-90.06897581853352"
    }
  },
  {
    "service_request": "2023-1000845",
    "request_type": "Trash/Recycling",
    "request_reason": "Illegal Dumping",
    "date_created": "2023-05-18T14:02:52.000",
    "date_modified": "2023-05-18T14:02:52.000",
    "request_status": "Pending",
    "responsible_agency": "Department of Sanitation",
    "final_address": "1029 Eliza St",
    "address_councildis": "C",
    "status": "Pending",
    "rowid": "1000845",
    "final_x": "3688770.03235",
    "final_y": "529827.321281",
    "longitude": "-90.04517433146124",
    "latitude": "29.950618661079076",
    "geocoded_column": {
      "latitude": "29.950618661079076",
      "longitude": "-90.04517433146124"
    }
  },
  {
    "service_request": "2023-1000844",
    "request_type": "Traffic Signals/Signs/Striping/Streetlights",
    "request_reason": "Street Light Outage/Malfunction",
    "date_created": "2023-05-18T14:02:37.000",
    "date_modified": "2023-05-18T14:02:38.000",
    "request_status": "Pending",
    "responsible_agency": "Department of Public Works",
    "final_address": "4602 Banks St",
    "address_councildis": "A",
    "status": "Assigned to Contractor",
    "contractor": "Legacy Professional Services",
    "rowid": "1000844",
    "final_x": "3668608.7035",
    "final_y": "538626.815689",
    "longitude": "-90.10853665132858",
    "latitude": "29.975422178135343",
    "geocoded_column": {
      "latitude": "29.975422178135343",
      "longitude": "-90.10853665132858"
    }
  },
  {
    "service_request": "2023-1000843",
    "request_type": "Trash/Recycling",
    "request_reason": "Order Recycling Cart",
    "date_created": "2023-05-18T14:01:46.000",
    "date_modified": "2023-05-18T14:01:46.000",
    "request_status": "Pending",
    "responsible_agency": "Department of Sanitation",
    "final_address": "2214 Cadiz St",
    "address_councildis": "B",
    "status": "Pending",
    "rowid": "1000843",
    "final_x": "3669835.75207",
    "final_y": "523055.490235",
    "longitude": "-90.10518839838295",
    "latitude": "29.932570033693658",
    "geocoded_column": {
      "latitude": "29.932570033693658",
      "longitude": "-90.10518839838295"
    }
  },
  {
    "service_request": "2023-1000842",
    "request_type": "Trash/Recycling",
    "request_reason": "Order Recycling Cart",
    "date_created": "2023-05-18T14:00:12.000",
    "date_modified": "2023-05-18T14:00:12.000",
    "request_status": "Pending",
    "responsible_agency": "Department of Sanitation",
    "final_address": "2212 Cadiz St",
    "address_councildis": "B",
    "status": "Pending",
    "rowid": "1000842",
    "final_x": "3669836.09198",
    "final_y": "523042.232187",
    "longitude": "-90.10518777392262",
    "latitude": "29.932533568298368",
    "geocoded_column": {
      "latitude": "29.932533568298368",
      "longitude": "-90.10518777392262"
    }
  },
  {
    "service_request": "2023-1000841",
    "request_type": "Trash/Recycling",
    "request_reason": "Request a Large Item Pick Up",
    "date_created": "2023-05-18T13:55:06.000",
    "date_modified": "2023-05-18T13:55:06.000",
    "request_status": "Pending",
    "responsible_agency": "Department of Sanitation",
    "final_address": "3917 N Claiborne Ave",
    "address_councildis": "D",
    "status": "Assigned to Contractor",
    "contractor": "IV Waste",
    "rowid": "1000841",
    "final_x": "3692119.82307",
    "final_y": "537248.518152",
    "longitude": "-90.03433181362814",
    "latitude": "29.970920380979553",
    "geocoded_column": {
      "latitude": "29.970920380979553",
      "longitude": "-90.03433181362814"
    }
  },
  {
    "service_request": "2023-1000840",
    "request_type": "Roads/Drainage",
    "request_reason": "Catch Basin - Clogged",
    "date_created": "2023-05-18T13:54:16.000",
    "date_modified": "2023-05-18T13:54:17.000",
    "request_status": "Pending",
    "responsible_agency": "Department of Public Works",
    "final_address": "7100 BLK Grey Oaks Dr",
    "address_councildis": "E",
    "status": "Pending",
    "rowid": "1000840",
    "final_x": "3702107.61543",
    "final_y": "559507.162269",
    "longitude": "-90.00197254515825",
    "latitude": "30.031808179922947",
    "geocoded_column": {
      "latitude": "30.031808179922947",
      "longitude": "-90.00197254515825"
    }
  },
  {
    "service_request": "2023-1000839",
    "request_type": "Trash/Recycling",
    "request_reason": "Request a Large Item Pick Up",
    "date_created": "2023-05-18T13:51:41.000",
    "date_modified": "2023-05-18T13:51:42.000",
    "request_status": "Pending",
    "responsible_agency": "Department of Sanitation",
    "final_address": "7100 Grey Oaks Dr",
    "address_councildis": "E",
    "status": "Assigned to Contractor",
    "contractor": "Waste Pro",
    "rowid": "1000839",
    "final_x": "3702137.68036",
    "final_y": "559321.485149",
    "longitude": "-90.00188435689445",
    "latitude": "30.031296679409138",
    "geocoded_column": {
      "latitude": "30.031296679409138",
      "longitude": "-90.00188435689445"
    }
  },
  {
    "service_request": "2023-1000838",
    "request_type": "Trash/Recycling",
    "request_reason": "Request a Large Item Pick Up",
    "date_created": "2023-05-18T13:50:48.000",
    "date_modified": "2023-05-18T15:57:10.000",
    "case_close_date": "2023-05-18T10:57:10.000",
    "request_status": "Closed",
    "responsible_agency": "Department of Sanitation",
    "final_address": "7100 BLK Grey Oaks Dr",
    "address_councildis": "E",
    "status": "Duplicate Request",
    "contractor": "Waste Pro",
    "contractor_action": "duplicate",
    "rowid": "1000838",
    "final_x": "3702107.61543",
    "final_y": "559507.162269",
    "longitude": "-90.00197254515825",
    "latitude": "30.031808179922947",
    "geocoded_column": {
      "latitude": "30.031808179922947",
      "longitude": "-90.00197254515825"
    }
  },
  {
    "service_request": "2023-1000837",
    "request_type": "Trash/Recycling",
    "request_reason": "Replace Trash Cart",
    "date_created": "2023-05-18T13:49:05.000",
    "date_modified": "2023-05-18T13:49:07.000",
    "request_status": "Pending",
    "responsible_agency": "Department of Sanitation",
    "final_address": "3450 Magazine St",
    "address_councildis": "B",
    "status": "Assigned to Contractor",
    "contractor": "Richards Disposal",
    "rowid": "1000837",
    "final_x": "3674611.81595",
    "final_y": "519354.234039",
    "longitude": "-90.09023751421243",
    "latitude": "29.92225115115243",
    "geocoded_column": {
      "latitude": "29.92225115115243",
      "longitude": "-90.09023751421243"
    }
  },
  {
    "service_request": "2023-1000836",
    "request_type": "Abandoned Vehicles",
    "request_reason": "Abandoned/Junk Vehicles",
    "date_created": "2023-05-18T13:47:06.000",
    "date_modified": "2023-05-18T13:47:06.000",
    "request_status": "Pending",
    "responsible_agency": "Department of Public Works",
    "final_address": "6600 BLK Virgilian St",
    "address_councildis": "D",
    "status": "Pending",
    "rowid": "1000836",
    "final_x": "3697119.23466",
    "final_y": "555952.787488",
    "longitude": "-90.0178649700415",
    "latitude": "30.022193432965622",
    "geocoded_column": {
      "latitude": "30.022193432965622",
      "longitude": "-90.0178649700415"
    }
  },
  {
    "service_request": "2023-1000835",
    "request_type": "Abandoned Vehicles",
    "request_reason": "Abandoned/Junk Vehicles",
    "date_created": "2023-05-18T13:46:12.000",
    "date_modified": "2023-05-18T13:46:12.000",
    "request_status": "Pending",
    "responsible_agency": "Department of Public Works",
    "final_address": "6600 BLK Virgilian St",
    "address_councildis": "D",
    "status": "Pending",
    "rowid": "1000835",
    "final_x": "3697119.23466",
    "final_y": "555952.787488",
    "longitude": "-90.0178649700415",
    "latitude": "30.022193432965622",
    "geocoded_column": {
      "latitude": "30.022193432965622",
      "longitude": "-90.0178649700415"
    }
  },
  {
    "service_request": "2023-1000834",
    "request_type": "Property Maintenance",
    "request_reason": "Property Maintenance",
    "date_created": "2023-05-18T13:45:59.000",
    "date_modified": "2023-05-18T14:01:51.000",
    "request_status": "Pending",
    "responsible_agency": "Department of Code Enforcement",
    "final_address": "2521 Lapeyrouse St",
    "address_councildis": "D",
    "status": "Pending",
    "rowid": "1000834",
    "final_x": "3679437.66523",
    "final_y": "539935.41601",
    "longitude": "-90.07429045049933",
    "latitude": "29.978697655935974",
    "geocoded_column": {
      "latitude": "29.978697655935974",
      "longitude": "-90.07429045049933"
    }
  },
  {
    "service_request": "2023-1000833",
    "request_type": "Trash/Recycling",
    "request_reason": "Missed Trash Pick-Up",
    "date_created": "2023-05-18T13:43:59.000",
    "date_modified": "2023-05-18T13:43:59.000",
    "request_status": "Pending",
    "responsible_agency": "Department of Sanitation",
    "final_address": "2530 S Miro St",
    "address_councildis": "B",
    "status": "Assigned to Contractor",
    "contractor": "Richards Disposal",
    "rowid": "1000833",
    "final_x": "3672626.87252",
    "final_y": "528768.478656",
    "longitude": "-90.09618232555557",
    "latitude": "29.94819633477876",
    "geocoded_column": {
      "latitude": "29.94819633477876",
      "longitude": "-90.09618232555557"
    }
  },
  {
    "service_request": "2023-1000832",
    "request_type": "Trash/Recycling",
    "request_reason": "Order Trash Cart",
    "date_created": "2023-05-18T13:39:37.000",
    "date_modified": "2023-05-18T13:39:39.000",
    "request_status": "Pending",
    "responsible_agency": "Department of Sanitation",
    "final_address": "1727 Henriette Delille St",
    "address_councildis": "C",
    "status": "Assigned to Contractor",
    "contractor": "IV Waste",
    "rowid": "1000832",
    "final_x": "3683380.26133",
    "final_y": "536223.915271",
    "longitude": "-90.0619683368799",
    "latitude": "29.968372612528402",
    "geocoded_column": {
      "latitude": "29.968372612528402",
      "longitude": "-90.0619683368799"
    }
  },
  {
    "service_request": "2023-1000831",
    "request_type": "Trash/Recycling",
    "request_reason": "Request a Large Item Pick Up",
    "date_created": "2023-05-18T13:36:35.000",
    "date_modified": "2023-05-18T13:36:36.000",
    "request_status": "Pending",
    "responsible_agency": "Department of Sanitation",
    "final_address": "1223 Congress St",
    "address_councildis": "D",
    "status": "Assigned to Contractor",
    "contractor": "IV Waste",
    "rowid": "1000831",
    "final_x": "3690884.14147",
    "final_y": "536111.533639",
    "longitude": "-90.03827482380052",
    "latitude": "29.967832534984662",
    "geocoded_column": {
      "latitude": "29.967832534984662",
      "longitude": "-90.03827482380052"
    }
  },
  {
    "service_request": "2023-1000829",
    "request_type": "Roads/Drainage",
    "request_reason": "Pothole",
    "date_created": "2023-05-18T13:35:22.000",
    "date_modified": "2023-05-18T13:35:22.000",
    "request_status": "Pending",
    "responsible_agency": "Department of Public Works",
    "final_address": "200 BLK Iberville St",
    "address_councildis": "C",
    "status": "Pending",
    "rowid": "1000829",
    "final_x": "3682550.87141",
    "final_y": "530186.250439",
    "longitude": "-90.06479867598568",
    "latitude": "29.9517963751702",
    "geocoded_column": {
      "latitude": "29.9517963751702",
      "longitude": "-90.06479867598568"
    }
  },
  {
    "service_request": "2023-1000828",
    "request_type": "Trash/Recycling",
    "request_reason": "Repair Trash Cart",
    "date_created": "2023-05-18T13:35:07.000",
    "date_modified": "2023-05-18T13:35:08.000",
    "request_status": "Pending",
    "responsible_agency": "Department of Sanitation",
    "final_address": "4618 Danneel St",
    "address_councildis": "B",
    "status": "Assigned to Contractor",
    "contractor": "Richards Disposal",
    "rowid": "1000828",
    "final_x": "3669809.98087",
    "final_y": "522100.939514",
    "longitude": "-90.10530205200106",
    "latitude": "29.92994608455264",
    "geocoded_column": {
      "latitude": "29.92994608455264",
      "longitude": "-90.10530205200106"
    }
  },
  {
    "service_request": "2023-1000827",
    "request_type": "Trash/Recycling",
    "request_reason": "Order Trash Cart",
    "date_created": "2023-05-18T13:32:41.000",
    "date_modified": "2023-05-18T13:47:24.000",
    "request_status": "Pending",
    "responsible_agency": "Department of Sanitation",
    "final_address": "25478 Chef Menteur Highway",
    "address_councildis": "E",
    "status": "Assigned to Contractor",
    "rowid": "1000827",
    "final_x": "3780329.67416",
    "final_y": "599575.220674",
    "longitude": "-89.75304859975697",
    "latitude": "30.139244729982753",
    "geocoded_column": {
      "latitude": "30.139244729982753",
      "longitude": "-89.75304859975697"
    }
  },
  {
    "service_request": "2023-1000826",
    "request_type": "Roads/Drainage",
    "request_reason": "Pothole",
    "date_created": "2023-05-18T13:31:59.000",
    "date_modified": "2023-05-18T13:31:59.000",
    "request_status": "Pending",
    "responsible_agency": "Department of Public Works",
    "final_address": "POYDRAS ST & S GALVEZ ST",
    "address_councildis": "B",
    "status": "Pending",
    "rowid": "1000826",
    "final_x": "3675252.3",
    "final_y": "531661.68",
    "longitude": "-90.08779346891237",
    "latitude": "29.95607347178689",
    "geocoded_column": {
      "latitude": "29.95607347178689",
      "longitude": "-90.08779346891237"
    }
  },
  {
    "service_request": "2023-1000825",
    "request_type": "Trash/Recycling",
    "request_reason": "Request a Large Item Pick Up",
    "date_created": "2023-05-18T13:27:07.000",
    "date_modified": "2023-05-18T13:27:08.000",
    "request_status": "Pending",
    "responsible_agency": "Department of Sanitation",
    "final_address": "8226 Nelson St",
    "address_councildis": "A",
    "status": "Assigned to Contractor",
    "contractor": "Richards Disposal",
    "rowid": "1000825",
    "final_x": "3664661.19648",
    "final_y": "532209.057411",
    "longitude": "-90.12121841446167",
    "latitude": "29.95789089027641",
    "geocoded_column": {
      "latitude": "29.95789089027641",
      "longitude": "-90.12121841446167"
    }
  },
  {
    "service_request": "2023-1000824",
    "request_type": "Property Maintenance",
    "request_reason": "Property Maintenance",
    "date_created": "2023-05-18T13:26:05.000",
    "date_modified": "2023-05-18T13:26:05.000",
    "request_status": "Pending",
    "responsible_agency": "Department of Code Enforcement",
    "final_address": "3630 Rue Delphine",
    "address_councildis": "C",
    "status": "Pending",
    "rowid": "1000824",
    "final_x": "3703083.9059",
    "final_y": "517197.924789",
    "longitude": "-90.0004426817114",
    "latitude": "29.9154420010076",
    "geocoded_column": {
      "latitude": "29.9154420010076",
      "longitude": "-90.0004426817114"
    }
  },
  {
    "service_request": "2023-1000823",
    "request_type": "Trash/Recycling",
    "request_reason": "Order Trash Cart",
    "date_created": "2023-05-18T13:23:40.000",
    "date_modified": "2023-05-18T13:23:41.000",
    "request_status": "Pending",
    "responsible_agency": "Department of Sanitation",
    "final_address": "1424 Octavia St",
    "address_councildis": "A",
    "status": "Assigned to Contractor",
    "contractor": "Richards Disposal",
    "rowid": "1000823",
    "final_x": "3666894.53729",
    "final_y": "521155.013177",
    "longitude": "-90.11453741306593",
    "latitude": "29.927430680619402",
    "geocoded_column": {
      "latitude": "29.927430680619402",
      "longitude": "-90.11453741306593"
    }
  },
  {
    "service_request": "2023-1000822",
    "request_type": "Roads/Drainage",
    "request_reason": "Accessibility Ramps, Curbs and Sidewalk Repair",
    "date_created": "2023-05-18T13:21:32.000",
    "date_modified": "2023-05-18T13:21:32.000",
    "request_status": "Pending",
    "responsible_agency": "Department of Public Works",
    "final_address": "7361 Poitevent Ave",
    "address_councildis": "E",
    "status": "Pending",
    "rowid": "1000822",
    "final_x": "3707427.34923",
    "final_y": "563400.00208",
    "longitude": "-89.98501728247237",
    "latitude": "30.042340921289092",
    "geocoded_column": {
      "latitude": "30.042340921289092",
      "longitude": "-89.98501728247237"
    }
  },
  {
    "service_request": "2023-1000821",
    "request_type": "Property Maintenance",
    "request_reason": "Property Maintenance",
    "date_created": "2023-05-18T13:20:33.000",
    "date_modified": "2023-05-18T13:20:34.000",
    "request_status": "Pending",
    "responsible_agency": "Department of Code Enforcement",
    "final_address": "3726 Blair St",
    "address_councildis": "C",
    "status": "Pending",
    "rowid": "1000821",
    "final_x": "3709330.67461",
    "final_y": "517159.995893",
    "longitude": "-89.98072714865151",
    "latitude": "29.91513642695135",
    "geocoded_column": {
      "latitude": "29.91513642695135",
      "longitude": "-89.98072714865151"
    }
  },
  {
    "service_request": "2023-1000820",
    "request_type": "Roads/Drainage",
    "request_reason": "Damaged Sidewalk",
    "date_created": "2023-05-18T13:19:50.000",
    "date_modified": "2023-05-18T13:52:09.000",
    "request_status": "Pending",
    "responsible_agency": "Department of Public Works",
    "final_address": "New Orleans,LA",
    "address_councildis": "A",
    "rowid": "1000820",
    "final_x": "3661513.81184",
    "final_y": "529204.282432",
    "longitude": "-90.13125655156549",
    "latitude": "29.94971989987182",
    "geocoded_column": {
      "latitude": "29.94971989987182",
      "longitude": "-90.13125655156549"
    }
  },
  {
    "service_request": "2023-1000819",
    "request_type": "Trash/Recycling",
    "request_reason": "Repair Recycling Cart",
    "date_created": "2023-05-18T13:16:36.000",
    "date_modified": "2023-05-18T13:16:36.000",
    "request_status": "Pending",
    "responsible_agency": "Department of Sanitation",
    "final_address": "424 Arabella St",
    "address_councildis": "A",
    "status": "Pending",
    "rowid": "1000819",
    "final_x": "3665541.30189",
    "final_y": "517807.24447",
    "longitude": "-90.11892126447295",
    "latitude": "29.918264877067546",
    "geocoded_column": {
      "latitude": "29.918264877067546",
      "longitude": "-90.11892126447295"
    }
  },
  {
    "service_request": "2023-1000818",
    "request_type": "Trash/Recycling",
    "request_reason": "Replace Recycling Cart",
    "date_created": "2023-05-18T13:10:27.000",
    "date_modified": "2023-05-18T13:10:28.000",
    "request_status": "Pending",
    "responsible_agency": "Department of Sanitation",
    "final_address": "821 N Villere St",
    "address_councildis": "C",
    "status": "Pending",
    "rowid": "1000818",
    "final_x": "3680621.50664",
    "final_y": "534645.131078",
    "longitude": "-90.07073555043985",
    "latitude": "29.96411537459687",
    "geocoded_column": {
      "latitude": "29.96411537459687",
      "longitude": "-90.07073555043985"
    }
  },
  {
    "service_request": "2023-1000817",
    "request_type": "Property Maintenance",
    "request_reason": "Property Maintenance",
    "date_created": "2023-05-18T13:07:39.000",
    "date_modified": "2023-05-18T13:07:39.000",
    "request_status": "Pending",
    "responsible_agency": "Department of Code Enforcement",
    "final_address": "3153 Royal St",
    "address_councildis": "C",
    "status": "Pending",
    "rowid": "1000817",
    "final_x": "3689044.40687",
    "final_y": "534429.580037",
    "longitude": "-90.04414450554027",
    "latitude": "29.963264795948145",
    "geocoded_column": {
      "latitude": "29.963264795948145",
      "longitude": "-90.04414450554027"
    }
  },