[
  {
    "service_request": "2024-1122319",
    "request_type": "Mosquito, Termite & Rodent Control",
    "request_reason": "Non-Rodent Complaint (Mice, Possums, Snakes)",
    "date_created": "2024-08-15T23:47:57.000",
    "date_modified": "2024-08-15T23:47:57.000",
    "request_status": "Pending",
    "responsible_agency": "Mosquito, Termite & Rodent Control Board",
    "final_address": "5610 Norgate Dr",
    "address_councildis": "E",
    "status": "Pending",
    "rowid": "1122319",
    "final_x": "3707531.84484",
    "final_y": "558205.380507",
    "longitude": "-89.98488023758095",
    "latitude": "30.02805438161073",
    "geocoded_column": {
      "latitude": "30.02805438161073",
      "longitude": "-89.98488023758095"
    }
  },
  {
    "service_request": "2024-1122318",
    "request_type": "Property Maintenance",
    "request_reason": "Property Maintenance",
    "date_created": "2024-08-15T23:46:43.000",
    "date_modified": "2024-08-15T23:46:43.000",
    "request_status": "Pending",
    "responsible_agency": "Department of Code Enforcement",
    "final_address": "5610 Norgate Dr",
    "address_councildis": "E",
    "status": "Pending",
    "rowid": "1122318",
    "final_x": "3707531.84484",
    "final_y": "558205.380507",
    "longitude": "-89.98488023758095",
    "latitude": "30.02805438161073",
    "geocoded_column": {
      "latitude": "30.02805438161073",
      "longitude": "-89.98488023758095"
    }
  },
  {
    "service_request": "2024-1122317",
    "request_type": "Trash/Recycling",
    "request_reason": "Request a Large Item Pick Up",
    "date_created": "2024-08-15T23:40:36.000",
    "date_modified": "2024-08-15T23:40:37.000",
    "request_status": "Pending",
    "responsible_agency": "Department of Sanitation",
    "final_address": "2316 Memorial Park Dr",
    "address_councildis": "C",
    "status": "Assigned to Contractor",
    "contractor": "Richards Disposal",
    "rowid": "1122317",
    "final_x": "3691943.77193",
    "final_y": "522005.749434",
    "longitude": "-90.03543307175921",
    "latitude": "29.929013526002677",
    "geocoded_column": {
      "latitude": "29.929013526002677",
      "longitude": "-90.03543307175921"
    }
  },
  {
    "service_request": "2024-1122316",
    "request_type": "Property Maintenance",
    "request_reason": "Property Maintenance",
    "date_created": "2024-08-15T22:22:10.000",
    "date_modified": "2024-08-15T22:22:10.000",
    "request_status": "Pending",
    "responsible_agency": "Department of Code Enforcement",
    "final_address": "2655 Lavender St",
    "address_councildis": "D",
    "status": "Pending",
    "rowid": "1122316",
    "final_x": "3687562.50774",
    "final_y": "547048.960913",
    "longitude": "-90.04837727401376",
    "latitude": "29.998009385770935",
    "geocoded_column": {
      "latitude": "29.998009385770935",
      "longitude": "-90.04837727401376"
    }
  },
  {
    "service_request": "2024-1122315",
    "request_type": "Roads/Drainage",
    "request_reason": "Street Subsidence (Sinking)",
    "date_created": "2024-08-15T22:16:57.000",
    "date_modified": "2024-08-15T22:16:57.000",
    "request_status": "Pending",
    "responsible_agency": "Department of Public Works",
    "final_address": "616 Delaronde St",
    "address_councildis": "C",
    "status": "Pending",
    "rowid": "1122315",
    "final_x": "3687372.21244",
    "final_y": "531236.979714",
    "longitude": "-90.04953804812723",
    "latitude": "29.954537873504975",
    "geocoded_column": {
      "latitude": "29.954537873504975",
      "longitude": "-90.04953804812723"
    }
  },
  {
    "service_request": "2024-1122314",
    "request_type": "Abandoned Vehicles",
    "request_reason": "Abandoned/Junk Vehicles",
    "date_created": "2024-08-15T22:13:10.000",
    "date_modified": "2024-08-15T22:13:10.000",
    "request_status": "Pending",
    "responsible_agency": "Department of Public Works",
    "final_address": "7445 Beau St",
    "address_councildis": "E",
    "status": "Pending",
    "rowid": "1122314",
    "final_x": "3695505.04957",
    "final_y": "558175.840923",
    "longitude": "-90.02288503468131",
    "latitude": "30.02835684142123",
    "geocoded_column": {
      "latitude": "30.02835684142123",
      "longitude": "-90.02288503468131"
    }
  },
  {
    "service_request": "2024-1122312",
    "request_type": "Property Maintenance",
    "request_reason": "Property Maintenance",
    "date_created": "2024-08-15T21:36:28.000",
    "date_modified": "2024-08-15T21:36:28.000",
    "request_status": "Pending",
    "responsible_agency": "Department of Code Enforcement",
    "final_address": "7301 Poitevent Ave",
    "address_councildis": "E",
    "status": "Pending",
    "rowid": "1122312",
    "final_x": "3707606.33432",
    "final_y": "563079.368736",
    "longitude": "-89.98446355351594",
    "latitude": "30.041453514924523",
    "geocoded_column": {
      "latitude": "30.041453514924523",
      "longitude": "-89.98446355351594"
    }
  },
  {
    "service_request": "2024-1122311",
    "request_type": "Trash/Recycling",
    "request_reason": "Request a Large Item Pick Up",
    "date_created": "2024-08-15T21:34:04.000",
    "date_modified": "2024-08-15T21:34:05.000",
    "request_status": "Pending",
    "responsible_agency": "Department of Sanitation",
    "final_address": "1300 Caton St",
    "address_councildis": "D",
    "status": "Assigned to Contractor",
    "contractor": "IV Waste",
    "rowid": "1122311",
    "final_x": "3677356.43765",
    "final_y": "546764.667729",
    "longitude": "-90.08062793988343",
    "latitude": "29.99753843351659",
    "geocoded_column": {
      "latitude": "29.99753843351659",
      "longitude": "-90.08062793988343"
    }
  },
  {
    "service_request": "2024-1122310",
    "request_type": "Abandoned Vehicles",
    "request_reason": "Abandoned/Junk Vehicles",
    "date_created": "2024-08-15T21:09:37.000",
    "date_modified": "2024-08-15T21:09:37.000",
    "request_status": "Pending",
    "responsible_agency": "Department of Public Works",
    "final_address": "102 Norland Ave",
    "address_councildis": "C",
    "status": "Pending",
    "rowid": "1122310",
    "final_x": "3705780.16036",
    "final_y": "520490.1918",
    "longitude": "-89.99181070520282",
    "latitude": "29.924408077309852",
    "geocoded_column": {
      "latitude": "29.924408077309852",
      "longitude": "-89.99181070520282"
    }
  },
  {
    "service_request": "2024-1122309",
    "request_type": "Abandoned Vehicles",
    "request_reason": "Abandoned/Junk Vehicles",
    "date_created": "2024-08-15T20:58:16.000",
    "date_modified": "2024-08-15T20:58:16.000",
    "request_status": "Pending",
    "responsible_agency": "Department of Public Works",
    "final_address": "7700 BLK Shubert St",
    "address_councildis": "E",
    "status": "Pending",
    "rowid": "1122309",
    "final_x": "3695591.85648",
    "final_y": "559284.306416",
    "longitude": "-90.0225706625132",
    "latitude": "30.031401968124136",
    "geocoded_column": {
      "latitude": "30.031401968124136",
      "longitude": "-90.0225706625132"
    }
  },
  {
    "service_request": "2024-1122308",
    "request_type": "Trash/Recycling",
    "request_reason": "Request a Large Item Pick Up",
    "date_created": "2024-08-15T20:57:57.000",
    "date_modified": "2024-08-15T20:57:57.000",
    "request_status": "Pending",
    "responsible_agency": "Department of Sanitation",
    "final_address": "1472 Constance St",
    "address_councildis": "B",
    "status": "Assigned to Contractor",
    "contractor": "IV Waste",
    "rowid": "1122308",
    "final_x": "3680612.63605",
    "final_y": "523831.775099",
    "longitude": "-90.0711397141191",
    "latitude": "29.934382547630115",
    "geocoded_column": {
      "latitude": "29.934382547630115",
      "longitude": "-90.0711397141191"
    }
  },
  {
    "service_request": "2024-1122307",
    "request_type": "Traffic Signals/Signs/Striping/Streetlights",
    "request_reason": "Street Light Outage/Malfunction",
    "date_created": "2024-08-15T20:32:20.000",
    "date_modified": "2024-08-15T20:32:21.000",
    "request_status": "Pending",
    "responsible_agency": "Department of Public Works",
    "final_address": "214 N Solomon St",
    "address_councildis": "A",
    "status": "Assigned to Contractor",
    "contractor": "Legacy Professional Services",
    "rowid": "1122307",
    "final_x": "3670973.75073",
    "final_y": "539145.747914",
    "longitude": "-90.10104954823846",
    "latitude": "29.976779342402033",
    "geocoded_column": {
      "latitude": "29.976779342402033",
      "longitude": "-90.10104954823846"
    }
  },
  {
    "service_request": "2024-1122306",
    "request_type": "Trash/Recycling",
    "request_reason": "Request a Large Item Pick Up",
    "date_created": "2024-08-15T20:23:44.000",
    "date_modified": "2024-08-15T20:23:45.000",
    "request_status": "Pending",
    "responsible_agency": "Department of Sanitation",
    "final_address": "4221 Van Ave",
    "address_councildis": "D",
    "status": "Assigned to Contractor",
    "contractor": "IV Waste",
    "rowid": "1122306",
    "final_x": "3680100.07803",
    "final_y": "547881.36533",
    "longitude": "-90.07192202841846",
    "latitude": "30.000526193528543",
    "geocoded_column": {
      "latitude": "30.000526193528543",
      "longitude": "-90.07192202841846"
    }
  },
  {
    "service_request": "2024-1122305",
    "request_type": "Trash/Recycling",
    "request_reason": "Order Recycling Cart",
    "date_created": "2024-08-15T20:22:29.000",
    "date_modified": "2024-08-15T20:22:29.000",
    "request_status": "Pending",
    "responsible_agency": "Department of Sanitation",
    "final_address": "2323 N Roman St",
    "address_councildis": "D",
    "status": "Pending",
    "rowid": "1122305",
    "final_x": "3685759.39958",
    "final_y": "538990.962442",
    "longitude": "-90.05435738277814",
    "latitude": "29.975908227109233",
    "geocoded_column": {
      "latitude": "29.975908227109233",
      "longitude": "-90.05435738277814"
    }
  },
  {
    "service_request": "2024-1122304",
    "request_type": "Trash/Recycling",
    "request_reason": "Order Trash Cart",
    "date_created": "2024-08-15T20:21:24.000",
    "date_modified": "2024-08-15T20:21:25.000",
    "request_status": "Pending",
    "responsible_agency": "Department of Sanitation",
    "final_address": "2323 N Roman St",
    "address_councildis": "D",
    "status": "Assigned to Contractor",
    "contractor": "IV Waste",
    "rowid": "1122304",
    "final_x": "3685759.39958",
    "final_y": "538990.962442",
    "longitude": "-90.05435738277814",
    "latitude": "29.975908227109233",
    "geocoded_column": {
      "latitude": "29.975908227109233",
      "longitude": "-90.05435738277814"
    }
  },
  {
    "service_request": "2024-1122303",
    "request_type": "Trash/Recycling",
    "request_reason": "Missed Trash Pick-Up",
    "date_created": "2024-08-15T20:18:03.000",
    "date_modified": "2024-08-15T20:18:04.000",
    "request_status": "Pending",
    "responsible_agency": "Department of Sanitation",
    "final_address": "2522 Jefferson Ave",
    "address_councildis": "A",
    "status": "Assigned to Contractor",
    "contractor": "IV Waste",
    "rowid": "1122303",
    "final_x": "3668039.10708",
    "final_y": "524855.95622",
    "longitude": "-90.1107996285821",
    "latitude": "29.937573566434033",
    "geocoded_column": {
      "latitude": "29.937573566434033",
      "longitude": "-90.1107996285821"
    }
  },
  {
    "service_request": "2024-1122302",
    "request_type": "Trash/Recycling",
    "request_reason": "Request a Large Item Pick Up",
    "date_created": "2024-08-15T20:15:09.000",
    "date_modified": "2024-08-15T20:15:09.000",
    "request_status": "Pending",
    "responsible_agency": "Department of Sanitation",
    "final_address": "4221 Van Ave",
    "address_councildis": "D",
    "status": "Assigned to Contractor",
    "contractor": "IV Waste",
    "rowid": "1122302",
    "final_x": "3680100.07803",
    "final_y": "547881.36533",
    "longitude": "-90.07192202841846",
    "latitude": "30.000526193528543",
    "geocoded_column": {
      "latitude": "30.000526193528543",
      "longitude": "-90.07192202841846"
    }
  },
  {
    "service_request": "2024-1122301",
    "request_type": "Traffic Signals/Signs/Striping/Streetlights",
    "request_reason": "Request for Traffic Calming due to Speeding",
    "date_created": "2024-08-15T20:02:51.000",
    "date_modified": "2024-08-15T20:02:51.000",
    "request_status": "Pending",
    "responsible_agency": "Department of Public Works",
    "final_address": "3400 BLK Chartres St",
    "address_councildis": "C",
    "status": "Pending",
    "rowid": "1122301",
    "final_x": "3689864.34596",
    "final_y": "533823.794345",
    "longitude": "-90.04157680612761",
    "latitude": "29.96157370510506",
    "geocoded_column": {
      "latitude": "29.96157370510506",
      "longitude": "-90.04157680612761"
    }
  },
  {
    "service_request": "2024-1122300",
    "request_type": "Trash/Recycling",
    "request_reason": "Missed Trash Pick-Up",
    "date_created": "2024-08-15T19:36:37.000",
    "date_modified": "2024-08-15T19:36:38.000",
    "request_status": "Pending",
    "responsible_agency": "Department of Sanitation",
    "final_address": "4918 S Prieur St",
    "address_councildis": "B",
    "status": "Assigned to Contractor",
    "contractor": "IV Waste",
    "rowid": "1122300",
    "final_x": "3669090.91943",
    "final_y": "526637.515006",
    "longitude": "-90.10741879456256",
    "latitude": "29.942441378548565",
    "geocoded_column": {
      "latitude": "29.942441378548565",
      "longitude": "-90.10741879456256"
    }
  },
  {
    "service_request": "2024-1122299",
    "request_type": "Trash/Recycling",
    "request_reason": "Replace Trash Cart",
    "date_created": "2024-08-15T19:30:25.000",
    "date_modified": "2024-08-15T19:30:25.000",
    "request_status": "Pending",
    "responsible_agency": "Department of Sanitation",
    "final_address": "14636 Beekman Rd",
    "address_councildis": "E",
    "status": "Assigned to Contractor",
    "contractor": "Waste Pro",
    "rowid": "1122299",
    "final_x": "3721314.5493",
    "final_y": "573329.185578",
    "longitude": "-89.94074752884032",
    "latitude": "30.06918540707185",
    "geocoded_column": {
      "latitude": "30.06918540707185",
      "longitude": "-89.94074752884032"
    }
  },
  {
    "service_request": "2024-1122298",
    "request_type": "Trash/Recycling",
    "request_reason": "Replace Trash Cart",
    "date_created": "2024-08-15T19:24:29.000",
    "date_modified": "2024-08-15T19:24:30.000",
    "request_status": "Pending",
    "responsible_agency": "Department of Sanitation",
    "final_address": "7829 Hickman St",
    "address_councildis": "E",
    "status": "Assigned to Contractor",
    "contractor": "Waste Pro",
    "rowid": "1122298",
    "final_x": "3705864.73118",
    "final_y": "563974.214113",
    "longitude": "-89.98993444785079",
    "latitude": "30.04397024219299",
    "geocoded_column": {
      "latitude": "30.04397024219299",
      "longitude": "-89.98993444785079"
    }
  },
  {
    "service_request": "2024-1122297",
    "request_type": "Trash/Recycling",
    "request_reason": "Order Trash Cart",
    "date_created": "2024-08-15T19:23:59.000",
    "date_modified": "2024-08-15T19:24:00.000",
    "request_status": "Pending",
    "responsible_agency": "Department of Sanitation",
    "final_address": "839 Spain St",
    "address_councildis": "C",
    "status": "Assigned to Contractor",
    "contractor": "IV Waste",
    "rowid": "1122297",
    "final_x": "3686224.48073",
    "final_y": "535639.008646",
    "longitude": "-90.05300681604444",
    "latitude": "29.96667724256557",
    "geocoded_column": {
      "latitude": "29.96667724256557",
      "longitude": "-90.05300681604444"
    }
  },
  {
    "service_request": "2024-1122296",
    "request_type": "Trash/Recycling",
    "request_reason": "Order Recycling Cart",
    "date_created": "2024-08-15T19:22:35.000",
    "date_modified": "2024-08-15T19:22:35.000",
    "request_status": "Pending",
    "responsible_agency": "Department of Sanitation",
    "final_address": "839 Spain St",
    "address_councildis": "C",
    "status": "Pending",
    "rowid": "1122296",
    "final_x": "3686224.48073",
    "final_y": "535639.008646",
    "longitude": "-90.05300681604444",
    "latitude": "29.96667724256557",
    "geocoded_column": {
      "latitude": "29.96667724256557",
      "longitude": "-90.05300681604444"
    }
  },
  {
    "service_request": "2024-1122295",
    "request_type": "Trash/Recycling",
    "request_reason": "Return Trash Cart",
    "date_created": "2024-08-15T19:19:07.000",
    "date_modified": "2024-08-15T19:19:08.000",
    "request_status": "Pending",
    "responsible_agency": "Department of Sanitation",
    "final_address": "7829 Hickman St",
    "address_councildis": "E",
    "status": "Assigned to Contractor",
    "contractor": "Waste Pro",
    "rowid": "1122295",
    "final_x": "3705864.73118",
    "final_y": "563974.214113",
    "longitude": "-89.98993444785079",
    "latitude": "30.04397024219299",
    "geocoded_column": {
      "latitude": "30.04397024219299",
      "longitude": "-89.98993444785079"
    }
  },
  {
    "service_request": "2024-1122294",
    "request_type": "Trash/Recycling",
    "request_reason": "Replace Trash Cart",
    "date_created": "2024-08-15T19:05:51.000",
    "date_modified": "2024-08-15T19:05:52.000",
    "request_status": "Pending",
    "responsible_agency": "Department of Sanitation",
    "final_address": "2626 Upperline St",
    "address_councildis": "B",
    "status": "Assigned to Contractor",
    "contractor": "IV Waste",
    "rowid": "1122294",
    "final_x": "3669145.60762",
    "final_y": "524487.119932",
    "longitude": "-90.10731877438275",
    "latitude": "29.93652687746799",
    "geocoded_column": {
      "latitude": "29.93652687746799",
      "longitude": "-90.10731877438275"
    }
  },
  {
    "service_request": "2024-1122293",
    "request_type": "Safety & Permits",
    "request_reason": "Licenses & Permits",
    "date_created": "2024-08-15T18:34:09.000",
    "date_modified": "2024-08-15T18:34:09.000",
    "request_status": "Pending",
    "responsible_agency": "Safety and Permits",
    "final_address": "ST CLAUDE AVE & MARIGNY ST",
    "address_councildis": "C",
    "status": "Pending",
    "rowid": "1122293",
    "final_x": "3685412.3",
    "final_y": "536410.68",
    "longitude": "-90.05554449729408",
    "latitude": "29.968823999204748",
    "geocoded_column": {
      "latitude": "29.968823999204748",
      "longitude": "-90.05554449729408"
    }
  },
  {
    "service_request": "2024-1122292",
    "request_type": "Roads/Drainage",
    "request_reason": "Man hole cover issue",
    "date_created": "2024-08-15T18:27:47.000",
    "date_modified": "2024-08-15T18:27:47.000",
    "request_status": "Pending",
    "responsible_agency": "Department of Public Works",
    "final_address": "1105 Jefferson Ave",
    "address_councildis": "B",
    "status": "Pending",
    "rowid": "1122292",
    "final_x": "3667050.63642",
    "final_y": "519561.609784",
    "longitude": "-90.11409816673627",
    "latitude": "29.92304475838242",
    "geocoded_column": {
      "latitude": "29.92304475838242",
      "longitude": "-90.11409816673627"
    }
  },
  {
    "service_request": "2024-1122291",
    "request_type": "Property Maintenance",
    "request_reason": "Property Maintenance",
    "date_created": "2024-08-15T18:25:06.000",
    "date_modified": "2024-08-15T18:25:06.000",
    "request_status": "Pending",
    "responsible_agency": "Department of Code Enforcement",
    "final_address": "232 28Th St",
    "address_councildis": "A",
    "status": "Pending",
    "rowid": "1122291",
    "final_x": "3665528.8752",
    "final_y": "550170.05538",
    "longitude": "-90.11787690485842",
    "latitude": "30.007252319739372",
    "geocoded_column": {
      "latitude": "30.007252319739372",
      "longitude": "-90.11787690485842"
    }
  },
  {
    "service_request": "2024-1122289",
    "request_type": "Trash/Recycling",
    "request_reason": "Replace Trash Cart",
    "date_created": "2024-08-15T18:02:33.000",
    "date_modified": "2024-08-15T18:02:34.000",
    "request_status": "Pending",
    "responsible_agency": "Department of Sanitation",
    "final_address": "4801 Coliseum St, New Orleans, Louisiana, 70115",
    "address_councildis": "B",
    "status": "Assigned to Contractor",
    "contractor": "IV Waste",
    "rowid": "1122289",
    "final_x": "3669454.4635",
    "final_y": "519710.223928",
    "longitude": "-90.10650516898384",
    "latitude": "29.92338285002891",
    "geocoded_column": {
      "latitude": "29.92338285002891",
      "longitude": "-90.10650516898384"
    }
  },
  {
    "service_request": "2024-1122288",
    "request_type": "Mosquito, Termite & Rodent Control",
    "request_reason": "Non-Rodent Complaint (Mice, Possums, Snakes)",
    "date_created": "2024-08-15T18:01:41.000",
    "date_modified": "2024-08-15T18:01:41.000",
    "request_status": "Pending",
    "responsible_agency": "Mosquito, Termite & Rodent Control Board",
    "final_address": "3126 Delachaise St",
    "address_councildis": "B",
    "status": "Pending",
    "rowid": "1122288",
    "final_x": "3671651.6603",
    "final_y": "526647.793918",
    "longitude": "-90.09933358679349",
    "latitude": "29.942394061316815",
    "geocoded_column": {
      "latitude": "29.942394061316815",
      "longitude": "-90.09933358679349"
    }
  },
  {
    "service_request": "2024-1122287",
    "request_type": "Trash/Recycling",
    "request_reason": "Return Trash Cart",
    "date_created": "2024-08-15T17:59:20.000",
    "date_modified": "2024-08-15T17:59:21.000",
    "request_status": "Pending",
    "responsible_agency": "Department of Sanitation",
    "final_address": "931 Broadway St",
    "address_councildis": "A",
    "status": "Assigned to Contractor",
    "contractor": "IV Waste",
    "rowid": "1122287",
    "final_x": "3663740.5968",
    "final_y": "525771.557501",
    "longitude": "-90.12433990184432",
    "latitude": "29.940216584562297",
    "geocoded_column": {
      "latitude": "29.940216584562297",
      "longitude": "-90.12433990184432"
    }
  },
  {
    "service_request": "2024-1122286",
    "request_type": "Trash/Recycling",
    "request_reason": "Dead Animal Pick Up",
    "date_created": "2024-08-15T17:45:24.000",
    "date_modified": "2024-08-15T17:45:26.000",
    "request_status": "Pending",
    "responsible_agency": "Department of Sanitation",
    "final_address": "4726 St Bernard Ave",
    "address_councildis": "D",
    "status": "Assigned to Contractor",
    "contractor": "IV Waste",
    "rowid": "1122286",
    "final_x": "3676662.01813",
    "final_y": "549409.910867",
    "longitude": "-90.08273039002438",
    "latitude": "30.004832773772215",
    "geocoded_column": {
      "latitude": "30.004832773772215",
      "longitude": "-90.08273039002438"
    }
  },
  {
    "service_request": "2024-1122285",
    "request_type": "Traffic Signals/Signs/Striping/Streetlights",
    "request_reason": "Street Light Outage/Malfunction",
    "date_created": "2024-08-15T17:42:33.000",
    "date_modified": "2024-08-15T17:42:35.000",
    "request_status": "Pending",
    "responsible_agency": "Department of Public Works",
    "final_address": "2501 Bristol Pl",
    "address_councildis": "C",
    "status": "Assigned to Contractor",
    "contractor": "Legacy Professional Services",
    "rowid": "1122285",
    "final_x": "3702580.02077",
    "final_y": "521882.934714",
    "longitude": "-90.00186128692565",
    "latitude": "29.92834027033881",
    "geocoded_column": {
      "latitude": "29.92834027033881",
      "longitude": "-90.00186128692565"
    }
  },
  {
    "service_request": "2024-1122284",
    "request_type": "Trash/Recycling",
    "request_reason": "Replace Trash Cart",
    "date_created": "2024-08-15T17:35:13.000",
    "date_modified": "2024-08-15T17:35:13.000",
    "request_status": "Pending",
    "responsible_agency": "Department of Sanitation",
    "final_address": "1723 Burdette St",
    "address_councildis": "A",
    "status": "Assigned to Contractor",
    "contractor": "IV Waste",
    "rowid": "1122284",
    "final_x": "3664140.14029",
    "final_y": "529024.563712",
    "longitude": "-90.1229699889906",
    "latitude": "29.949149710460983",
    "geocoded_column": {
      "latitude": "29.949149710460983",
      "longitude": "-90.1229699889906"
    }
  },
  {
    "service_request": "2024-1122283",
    "request_type": "Abandoned Vehicles",
    "request_reason": "Abandoned/Junk Vehicles",
    "date_created": "2024-08-15T17:34:49.000",
    "date_modified": "2024-08-15T17:34:49.000",
    "request_status": "Pending",
    "responsible_agency": "Department of Public Works",
    "final_address": "614 N Pierce St",
    "address_councildis": "A",
    "status": "Pending",
    "rowid": "1122283",
    "final_x": "3672690.31553",
    "final_y": "539556.531274",
    "longitude": "-90.09561407374684",
    "latitude": "29.977857984751616",
    "geocoded_column": {
      "latitude": "29.977857984751616",
      "longitude": "-90.09561407374684"
    }
  },
  {
    "service_request": "2024-1122282",
    "request_type": "Abandoned Vehicles",
    "request_reason": "Abandoned/Junk Vehicles",
    "date_created": "2024-08-15T17:29:41.000",
    "date_modified": "2024-08-15T17:29:41.000",
    "request_status": "Pending",
    "responsible_agency": "Department of Public Works",
    "final_address": "4335 Pauger St",
    "address_councildis": "D",
    "status": "Pending",
    "rowid": "1122282",
    "final_x": "3682913.23797",
    "final_y": "548658.784211",
    "longitude": "-90.06300785503753",
    "latitude": "30.00257836286214",
    "geocoded_column": {
      "latitude": "30.00257836286214",
      "longitude": "-90.06300785503753"
    }
  },
  {
    "service_request": "2024-1122281",
    "request_type": "Property Maintenance",
    "request_reason": "Property Maintenance",
    "date_created": "2024-08-15T17:27:14.000",
    "date_modified": "2024-08-15T17:27:14.000",
    "request_status": "Pending",
    "responsible_agency": "Department of Code Enforcement",
    "final_address": "2022 Stephen Girard St",
    "address_councildis": "D",
    "status": "Pending",
    "rowid": "1122281",
    "final_x": "3682725.95055",
    "final_y": "548687.823187",
    "longitude": "-90.0635985032073",
    "latitude": "30.002663917495155",
    "geocoded_column": {
      "latitude": "30.002663917495155",
      "longitude": "-90.0635985032073"
    }
  },
  {
    "service_request": "2024-1122280",
    "request_type": "Trash/Recycling",
    "request_reason": "Repair Trash Cart",
    "date_created": "2024-08-15T17:15:04.000",
    "date_modified": "2024-08-15T17:15:05.000",
    "request_status": "Pending",
    "responsible_agency": "Department of Sanitation",
    "final_address": "5364 Laurel St",
    "address_councildis": "B",
    "status": "Assigned to Contractor",
    "contractor": "IV Waste",
    "rowid": "1122280",
    "final_x": "3666813.59425",
    "final_y": "517842.992886",
    "longitude": "-90.11490410689709",
    "latitude": "29.918326035157133",
    "geocoded_column": {
      "latitude": "29.918326035157133",
      "longitude": "-90.11490410689709"
    }
  },
  {
    "service_request": "2024-1122279",
    "request_type": "Parks & Parkways",
    "request_reason": "Request Tree Service (Right of Way/Public Property)",
    "date_created": "2024-08-15T17:14:53.000",
    "date_modified": "2024-08-15T17:14:53.000",
    "request_status": "Pending",
    "responsible_agency": "Department of Parks & Parkway",
    "final_address": " & BALDWIN ST",
    "address_councildis": "D",
    "status": "Pending",
    "rowid": "1122279",
    "final_x": "3687880.8",
    "final_y": "560035.64",
    "longitude": "-90.04691121641319",
    "latitude": "30.03370814054373",
    "geocoded_column": {
      "latitude": "30.03370814054373",
      "longitude": "-90.04691121641319"
    }
  },
  {
    "service_request": "2024-1122278",
    "request_type": "Abandoned Vehicles",
    "request_reason": "Vehicle Blocking Your Driveway",
    "date_created": "2024-08-15T17:12:07.000",
    "date_modified": "2024-08-15T17:12:07.000",
    "request_status": "Pending",
    "responsible_agency": "Department of Public Works",
    "final_address": "5157 Wildair Dr",
    "address_councildis": "D",
    "status": "Pending",
    "rowid": "1122278",
    "final_x": "3681696.76584",
    "final_y": "551429.277333",
    "longitude": "-90.06675410019191",
    "latitude": "30.010233248401953",
    "geocoded_column": {
      "latitude": "30.010233248401953",
      "longitude": "-90.06675410019191"
    }
  },
  {
    "service_request": "2024-1122276",
    "request_type": "Trash/Recycling",
    "request_reason": "Replace Trash Cart",
    "date_created": "2024-08-15T17:01:52.000",
    "date_modified": "2024-08-15T17:01:53.000",
    "request_status": "Pending",
    "responsible_agency": "Department of Sanitation",
    "final_address": "522 Joseph St",
    "address_councildis": "A",
    "status": "Assigned to Contractor",
    "contractor": "IV Waste",
    "rowid": "1122276",
    "final_x": "3665876.97274",
    "final_y": "518063.89183",
    "longitude": "-90.11785313455157",
    "latitude": "29.918960790557875",
    "geocoded_column": {
      "latitude": "29.918960790557875",
      "longitude": "-90.11785313455157"
    }
  },
  {
    "service_request": "2024-1122274",
    "request_type": "Trash/Recycling",
    "request_reason": "Repair Trash Cart",
    "date_created": "2024-08-15T16:53:39.000",
    "date_modified": "2024-08-15T16:53:40.000",
    "request_status": "Pending",
    "responsible_agency": "Department of Sanitation",
    "final_address": "427 Lowerline St",
    "address_councildis": "A",
    "status": "Assigned to Contractor",
    "contractor": "IV Waste",
    "rowid": "1122274",
    "final_x": "3661905.48512",
    "final_y": "524024.569212",
    "longitude": "-90.1301915798136",
    "latitude": "29.935466032709975",
    "geocoded_column": {
      "latitude": "29.935466032709975",
      "longitude": "-90.1301915798136"
    }
  },
  {
    "service_request": "2024-1122273",
    "request_type": "Trash/Recycling",
    "request_reason": "Replace Trash Cart",
    "date_created": "2024-08-15T16:52:44.000",
    "date_modified": "2024-08-15T16:52:45.000",
    "request_status": "Pending",
    "responsible_agency": "Department of Sanitation",
    "final_address": "47 Marywood Ct",
    "address_councildis": "E",
    "status": "Assigned to Contractor",
    "contractor": "Waste Pro",
    "rowid": "1122273",
    "final_x": "3712179.97656",
    "final_y": "567072.598628",
    "longitude": "-89.96985916897015",
    "latitude": "30.052284449063876",
    "geocoded_column": {
      "latitude": "30.052284449063876",
      "longitude": "-89.96985916897015"
    }
  },
  {
    "service_request": "2024-1122272",
    "request_type": "Trash/Recycling",
    "request_reason": "Illegal Dumping",
    "date_created": "2024-08-15T16:50:17.000",
    "date_modified": "2024-08-15T16:50:17.000",
    "request_status": "Pending",
    "responsible_agency": "Department of Sanitation",
    "final_address": "I 10 E & MICHOUD BLVD EXIT",
    "address_councildis": "E",
    "status": "Pending",
    "rowid": "1122272",
    "final_x": "3726117.0",
    "final_y": "574846.58",
    "longitude": "-89.92550711631998",
    "latitude": "30.07319623322261",
    "geocoded_column": {
      "latitude": "30.07319623322261",
      "longitude": "-89.92550711631998"
    }
  },
  {
    "service_request": "2024-1122271",
    "request_type": "Trash/Recycling",
    "request_reason": "Illegal Dumping",
    "date_created": "2024-08-15T16:49:01.000",
    "date_modified": "2024-08-15T16:49:02.000",
    "request_status": "Pending",
    "responsible_agency": "Department of Sanitation",
    "final_address": "MICHOUD BLVD & SIX FLAGS PKWY",
    "address_councildis": "E",
    "status": "Pending",
    "rowid": "1122271",
    "final_x": "3724634.1",
    "final_y": "566081.38",
    "longitude": "-89.9305342809073",
    "latitude": "30.04914564884181",
    "geocoded_column": {
      "latitude": "30.04914564884181",
      "longitude": "-89.9305342809073"
    }
  },
  {
    "service_request": "2024-1122270",
    "request_type": "Trash/Recycling",
    "request_reason": "Replace Trash Cart",
    "date_created": "2024-08-15T16:48:16.000",
    "date_modified": "2024-08-15T16:48:17.000",
    "request_status": "Pending",
    "responsible_agency": "Department of Sanitation",
    "final_address": "2020 Palmer Ave",
    "address_councildis": "A",
    "status": "Assigned to Contractor",
    "contractor": "IV Waste",
    "rowid": "1122270",
    "final_x": "3665829.49319",
    "final_y": "524473.99462",
    "longitude": "-90.11778836092859",
    "latitude": "29.936587932801064",
    "geocoded_column": {
      "latitude": "29.936587932801064",
      "longitude": "-90.11778836092859"
    }
  },
  {
    "service_request": "2024-1122269",
    "request_type": "Trash/Recycling",
    "request_reason": "Missed Trash Pick-Up",
    "date_created": "2024-08-15T16:45:53.000",
    "date_modified": "2024-08-15T16:45:54.000",
    "request_status": "Pending",
    "responsible_agency": "Department of Sanitation",
    "final_address": "1124 Music St",
    "address_councildis": "C",
    "status": "Assigned to Contractor",
    "contractor": "IV Waste",
    "rowid": "1122269",
    "final_x": "3686794.08252",
    "final_y": "536733.102343",
    "longitude": "-90.05116935928723",
    "latitude": "29.969668106350703",
    "geocoded_column": {
      "latitude": "29.969668106350703",
      "longitude": "-90.05116935928723"
    }
  },
  {
    "service_request": "2024-1122268",
    "request_type": "Traffic Signals/Signs/Striping/Streetlights",
    "request_reason": "Request for Traffic Calming due to Speeding",
    "date_created": "2024-08-15T16:45:50.000",
    "date_modified": "2024-08-15T16:45:51.000",
    "request_status": "Pending",
    "responsible_agency": "Department of Public Works",
    "final_address": "4769 St Roch Ave",
    "address_councildis": "D",
    "status": "Pending",
    "rowid": "1122268",
    "final_x": "3685408.61807",
    "final_y": "550694.379668",
    "longitude": "-90.05505289908643",
    "latitude": "30.008099208114576",
    "geocoded_column": {
      "latitude": "30.008099208114576",
      "longitude": "-90.05505289908643"
    }
  },
  {
    "service_request": "2024-1122267",
    "request_type": "Trash/Recycling",
    "request_reason": "Request a Large Item Pick Up",
    "date_created": "2024-08-15T16:42:54.000",
    "date_modified": "2024-08-15T16:42:55.000",
    "request_status": "Pending",
    "responsible_agency": "Department of Sanitation",
    "final_address": "47 Marywood Ct",
    "address_councildis": "E",
    "status": "Assigned to Contractor",
    "contractor": "Waste Pro",
    "rowid": "1122267",
    "final_x": "3712179.97656",
    "final_y": "567072.598628",
    "longitude": "-89.96985916897015",
    "latitude": "30.052284449063876",
    "geocoded_column": {
      "latitude": "30.052284449063876",
      "longitude": "-89.96985916897015"
    }
  },
  {
    "service_request": "2024-1122266",
    "request_type": "Traffic Signals/Signs/Striping/Streetlights",
    "request_reason": "Disabled Parking Sign ",
    "date_created": "2024-08-15T16:41:57.000",
    "date_modified": "2024-08-15T16:42:43.000",
    "request_status": "Pending",
    "responsible_agency": "Department of Public Works",
    "final_address": "1920 General Taylor St",
    "address_councildis": "B",
    "status": "Pending",
    "rowid": "1122266",
    "final_x": "3672286.02235",
    "final_y": "522277.302778",
    "longitude": "-90.09747958471216",
    "latitude": "29.93035782785814",
    "geocoded_column": {
      "latitude": "29.93035782785814",
      "longitude": "-90.09747958471216"
    }
  },
  {
    "service_request": "2024-1122265",
    "request_type": "Property Maintenance",
    "request_reason": "Property Maintenance",
    "date_created": "2024-08-15T16:41:04.000",
    "date_modified": "2024-08-15T16:41:04.000",
    "request_status": "Pending",
    "responsible_agency": "Department of Code Enforcement",
    "final_address": "6920 Boston Dr",
    "address_councildis": "E",
    "status": "Pending",
    "rowid": "1122265",
    "final_x": "3706579.40734",
    "final_y": "560255.010013",
    "longitude": "-89.98781380126108",
    "latitude": "30.033720844021715",
    "geocoded_column": {
      "latitude": "30.033720844021715",
      "longitude": "-89.98781380126108"
    }
  },
  {
    "service_request": "2024-1122263",
    "request_type": "Property Maintenance",
    "request_reason": "Property Maintenance",
    "date_created": "2024-08-15T16:40:31.000",
    "date_modified": "2024-08-15T16:40:31.000",
    "request_status": "Pending",
    "responsible_agency": "Department of Code Enforcement",
    "final_address": "6910 Boston Dr",
    "address_councildis": "E",
    "status": "Pending",
    "rowid": "1122263",
    "final_x": "3706610.50807",
    "final_y": "560199.025245",
    "longitude": "-89.98771759779265",
    "latitude": "30.03356590371684",
    "geocoded_column": {
      "latitude": "30.03356590371684",
      "longitude": "-89.98771759779265"
    }
  },
  {
    "service_request": "2024-1122264",
    "request_type": "Trash/Recycling",
    "request_reason": "Request a Large Item Pick Up",
    "date_created": "2024-08-15T16:40:31.000",
    "date_modified": "2024-08-15T16:40:32.000",
    "request_status": "Pending",
    "responsible_agency": "Department of Sanitation",
    "final_address": "4600 Rosemont Pl",
    "address_councildis": "E",
    "status": "Assigned to Contractor",
    "contractor": "Waste Pro",
    "rowid": "1122264",
    "final_x": "3702712.61604",
    "final_y": "554094.696856",
    "longitude": "-90.00025970745185",
    "latitude": "30.016906645215958",
    "geocoded_column": {
      "latitude": "30.016906645215958",
      "longitude": "-90.00025970745185"
    }
  },
  {
    "service_request": "2024-1122262",
    "request_type": "Property Maintenance",
    "request_reason": "Property Maintenance",
    "date_created": "2024-08-15T16:40:05.000",
    "date_modified": "2024-08-15T16:40:05.000",
    "request_status": "Pending",
    "responsible_agency": "Department of Code Enforcement",
    "final_address": "6900 Boston Dr",
    "address_councildis": "E",
    "status": "Pending",
    "rowid": "1122262",
    "final_x": "3706636.51639",
    "final_y": "560143.482781",
    "longitude": "-89.98763747063104",
    "latitude": "30.03341234394533",
    "geocoded_column": {
      "latitude": "30.03341234394533",
      "longitude": "-89.98763747063104"
    }
  },
  {
    "service_request": "2024-1122261",
    "request_type": "Roads/Drainage",
    "request_reason": "Pothole",
    "date_created": "2024-08-15T16:38:53.000",
    "date_modified": "2024-08-15T16:38:53.000",
    "request_status": "Pending",
    "responsible_agency": "Department of Public Works",
    "final_address": "5651 Cartier Ave",
    "address_councildis": "D",
    "status": "Pending",
    "rowid": "1122261",
    "final_x": "3677643.78862",
    "final_y": "553044.249943",
    "longitude": "-90.07950314056693",
    "latitude": "30.014796405563974",
    "geocoded_column": {
      "latitude": "30.014796405563974",
      "longitude": "-90.07950314056693"
    }
  },
  {
    "service_request": "2024-1122260",
    "request_type": "Traffic Signals/Signs/Striping/Streetlights",
    "request_reason": "Street Light Outage/Malfunction",
    "date_created": "2024-08-15T16:36:47.000",
    "date_modified": "2024-08-15T16:37:48.000",
    "request_status": "Pending",
    "responsible_agency": "Department of Public Works",
    "final_address": "4848 Virgilian St",
    "address_councildis": "D",
    "status": "Assigned to Contractor",
    "contractor": "Legacy Professional Services",
    "rowid": "1122260",
    "final_x": "3697336.91197",
    "final_y": "554418.278936",
    "longitude": "-90.01723285882241",
    "latitude": "30.017967243035677",
    "geocoded_column": {
      "latitude": "30.017967243035677",
      "longitude": "-90.01723285882241"
    }
  },
  {
    "service_request": "2024-1122259",
    "request_type": "Parks & Parkways",
    "request_reason": "Request Tree Service (Right of Way/Public Property)",
    "date_created": "2024-08-15T16:26:52.000",
    "date_modified": "2024-08-15T16:26:52.000",
    "request_status": "Pending",
    "responsible_agency": "Department of Parks & Parkway",
    "final_address": "1360 Prentiss Ave",
    "address_councildis": "D",
    "status": "Pending",
    "rowid": "1122259",
    "final_x": "3677482.85557",
    "final_y": "553202.710871",
    "longitude": "-90.08000613534664",
    "latitude": "30.01523695720229",
    "geocoded_column": {
      "latitude": "30.01523695720229",
      "longitude": "-90.08000613534664"
    }
  },
  {
    "service_request": "2024-1122258",
    "request_type": "Parks & Parkways",
    "request_reason": "Request Tree Service (Right of Way/Public Property)",
    "date_created": "2024-08-15T16:22:50.000",
    "date_modified": "2024-08-15T16:22:50.000",
    "request_status": "Pending",
    "responsible_agency": "Department of Parks & Parkway",
    "final_address": "1360 Prentiss Ave",
    "address_councildis": "D",
    "status": "Pending",
    "rowid": "1122258",
    "final_x": "3677482.85557",
    "final_y": "553202.710871",
    "longitude": "-90.08000613534664",
    "latitude": "30.01523695720229",
    "geocoded_column": {
      "latitude": "30.01523695720229",
      "longitude": "-90.08000613534664"
    }
  },
  {
    "service_request": "2024-1122257",
    "request_type": "Trash/Recycling",
    "request_reason": "Repair Trash Cart",
    "date_created": "2024-08-15T16:21:50.000",
    "date_modified": "2024-08-15T16:21:51.000",
    "request_status": "Pending",
    "responsible_agency": "Department of Sanitation",
    "final_address": "17 Kristen Ct",
    "address_councildis": "E",
    "status": "Assigned to Contractor",
    "contractor": "Waste Pro",
    "rowid": "1122257",
    "final_x": "3713597.58533",
    "final_y": "567386.665316",
    "longitude": "-89.96536672299418",
    "latitude": "30.053101545896475",
    "geocoded_column": {
      "latitude": "30.053101545896475",
      "longitude": "-89.96536672299418"
    }
  },
  {
    "service_request": "2024-1122256",
    "request_type": "Trash/Recycling",
    "request_reason": "Request a Large Item Pick Up",
    "date_created": "2024-08-15T16:19:20.000",
    "date_modified": "2024-08-15T16:35:31.000",
    "case_close_date": "2024-08-15T11:35:31.000",
    "request_status": "Closed",
    "responsible_agency": "Department of Sanitation",
    "final_address": "638 Port St",
    "address_councildis": "C",
    "status": "Duplicate Request",
    "contractor": "IV Waste",
    "contractor_action": "Invalid Request",
    "rowid": "1122256",
    "final_x": "3687006.54146",
    "final_y": "534868.168454",
    "longitude": "-90.05056433111247",
    "latitude": "29.96453364895112",
    "geocoded_column": {
      "latitude": "29.96453364895112",
      "longitude": "-90.05056433111247"
    }
  },
  {
    "service_request": "2024-1122255",
    "request_type": "Trash/Recycling",
    "request_reason": "Request a Large Item Pick Up",
    "date_created": "2024-08-15T16:18:25.000",
    "date_modified": "2024-08-15T16:19:36.000",
    "request_status": "Pending",
    "responsible_agency": "Department of Sanitation",
    "final_address": "904 Pauline St",
    "address_councildis": "C",
    "status": "Assigned to Contractor",
    "contractor": "IV Waste",
    "rowid": "1122255",
    "final_x": "3691001.57328",
    "final_y": "534729.636742",
    "longitude": "-90.03795330798684",
    "latitude": "29.96402915381532",
    "geocoded_column": {
      "latitude": "29.96402915381532",
      "longitude": "-90.03795330798684"
    }
  },
  {
    "service_request": "2024-1122254",
    "request_type": "Trash/Recycling",
    "request_reason": "Request a Large Item Pick Up",
    "date_created": "2024-08-15T16:16:33.000",
    "date_modified": "2024-08-15T16:17:34.000",
    "request_status": "Pending",
    "responsible_agency": "Department of Sanitation",
    "final_address": "8027 Trapier Ave",
    "address_councildis": "E",
    "status": "Assigned to Contractor",
    "contractor": "Waste Pro",
    "rowid": "1122254",
    "final_x": "3706029.78123",
    "final_y": "564709.594402",
    "longitude": "-89.98938556171903",
    "latitude": "30.04598692361931",
    "geocoded_column": {
      "latitude": "30.04598692361931",
      "longitude": "-89.98938556171903"
    }
  },
  {
    "service_request": "2024-1122253",
    "request_type": "Abandoned Vehicles",
    "request_reason": "Abandoned/Junk Vehicles",
    "date_created": "2024-08-15T16:15:34.000",
    "date_modified": "2024-08-15T16:15:35.000",
    "request_status": "Pending",
    "responsible_agency": "Department of Public Works",
    "final_address": "1115 St Anthony St",
    "address_councildis": "C",
    "status": "Pending",
    "rowid": "1122253",
    "final_x": "3683575.56156",
    "final_y": "535960.539399",
    "longitude": "-90.06136080342723",
    "latitude": "29.96764246011172",
    "geocoded_column": {
      "latitude": "29.96764246011172",
      "longitude": "-90.06136080342723"
    }
  },
  {
    "service_request": "2024-1122252",
    "request_type": "Abandoned Vehicles",
    "request_reason": "Abandoned/Junk Vehicles",
    "date_created": "2024-08-15T16:14:03.000",
    "date_modified": "2024-08-15T16:15:19.000",
    "request_status": "Pending",
    "responsible_agency": "Department of Public Works",
    "final_address": "4661 Dart St",
    "address_councildis": "B",
    "status": "Pending",
    "rowid": "1122252",
    "final_x": "3668857.77914",
    "final_y": "531861.131011",
    "longitude": "-90.1079785074895",
    "latitude": "29.956811473860185",
    "geocoded_column": {
      "latitude": "29.956811473860185",
      "longitude": "-90.1079785074895"
    }
  },
  {
    "service_request": "2024-1122251",
    "request_type": "Healthy Homes",
    "request_reason": "Healthy Homes",
    "date_created": "2024-08-15T16:13:37.000",
    "date_modified": "2024-08-15T16:13:37.000",
    "request_status": "Pending",
    "responsible_agency": "Department of Code Enforcement",
    "final_address": "2027 Barracks St",
    "address_councildis": "D",
    "status": "Pending",
    "rowid": "1122251",
    "final_x": "3680069.30299",
    "final_y": "537185.928008",
    "longitude": "-90.07239106485646",
    "latitude": "29.97111841501684",
    "geocoded_column": {
      "latitude": "29.97111841501684",
      "longitude": "-90.07239106485646"
    }
  },
  {
    "service_request": "2024-1122250",
    "request_type": "Trash/Recycling",
    "request_reason": "Request a Large Item Pick Up",
    "date_created": "2024-08-15T16:12:53.000",
    "date_modified": "2024-08-15T16:12:54.000",
    "request_status": "Pending",
    "responsible_agency": "Department of Sanitation",
    "final_address": "7821 Allison Rd",
    "address_councildis": "E",
    "status": "Assigned to Contractor",
    "contractor": "Waste Pro",
    "rowid": "1122250",
    "final_x": "3699884.65335",
    "final_y": "561122.84963",
    "longitude": "-90.0089381728576",
    "latitude": "30.036321526039824",
    "geocoded_column": {
      "latitude": "30.036321526039824",
      "longitude": "-90.0089381728576"
    }
  },
  {
    "service_request": "2024-1122249",
    "request_type": "Abandoned Vehicles",
    "request_reason": "Abandoned/Junk Vehicles",
    "date_created": "2024-08-15T16:12:27.000",
    "date_modified": "2024-08-15T16:15:05.000",
    "request_status": "Pending",
    "responsible_agency": "Department of Public Works",
    "final_address": "1419 Jourdan Ave",
    "address_councildis": "E",
    "status": "Pending",
    "rowid": "1122249",
    "final_x": "3695429.0088",
    "final_y": "535742.146311",
    "longitude": "-90.02393539736362",
    "latitude": "29.96667482625467",
    "geocoded_column": {
      "latitude": "29.96667482625467",
      "longitude": "-90.02393539736362"
    }
  },
  {
    "service_request": "2024-1122248",
    "request_type": "Abandoned Vehicles",
    "request_reason": "Abandoned/Junk Vehicles",
    "date_created": "2024-08-15T16:11:47.000",
    "date_modified": "2024-08-15T16:11:48.000",
    "request_status": "Pending",
    "responsible_agency": "Department of Public Works",
    "final_address": "5401 N Claiborne Ave",
    "address_councildis": "E",
    "status": "Pending",
    "rowid": "1122248",
    "final_x": "3697741.8657",
    "final_y": "535854.702151",
    "longitude": "-90.01662736731949",
    "latitude": "29.966911438713822",
    "geocoded_column": {
      "latitude": "29.966911438713822",
      "longitude": "-90.01662736731949"
    }
  },
  {
    "service_request": "2024-1122247",
    "request_type": "Trash/Recycling",
    "request_reason": "Request a Large Item Pick Up",
    "date_created": "2024-08-15T16:10:10.000",
    "date_modified": "2024-08-15T16:10:11.000",
    "request_status": "Pending",
    "responsible_agency": "Department of Sanitation",
    "final_address": "4654 Francisco Verrett Dr",
    "address_councildis": "E",
    "status": "Assigned to Contractor",
    "contractor": "Waste Pro",
    "rowid": "1122247",
    "final_x": "3704235.33777",
    "final_y": "554718.74748",
    "longitude": "-89.9954255551401",
    "latitude": "30.01857374604421",
    "geocoded_column": {
      "latitude": "30.01857374604421",
      "longitude": "-89.9954255551401"
    }
  },
  {
    "service_request": "2024-1122246",
    "request_type": "Abandoned Vehicles",
    "request_reason": "Abandoned/Junk Vehicles",
    "date_created": "2024-08-15T16:04:56.000",
    "date_modified": "2024-08-15T16:04:57.000",
    "request_status": "Pending",
    "responsible_agency": "Department of Public Works",
    "final_address": "4100 BLK Mirabeau Ave",
    "address_councildis": "D",
    "status": "Pending",
    "rowid": "1122246",
    "final_x": "3689317.95499",
    "final_y": "551238.126314",
    "longitude": "-90.04268279924776",
    "latitude": "30.009473815342222",
    "geocoded_column": {
      "latitude": "30.009473815342222",
      "longitude": "-90.04268279924776"
    }
  },
  {
    "service_request": "2024-1122245",
    "request_type": "Safety & Permits",
    "request_reason": "Licenses & Permits",
    "date_created": "2024-08-15T16:03:04.000",
    "date_modified": "2024-08-15T16:03:05.000",
    "request_status": "Pending",
    "responsible_agency": "Safety and Permits",
    "final_address": "4801 Chef Menteur Hwy",
    "address_councildis": "D",
    "status": "Pending",
    "rowid": "1122245",
    "final_x": "3691984.70896",
    "final_y": "550424.005844",
    "longitude": "-90.03428678641684",
    "latitude": "30.007152422244587",
    "geocoded_column": {
      "latitude": "30.007152422244587",
      "longitude": "-90.03428678641684"
    }
  },
  {
    "service_request": "2024-1122243",
    "request_type": "Traffic Signals/Signs/Striping/Streetlights",
    "request_reason": "Striping/Road Surface Markings",
    "date_created": "2024-08-15T15:59:55.000",
    "date_modified": "2024-08-15T15:59:56.000",
    "request_status": "Pending",
    "responsible_agency": "Department of Public Works",
    "final_address": "1756 N Rampart St",
    "address_councildis": "C",
    "status": "Pending",
    "rowid": "1122243",
    "final_x": "3683464.93621",
    "final_y": "535789.356423",
    "longitude": "-90.06171615992022",
    "latitude": "29.96717514223848",
    "geocoded_column": {
      "latitude": "29.96717514223848",
      "longitude": "-90.06171615992022"
    }
  },
  {
    "service_request": "2024-1122242",
    "request_type": "Roads/Drainage",
    "request_reason": "Pothole",
    "date_created": "2024-08-15T15:53:45.000",
    "date_modified": "2024-08-15T15:53:45.000",
    "request_status": "Pending",
    "responsible_agency": "Department of Public Works",
    "final_address": "MARIGNY ST & INDUSTRY ST",
    "address_councildis": "D",
    "status": "Pending",
    "rowid": "1122242",
    "final_x": "3684888.0",
    "final_y": "542968.28",
    "longitude": "-90.05696958313123",
    "latitude": "29.986871165464425",
    "geocoded_column": {
      "latitude": "29.986871165464425",
      "longitude": "-90.05696958313123"
    }
  },
  {
    "service_request": "2024-1122241",
    "request_type": "Trash/Recycling",
    "request_reason": "Replace Recycling Cart",
    "date_created": "2024-08-15T15:50:09.000",
    "date_modified": "2024-08-15T15:50:09.000",
    "request_status": "Pending",
    "responsible_agency": "Department of Sanitation",
    "final_address": "79 English Turn Dr",
    "address_councildis": "C",
    "status": "Pending",
    "rowid": "1122241",
    "final_x": "3722514.41247",
    "final_y": "512475.817713",
    "longitude": "-89.9392949278818",
    "latitude": "29.901822108099548",
    "geocoded_column": {
      "latitude": "29.901822108099548",
      "longitude": "-89.9392949278818"
    }
  },
  {
    "service_request": "2024-1122240",
    "request_type": "Property Maintenance",
    "request_reason": "Property Maintenance",
    "date_created": "2024-08-15T15:48:32.000",
    "date_modified": "2024-08-15T15:51:46.000",
    "request_status": "Pending",
    "responsible_agency": "Department of Code Enforcement",
    "final_address": "823 Brooklyn Ave",
    "address_councildis": "C",
    "status": "Pending",
    "rowid": "1122240",
    "final_x": "3686105.0374",
    "final_y": "528475.163072",
    "longitude": "-90.05363667862328",
    "latitude": "29.946982797112312",
    "geocoded_column": {
      "latitude": "29.946982797112312",
      "longitude": "-90.05363667862328"
    }
  },
  {
    "service_request": "2024-1122239",
    "request_type": "Property Maintenance",
    "request_reason": "Property Maintenance",
    "date_created": "2024-08-15T15:48:18.000",
    "date_modified": "2024-08-15T15:51:10.000",
    "request_status": "Pending",
    "responsible_agency": "Department of Code Enforcement",
    "final_address": "809 Brooklyn Ave",
    "address_councildis": "C",
    "status": "Pending",
    "rowid": "1122239",
    "final_x": "3686105.50953",
    "final_y": "528544.410432",
    "longitude": "-90.05363274612247",
    "latitude": "29.947173189326243",
    "geocoded_column": {
      "latitude": "29.947173189326243",
      "longitude": "-90.05363274612247"
    }
  },
  {
    "service_request": "2024-1122238",
    "request_type": "Property Maintenance",
    "request_reason": "Property Maintenance",
    "date_created": "2024-08-15T15:47:59.000",
    "date_modified": "2024-08-15T15:48:21.000",
    "request_status": "Pending",
    "responsible_agency": "Department of Code Enforcement",
    "final_address": "801 Brooklyn Ave",
    "address_councildis": "C",
    "status": "Pending",
    "rowid": "1122238",
    "final_x": "3686098.05967",
    "final_y": "528603.37952",
    "longitude": "-90.05365418873738",
    "latitude": "29.947335563054033",
    "geocoded_column": {
      "latitude": "29.947335563054033",
      "longitude": "-90.05365418873738"
    }
  },
  {
    "service_request": "2024-1122237",
    "request_type": "Property Maintenance",
    "request_reason": "Property Maintenance",
    "date_created": "2024-08-15T15:47:43.000",
    "date_modified": "2024-08-15T15:52:25.000",
    "request_status": "Pending",
    "responsible_agency": "Department of Code Enforcement",
    "final_address": "739 Brooklyn Ave",
    "address_councildis": "C",
    "status": "Pending",
    "rowid": "1122237",
    "final_x": "3686085.20489",
    "final_y": "528714.159616",
    "longitude": "-90.05369086991284",
    "latitude": "29.947640565407042",
    "geocoded_column": {
      "latitude": "29.947640565407042",
      "longitude": "-90.05369086991284"
    }
  },
  {
    "service_request": "2024-1122236",
    "request_type": "Property Maintenance",
    "request_reason": "Property Maintenance",
    "date_created": "2024-08-15T15:47:27.000",
    "date_modified": "2024-08-15T15:47:27.000",
    "request_status": "Pending",
    "responsible_agency": "Department of Code Enforcement",
    "final_address": "729 Brooklyn Ave",
    "address_councildis": "C",
    "status": "Pending",
    "rowid": "1122236",
    "final_x": "3686083.61206",
    "final_y": "528762.496256",
    "longitude": "-90.05369419470412",
    "latitude": "29.947773523645296",
    "geocoded_column": {
      "latitude": "29.947773523645296",
      "longitude": "-90.05369419470412"
    }
  },
  {
    "service_request": "2024-1122235",
    "request_type": "Property Maintenance",
    "request_reason": "Property Maintenance",
    "date_created": "2024-08-15T15:47:02.000",
    "date_modified": "2024-08-15T15:48:02.000",
    "request_status": "Pending",
    "responsible_agency": "Department of Code Enforcement",
    "final_address": "721 Brooklyn Ave",
    "address_councildis": "C",
    "status": "Pending",
    "rowid": "1122235",
    "final_x": "3686082.02082",
    "final_y": "528800.912768",
    "longitude": "-90.05369786427502",
    "latitude": "29.947879204853578",
    "geocoded_column": {
      "latitude": "29.947879204853578",
      "longitude": "-90.05369786427502"
    }
  },
  {
    "service_request": "2024-1122234",
    "request_type": "Property Maintenance",
    "request_reason": "Property Maintenance",
    "date_created": "2024-08-15T15:45:33.000",
    "date_modified": "2024-08-15T15:45:33.000",
    "request_status": "Pending",
    "responsible_agency": "Department of Code Enforcement",
    "final_address": "3865 Gentilly Blvd",
    "address_councildis": "D",
    "status": "Pending",
    "rowid": "1122234",
    "final_x": "3688184.19951",
    "final_y": "548882.075027",
    "longitude": "-90.04634832320612",
    "latitude": "30.003030600110506",
    "geocoded_column": {
      "latitude": "30.003030600110506",
      "longitude": "-90.04634832320612"
    }
  },
  {
    "service_request": "2024-1122233",
    "request_type": "Property Maintenance",
    "request_reason": "Property Maintenance",
    "date_created": "2024-08-15T15:44:53.000",
    "date_modified": "2024-08-15T15:44:53.000",
    "request_status": "Pending",
    "responsible_agency": "Department of Code Enforcement",
    "final_address": "721 Brooklyn Ave",
    "address_councildis": "C",
    "status": "Pending",
    "rowid": "1122233",
    "final_x": "3686082.02082",
    "final_y": "528800.912768",
    "longitude": "-90.05369786427502",
    "latitude": "29.947879204853578",
    "geocoded_column": {
      "latitude": "29.947879204853578",
      "longitude": "-90.05369786427502"
    }
  },
  {
    "service_request": "2024-1122232",
    "request_type": "Property Maintenance",
    "request_reason": "Property Maintenance",
    "date_created": "2024-08-15T15:44:38.000",
    "date_modified": "2024-08-15T15:47:08.000",
    "request_status": "Pending",
    "responsible_agency": "Department of Code Enforcement",
    "final_address": "719 Brooklyn Ave",
    "address_councildis": "C",
    "status": "Pending",
    "rowid": "1122232",
    "final_x": "3686080.54402",
    "final_y": "528833.987264",
    "longitude": "-90.05370136088438",
    "latitude": "29.94797019381876",
    "geocoded_column": {
      "latitude": "29.94797019381876",
      "longitude": "-90.05370136088438"
    }
  },
  {
    "service_request": "2024-1122231",
    "request_type": "Trash/Recycling",
    "request_reason": "Replace Trash Cart",
    "date_created": "2024-08-15T15:43:07.000",
    "date_modified": "2024-08-15T15:43:58.000",
    "request_status": "Pending",
    "responsible_agency": "Department of Sanitation",
    "final_address": "5611 Bentley Dr",
    "address_councildis": "E",
    "status": "Assigned to Contractor",
    "contractor": "Waste Pro",
    "rowid": "1122231",
    "final_x": "3703947.28996",
    "final_y": "556738.519386",
    "longitude": "-89.99626120672762",
    "latitude": "30.024136584900514",
    "geocoded_column": {
      "latitude": "30.024136584900514",
      "longitude": "-89.99626120672762"
    }
  },
  {
    "service_request": "2024-1122230",
    "request_type": "Property Maintenance",
    "request_reason": "Property Maintenance",
    "date_created": "2024-08-15T15:42:06.000",
    "date_modified": "2024-08-15T15:44:03.000",
    "request_status": "Pending",
    "responsible_agency": "Department of Code Enforcement",
    "final_address": "233 Red Allen Way",
    "address_councildis": "C",
    "status": "Pending",
    "rowid": "1122230",
    "final_x": "3686029.55087",
    "final_y": "528617.171968",
    "longitude": "-90.05387001045658",
    "latitude": "29.947375591214147",
    "geocoded_column": {
      "latitude": "29.947375591214147",
      "longitude": "-90.05387001045658"
    }
  },
  {
    "service_request": "2024-1122229",
    "request_type": "Property Maintenance",
    "request_reason": "Property Maintenance",
    "date_created": "2024-08-15T15:41:50.000",
    "date_modified": "2024-08-15T15:41:50.000",
    "request_status": "Pending",
    "responsible_agency": "Department of Code Enforcement",
    "final_address": "220 Red Allen Way",
    "address_councildis": "C",
    "status": "Pending",
    "rowid": "1122229",
    "final_x": "3685942.72873",
    "final_y": "528694.700928",
    "longitude": "-90.05414140787515",
    "latitude": "29.9475914349416",
    "geocoded_column": {
      "latitude": "29.9475914349416",
      "longitude": "-90.05414140787515"
    }
  },
  {
    "service_request": "2024-1122228",
    "request_type": "Property Maintenance",
    "request_reason": "Property Maintenance",
    "date_created": "2024-08-15T15:41:37.000",
    "date_modified": "2024-08-15T15:46:26.000",
    "request_status": "Pending",
    "responsible_agency": "Department of Code Enforcement",
    "final_address": "218 Red Allen Way",
    "address_councildis": "C",
    "status": "Pending",
    "rowid": "1122228",
    "final_x": "3685914.91753",
    "final_y": "528696.5312",
    "longitude": "-90.05422915398546",
    "latitude": "29.947597321249415",
    "geocoded_column": {
      "latitude": "29.947597321249415",
      "longitude": "-90.05422915398546"
    }
  },
  {
    "service_request": "2024-1122227",
    "request_type": "Trash/Recycling",
    "request_reason": "Request a Large Item Pick Up",
    "date_created": "2024-08-15T15:39:51.000",
    "date_modified": "2024-08-15T15:39:51.000",
    "request_status": "Pending",
    "responsible_agency": "Department of Sanitation",
    "final_address": "328 N Norman C Francis Prkwy",
    "address_councildis": "B",
    "status": "Assigned to Contractor",
    "contractor": "IV Waste",
    "rowid": "1122227",
    "final_x": "3673955.64865",
    "final_y": "537485.158408",
    "longitude": "-90.09168859663905",
    "latitude": "29.972124771784603",
    "geocoded_column": {
      "latitude": "29.972124771784603",
      "longitude": "-90.09168859663905"
    }
  },
  {
    "service_request": "2024-1122226",
    "request_type": "Property Maintenance",
    "request_reason": "Property Maintenance",
    "date_created": "2024-08-15T15:35:41.000",
    "date_modified": "2024-08-15T15:37:12.000",
    "request_status": "Pending",
    "responsible_agency": "Department of Code Enforcement",
    "final_address": "200 BLK Red Allen Way",
    "address_councildis": "C",
    "status": "Pending",
    "rowid": "1122226",
    "final_x": "3685958.75239",
    "final_y": "528648.309945",
    "longitude": "-90.05409245030907",
    "latitude": "29.947463383619638",
    "geocoded_column": {
      "latitude": "29.947463383619638",
      "longitude": "-90.05409245030907"
    }
  },
  {
    "service_request": "2024-1122225",
    "request_type": "Roads/Drainage",
    "request_reason": "Pothole",
    "date_created": "2024-08-15T15:34:49.000",
    "date_modified": "2024-08-15T15:35:18.000",
    "case_close_date": "2024-08-15T10:35:18.000",
    "request_status": "Closed",
    "responsible_agency": "Department of Public Works",
    "final_address": "4400 BLK Palmyra St",
    "address_councildis": "A",
    "status": "Resolved",
    "rowid": "1122225",
    "final_x": "3669370.04574",
    "final_y": "538652.263362",
    "longitude": "-90.10613125872744",
    "latitude": "29.97546975187471",
    "geocoded_column": {
      "latitude": "29.97546975187471",
      "longitude": "-90.10613125872744"
    }
  },
  {
    "service_request": "2024-1122224",
    "request_type": "Roads/Drainage",
    "request_reason": "Pothole",
    "date_created": "2024-08-15T15:33:54.000",
    "date_modified": "2024-08-15T15:34:15.000",
    "case_close_date": "2024-08-15T10:34:15.000",
    "request_status": "Closed",
    "responsible_agency": "Department of Public Works",
    "final_address": "2160 Robin St",
    "address_councildis": "D",
    "status": "Resolved",
    "rowid": "1122224",
    "final_x": "3683529.855",
    "final_y": "551789.004245",
    "longitude": "-90.06095007552754",
    "latitude": "30.01116652495809",
    "geocoded_column": {
      "latitude": "30.01116652495809",
      "longitude": "-90.06095007552754"
    }
  },
  {
    "service_request": "2024-1122223",
    "request_type": "Trash/Recycling",
    "request_reason": "Illegal Dumping",
    "date_created": "2024-08-15T15:33:08.000",
    "date_modified": "2024-08-15T15:33:08.000",
    "request_status": "Pending",
    "responsible_agency": "Department of Sanitation",
    "final_address": "LAVENDER ST & PEOPLES AVE",
    "address_councildis": "D",
    "status": "Pending",
    "rowid": "1122223",
    "final_x": "3688482.8",
    "final_y": "547045.18",
    "longitude": "-90.04547022646666",
    "latitude": "29.997970580541956",
    "geocoded_column": {
      "latitude": "29.997970580541956",
      "longitude": "-90.04547022646666"
    }
  },
  {
    "service_request": "2024-1122222",
    "request_type": "Abandoned Vehicles",
    "request_reason": "Abandoned/Junk Vehicles",
    "date_created": "2024-08-15T15:30:56.000",
    "date_modified": "2024-08-15T15:37:52.000",
    "request_status": "Pending",
    "responsible_agency": "Department of Public Works",
    "final_address": "3100 Cleveland Ave",
    "address_councildis": "B",
    "status": "Pending",
    "rowid": "1122222",
    "final_x": "3673763.43361",
    "final_y": "535727.813959",
    "longitude": "-90.09235575261526",
    "latitude": "29.967298394648285",
    "geocoded_column": {
      "latitude": "29.967298394648285",
      "longitude": "-90.09235575261526"
    }
  },
  {
    "service_request": "2024-1122221",
    "request_type": "Roads/Drainage",
    "request_reason": "Pothole",
    "date_created": "2024-08-15T15:30:26.000",
    "date_modified": "2024-08-15T15:31:07.000",
    "case_close_date": "2024-08-15T10:31:07.000",
    "request_status": "Closed",
    "responsible_agency": "Department of Public Works",
    "final_address": "11500 BLK Pressburg St",
    "address_councildis": "E",
    "status": "Resolved",
    "rowid": "1122221",
    "final_x": "3718047.78861",
    "final_y": "557732.146462",
    "longitude": "-89.95166895444078",
    "latitude": "30.026408707518865",
    "geocoded_column": {
      "latitude": "30.026408707518865",
      "longitude": "-89.95166895444078"
    }
  },
  {
    "service_request": "2024-1122220",
    "request_type": "Roads/Drainage",
    "request_reason": "Pothole",
    "date_created": "2024-08-15T15:28:37.000",
    "date_modified": "2024-08-15T15:29:18.000",
    "case_close_date": "2024-08-15T10:29:18.000",
    "request_status": "Closed",
    "responsible_agency": "Department of Public Works",
    "final_address": "1451 Burbank Dr",
    "address_councildis": "D",
    "status": "Resolved",
    "rowid": "1122220",
    "final_x": "3677873.31176",
    "final_y": "554327.899096",
    "longitude": "-90.07873355126046",
    "latitude": "30.018319069462905",
    "geocoded_column": {
      "latitude": "30.018319069462905",
      "longitude": "-90.07873355126046"
    }
  },
  {
    "service_request": "2024-1122219",
    "request_type": "Trash/Recycling",
    "request_reason": "Order Recycling Cart",
    "date_created": "2024-08-15T15:28:03.000",
    "date_modified": "2024-08-15T15:28:03.000",
    "request_status": "Pending",
    "responsible_agency": "Department of Sanitation",
    "final_address": "4360 W Alba Rd",
    "address_councildis": "E",
    "status": "Pending",
    "rowid": "1122219",
    "final_x": "3761525.2399",
    "final_y": "573005.540457",
    "longitude": "-89.81364887676479",
    "latitude": "30.066890487967243",
    "geocoded_column": {
      "latitude": "30.066890487967243",
      "longitude": "-89.81364887676479"
    }
  },
  {
    "service_request": "2024-1122218",
    "request_type": "Roads/Drainage",
    "request_reason": "Pothole",
    "date_created": "2024-08-15T15:27:25.000",
    "date_modified": "2024-08-15T15:27:42.000",
    "case_close_date": "2024-08-15T10:27:42.000",
    "request_status": "Closed",
    "responsible_agency": "Department of Public Works",
    "final_address": "1450 Burbank Dr",
    "address_councildis": "D",
    "status": "Resolved",
    "rowid": "1122218",
    "final_x": "3677878.81582",
    "final_y": "554247.228824",
    "longitude": "-90.07871895131156",
    "latitude": "30.018097089689693",
    "geocoded_column": {
      "latitude": "30.018097089689693",
      "longitude": "-90.07871895131156"
    }
  },
  {
    "service_request": "2024-1122217",
    "request_type": "Trash/Recycling",
    "request_reason": "Order Recycling Cart",
    "date_created": "2024-08-15T15:26:22.000",
    "date_modified": "2024-08-15T15:26:22.000",
    "request_status": "Pending",
    "responsible_agency": "Department of Sanitation",
    "final_address": "8717 Oak St",
    "address_councildis": "A",
    "status": "Pending",
    "rowid": "1122217",
    "final_x": "3660297.68979",
    "final_y": "529939.690625",
    "longitude": "-90.1350721437375",
    "latitude": "29.951777061537104",
    "geocoded_column": {
      "latitude": "29.951777061537104",
      "longitude": "-90.1350721437375"
    }
  },
  {
    "service_request": "2024-1122216",
    "request_type": "Parks & Parkways",
    "request_reason": "Request Grass Cutting Service (City Owned Property)",
    "date_created": "2024-08-15T15:23:33.000",
    "date_modified": "2024-08-15T15:23:34.000",
    "request_status": "Pending",
    "responsible_agency": "Department of Parks & Parkway",
    "final_address": "HIGGINS BLVD & PLEASURE ST",
    "address_councildis": "D",
    "status": "Pending",
    "rowid": "1122216",
    "final_x": "3690560.4",
    "final_y": "545230.78",
    "longitude": "-90.03897188903441",
    "latitude": "29.992917267855056",
    "geocoded_column": {
      "latitude": "29.992917267855056",
      "longitude": "-90.03897188903441"
    }
  },
  {
    "service_request": "2024-1122215",
    "request_type": "Parks & Parkways",
    "request_reason": "Tree Stump (removal, grind)",
    "date_created": "2024-08-15T15:19:51.000",
    "date_modified": "2024-08-15T15:19:52.000",
    "request_status": "Pending",
    "responsible_agency": "Department of Parks & Parkway",
    "final_address": "7520 Shubrick Ave",
    "address_councildis": "E",
    "status": "Pending",
    "rowid": "1122215",
    "final_x": "3706888.1482",
    "final_y": "563371.669792",
    "longitude": "-89.98672240562287",
    "latitude": "30.042280453526917",
    "geocoded_column": {
      "latitude": "30.042280453526917",
      "longitude": "-89.98672240562287"
    }
  },
  {
    "service_request": "2024-1122214",
    "request_type": "Trash/Recycling",
    "request_reason": "Request a Large Item Pick Up",
    "date_created": "2024-08-15T15:14:38.000",
    "date_modified": "2024-08-15T15:14:39.000",
    "request_status": "Pending",
    "responsible_agency": "Department of Sanitation",
    "final_address": "10240 Flossmoor Dr",
    "address_councildis": "E",
    "status": "Assigned to Contractor",
    "contractor": "Waste Pro",
    "rowid": "1122214",
    "final_x": "3709963.74776",
    "final_y": "563716.265953",
    "longitude": "-89.97698951969859",
    "latitude": "30.043128211467273",
    "geocoded_column": {
      "latitude": "30.043128211467273",
      "longitude": "-89.97698951969859"
    }
  },
  {
    "service_request": "2024-1122213",
    "request_type": "Traffic Signals/Signs/Striping/Streetlights",
    "request_reason": "Street Light Outage/Malfunction",
    "date_created": "2024-08-15T15:10:58.000",
    "date_modified": "2024-08-15T15:10:58.000",
    "request_status": "Pending",
    "responsible_agency": "Department of Public Works",
    "final_address": "6666 Spanish Fort Blvd",
    "address_councildis": "D",
    "status": "Assigned to Contractor",
    "contractor": "Legacy Professional Services",
    "rowid": "1122213",
    "final_x": "3673693.87323",
    "final_y": "556362.43593",
    "longitude": "-90.09186939961795",
    "latitude": "30.02403847908834",
    "geocoded_column": {
      "latitude": "30.02403847908834",
      "longitude": "-90.09186939961795"
    }
  },
  {
    "service_request": "2024-1122212",
    "request_type": "Roads/Drainage",
    "request_reason": "Damaged Sidewalk",
    "date_created": "2024-08-15T15:09:15.000",
    "date_modified": "2024-08-15T15:09:15.000",
    "request_status": "Pending",
    "responsible_agency": "Department of Public Works",
    "final_address": "2503 Acacia St",
    "address_councildis": "D",
    "status": "Pending",
    "rowid": "1122212",
    "final_x": "3686275.86166",
    "final_y": "546370.99144",
    "longitude": "-90.05246570250048",
    "latitude": "29.99618482431744",
    "geocoded_column": {
      "latitude": "29.99618482431744",
      "longitude": "-90.05246570250048"
    }
  },
  {
    "service_request": "2024-1122211",
    "request_type": "Traffic Signals/Signs/Striping/Streetlights",
    "request_reason": "Traffic Signal Malfunctioning/Damaged",
    "date_created": "2024-08-15T15:01:50.000",
    "date_modified": "2024-08-15T15:01:51.000",
    "request_status": "Pending",
    "responsible_agency": "Department of Public Works",
    "final_address": "1331 Decatur St",
    "address_councildis": "C",
    "status": "Pending",
    "rowid": "1122211",
    "final_x": "3684580.60796",
    "final_y": "533896.526149",
    "longitude": "-90.05825938121264",
    "latitude": "29.96193642065271",
    "geocoded_column": {
      "latitude": "29.96193642065271",
      "longitude": "-90.05825938121264"
    }
  },
  {
    "service_request": "2024-1122210",
    "request_type": "Trash/Recycling",
    "request_reason": "Request a Large Item Pick Up",
    "date_created": "2024-08-15T15:00:28.000",
    "date_modified": "2024-08-15T15:00:29.000",
    "request_status": "Pending",
    "responsible_agency": "Department of Sanitation",
    "final_address": "1533 Filmore Ave",
    "address_councildis": "D",
    "status": "Assigned to Contractor",
    "contractor": "IV Waste",
    "rowid": "1122210",
    "final_x": "3679063.99413",
    "final_y": "552006.476374",
    "longitude": "-90.07505198256058",
    "latitude": "30.011900095186125",
    "geocoded_column": {
      "latitude": "30.011900095186125",
      "longitude": "-90.07505198256058"
    }
  },
  {
    "service_request": "2024-1122209",
    "request_type": "Trash/Recycling",
    "request_reason": "Request a Large Item Pick Up",
    "date_created": "2024-08-15T14:56:55.000",
    "date_modified": "2024-08-15T14:56:56.000",
    "request_status": "Pending",
    "responsible_agency": "Department of Sanitation",
    "final_address": "900 BLK Spain St",
    "address_councildis": "C",
    "status": "Assigned to Contractor",
    "contractor": "IV Waste",
    "rowid": "1122209",
    "final_x": "3686177.5679",
    "final_y": "535854.95859",
    "longitude": "-90.05314734688932",
    "latitude": "29.967272471131896",
    "geocoded_column": {
      "latitude": "29.967272471131896",
      "longitude": "-90.05314734688932"
    }
  },
  {
    "service_request": "2024-1122207",
    "request_type": "Roads/Drainage",
    "request_reason": "Pothole",
    "date_created": "2024-08-15T14:55:05.000",
    "date_modified": "2024-08-15T14:55:05.000",
    "request_status": "Pending",
    "responsible_agency": "Department of Public Works",
    "final_address": "4500 BLK Old Gentilly Rd",
    "address_councildis": "D",
    "status": "Pending",
    "rowid": "1122207",
    "final_x": "3691399.11388",
    "final_y": "549205.299015",
    "longitude": "-90.03618042213954",
    "latitude": "30.003819668224693",
    "geocoded_column": {
      "latitude": "30.003819668224693",
      "longitude": "-90.03618042213954"
    }
  },
  {
    "service_request": "2024-1122206",
    "request_type": "Trash/Recycling",
    "request_reason": "Replace Trash Cart",
    "date_created": "2024-08-15T14:54:59.000",
    "date_modified": "2024-08-15T14:55:00.000",
    "request_status": "Pending",
    "responsible_agency": "Department of Sanitation",
    "final_address": "8502 Hayne Blvd",
    "address_councildis": "E",
    "status": "Assigned to Contractor",
    "contractor": "Waste Pro",
    "rowid": "1122206",
    "final_x": "3703262.60836",
    "final_y": "563464.379168",
    "longitude": "-89.99817701910673",
    "latitude": "30.042652024964585",
    "geocoded_column": {
      "latitude": "30.042652024964585",
      "longitude": "-89.99817701910673"
    }
  },
  {
    "service_request": "2024-1122205",
    "request_type": "Property Maintenance",
    "request_reason": "Property Maintenance",
    "date_created": "2024-08-15T14:53:41.000",
    "date_modified": "2024-08-15T14:53:41.000",
    "request_status": "Pending",
    "responsible_agency": "Department of Code Enforcement",
    "final_address": "7401 Dogwood Dr",
    "address_councildis": "E",
    "status": "Pending",
    "rowid": "1122205",
    "final_x": "3701608.02423",
    "final_y": "560375.824414",
    "longitude": "-90.00351941300735",
    "latitude": "30.03421261479023",
    "geocoded_column": {
      "latitude": "30.03421261479023",
      "longitude": "-90.00351941300735"
    }
  },
  {
    "service_request": "2024-1122204",
    "request_type": "Healthy Homes",
    "request_reason": "Healthy Homes",
    "date_created": "2024-08-15T14:52:29.000",
    "date_modified": "2024-08-15T14:52:30.000",
    "request_status": "Pending",
    "responsible_agency": "Department of Code Enforcement",
    "final_address": "2050 Constance St",
    "address_councildis": "B",
    "status": "Pending",
    "rowid": "1122204",
    "final_x": "3679692.06549",
    "final_y": "522042.637754",
    "longitude": "-90.07410800089616",
    "latitude": "29.929490859072388",
    "geocoded_column": {
      "latitude": "29.929490859072388",
      "longitude": "-90.07410800089616"
    }
  },
  {
    "service_request": "2024-1122203",
    "request_type": "Abandoned Vehicles",
    "request_reason": "Abandoned/Junk Vehicles",
    "date_created": "2024-08-15T14:51:05.000",
    "date_modified": "2024-08-15T14:51:05.000",
    "request_status": "Pending",
    "responsible_agency": "Department of Public Works",
    "final_address": "4100 BLK Mirabeau Ave",
    "address_councildis": "D",
    "status": "Pending",
    "rowid": "1122203",
    "final_x": "3689317.95499",
    "final_y": "551238.126314",
    "longitude": "-90.04268279924776",
    "latitude": "30.009473815342222",
    "geocoded_column": {
      "latitude": "30.009473815342222",
      "longitude": "-90.04268279924776"
    }
  },
  {
    "service_request": "2024-1122201",
    "request_type": "Trash/Recycling",
    "request_reason": "Order Recycling Cart",
    "date_created": "2024-08-15T14:50:25.000",
    "date_modified": "2024-08-15T14:50:25.000",
    "request_status": "Pending",
    "responsible_agency": "Department of Sanitation",
    "final_address": "2121 Brutus St",
    "address_councildis": "D",
    "status": "Pending",
    "rowid": "1122201",
    "final_x": "3683294.41224",
    "final_y": "550298.512404",
    "longitude": "-90.0617461914508",
    "latitude": "30.007075399149997",
    "geocoded_column": {
      "latitude": "30.007075399149997",
      "longitude": "-90.0617461914508"
    }
  },
  {
    "service_request": "2024-1122200",
    "request_type": "Trash/Recycling",
    "request_reason": "Order Trash Cart",
    "date_created": "2024-08-15T14:50:00.000",
    "date_modified": "2024-08-15T14:50:01.000",
    "request_status": "Pending",
    "responsible_agency": "Department of Sanitation",
    "final_address": "2121 Brutus St",
    "address_councildis": "D",
    "status": "Assigned to Contractor",
    "contractor": "IV Waste",
    "rowid": "1122200",
    "final_x": "3683294.41224",
    "final_y": "550298.512404",
    "longitude": "-90.0617461914508",
    "latitude": "30.007075399149997",
    "geocoded_column": {
      "latitude": "30.007075399149997",
      "longitude": "-90.0617461914508"
    }
  },
  {
    "service_request": "2024-1122199",
    "request_type": "Trash/Recycling",
    "request_reason": "Request a Large Item Pick Up",
    "date_created": "2024-08-15T14:43:52.000",
    "date_modified": "2024-08-15T14:43:53.000",
    "request_status": "Pending",
    "responsible_agency": "Department of Sanitation",
    "final_address": "2220 Columbus St",
    "address_councildis": "D",
    "status": "Assigned to Contractor",
    "contractor": "IV Waste",
    "rowid": "1122199",
    "final_x": "3679855.51765",
    "final_y": "538569.651849",
    "longitude": "-90.07301816186532",
    "latitude": "29.9749296459321",
    "geocoded_column": {
      "latitude": "29.9749296459321",
      "longitude": "-90.07301816186532"
    }
  },
  {
    "service_request": "2024-1122198",
    "request_type": "Trash/Recycling",
    "request_reason": "Order Trash Cart",
    "date_created": "2024-08-15T14:43:28.000",
    "date_modified": "2024-08-15T14:43:29.000",
    "request_status": "Pending",
    "responsible_agency": "Department of Sanitation",
    "final_address": "2121 Brutus St",
    "address_councildis": "D",
    "status": "Assigned to Contractor",
    "contractor": "IV Waste",
    "rowid": "1122198",
    "final_x": "3683294.41224",
    "final_y": "550298.512404",
    "longitude": "-90.0617461914508",
    "latitude": "30.007075399149997",
    "geocoded_column": {
      "latitude": "30.007075399149997",
      "longitude": "-90.0617461914508"
    }
  },
  {
    "service_request": "2024-1122197",
    "request_type": "Traffic Signals/Signs/Striping/Streetlights",
    "request_reason": "Street Light Outage/Malfunction",
    "date_created": "2024-08-15T14:41:09.000",
    "date_modified": "2024-08-15T14:41:10.000",
    "request_status": "Pending",
    "responsible_agency": "Department of Public Works",
    "final_address": "436 Dearmas St",
    "address_councildis": "C",
    "status": "Assigned to Contractor",
    "contractor": "Legacy Professional Services",
    "rowid": "1122197",
    "final_x": "3686914.77359",
    "final_y": "527219.441407",
    "longitude": "-90.05112441372158",
    "latitude": "29.943505098322394",
    "geocoded_column": {
      "latitude": "29.943505098322394",
      "longitude": "-90.05112441372158"
    }
  },
  {
    "service_request": "2024-1122196",
    "request_type": "Trash/Recycling",
    "request_reason": "Illegal Dumping",
    "date_created": "2024-08-15T14:40:40.000",
    "date_modified": "2024-08-15T14:40:41.000",
    "request_status": "Pending",
    "responsible_agency": "Department of Sanitation",
    "final_address": "MARTIN DR & MORRISON RD",
    "address_councildis": "E",
    "status": "Pending",
    "rowid": "1122196",
    "final_x": "3698773.3",
    "final_y": "558760.48",
    "longitude": "-90.01253630421469",
    "latitude": "30.029861194805704",
    "geocoded_column": {
      "latitude": "30.029861194805704",
      "longitude": "-90.01253630421469"
    }
  },
  {
    "service_request": "2024-1122195",
    "request_type": "Safety & Permits",
    "request_reason": "Licenses & Permits",
    "date_created": "2024-08-15T14:39:39.000",
    "date_modified": "2024-08-15T14:39:39.000",
    "request_status": "Pending",
    "responsible_agency": "Safety and Permits",
    "final_address": "1439 St Roch Ave",
    "address_councildis": "C",
    "status": "Pending",
    "rowid": "1122195",
    "final_x": "3686446.63183",
    "final_y": "537858.488329",
    "longitude": "-90.0522269006313",
    "latitude": "29.97277321037334",
    "geocoded_column": {
      "latitude": "29.97277321037334",
      "longitude": "-90.0522269006313"
    }
  },
  {
    "service_request": "2024-1122194",
    "request_type": "Trash/Recycling",
    "request_reason": "Missed Trash Pick-Up",
    "date_created": "2024-08-15T14:39:36.000",
    "date_modified": "2024-08-15T15:12:43.000",
    "case_close_date": "2024-08-15T10:12:43.000",
    "request_status": "Closed",
    "responsible_agency": "Department of Sanitation",
    "final_address": "1721 Nashville Ave",
    "address_councildis": "A",
    "status": "Invalid Request",
    "contractor": "IV Waste",
    "contractor_action": "Invalid",
    "rowid": "1122194",
    "final_x": "3666512.55802",
    "final_y": "522764.596346",
    "longitude": "-90.11568923685391",
    "latitude": "29.93186769024428",
    "geocoded_column": {
      "latitude": "29.93186769024428",
      "longitude": "-90.11568923685391"
    }
  },
  {
    "service_request": "2024-1122193",
    "request_type": "Trash/Recycling",
    "request_reason": "Request a Large Item Pick Up",
    "date_created": "2024-08-15T14:39:33.000",
    "date_modified": "2024-08-15T14:39:34.000",
    "request_status": "Pending",
    "responsible_agency": "Department of Sanitation",
    "final_address": "1082 Farragut St",
    "address_councildis": "C",
    "status": "Assigned to Contractor",
    "contractor": "Richards Disposal",
    "rowid": "1122193",
    "final_x": "3692446.79049",
    "final_y": "527029.798974",
    "longitude": "-90.0336652573453",
    "latitude": "29.94281227249053",
    "geocoded_column": {
      "latitude": "29.94281227249053",
      "longitude": "-90.0336652573453"
    }
  },
  {
    "service_request": "2024-1122192",
    "request_type": "Healthy Homes",
    "request_reason": "Healthy Homes",
    "date_created": "2024-08-15T14:38:18.000",
    "date_modified": "2024-08-15T14:38:19.000",
    "request_status": "Pending",
    "responsible_agency": "Department of Code Enforcement",
    "final_address": "2432 Broadway St",
    "address_councildis": "A",
    "status": "Pending",
    "rowid": "1122192",
    "final_x": "3666694.30881",
    "final_y": "530359.17261",
    "longitude": "-90.1148605167177",
    "latitude": "29.95274501786478",
    "geocoded_column": {
      "latitude": "29.95274501786478",
      "longitude": "-90.1148605167177"
    }
  },
  {
    "service_request": "2024-1122191",
    "request_type": "Property Maintenance",
    "request_reason": "Property Maintenance",
    "date_created": "2024-08-15T14:37:58.000",
    "date_modified": "2024-08-15T14:37:58.000",
    "request_status": "Pending",
    "responsible_agency": "Department of Code Enforcement",
    "final_address": "MARTIN DR & MORRISON RD",
    "address_councildis": "E",
    "status": "Pending",
    "rowid": "1122191",
    "final_x": "3698773.3",
    "final_y": "558760.48",
    "longitude": "-90.01253630421469",
    "latitude": "30.029861194805704",
    "geocoded_column": {
      "latitude": "30.029861194805704",
      "longitude": "-90.01253630421469"
    }
  },
  {
    "service_request": "2024-1122190",
    "request_type": "Property Maintenance",
    "request_reason": "Property Maintenance",
    "date_created": "2024-08-15T14:36:40.000",
    "date_modified": "2024-08-15T14:36:40.000",
    "request_status": "Pending",
    "responsible_agency": "Department of Code Enforcement",
    "final_address": "1611 Prytania St",
    "address_councildis": "B",
    "status": "Pending",
    "rowid": "1122190",
    "final_x": "3679377.57455",
    "final_y": "524934.137981",
    "longitude": "-90.07500055059124",
    "latitude": "29.93745103258859",
    "geocoded_column": {
      "latitude": "29.93745103258859",
      "longitude": "-90.07500055059124"
    }
  },
  {
    "service_request": "2024-1122189",
    "request_type": "Trash/Recycling",
    "request_reason": "Repair Trash Cart",
    "date_created": "2024-08-15T14:34:05.000",
    "date_modified": "2024-08-15T14:34:06.000",
    "request_status": "Pending",
    "responsible_agency": "Department of Sanitation",
    "final_address": "1204 Valmont St",
    "address_councildis": "B",
    "status": "Assigned to Contractor",
    "contractor": "IV Waste",
    "rowid": "1122189",
    "final_x": "3667596.91002",
    "final_y": "519766.777912",
    "longitude": "-90.11236688518808",
    "latitude": "29.923592911756163",
    "geocoded_column": {
      "latitude": "29.923592911756163",
      "longitude": "-90.11236688518808"
    }
  },
  {
    "service_request": "2024-1122188",
    "request_type": "Roads/Drainage",
    "request_reason": "Street Subsidence (Sinking)",
    "date_created": "2024-08-15T14:33:31.000",
    "date_modified": "2024-08-15T14:33:32.000",
    "request_status": "Pending",
    "responsible_agency": "Department of Public Works",
    "final_address": "8455 Beechwood Ct",
    "address_councildis": "E",
    "status": "Pending",
    "rowid": "1122188",
    "final_x": "3704475.90398",
    "final_y": "560822.887454",
    "longitude": "-89.9944400963957",
    "latitude": "30.035350034287728",
    "geocoded_column": {
      "latitude": "30.035350034287728",
      "longitude": "-89.9944400963957"
    }
  },
  {
    "service_request": "2024-1122187",
    "request_type": "Trash/Recycling",
    "request_reason": "Replace Trash Cart",
    "date_created": "2024-08-15T14:32:57.000",
    "date_modified": "2024-08-15T14:32:58.000",
    "request_status": "Pending",
    "responsible_agency": "Department of Sanitation",
    "final_address": "915 Newton St",
    "address_councildis": "C",
    "status": "Assigned to Contractor",
    "contractor": "Richards Disposal",
    "rowid": "1122187",
    "final_x": "3688212.41251",
    "final_y": "527899.262463",
    "longitude": "-90.04700334551754",
    "latitude": "29.94533438378161",
    "geocoded_column": {
      "latitude": "29.94533438378161",
      "longitude": "-90.04700334551754"
    }
  },
  {
    "service_request": "2024-1122186",
    "request_type": "Trash/Recycling",
    "request_reason": "MIssed Recycling Pick-Up",
    "date_created": "2024-08-15T14:32:08.000",
    "date_modified": "2024-08-15T14:32:09.000",
    "request_status": "Pending",
    "responsible_agency": "Department of Sanitation",
    "final_address": "4814 Nottingham Dr",
    "address_councildis": "E",
    "status": "Assigned to Contractor",
    "contractor": "Waste Pro",
    "rowid": "1122186",
    "final_x": "3716286.26751",
    "final_y": "557214.636891",
    "longitude": "-89.95725473203404",
    "latitude": "30.025044048348413",
    "geocoded_column": {
      "latitude": "30.025044048348413",
      "longitude": "-89.95725473203404"
    }
  },
  {
    "service_request": "2024-1122185",
    "request_type": "Trash/Recycling",
    "request_reason": "Missed Trash Pick-Up",
    "date_created": "2024-08-15T14:31:41.000",
    "date_modified": "2024-08-15T14:41:33.000",
    "case_close_date": "2024-08-15T09:41:33.000",
    "request_status": "Closed",
    "responsible_agency": "Department of Sanitation",
    "final_address": "2715 Allen St",
    "address_councildis": "D",
    "status": "Invalid Request",
    "contractor": "IV Waste",
    "contractor_action": "Invalid",
    "rowid": "1122185",
    "final_x": "3682329.50248",
    "final_y": "542164.830797",
    "longitude": "-90.06507901932599",
    "latitude": "29.984740078004357",
    "geocoded_column": {
      "latitude": "29.984740078004357",
      "longitude": "-90.06507901932599"
    }
  },
  {
    "service_request": "2024-1122184",
    "request_type": "Trash/Recycling",
    "request_reason": "Repair Recycling Cart",
    "date_created": "2024-08-15T14:30:25.000",
    "date_modified": "2024-08-15T14:30:26.000",
    "request_status": "Pending",
    "responsible_agency": "Department of Sanitation",
    "final_address": "4218 Dumaine St",
    "address_councildis": "A",
    "status": "Pending",
    "rowid": "1122184",
    "final_x": "3672244.60283",
    "final_y": "541191.01742",
    "longitude": "-90.09696609109518",
    "latitude": "29.982365494851567",
    "geocoded_column": {
      "latitude": "29.982365494851567",
      "longitude": "-90.09696609109518"
    }
  },
  {
    "service_request": "2024-1122183",
    "request_type": "Roads/Drainage",
    "request_reason": "Pothole",
    "date_created": "2024-08-15T14:26:50.000",
    "date_modified": "2024-08-15T14:26:50.000",
    "request_status": "Pending",
    "responsible_agency": "Department of Public Works",
    "final_address": "5600 BLK Magnolia St",
    "address_councildis": "A",
    "status": "Pending",
    "rowid": "1122183",
    "final_x": "3667288.17031",
    "final_y": "524807.277929",
    "longitude": "-90.11317203563812",
    "latitude": "29.93746172571428",
    "geocoded_column": {
      "latitude": "29.93746172571428",
      "longitude": "-90.11317203563812"
    }
  },
  {
    "service_request": "2024-1122182",
    "request_type": "Trash/Recycling",
    "request_reason": "Request a Large Item Pick Up",
    "date_created": "2024-08-15T14:25:49.000",
    "date_modified": "2024-08-15T14:25:50.000",
    "request_status": "Pending",
    "responsible_agency": "Department of Sanitation",
    "final_address": "4627 Annunciation St",
    "address_councildis": "B",
    "status": "Assigned to Contractor",
    "contractor": "IV Waste",
    "rowid": "1122182",
    "final_x": "3670173.81422",
    "final_y": "517689.664886",
    "longitude": "-90.10430285514599",
    "latitude": "29.917805755480774",
    "geocoded_column": {
      "latitude": "29.917805755480774",
      "longitude": "-90.10430285514599"
    }
  },
  {
    "service_request": "2024-1122181",
    "request_type": "Trash/Recycling",
    "request_reason": "Repair Recycling Cart",
    "date_created": "2024-08-15T14:22:08.000",
    "date_modified": "2024-08-15T14:22:08.000",
    "request_status": "Pending",
    "responsible_agency": "Department of Sanitation",
    "final_address": "2322 State St",
    "address_councildis": "A",
    "status": "Pending",
    "rowid": "1122181",
    "final_x": "3666574.43226",
    "final_y": "525254.130877",
    "longitude": "-90.11541036971003",
    "latitude": "29.938711307299418",
    "geocoded_column": {
      "latitude": "29.938711307299418",
      "longitude": "-90.11541036971003"
    }
  },
  {
    "service_request": "2024-1122180",
    "request_type": "Trash/Recycling",
    "request_reason": "Missed Trash Pick-Up",
    "date_created": "2024-08-15T14:22:06.000",
    "date_modified": "2024-08-15T14:22:06.000",
    "request_status": "Closed",
    "responsible_agency": "Department of Sanitation",
    "final_address": "2715 Allen St",
    "address_councildis": "D",
    "status": "Invalid Request",
    "rowid": "1122180",
    "final_x": "3682329.50248",
    "final_y": "542164.830797",
    "longitude": "-90.06507901932599",
    "latitude": "29.984740078004357",
    "geocoded_column": {
      "latitude": "29.984740078004357",
      "longitude": "-90.06507901932599"
    }
  },
  {
    "service_request": "2024-1122179",
    "request_type": "Trash/Recycling",
    "request_reason": "Request a Large Item Pick Up",
    "date_created": "2024-08-15T14:15:59.000",
    "date_modified": "2024-08-15T14:16:00.000",
    "request_status": "Pending",
    "responsible_agency": "Department of Sanitation",
    "final_address": "4858 Ken Ct",
    "address_councildis": "C",
    "status": "Assigned to Contractor",
    "contractor": "Richards Disposal",
    "rowid": "1122179",
    "final_x": "3702215.20765",
    "final_y": "518558.344887",
    "longitude": "-90.00313474927131",
    "latitude": "29.919210446905453",
    "geocoded_column": {
      "latitude": "29.919210446905453",
      "longitude": "-90.00313474927131"
    }
  },
  {
    "service_request": "2024-1122178",
    "request_type": "Abandoned Vehicles",
    "request_reason": "Abandoned/Junk Vehicles",
    "date_created": "2024-08-15T14:15:41.000",
    "date_modified": "2024-08-15T14:18:53.000",
    "request_status": "Pending",
    "responsible_agency": "Department of Public Works",
    "final_address": "7840 Exeter St",
    "address_councildis": "E",
    "status": "Pending",
    "rowid": "1122178",
    "final_x": "3697407.0312",
    "final_y": "560196.007261",
    "longitude": "-90.0168015619961",
    "latitude": "30.033851575557527",
    "geocoded_column": {
      "latitude": "30.033851575557527",
      "longitude": "-90.0168015619961"
    }
  },
  {
    "service_request": "2024-1122177",
    "request_type": "Trash/Recycling",
    "request_reason": "Missed Trash Pick-Up",
    "date_created": "2024-08-15T14:15:20.000",
    "date_modified": "2024-08-15T15:08:08.000",
    "case_close_date": "2024-08-15T10:08:08.000",
    "request_status": "Closed",
    "responsible_agency": "Department of Sanitation",
    "final_address": "1666 Dufossat St",
    "address_councildis": "B",
    "status": "Invalid Request",
    "contractor": "IV Waste",
    "contractor_action": "Invalid",
    "rowid": "1122177",
    "final_x": "3668069.78055",
    "final_y": "521760.651066",
    "longitude": "-90.11080705105114",
    "latitude": "29.929061567065368",
    "geocoded_column": {
      "latitude": "29.929061567065368",
      "longitude": "-90.11080705105114"
    }
  },
  {
    "service_request": "2024-1122176",
    "request_type": "Trash/Recycling",
    "request_reason": "Repair Trash Cart",
    "date_created": "2024-08-15T14:14:11.000",
    "date_modified": "2024-08-15T14:14:12.000",
    "request_status": "Pending",
    "responsible_agency": "Department of Sanitation",
    "final_address": "2224 Lamanche St",
    "address_councildis": "E",
    "status": "Assigned to Contractor",
    "contractor": "Waste Pro",
    "rowid": "1122176",
    "final_x": "3699487.58276",
    "final_y": "538021.470345",
    "longitude": "-90.0110354616107",
    "latitude": "29.972813996611475",
    "geocoded_column": {
      "latitude": "29.972813996611475",
      "longitude": "-90.0110354616107"
    }
  },
  {
    "service_request": "2024-1122174",
    "request_type": "Roads/Drainage",
    "request_reason": "Damaged Sidewalk",
    "date_created": "2024-08-15T14:04:53.000",
    "date_modified": "2024-08-15T14:04:54.000",
    "request_status": "Pending",
    "responsible_agency": "Department of Public Works",
    "final_address": "2614 Amelia St",
    "address_councildis": "B",
    "status": "Pending",
    "rowid": "1122174",
    "final_x": "3672207.83188",
    "final_y": "524745.440636",
    "longitude": "-90.09764239537857",
    "latitude": "29.93714672774607",
    "geocoded_column": {
      "latitude": "29.93714672774607",
      "longitude": "-90.09764239537857"
    }
  },
  {
    "service_request": "2024-1122173",
    "request_type": "Trash/Recycling",
    "request_reason": "Missed Trash Pick-Up",
    "date_created": "2024-08-15T14:03:05.000",
    "date_modified": "2024-08-15T14:14:49.000",
    "case_close_date": "2024-08-15T09:14:49.000",
    "request_status": "Closed",
    "responsible_agency": "Department of Sanitation",
    "final_address": "726 Adams St",
    "address_councildis": "A",
    "status": "Invalid Request",
    "contractor": "IV Waste",
    "contractor_action": "Invalid",
    "rowid": "1122173",
    "final_x": "3662015.56448",
    "final_y": "526288.446334",
    "longitude": "-90.12976898547642",
    "latitude": "29.94168779891306",
    "geocoded_column": {
      "latitude": "29.94168779891306",
      "longitude": "-90.12976898547642"
    }
  },