[
  {
    "service_request": "2024-1146489",
    "request_type": "Streetlights",
    "request_reason": "Streetlight Outage/Malfunction",
    "date_created": "2024-11-05T23:14:15.000",
    "date_modified": "2024-11-05T23:14:16.000",
    "request_status": "Pending",
    "responsible_agency": "Department of Public Works",
    "final_address": "6826 Colbert St",
    "address_councildis": "A",
    "status": "Pending",
    "contractor": "Legacy Professional Services",
    "rowid": "1146489",
    "final_x": "3667823.43508",
    "final_y": "552940.035479",
    "longitude": "-90.11053433777438",
    "latitude": "30.01480166941467",
    "geocoded_column": {
      "latitude": "30.01480166941467",
      "longitude": "-90.11053433777438"
    }
  },
  {
    "service_request": "2024-1146488",
    "request_type": "Property Maintenance",
    "request_reason": "Property Maintenance",
    "date_created": "2024-11-05T21:53:26.000",
    "date_modified": "2024-11-05T21:53:26.000",
    "request_status": "Pending",
    "responsible_agency": "Department of Code Enforcement",
    "final_address": "1820 Touro St",
    "address_councildis": "D",
    "status": "Pending",
    "rowid": "1146488",
    "final_x": "3683976.80348",
    "final_y": "539007.442634",
    "longitude": "-90.059986744335",
    "latitude": "29.976008131769117",
    "geocoded_column": {
      "latitude": "29.976008131769117",
      "longitude": "-90.059986744335"
    }
  },
  {
    "service_request": "2024-1146487",
    "request_type": "Trash/Recycling",
    "request_reason": "Missed Trash Pick-Up",
    "date_created": "2024-11-05T21:23:58.000",
    "date_modified": "2024-11-05T21:23:59.000",
    "request_status": "Pending",
    "responsible_agency": "Department of Sanitation",
    "final_address": "1429 N Claiborne Ave",
    "address_councildis": "D",
    "status": "Assigned to Contractor",
    "contractor": "IV Waste",
    "rowid": "1146487",
    "final_x": "3681297.84834",
    "final_y": "536870.048328",
    "longitude": "-90.06852216779026",
    "latitude": "29.970212623507777",
    "geocoded_column": {
      "latitude": "29.970212623507777",
      "longitude": "-90.06852216779026"
    }
  },
  {
    "service_request": "2024-1146486",
    "request_type": "Alley Ways",
    "request_reason": "Alley Way Regrading",
    "date_created": "2024-11-05T21:08:34.000",
    "date_modified": "2024-11-05T21:08:34.000",
    "request_status": "Pending",
    "responsible_agency": "Department of Public Works",
    "final_address": "5667 Rosemary Pl",
    "address_councildis": "A",
    "status": "Pending",
    "rowid": "1146486",
    "final_x": "3667248.84794",
    "final_y": "545268.593423",
    "longitude": "-90.11260798377464",
    "latitude": "29.993724713956688",
    "geocoded_column": {
      "latitude": "29.993724713956688",
      "longitude": "-90.11260798377464"
    }
  },
  {
    "service_request": "2024-1146485",
    "request_type": "Roads and Streets",
    "request_reason": "Street Subsidence (Sinking)",
    "date_created": "2024-11-05T21:01:59.000",
    "date_modified": "2024-11-05T21:01:59.000",
    "request_status": "Pending",
    "responsible_agency": "Department of Public Works",
    "final_address": "506 Florida Blvd",
    "address_councildis": "A",
    "status": "Pending",
    "rowid": "1146485",
    "final_x": "3667636.99226",
    "final_y": "545369.024144",
    "longitude": "-90.11137850667053",
    "latitude": "29.993989488174357",
    "geocoded_column": {
      "latitude": "29.993989488174357",
      "longitude": "-90.11137850667053"
    }
  },
  {
    "service_request": "2024-1146484",
    "request_type": "Roads and Streets",
    "request_reason": "Street Subsidence (Sinking)",
    "date_created": "2024-11-05T20:59:44.000",
    "date_modified": "2024-11-05T20:59:44.000",
    "request_status": "Pending",
    "responsible_agency": "Department of Public Works",
    "final_address": "700 BLK Florida Blvd",
    "address_councildis": "A",
    "status": "Pending",
    "rowid": "1146484",
    "final_x": "3668892.83967",
    "final_y": "545295.411493",
    "longitude": "-90.10741393817993",
    "latitude": "29.99375019370948",
    "geocoded_column": {
      "latitude": "29.99375019370948",
      "longitude": "-90.10741393817993"
    }
  },
  {
    "service_request": "2024-1146483",
    "request_type": "Trash/Recycling",
    "request_reason": "Request a Large Item Pick Up",
    "date_created": "2024-11-05T20:25:55.000",
    "date_modified": "2024-11-05T20:25:55.000",
    "request_status": "Pending",
    "responsible_agency": "Department of Sanitation",
    "final_address": "4603 Arts St",
    "address_councildis": "D",
    "status": "Assigned to Contractor",
    "contractor": "IV Waste",
    "rowid": "1146483",
    "final_x": "3686075.61398",
    "final_y": "549639.599188",
    "longitude": "-90.05298289541811",
    "latitude": "30.00517846870325",
    "geocoded_column": {
      "latitude": "30.00517846870325",
      "longitude": "-90.05298289541811"
    }
  },
  {
    "service_request": "2024-1146482",
    "request_type": "Trash/Recycling",
    "request_reason": "Request a Large Item Pick Up",
    "date_created": "2024-11-05T20:14:36.000",
    "date_modified": "2024-11-05T20:14:37.000",
    "request_status": "Pending",
    "responsible_agency": "Department of Sanitation",
    "final_address": "3333 Pauger St",
    "address_councildis": "D",
    "status": "Assigned to Contractor",
    "contractor": "IV Waste",
    "rowid": "1146482",
    "final_x": "3683440.17212",
    "final_y": "542035.72878",
    "longitude": "-90.061575426919",
    "latitude": "29.98435124400798",
    "geocoded_column": {
      "latitude": "29.98435124400798",
      "longitude": "-90.061575426919"
    }
  },
  {
    "service_request": "2024-1146481",
    "request_type": "Street and Traffic Signs",
    "request_reason": "Stop Sign Missing or Damaged",
    "date_created": "2024-11-05T19:55:41.000",
    "date_modified": "2024-11-05T19:55:41.000",
    "request_status": "Pending",
    "responsible_agency": "Department of Public Works",
    "final_address": "610 John Churchill Chase St",
    "address_councildis": "B",
    "status": "Pending",
    "rowid": "1146481",
    "final_x": "3681747.90805",
    "final_y": "526073.677502",
    "longitude": "-90.06747750567999",
    "latitude": "29.94051259892235",
    "geocoded_column": {
      "latitude": "29.94051259892235",
      "longitude": "-90.06747750567999"
    }
  },
  {
    "service_request": "2024-1146480",
    "request_type": "Trash/Recycling",
    "request_reason": "Order Recycling Cart",
    "date_created": "2024-11-05T19:27:54.000",
    "date_modified": "2024-11-05T19:27:54.000",
    "request_status": "Pending",
    "responsible_agency": "Department of Sanitation",
    "final_address": "6808 Orleans Ave",
    "address_councildis": "A",
    "status": "Pending",
    "rowid": "1146480",
    "final_x": "3671283.15911",
    "final_y": "552571.893142",
    "longitude": "-90.09961577661993",
    "latitude": "30.013687435503673",
    "geocoded_column": {
      "latitude": "30.013687435503673",
      "longitude": "-90.09961577661993"
    }
  },
  {
    "service_request": "2024-1146479",
    "request_type": "Trash/Recycling",
    "request_reason": "Order Trash Cart",
    "date_created": "2024-11-05T19:26:41.000",
    "date_modified": "2024-11-05T19:26:42.000",
    "request_status": "Pending",
    "responsible_agency": "Department of Sanitation",
    "final_address": "6808 Orleans Ave",
    "address_councildis": "A",
    "status": "Assigned to Contractor",
    "contractor": "IV Waste",
    "rowid": "1146479",
    "final_x": "3671283.15911",
    "final_y": "552571.893142",
    "longitude": "-90.09961577661993",
    "latitude": "30.013687435503673",
    "geocoded_column": {
      "latitude": "30.013687435503673",
      "longitude": "-90.09961577661993"
    }
  },
  {
    "service_request": "2024-1146478",
    "request_type": "Trash/Recycling",
    "request_reason": "Start Trash Service",
    "date_created": "2024-11-05T19:25:25.000",
    "date_modified": "2024-11-05T19:25:26.000",
    "request_status": "Pending",
    "responsible_agency": "Department of Sanitation",
    "final_address": "6808 Orleans Ave",
    "address_councildis": "A",
    "status": "Assigned to Contractor",
    "contractor": "IV Waste",
    "rowid": "1146478",
    "final_x": "3671283.15911",
    "final_y": "552571.893142",
    "longitude": "-90.09961577661993",
    "latitude": "30.013687435503673",
    "geocoded_column": {
      "latitude": "30.013687435503673",
      "longitude": "-90.09961577661993"
    }
  },
  {
    "service_request": "2024-1146477",
    "request_type": "Drainage",
    "request_reason": "Catch Basin Clogged",
    "date_created": "2024-11-05T19:23:01.000",
    "date_modified": "2024-11-05T19:23:01.000",
    "request_status": "Pending",
    "responsible_agency": "Department of Public Works",
    "final_address": "4600 Francis Dr",
    "address_councildis": "D",
    "status": "Pending",
    "rowid": "1146477",
    "final_x": "3698277.18314",
    "final_y": "553522.969943",
    "longitude": "-90.01429454302102",
    "latitude": "30.01547575299955",
    "geocoded_column": {
      "latitude": "30.01547575299955",
      "longitude": "-90.01429454302102"
    }
  },
  {
    "service_request": "2024-1146476",
    "request_type": "Streetlights",
    "request_reason": "Streetlight Outage/Malfunction",
    "date_created": "2024-11-05T19:12:54.000",
    "date_modified": "2024-11-05T19:12:56.000",
    "request_status": "Pending",
    "responsible_agency": "Department of Public Works",
    "final_address": "6744 W Laverne St",
    "address_councildis": "D",
    "status": "Pending",
    "contractor": "Legacy Professional Services",
    "rowid": "1146476",
    "final_x": "3696073.16042",
    "final_y": "555824.256217",
    "longitude": "-90.02117493841762",
    "latitude": "30.02187300040321",
    "geocoded_column": {
      "latitude": "30.02187300040321",
      "longitude": "-90.02117493841762"
    }
  },
  {
    "service_request": "2024-1146475",
    "request_type": "Trash/Recycling",
    "request_reason": "Request a Large Item Pick Up",
    "date_created": "2024-11-05T19:11:38.000",
    "date_modified": "2024-11-05T19:11:39.000",
    "request_status": "Pending",
    "responsible_agency": "Department of Sanitation",
    "final_address": "2223 Pine St",
    "address_councildis": "A",
    "status": "Assigned to Contractor",
    "contractor": "IV Waste",
    "rowid": "1146475",
    "final_x": "3666040.19104",
    "final_y": "529718.264897",
    "longitude": "-90.11694741920475",
    "latitude": "29.951001839909832",
    "geocoded_column": {
      "latitude": "29.951001839909832",
      "longitude": "-90.11694741920475"
    }
  },
  {
    "service_request": "2024-1146474",
    "request_type": "Trash/Recycling",
    "request_reason": "Order Second Trash Cart",
    "date_created": "2024-11-05T19:06:42.000",
    "date_modified": "2024-11-05T19:06:43.000",
    "request_status": "Pending",
    "responsible_agency": "Department of Sanitation",
    "final_address": "1427 St Mary St",
    "address_councildis": "B",
    "status": "Assigned to Contractor",
    "contractor": "IV Waste",
    "rowid": "1146474",
    "final_x": "3678984.6484",
    "final_y": "523767.974395",
    "longitude": "-90.07628143555137",
    "latitude": "29.934256326135813",
    "geocoded_column": {
      "latitude": "29.934256326135813",
      "longitude": "-90.07628143555137"
    }
  },
  {
    "service_request": "2024-1146473",
    "request_type": "Trash/Recycling",
    "request_reason": "Repair Trash Cart",
    "date_created": "2024-11-05T19:04:20.000",
    "date_modified": "2024-11-05T19:04:21.000",
    "request_status": "Pending",
    "responsible_agency": "Department of Sanitation",
    "final_address": "1427 St Mary St",
    "address_councildis": "B",
    "status": "Assigned to Contractor",
    "contractor": "IV Waste",
    "rowid": "1146473",
    "final_x": "3678984.6484",
    "final_y": "523767.974395",
    "longitude": "-90.07628143555137",
    "latitude": "29.934256326135813",
    "geocoded_column": {
      "latitude": "29.934256326135813",
      "longitude": "-90.07628143555137"
    }
  },
  {
    "service_request": "2024-1146472",
    "request_type": "Streetlights",
    "request_reason": "Streetlight Outage/Malfunction",
    "date_created": "2024-11-05T18:54:51.000",
    "date_modified": "2024-11-05T18:54:52.000",
    "request_status": "Pending",
    "responsible_agency": "Department of Public Works",
    "final_address": "1427 St Mary St",
    "address_councildis": "B",
    "status": "Pending",
    "contractor": "Legacy Professional Services",
    "rowid": "1146472",
    "final_x": "3678984.6484",
    "final_y": "523767.974395",
    "longitude": "-90.07628143555137",
    "latitude": "29.934256326135813",
    "geocoded_column": {
      "latitude": "29.934256326135813",
      "longitude": "-90.07628143555137"
    }
  },
  {
    "service_request": "2024-1146471",
    "request_type": "Traffic Signals",
    "request_reason": "Traffic Signal Malfunctioning or Damaged",
    "date_created": "2024-11-05T18:49:25.000",
    "date_modified": "2024-11-05T18:49:25.000",
    "request_status": "Pending",
    "responsible_agency": "Department of Public Works",
    "final_address": "1400 Milton St Apt 4911",
    "address_councildis": "D",
    "status": "Pending",
    "rowid": "1146471",
    "final_x": "3678169.24814",
    "final_y": "546082.352208",
    "longitude": "-90.07808390673159",
    "latitude": "29.995637847688638",
    "geocoded_column": {
      "latitude": "29.995637847688638",
      "longitude": "-90.07808390673159"
    }
  },
  {
    "service_request": "2024-1146470",
    "request_type": "Trash/Recycling",
    "request_reason": "Request a Large Item Pick Up",
    "date_created": "2024-11-05T18:41:07.000",
    "date_modified": "2024-11-05T18:41:09.000",
    "request_status": "Pending",
    "responsible_agency": "Department of Sanitation",
    "final_address": "6884 Milne Blvd",
    "address_councildis": "A",
    "status": "Assigned to Contractor",
    "contractor": "IV Waste",
    "rowid": "1146470",
    "final_x": "3667499.86983",
    "final_y": "553390.564823",
    "longitude": "-90.11154147332375",
    "latitude": "30.016049956968743",
    "geocoded_column": {
      "latitude": "30.016049956968743",
      "longitude": "-90.11154147332375"
    }
  },
  {
    "service_request": "2024-1146469",
    "request_type": "Abandoned Vehicles",
    "request_reason": "Abandoned/Junk Vehicles",
    "date_created": "2024-11-05T18:26:19.000",
    "date_modified": "2024-11-05T18:26:19.000",
    "request_status": "Pending",
    "responsible_agency": "Department of Public Works",
    "final_address": "2002 Rev. John Raphael, Jr. Way",
    "address_councildis": "B",
    "status": "Pending",
    "rowid": "1146469",
    "final_x": "3676337.11777",
    "final_y": "526413.273726",
    "longitude": "-90.08454859813787",
    "latitude": "29.941609629536725",
    "geocoded_column": {
      "latitude": "29.941609629536725",
      "longitude": "-90.08454859813787"
    }
  },
  {
    "service_request": "2024-1146468",
    "request_type": "Trash/Recycling",
    "request_reason": "Order Trash Cart",
    "date_created": "2024-11-05T18:21:39.000",
    "date_modified": "2024-11-05T18:21:40.000",
    "request_status": "Pending",
    "responsible_agency": "Department of Sanitation",
    "final_address": "3050 N Miro St",
    "address_councildis": "D",
    "status": "Assigned to Contractor",
    "contractor": "IV Waste",
    "rowid": "1146468",
    "final_x": "3689851.97411",
    "final_y": "540150.067211",
    "longitude": "-90.04139062899957",
    "latitude": "29.978969112704686",
    "geocoded_column": {
      "latitude": "29.978969112704686",
      "longitude": "-90.04139062899957"
    }
  },
  {
    "service_request": "2024-1146467",
    "request_type": "Traffic Safety",
    "request_reason": "Request for Traffic Calming due to Speeding",
    "date_created": "2024-11-05T18:02:37.000",
    "date_modified": "2024-11-05T18:02:37.000",
    "request_status": "Pending",
    "responsible_agency": "Department of Public Works",
    "final_address": "4525 Freret St",
    "address_councildis": "B",
    "status": "Pending",
    "rowid": "1146467",
    "final_x": "3669910.96897",
    "final_y": "524039.379836",
    "longitude": "-90.10491764541817",
    "latitude": "29.935273196827616",
    "geocoded_column": {
      "latitude": "29.935273196827616",
      "longitude": "-90.10491764541817"
    }
  },
  {
    "service_request": "2024-1146466",
    "request_type": "Traffic Safety",
    "request_reason": "Request for Traffic Calming due to Speeding",
    "date_created": "2024-11-05T18:01:40.000",
    "date_modified": "2024-11-05T18:01:40.000",
    "request_status": "Pending",
    "responsible_agency": "Department of Public Works",
    "final_address": "4525 Freret St Ste 107",
    "address_councildis": "B",
    "status": "Pending",
    "rowid": "1146466",
    "final_x": "3669965.01185",
    "final_y": "524021.57318",
    "longitude": "-90.10474763431753",
    "latitude": "29.935222641054963",
    "geocoded_column": {
      "latitude": "29.935222641054963",
      "longitude": "-90.10474763431753"
    }
  },
  {
    "service_request": "2024-1146465",
    "request_type": "Trash/Recycling",
    "request_reason": "Request a Large Item Pick Up",
    "date_created": "2024-11-05T17:56:10.000",
    "date_modified": "2024-11-05T17:56:11.000",
    "request_status": "Pending",
    "responsible_agency": "Department of Sanitation",
    "final_address": "1135 Jourdan Ave",
    "address_councildis": "E",
    "status": "Assigned to Contractor",
    "contractor": "Waste Pro",
    "rowid": "1146465",
    "final_x": "3695177.54378",
    "final_y": "534764.24007",
    "longitude": "-90.02476478632913",
    "latitude": "29.963993829783046",
    "geocoded_column": {
      "latitude": "29.963993829783046",
      "longitude": "-90.02476478632913"
    }
  },
  {
    "service_request": "2024-1146464",
    "request_type": "Utility Poles",
    "request_reason": "Utility Pole Leaning",
    "date_created": "2024-11-05T17:52:39.000",
    "date_modified": "2024-11-05T17:52:45.000",
    "request_status": "Pending",
    "responsible_agency": "Utility Company Collective",
    "final_address": "1135 Jourdan Ave",
    "address_councildis": "E",
    "status": "Pending",
    "rowid": "1146464",
    "final_x": "3695177.54378",
    "final_y": "534764.24007",
    "longitude": "-90.02476478632913",
    "latitude": "29.963993829783046",
    "geocoded_column": {
      "latitude": "29.963993829783046",
      "longitude": "-90.02476478632913"
    }
  },
  {
    "service_request": "2024-1146463",
    "request_type": "Trash/Recycling",
    "request_reason": "Missed Trash Pick-Up",
    "date_created": "2024-11-05T17:52:09.000",
    "date_modified": "2024-11-05T17:52:09.000",
    "request_status": "Pending",
    "responsible_agency": "Department of Sanitation",
    "final_address": "11283 Winrock Dr",
    "address_councildis": "E",
    "status": "Assigned to Contractor",
    "contractor": "Waste Pro",
    "rowid": "1146463",
    "final_x": "3716712.63884",
    "final_y": "561668.571935",
    "longitude": "-89.95573828024344",
    "latitude": "30.037276496200594",
    "geocoded_column": {
      "latitude": "30.037276496200594",
      "longitude": "-89.95573828024344"
    }
  },
  {
    "service_request": "2024-1146462",
    "request_type": "Trash/Recycling",
    "request_reason": "Request a Large Item Pick Up",
    "date_created": "2024-11-05T17:47:16.000",
    "date_modified": "2024-11-05T17:48:28.000",
    "case_close_date": "2024-11-05T11:48:28.000",
    "request_status": "Closed",
    "responsible_agency": "Department of Sanitation",
    "final_address": "11283 Winrock Dr",
    "address_councildis": "E",
    "status": "Duplicate Request",
    "contractor": "Waste Pro",
    "contractor_action": "Duplicate",
    "rowid": "1146462",
    "final_x": "3716712.63884",
    "final_y": "561668.571935",
    "longitude": "-89.95573828024344",
    "latitude": "30.037276496200594",
    "geocoded_column": {
      "latitude": "30.037276496200594",
      "longitude": "-89.95573828024344"
    }
  },
  {
    "service_request": "2024-1146461",
    "request_type": "Trash/Recycling",
    "request_reason": "Request a Large Item Pick Up",
    "date_created": "2024-11-05T17:44:58.000",
    "date_modified": "2024-11-05T17:47:24.000",
    "case_close_date": "2024-11-05T11:47:24.000",
    "request_status": "Closed",
    "responsible_agency": "Department of Sanitation",
    "final_address": "11283 Winrock Dr",
    "address_councildis": "E",
    "status": "Duplicate Request",
    "contractor": "Waste Pro",
    "contractor_action": "Duplicate",
    "rowid": "1146461",
    "final_x": "3716712.63884",
    "final_y": "561668.571935",
    "longitude": "-89.95573828024344",
    "latitude": "30.037276496200594",
    "geocoded_column": {
      "latitude": "30.037276496200594",
      "longitude": "-89.95573828024344"
    }
  },
  {
    "service_request": "2024-1146460",
    "request_type": "General Services",
    "request_reason": "General Service Request",
    "date_created": "2024-11-05T17:43:18.000",
    "date_modified": "2024-11-05T17:43:18.000",
    "request_status": "Pending",
    "responsible_agency": "Orleans Parish Communication District",
    "final_address": "821 Dante St",
    "address_councildis": "A",
    "status": "Pending",
    "rowid": "1146460",
    "final_x": "3660627.61165",
    "final_y": "527932.099903",
    "longitude": "-90.13409674662248",
    "latitude": "29.946247337782747",
    "geocoded_column": {
      "latitude": "29.946247337782747",
      "longitude": "-90.13409674662248"
    }
  },
  {
    "service_request": "2024-1146459",
    "request_type": "Trash/Recycling",
    "request_reason": "Start Trash Service",
    "date_created": "2024-11-05T17:38:37.000",
    "date_modified": "2024-11-05T17:38:38.000",
    "request_status": "Pending",
    "responsible_agency": "Department of Sanitation",
    "final_address": "2344 Constance St",
    "address_councildis": "B",
    "status": "Assigned to Contractor",
    "contractor": "IV Waste",
    "rowid": "1146459",
    "final_x": "3678488.5755",
    "final_y": "521280.392185",
    "longitude": "-90.07793356319563",
    "latitude": "29.927431244393432",
    "geocoded_column": {
      "latitude": "29.927431244393432",
      "longitude": "-90.07793356319563"
    }
  },
  {
    "service_request": "2024-1146458",
    "request_type": "Streetlights",
    "request_reason": "Streetlight Outage/Malfunction",
    "date_created": "2024-11-05T17:23:50.000",
    "date_modified": "2024-11-05T17:23:51.000",
    "request_status": "Pending",
    "responsible_agency": "Department of Public Works",
    "final_address": "528 Jefferson Ave",
    "address_councildis": "A",
    "status": "Pending",
    "contractor": "Legacy Professional Services",
    "rowid": "1146458",
    "final_x": "3666392.90637",
    "final_y": "517428.21087",
    "longitude": "-90.11624590475053",
    "latitude": "29.91719780803879",
    "geocoded_column": {
      "latitude": "29.91719780803879",
      "longitude": "-90.11624590475053"
    }
  },
  {
    "service_request": "2024-1146457",
    "request_type": "Streetlights",
    "request_reason": "Streetlight Outage/Malfunction",
    "date_created": "2024-11-05T17:23:02.000",
    "date_modified": "2024-11-05T17:23:03.000",
    "request_status": "Pending",
    "responsible_agency": "Department of Public Works",
    "final_address": "14765 Chef Menteur Hwy",
    "address_councildis": "E",
    "status": "Pending",
    "contractor": "Legacy Professional Services",
    "rowid": "1146457",
    "final_x": "3731927.23821",
    "final_y": "562493.896159",
    "longitude": "-89.90762501722175",
    "latitude": "30.039034059428854",
    "geocoded_column": {
      "latitude": "30.039034059428854",
      "longitude": "-89.90762501722175"
    }
  },
  {
    "service_request": "2024-1146456",
    "request_type": "Trash/Recycling",
    "request_reason": "Repair Recycling Cart",
    "date_created": "2024-11-05T17:13:32.000",
    "date_modified": "2024-11-05T17:13:32.000",
    "request_status": "Pending",
    "responsible_agency": "Department of Sanitation",
    "final_address": "3211 Chippewa St",
    "address_councildis": "B",
    "status": "Pending",
    "rowid": "1146456",
    "final_x": "3676386.14062",
    "final_y": "518621.861815",
    "longitude": "-90.08466188949484",
    "latitude": "29.920184315086736",
    "geocoded_column": {
      "latitude": "29.920184315086736",
      "longitude": "-90.08466188949484"
    }
  },
  {
    "service_request": "2024-1146455",
    "request_type": "Trash/Recycling",
    "request_reason": "Repair Trash Cart",
    "date_created": "2024-11-05T17:12:01.000",
    "date_modified": "2024-11-05T17:12:02.000",
    "request_status": "Pending",
    "responsible_agency": "Department of Sanitation",
    "final_address": "528 Jefferson Ave",
    "address_councildis": "A",
    "status": "Assigned to Contractor",
    "contractor": "IV Waste",
    "rowid": "1146455",
    "final_x": "3666392.90637",
    "final_y": "517428.21087",
    "longitude": "-90.11624590475053",
    "latitude": "29.91719780803879",
    "geocoded_column": {
      "latitude": "29.91719780803879",
      "longitude": "-90.11624590475053"
    }
  },
  {
    "service_request": "2024-1146454",
    "request_type": "Trash/Recycling",
    "request_reason": "Missed Trash Pick-Up",
    "date_created": "2024-11-05T17:01:32.000",
    "date_modified": "2024-11-05T17:01:33.000",
    "request_status": "Pending",
    "responsible_agency": "Department of Sanitation",
    "final_address": "4729 Corinne St",
    "address_councildis": "E",
    "status": "Assigned to Contractor",
    "contractor": "Waste Pro",
    "rowid": "1146454",
    "final_x": "3715115.48043",
    "final_y": "556819.672538",
    "longitude": "-89.96096913964354",
    "latitude": "30.023996661919245",
    "geocoded_column": {
      "latitude": "30.023996661919245",
      "longitude": "-89.96096913964354"
    }
  },
  {
    "service_request": "2024-1146453",
    "request_type": "Property Maintenance",
    "request_reason": "Property Maintenance",
    "date_created": "2024-11-05T16:57:50.000",
    "date_modified": "2024-11-05T16:57:50.000",
    "request_status": "Pending",
    "responsible_agency": "Department of Code Enforcement",
    "final_address": "1540 Piety St",
    "address_councildis": "D",
    "status": "Pending",
    "rowid": "1146453",
    "final_x": "3690253.92284",
    "final_y": "537621.487304",
    "longitude": "-90.04021125263198",
    "latitude": "29.972003946347012",
    "geocoded_column": {
      "latitude": "29.972003946347012",
      "longitude": "-90.04021125263198"
    }
  },
  {
    "service_request": "2024-1146452",
    "request_type": "Trash/Recycling",
    "request_reason": "Illegal Dumping",
    "date_created": "2024-11-05T16:55:26.000",
    "date_modified": "2024-11-05T16:55:26.000",
    "request_status": "Pending",
    "responsible_agency": "Department of Sanitation",
    "final_address": "1324 France St",
    "address_councildis": "D",
    "status": "Pending",
    "rowid": "1146452",
    "final_x": "3692586.39165",
    "final_y": "536118.416391",
    "longitude": "-90.0328988416008",
    "latitude": "29.967798448975383",
    "geocoded_column": {
      "latitude": "29.967798448975383",
      "longitude": "-90.0328988416008"
    }
  },
  {
    "service_request": "2024-1146451",
    "request_type": "Trash/Recycling",
    "request_reason": "Illegal Dumping",
    "date_created": "2024-11-05T16:54:03.000",
    "date_modified": "2024-11-05T16:54:03.000",
    "request_status": "Pending",
    "responsible_agency": "Department of Sanitation",
    "final_address": "2103 Baronne St",
    "address_councildis": "B",
    "status": "Pending",
    "rowid": "1146451",
    "final_x": "3677259.61998",
    "final_y": "524722.60198",
    "longitude": "-90.08169437831921",
    "latitude": "29.93693316231773",
    "geocoded_column": {
      "latitude": "29.93693316231773",
      "longitude": "-90.08169437831921"
    }
  },
  {
    "service_request": "2024-1146450",
    "request_type": "General Services",
    "request_reason": "General Service Request",
    "date_created": "2024-11-05T16:31:10.000",
    "date_modified": "2024-11-05T16:31:10.000",
    "request_status": "Pending",
    "responsible_agency": "Orleans Parish Communication District",
    "final_address": "4616 Eastern St",
    "address_councildis": "D",
    "status": "Pending",
    "rowid": "1146450",
    "final_x": "3688016.82089",
    "final_y": "549908.610196",
    "longitude": "-90.0468406845979",
    "latitude": "30.005858365966148",
    "geocoded_column": {
      "latitude": "30.005858365966148",
      "longitude": "-90.0468406845979"
    }
  },
  {
    "service_request": "2024-1146449",
    "request_type": "Trash/Recycling",
    "request_reason": "Replace Trash Cart",
    "date_created": "2024-11-05T16:29:09.000",
    "date_modified": "2024-11-05T16:29:10.000",
    "request_status": "Pending",
    "responsible_agency": "Department of Sanitation",
    "final_address": "4781 Eastern St",
    "address_councildis": "D",
    "status": "Assigned to Contractor",
    "contractor": "IV Waste",
    "rowid": "1146449",
    "final_x": "3688028.8879",
    "final_y": "550987.367381",
    "longitude": "-90.04676429609943",
    "latitude": "30.008824181302796",
    "geocoded_column": {
      "latitude": "30.008824181302796",
      "longitude": "-90.04676429609943"
    }
  },
  {
    "service_request": "2024-1146448",
    "request_type": "Abandoned Vehicles",
    "request_reason": "Abandoned/Junk Vehicles",
    "date_created": "2024-11-05T16:28:44.000",
    "date_modified": "2024-11-05T16:28:44.000",
    "request_status": "Pending",
    "responsible_agency": "Department of Public Works",
    "final_address": "3900 BLK N Rampart St",
    "address_councildis": "C",
    "status": "Pending",
    "rowid": "1146448",
    "final_x": "3691536.67594",
    "final_y": "534907.042178",
    "longitude": "-90.03625716666079",
    "latitude": "29.96450031196257",
    "geocoded_column": {
      "latitude": "29.96450031196257",
      "longitude": "-90.03625716666079"
    }
  },
  {
    "service_request": "2024-1146447",
    "request_type": "Trash/Recycling",
    "request_reason": "Request a Large Item Pick Up",
    "date_created": "2024-11-05T16:27:46.000",
    "date_modified": "2024-11-05T16:27:48.000",
    "request_status": "Pending",
    "responsible_agency": "Department of Sanitation",
    "final_address": "5611 Carlisle Ct",
    "address_councildis": "C",
    "status": "Assigned to Contractor",
    "contractor": "Richards Disposal",
    "rowid": "1146447",
    "final_x": "3704325.8826",
    "final_y": "516511.930869",
    "longitude": "-89.99654783128152",
    "latitude": "29.913515970030517",
    "geocoded_column": {
      "latitude": "29.913515970030517",
      "longitude": "-89.99654783128152"
    }
  },
  {
    "service_request": "2024-1146446",
    "request_type": "Streetlights",
    "request_reason": "Streetlight Outage/Malfunction",
    "date_created": "2024-11-05T16:26:56.000",
    "date_modified": "2024-11-05T16:26:58.000",
    "request_status": "Pending",
    "responsible_agency": "Department of Public Works",
    "final_address": "3518 Dauphine St",
    "address_councildis": "C",
    "status": "Pending",
    "contractor": "Legacy Professional Services",
    "rowid": "1146446",
    "final_x": "3690326.57046",
    "final_y": "534428.833669",
    "longitude": "-90.04009561983545",
    "latitude": "29.96322301578176",
    "geocoded_column": {
      "latitude": "29.96322301578176",
      "longitude": "-90.04009561983545"
    }
  },
  {
    "service_request": "2024-1146445",
    "request_type": "Trash/Recycling",
    "request_reason": "Order Recycling Cart",
    "date_created": "2024-11-05T16:25:22.000",
    "date_modified": "2024-11-05T16:25:22.000",
    "request_status": "Pending",
    "responsible_agency": "Department of Sanitation",
    "final_address": "1735 S Carrollton Ave",
    "address_councildis": "A",
    "status": "Pending",
    "rowid": "1146445",
    "final_x": "3663474.98208",
    "final_y": "529775.207681",
    "longitude": "-90.12504520247383",
    "latitude": "29.951233042216785",
    "geocoded_column": {
      "latitude": "29.951233042216785",
      "longitude": "-90.12504520247383"
    }
  },
  {
    "service_request": "2024-1146444",
    "request_type": "Trash/Recycling",
    "request_reason": "Request a Large Item Pick Up",
    "date_created": "2024-11-05T16:23:33.000",
    "date_modified": "2024-11-05T16:23:34.000",
    "request_status": "Pending",
    "responsible_agency": "Department of Sanitation",
    "final_address": "4604 Magnolia St",
    "address_councildis": "B",
    "status": "Assigned to Contractor",
    "contractor": "IV Waste",
    "rowid": "1146444",
    "final_x": "3669654.78926",
    "final_y": "524623.369276",
    "longitude": "-90.10570665460844",
    "latitude": "29.936886528973236",
    "geocoded_column": {
      "latitude": "29.936886528973236",
      "longitude": "-90.10570665460844"
    }
  },
  {
    "service_request": "2024-1146443",
    "request_type": "Abandoned Vehicles",
    "request_reason": "Abandoned/Junk Vehicles",
    "date_created": "2024-11-05T16:23:31.000",
    "date_modified": "2024-11-05T16:23:31.000",
    "request_status": "Pending",
    "responsible_agency": "Department of Public Works",
    "final_address": "108 Portage Pl",
    "address_councildis": "D",
    "status": "Pending",
    "rowid": "1146443",
    "final_x": "3677882.52462",
    "final_y": "544415.600015",
    "longitude": "-90.07904727533398",
    "latitude": "29.99106349803686",
    "geocoded_column": {
      "latitude": "29.99106349803686",
      "longitude": "-90.07904727533398"
    }
  },
  {
    "service_request": "2024-1146442",
    "request_type": "Trash/Recycling",
    "request_reason": "Replace Trash Cart",
    "date_created": "2024-11-05T16:18:57.000",
    "date_modified": "2024-11-05T16:18:58.000",
    "request_status": "Pending",
    "responsible_agency": "Department of Sanitation",
    "final_address": "6563 Bellaire Dr",
    "address_councildis": "A",
    "status": "Assigned to Contractor",
    "contractor": "IV Waste",
    "rowid": "1146442",
    "final_x": "3664574.53018",
    "final_y": "551822.732374",
    "longitude": "-90.12083670948256",
    "latitude": "30.011824408618367",
    "geocoded_column": {
      "latitude": "30.011824408618367",
      "longitude": "-90.12083670948256"
    }
  },
  {
    "service_request": "2024-1146441",
    "request_type": "Trash/Recycling",
    "request_reason": "Missed Trash Pick-Up",
    "date_created": "2024-11-05T16:17:40.000",
    "date_modified": "2024-11-05T16:40:50.000",
    "case_close_date": "2024-11-05T10:40:50.000",
    "request_status": "Closed",
    "responsible_agency": "Department of Sanitation",
    "final_address": "600 BLK N Carrollton Ave",
    "address_councildis": "A",
    "status": "Invalid Request",
    "contractor": "IV Waste",
    "contractor_action": "Invalid Request",
    "rowid": "1146441",
    "final_x": "3672657.20189",
    "final_y": "539965.014018",
    "longitude": "-90.09570472355858",
    "latitude": "29.978982156578734",
    "geocoded_column": {
      "latitude": "29.978982156578734",
      "longitude": "-90.09570472355858"
    }
  },
  {
    "service_request": "2024-1146440",
    "request_type": "Trash/Recycling",
    "request_reason": "Request a Large Item Pick Up",
    "date_created": "2024-11-05T16:17:20.000",
    "date_modified": "2024-11-05T16:20:41.000",
    "request_status": "Pending",
    "responsible_agency": "Department of Sanitation",
    "final_address": "6124 Providence Pl",
    "address_councildis": "D",
    "contractor": "IV Waste",
    "rowid": "1146440",
    "final_x": "3688328.3071",
    "final_y": "556008.284313",
    "longitude": "-90.04564007041843",
    "latitude": "30.02262060033185",
    "geocoded_column": {
      "latitude": "30.02262060033185",
      "longitude": "-90.04564007041843"
    }
  },
  {
    "service_request": "2024-1146439",
    "request_type": "Parks & Parkways",
    "request_reason": "Request Tree Service (Right of Way/Public Property)",
    "date_created": "2024-11-05T16:16:17.000",
    "date_modified": "2024-11-05T16:16:17.000",
    "request_status": "Pending",
    "responsible_agency": "Department of Parks & Parkway",
    "final_address": "6563 Bellaire Dr",
    "address_councildis": "A",
    "status": "Pending",
    "rowid": "1146439",
    "final_x": "3664574.53018",
    "final_y": "551822.732374",
    "longitude": "-90.12083670948256",
    "latitude": "30.011824408618367",
    "geocoded_column": {
      "latitude": "30.011824408618367",
      "longitude": "-90.12083670948256"
    }
  },
  {
    "service_request": "2024-1146438",
    "request_type": "Trash/Recycling",
    "request_reason": "Missed Trash Pick-Up",
    "date_created": "2024-11-05T16:09:03.000",
    "date_modified": "2024-11-05T16:09:04.000",
    "request_status": "Pending",
    "responsible_agency": "Department of Sanitation",
    "final_address": "530 Powder St",
    "address_councildis": "C",
    "status": "Assigned to Contractor",
    "contractor": "Richards Disposal",
    "rowid": "1146438",
    "final_x": "3686029.2127",
    "final_y": "529301.285569",
    "longitude": "-90.05384695877581",
    "latitude": "29.94925668129002",
    "geocoded_column": {
      "latitude": "29.94925668129002",
      "longitude": "-90.05384695877581"
    }
  },
  {
    "service_request": "2024-1146437",
    "request_type": "General Services",
    "request_reason": "General Service Request",
    "date_created": "2024-11-05T15:55:50.000",
    "date_modified": "2024-11-05T15:55:50.000",
    "request_status": "Pending",
    "responsible_agency": "Orleans Parish Communication District",
    "final_address": "815 Desire St",
    "address_councildis": "C",
    "status": "Pending",
    "rowid": "1146437",
    "final_x": "3689964.22646",
    "final_y": "534689.195142",
    "longitude": "-90.04123058513039",
    "latitude": "29.963950158747846",
    "geocoded_column": {
      "latitude": "29.963950158747846",
      "longitude": "-90.04123058513039"
    }
  },
  {
    "service_request": "2024-1146436",
    "request_type": "Trash/Recycling",
    "request_reason": "Repair Trash Cart",
    "date_created": "2024-11-05T15:55:08.000",
    "date_modified": "2024-11-05T15:55:09.000",
    "request_status": "Pending",
    "responsible_agency": "Department of Sanitation",
    "final_address": "715 Eliza St",
    "address_councildis": "C",
    "status": "Assigned to Contractor",
    "contractor": "Richards Disposal",
    "rowid": "1146436",
    "final_x": "3687656.50153",
    "final_y": "529889.345409",
    "longitude": "-90.04868808426075",
    "latitude": "29.950823580485253",
    "geocoded_column": {
      "latitude": "29.950823580485253",
      "longitude": "-90.04868808426075"
    }
  },
  {
    "service_request": "2024-1146435",
    "request_type": "Trash/Recycling",
    "request_reason": "Return Trash Cart",
    "date_created": "2024-11-05T15:54:14.000",
    "date_modified": "2024-11-05T15:54:15.000",
    "request_status": "Pending",
    "responsible_agency": "Department of Sanitation",
    "final_address": "715 Eliza St",
    "address_councildis": "C",
    "status": "Assigned to Contractor",
    "contractor": "Richards Disposal",
    "rowid": "1146435",
    "final_x": "3687656.50153",
    "final_y": "529889.345409",
    "longitude": "-90.04868808426075",
    "latitude": "29.950823580485253",
    "geocoded_column": {
      "latitude": "29.950823580485253",
      "longitude": "-90.04868808426075"
    }
  },
  {
    "service_request": "2024-1146434",
    "request_type": "Healthy Homes",
    "request_reason": "Healthy Homes",
    "date_created": "2024-11-05T15:50:02.000",
    "date_modified": "2024-11-05T15:50:02.000",
    "request_status": "Pending",
    "responsible_agency": "Department of Code Enforcement",
    "final_address": "9424 Hayne Blvd Apt B",
    "address_councildis": "E",
    "status": "Pending",
    "rowid": "1146434",
    "final_x": "3705829.91723",
    "final_y": "564746.926114",
    "longitude": "-89.99001584456528",
    "latitude": "30.04609601507047",
    "geocoded_column": {
      "latitude": "30.04609601507047",
      "longitude": "-89.99001584456528"
    }
  },
  {
    "service_request": "2024-1146433",
    "request_type": "Property Maintenance",
    "request_reason": "Property Maintenance",
    "date_created": "2024-11-05T15:46:25.000",
    "date_modified": "2024-11-05T15:46:25.000",
    "request_status": "Pending",
    "responsible_agency": "Department of Code Enforcement",
    "final_address": "638 Port St",
    "address_councildis": "C",
    "status": "Pending",
    "rowid": "1146433",
    "final_x": "3687006.54146",
    "final_y": "534868.168454",
    "longitude": "-90.05056433111247",
    "latitude": "29.96453364895112",
    "geocoded_column": {
      "latitude": "29.96453364895112",
      "longitude": "-90.05056433111247"
    }
  },
  {
    "service_request": "2024-1146432",
    "request_type": "Roads and Streets",
    "request_reason": "Debris in Driving Lanes",
    "date_created": "2024-11-05T15:42:28.000",
    "date_modified": "2024-11-05T15:42:28.000",
    "request_status": "Pending",
    "responsible_agency": "Department of Public Works",
    "final_address": "625 Montegut St",
    "address_councildis": "C",
    "status": "Pending",
    "rowid": "1146432",
    "final_x": "3688065.54633",
    "final_y": "534487.574917",
    "longitude": "-90.04723357131545",
    "latitude": "29.963454507902664",
    "geocoded_column": {
      "latitude": "29.963454507902664",
      "longitude": "-90.04723357131545"
    }
  },
  {
    "service_request": "2024-1146431",
    "request_type": "Trash/Recycling",
    "request_reason": "Order Trash Cart",
    "date_created": "2024-11-05T15:22:48.000",
    "date_modified": "2024-11-05T15:22:49.000",
    "request_status": "Pending",
    "responsible_agency": "Department of Sanitation",
    "final_address": "1133 N Claiborne Ave",
    "address_councildis": "D",
    "status": "Assigned to Contractor",
    "contractor": "IV Waste",
    "rowid": "1146431",
    "final_x": "3680764.31311",
    "final_y": "536084.820231",
    "longitude": "-90.07023446365271",
    "latitude": "29.968069698986678",
    "geocoded_column": {
      "latitude": "29.968069698986678",
      "longitude": "-90.07023446365271"
    }
  },
  {
    "service_request": "2024-1146430",
    "request_type": "Trash/Recycling",
    "request_reason": "Request a Large Item Pick Up",
    "date_created": "2024-11-05T15:22:46.000",
    "date_modified": "2024-11-05T15:22:48.000",
    "request_status": "Pending",
    "responsible_agency": "Department of Sanitation",
    "final_address": "2310 Jena St",
    "address_councildis": "B",
    "status": "Assigned to Contractor",
    "contractor": "IV Waste",
    "rowid": "1146430",
    "final_x": "3670141.33191",
    "final_y": "523410.229435",
    "longitude": "-90.1042116935193",
    "latitude": "29.933536442982334",
    "geocoded_column": {
      "latitude": "29.933536442982334",
      "longitude": "-90.1042116935193"
    }
  },
  {
    "service_request": "2024-1146429",
    "request_type": "Trash/Recycling",
    "request_reason": "Replace Trash Cart",
    "date_created": "2024-11-05T15:18:56.000",
    "date_modified": "2024-11-05T15:18:57.000",
    "request_status": "Pending",
    "responsible_agency": "Department of Sanitation",
    "final_address": "138 Middle Park Pl",
    "address_councildis": "A",
    "status": "Assigned to Contractor",
    "contractor": "IV Waste",
    "rowid": "1146429",
    "final_x": "3670157.93703",
    "final_y": "544182.81915",
    "longitude": "-90.10345539631139",
    "latitude": "29.990653670409596",
    "geocoded_column": {
      "latitude": "29.990653670409596",
      "longitude": "-90.10345539631139"
    }
  },
  {
    "service_request": "2024-1146428",
    "request_type": "Trash/Recycling",
    "request_reason": "Request a Large Item Pick Up",
    "date_created": "2024-11-05T15:11:58.000",
    "date_modified": "2024-11-05T15:11:59.000",
    "request_status": "Pending",
    "responsible_agency": "Department of Sanitation",
    "final_address": "1735 Amelia St",
    "address_councildis": "B",
    "status": "Assigned to Contractor",
    "contractor": "IV Waste",
    "rowid": "1146428",
    "final_x": "3673012.43054",
    "final_y": "521827.451962",
    "longitude": "-90.09520176751317",
    "latitude": "29.92909932025146",
    "geocoded_column": {
      "latitude": "29.92909932025146",
      "longitude": "-90.09520176751317"
    }
  },
  {
    "service_request": "2024-1146427",
    "request_type": "Trash/Recycling",
    "request_reason": "Request a Large Item Pick Up",
    "date_created": "2024-11-05T15:09:21.000",
    "date_modified": "2024-11-05T15:09:22.000",
    "request_status": "Pending",
    "responsible_agency": "Department of Sanitation",
    "final_address": "1735 Amelia St",
    "address_councildis": "B",
    "status": "Assigned to Contractor",
    "contractor": "IV Waste",
    "rowid": "1146427",
    "final_x": "3673012.43054",
    "final_y": "521827.451962",
    "longitude": "-90.09520176751317",
    "latitude": "29.92909932025146",
    "geocoded_column": {
      "latitude": "29.92909932025146",
      "longitude": "-90.09520176751317"
    }
  },
  {
    "service_request": "2024-1146426",
    "request_type": "Trash/Recycling",
    "request_reason": "Damaged Caused By Contractor",
    "date_created": "2024-11-05T15:08:05.000",
    "date_modified": "2024-11-05T15:08:07.000",
    "request_status": "Pending",
    "responsible_agency": "Department of Sanitation",
    "final_address": "3800 Magellan St",
    "address_councildis": "C",
    "status": "Assigned to Contractor",
    "contractor": "Richards Disposal",
    "rowid": "1146426",
    "final_x": "3698212.95479",
    "final_y": "524288.330172",
    "longitude": "-90.01555974958391",
    "latitude": "29.935093090087246",
    "geocoded_column": {
      "latitude": "29.935093090087246",
      "longitude": "-90.01555974958391"
    }
  },
  {
    "service_request": "2024-1146425",
    "request_type": "Trash/Recycling",
    "request_reason": "Request a Large Item Pick Up",
    "date_created": "2024-11-05T14:59:12.000",
    "date_modified": "2024-11-05T14:59:12.000",
    "request_status": "Pending",
    "responsible_agency": "Department of Sanitation",
    "final_address": "11283 Winrock Dr",
    "address_councildis": "E",
    "status": "Assigned to Contractor",
    "contractor": "Waste Pro",
    "rowid": "1146425",
    "final_x": "3716712.63884",
    "final_y": "561668.571935",
    "longitude": "-89.95573828024344",
    "latitude": "30.037276496200594",
    "geocoded_column": {
      "latitude": "30.037276496200594",
      "longitude": "-89.95573828024344"
    }
  },
  {
    "service_request": "2024-1146424",
    "request_type": "Trash/Recycling",
    "request_reason": "Illegal Dumping",
    "date_created": "2024-11-05T14:55:14.000",
    "date_modified": "2024-11-05T14:55:14.000",
    "request_status": "Pending",
    "responsible_agency": "Department of Sanitation",
    "final_address": "4201 Hamilton St",
    "address_councildis": "A",
    "status": "Pending",
    "rowid": "1146424",
    "final_x": "3666577.53332",
    "final_y": "538621.644233",
    "longitude": "-90.11495183404223",
    "latitude": "29.975467500722594",
    "geocoded_column": {
      "latitude": "29.975467500722594",
      "longitude": "-90.11495183404223"
    }
  },
  {
    "service_request": "2024-1146423",
    "request_type": "Abandoned Vehicles",
    "request_reason": "Abandoned/Junk Vehicles",
    "date_created": "2024-11-05T14:52:59.000",
    "date_modified": "2024-11-05T14:52:59.000",
    "request_status": "Pending",
    "responsible_agency": "Department of Public Works",
    "final_address": "EXPEDITION DR & INTREPID ST",
    "address_councildis": "E",
    "status": "Pending",
    "rowid": "1146423",
    "final_x": "3726392.0",
    "final_y": "571014.58",
    "longitude": "-89.9247866705825",
    "latitude": "30.06265057733194",
    "geocoded_column": {
      "latitude": "30.06265057733194",
      "longitude": "-89.9247866705825"
    }
  },
  {
    "service_request": "2024-1146422",
    "request_type": "Trash/Recycling",
    "request_reason": "Illegal Dumping",
    "date_created": "2024-11-05T14:46:53.000",
    "date_modified": "2024-11-05T14:46:53.000",
    "request_status": "Pending",
    "responsible_agency": "Department of Sanitation",
    "final_address": "4135 Hollygrove St",
    "address_councildis": "A",
    "status": "Pending",
    "rowid": "1146422",
    "final_x": "3666768.25543",
    "final_y": "538303.364937",
    "longitude": "-90.11436017322835",
    "latitude": "29.974586761575406",
    "geocoded_column": {
      "latitude": "29.974586761575406",
      "longitude": "-90.11436017322835"
    }
  },
  {
    "service_request": "2024-1146421",
    "request_type": "Trash/Recycling",
    "request_reason": "Return Recycling Cart",
    "date_created": "2024-11-05T14:39:50.000",
    "date_modified": "2024-11-05T14:39:50.000",
    "request_status": "Pending",
    "responsible_agency": "Department of Sanitation",
    "final_address": "925 N Lopez St",
    "address_councildis": "A",
    "status": "Pending",
    "rowid": "1146421",
    "final_x": "3675802.01352",
    "final_y": "538822.385097",
    "longitude": "-90.0858114841512",
    "latitude": "29.975746545768466",
    "geocoded_column": {
      "latitude": "29.975746545768466",
      "longitude": "-90.0858114841512"
    }
  },
  {
    "service_request": "2024-1146420",
    "request_type": "Trash/Recycling",
    "request_reason": "Illegal Dumping",
    "date_created": "2024-11-05T14:32:48.000",
    "date_modified": "2024-11-05T14:32:48.000",
    "request_status": "Pending",
    "responsible_agency": "Department of Sanitation",
    "final_address": "8916 Pear St",
    "address_councildis": "A",
    "status": "Pending",
    "rowid": "1146420",
    "final_x": "3666892.44436",
    "final_y": "538231.775881",
    "longitude": "-90.11397035886971",
    "latitude": "29.97438628231599",
    "geocoded_column": {
      "latitude": "29.97438628231599",
      "longitude": "-90.11397035886971"
    }
  },
  {
    "service_request": "2024-1146419",
    "request_type": "General Services",
    "request_reason": "General Service Request",
    "date_created": "2024-11-05T14:23:34.000",
    "date_modified": "2024-11-05T14:23:34.000",
    "request_status": "Pending",
    "responsible_agency": "Orleans Parish Communication District",
    "final_address": "1412 S Carrollton Ave",
    "address_councildis": "A",
    "status": "Pending",
    "rowid": "1146419",
    "final_x": "3662544.66087",
    "final_y": "529031.497344",
    "longitude": "-90.12800741269852",
    "latitude": "29.949215020061676",
    "geocoded_column": {
      "latitude": "29.949215020061676",
      "longitude": "-90.12800741269852"
    }
  },
  {
    "service_request": "2024-1146418",
    "request_type": "Trash/Recycling",
    "request_reason": "Request a Large Item Pick Up",
    "date_created": "2024-11-05T14:19:54.000",
    "date_modified": "2024-11-05T14:19:55.000",
    "request_status": "Pending",
    "responsible_agency": "Department of Sanitation",
    "final_address": "4841 Major Dr",
    "address_councildis": "E",
    "status": "Assigned to Contractor",
    "contractor": "Waste Pro",
    "rowid": "1146418",
    "final_x": "3718225.39877",
    "final_y": "557535.123099",
    "longitude": "-89.95111524366727",
    "latitude": "30.02586108227232",
    "geocoded_column": {
      "latitude": "30.02586108227232",
      "longitude": "-89.95111524366727"
    }
  },
  {
    "service_request": "2024-1146417",
    "request_type": "Abandoned Vehicles",
    "request_reason": "Abandoned/Junk Vehicles",
    "date_created": "2024-11-05T14:15:57.000",
    "date_modified": "2024-11-05T14:15:57.000",
    "request_status": "Pending",
    "responsible_agency": "Department of Public Works",
    "final_address": "INTREPID ST & ENDEAVORS CT",
    "address_councildis": "E",
    "status": "Pending",
    "rowid": "1146417",
    "final_x": "3726343.2",
    "final_y": "570759.18",
    "longitude": "-89.92495084974166",
    "latitude": "30.061949985106406",
    "geocoded_column": {
      "latitude": "30.061949985106406",
      "longitude": "-89.92495084974166"
    }
  },
  {
    "service_request": "2024-1146416",
    "request_type": "Trash/Recycling",
    "request_reason": "Request a Large Item Pick Up",
    "date_created": "2024-11-05T14:08:51.000",
    "date_modified": "2024-11-05T14:08:52.000",
    "request_status": "Pending",
    "responsible_agency": "Department of Sanitation",
    "final_address": "3820 Ursula Spencer Way",
    "address_councildis": "D",
    "status": "Assigned to Contractor",
    "contractor": "IV Waste",
    "rowid": "1146416",
    "final_x": "3693303.23523",
    "final_y": "545981.143952",
    "longitude": "-90.03028083710898",
    "latitude": "29.994895016396505",
    "geocoded_column": {
      "latitude": "29.994895016396505",
      "longitude": "-90.03028083710898"
    }
  },
  {
    "service_request": "2024-1146415",
    "request_type": "Trash/Recycling",
    "request_reason": "Repair Recycling Cart",
    "date_created": "2024-11-05T14:07:12.000",
    "date_modified": "2024-11-05T14:07:12.000",
    "request_status": "Pending",
    "responsible_agency": "Department of Sanitation",
    "final_address": "1742 Oriole St",
    "address_councildis": "D",
    "status": "Pending",
    "rowid": "1146415",
    "final_x": "3678716.22331",
    "final_y": "558208.878299",
    "longitude": "-90.07593570007049",
    "latitude": "30.02896494255742",
    "geocoded_column": {
      "latitude": "30.02896494255742",
      "longitude": "-90.07593570007049"
    }
  },
  {
    "service_request": "2024-1146414",
    "request_type": "Trash/Recycling",
    "request_reason": "Start Trash Service",
    "date_created": "2024-11-05T14:04:49.000",
    "date_modified": "2024-11-05T14:04:50.000",
    "request_status": "Pending",
    "responsible_agency": "Department of Sanitation",
    "final_address": "7201 Bullard Ave",
    "address_councildis": "E",
    "status": "Assigned to Contractor",
    "contractor": "Waste Pro",
    "rowid": "1146414",
    "final_x": "3714339.58027",
    "final_y": "565886.572771",
    "longitude": "-89.96307820220217",
    "latitude": "30.048952525849824",
    "geocoded_column": {
      "latitude": "30.048952525849824",
      "longitude": "-89.96307820220217"
    }
  },
  {
    "service_request": "2024-1146413",
    "request_type": "Trash/Recycling",
    "request_reason": "Illegal Dumping",
    "date_created": "2024-11-05T13:56:46.000",
    "date_modified": "2024-11-05T13:56:46.000",
    "request_status": "Pending",
    "responsible_agency": "Department of Sanitation",
    "final_address": "4728 Banks St",
    "address_councildis": "A",
    "status": "Pending",
    "rowid": "1146413",
    "final_x": "3668153.66983",
    "final_y": "538975.08801",
    "longitude": "-90.10996203185088",
    "latitude": "29.976393176141922",
    "geocoded_column": {
      "latitude": "29.976393176141922",
      "longitude": "-90.10996203185088"
    }
  },
  {
    "service_request": "2024-1146412",
    "request_type": "Trash/Recycling",
    "request_reason": "Request a Large Item Pick Up",
    "date_created": "2024-11-05T13:28:07.000",
    "date_modified": "2024-11-05T13:28:08.000",
    "request_status": "Pending",
    "responsible_agency": "Department of Sanitation",
    "final_address": "3615 Elysian Fields Ave",
    "address_councildis": "D",
    "status": "Assigned to Contractor",
    "contractor": "IV Waste",
    "rowid": "1146412",
    "final_x": "3684377.11714",
    "final_y": "546015.30152",
    "longitude": "-90.0584761911619",
    "latitude": "29.99526502865968",
    "geocoded_column": {
      "latitude": "29.99526502865968",
      "longitude": "-90.0584761911619"
    }
  },
  {
    "service_request": "2024-1146411",
    "request_type": "Trash/Recycling",
    "request_reason": "Illegal Dumping",
    "date_created": "2024-11-05T13:15:42.000",
    "date_modified": "2024-11-05T13:15:42.000",
    "request_status": "Pending",
    "responsible_agency": "Department of Sanitation",
    "final_address": "1107 Cambronne St",
    "address_councildis": "A",
    "status": "Pending",
    "rowid": "1146411",
    "final_x": "3661015.8441",
    "final_y": "528865.143104",
    "longitude": "-90.13284009077154",
    "latitude": "29.94880173033053",
    "geocoded_column": {
      "latitude": "29.94880173033053",
      "longitude": "-90.13284009077154"
    }
  },
  {
    "service_request": "2024-1146410",
    "request_type": "Abandoned Vehicles",
    "request_reason": "Abandoned/Junk Vehicles",
    "date_created": "2024-11-05T13:09:38.000",
    "date_modified": "2024-11-05T13:09:38.000",
    "request_status": "Pending",
    "responsible_agency": "Department of Public Works",
    "final_address": "1300 BLK S Saratoga St",
    "address_councildis": "B",
    "status": "Pending",
    "rowid": "1146410",
    "final_x": "3677790.17621",
    "final_y": "526967.38811",
    "longitude": "-90.07994186264075",
    "latitude": "29.943089636833847",
    "geocoded_column": {
      "latitude": "29.943089636833847",
      "longitude": "-90.07994186264075"
    }
  },
  {
    "service_request": "2024-1146409",
    "request_type": "Trash/Recycling",
    "request_reason": "Request a Large Item Pick Up",
    "date_created": "2024-11-05T13:08:17.000",
    "date_modified": "2024-11-05T13:08:18.000",
    "request_status": "Pending",
    "responsible_agency": "Department of Sanitation",
    "final_address": "7520 Brevard Ave",
    "address_councildis": "E",
    "status": "Assigned to Contractor",
    "contractor": "Waste Pro",
    "rowid": "1146409",
    "final_x": "3706483.06174",
    "final_y": "563141.610464",
    "longitude": "-89.98801116170256",
    "latitude": "30.041660965434193",
    "geocoded_column": {
      "latitude": "30.041660965434193",
      "longitude": "-89.98801116170256"
    }
  },
  {
    "service_request": "2024-1146408",
    "request_type": "Traffic Signals",
    "request_reason": "Traffic Signal Malfunctioning or Damaged",
    "date_created": "2024-11-05T13:08:07.000",
    "date_modified": "2024-11-05T13:08:07.000",
    "request_status": "Pending",
    "responsible_agency": "Department of Public Works",
    "final_address": "600 Canal St",
    "address_councildis": "B",
    "status": "Pending",
    "rowid": "1146408",
    "final_x": "3681390.76431",
    "final_y": "530409.599746",
    "longitude": "-90.06845395328503",
    "latitude": "29.952445774072807",
    "geocoded_column": {
      "latitude": "29.952445774072807",
      "longitude": "-90.06845395328503"
    }
  },
  {
    "service_request": "2024-1146407",
    "request_type": "Drainage",
    "request_reason": "Catch Basin Clogged",
    "date_created": "2024-11-05T13:06:51.000",
    "date_modified": "2024-11-05T13:06:51.000",
    "request_status": "Pending",
    "responsible_agency": "Department of Public Works",
    "final_address": "3801 Washington Ave",
    "address_councildis": "B",
    "status": "Pending",
    "rowid": "1146407",
    "final_x": "3671692.62971",
    "final_y": "529000.389696",
    "longitude": "-90.09912423171585",
    "latitude": "29.948861716589217",
    "geocoded_column": {
      "latitude": "29.948861716589217",
      "longitude": "-90.09912423171585"
    }
  },
  {
    "service_request": "2024-1146406",
    "request_type": "General Services",
    "request_reason": "General Service Request",
    "date_created": "2024-11-05T12:58:51.000",
    "date_modified": "2024-11-05T12:58:51.000",
    "request_status": "Pending",
    "responsible_agency": "Orleans Parish Communication District",
    "final_address": "New Orleans,LA",
    "status": "Pending",
    "rowid": "1146406",
    "longitude": "0.0",
    "latitude": "0.0",
    "geocoded_column": {
      "latitude": "0.0",
      "longitude": "0.0"
    }
  },
  {
    "service_request": "2024-1146405",
    "request_type": "Streetlights",
    "request_reason": "New Streetlight Request",
    "date_created": "2024-11-05T12:58:08.000",
    "date_modified": "2024-11-05T12:58:10.000",
    "request_status": "Pending",
    "responsible_agency": "Department of Public Works",
    "final_address": "6339 Catina St",
    "address_councildis": "A",
    "status": "Pending",
    "contractor": "Legacy Professional Services",
    "rowid": "1146405",
    "final_x": "3666986.67412",
    "final_y": "549783.35874",
    "longitude": "-90.11328430347915",
    "latitude": "30.00614643829945",
    "geocoded_column": {
      "latitude": "30.00614643829945",
      "longitude": "-90.11328430347915"
    }
  },
  {
    "service_request": "2024-1146404",
    "request_type": "Trash/Recycling",
    "request_reason": "Repair Recycling Cart",
    "date_created": "2024-11-05T12:56:58.000",
    "date_modified": "2024-11-05T12:56:58.000",
    "request_status": "Pending",
    "responsible_agency": "Department of Sanitation",
    "final_address": "1917 Gallier St",
    "address_councildis": "D",
    "status": "Pending",
    "rowid": "1146404",
    "final_x": "3691294.99004",
    "final_y": "538781.171337",
    "longitude": "-90.03688196699",
    "latitude": "29.97516032015437",
    "geocoded_column": {
      "latitude": "29.97516032015437",
      "longitude": "-90.03688196699"
    }
  },
  {
    "service_request": "2024-1146403",
    "request_type": "Trash/Recycling",
    "request_reason": "Repair Trash Cart",
    "date_created": "2024-11-05T12:55:00.000",
    "date_modified": "2024-11-05T12:55:00.000",
    "request_status": "Pending",
    "responsible_agency": "Department of Sanitation",
    "final_address": "6339 Catina St",
    "address_councildis": "A",
    "status": "Assigned to Contractor",
    "contractor": "IV Waste",
    "rowid": "1146403",
    "final_x": "3666986.67412",
    "final_y": "549783.35874",
    "longitude": "-90.11328430347915",
    "latitude": "30.00614643829945",
    "geocoded_column": {
      "latitude": "30.00614643829945",
      "longitude": "-90.11328430347915"
    }
  },
  {
    "service_request": "2024-1146402",
    "request_type": "Roads and Streets",
    "request_reason": "Pothole",
    "date_created": "2024-11-05T12:52:08.000",
    "date_modified": "2024-11-05T12:52:08.000",
    "request_status": "Pending",
    "responsible_agency": "Department of Public Works",
    "final_address": "1639 Independence St",
    "address_councildis": "D",
    "status": "Pending",
    "rowid": "1146402",
    "final_x": "3691537.72176",
    "final_y": "537719.541768",
    "longitude": "-90.0361533168936",
    "latitude": "29.97223366161637",
    "geocoded_column": {
      "latitude": "29.97223366161637",
      "longitude": "-90.0361533168936"
    }
  },
  {
    "service_request": "2024-1146401",
    "request_type": "Drainage",
    "request_reason": "Street Flooding",
    "date_created": "2024-11-05T12:52:07.000",
    "date_modified": "2024-11-05T12:52:07.000",
    "request_status": "Pending",
    "responsible_agency": "Department of Public Works",
    "final_address": "1100 Milton St",
    "address_councildis": "D",
    "status": "Pending",
    "rowid": "1146401",
    "final_x": "3676273.71758",
    "final_y": "545961.403984",
    "longitude": "-90.08407588901012",
    "latitude": "29.995362243362468",
    "geocoded_column": {
      "latitude": "29.995362243362468",
      "longitude": "-90.08407588901012"
    }
  },
  {
    "service_request": "2024-1146400",
    "request_type": "Trash/Recycling",
    "request_reason": "Order Recycling Cart",
    "date_created": "2024-11-05T12:50:52.000",
    "date_modified": "2024-11-05T12:50:52.000",
    "request_status": "Pending",
    "responsible_agency": "Department of Sanitation",
    "final_address": "6030 Canal Blvd",
    "address_councildis": "A",
    "status": "Pending",
    "rowid": "1146400",
    "final_x": "3668368.47297",
    "final_y": "547544.515346",
    "longitude": "-90.10899442661419",
    "latitude": "29.999949869203796",
    "geocoded_column": {
      "latitude": "29.999949869203796",
      "longitude": "-90.10899442661419"
    }
  },
  {
    "service_request": "2024-1146399",
    "request_type": "Roads and Streets",
    "request_reason": "Pothole",
    "date_created": "2024-11-05T12:50:17.000",
    "date_modified": "2024-11-05T12:50:17.000",
    "request_status": "Pending",
    "responsible_agency": "Department of Public Works",
    "final_address": "2319 Prentiss Ave",
    "address_councildis": "D",
    "status": "Pending",
    "rowid": "1146399",
    "final_x": "3684512.41442",
    "final_y": "553974.389208",
    "longitude": "-90.05776891814072",
    "latitude": "30.017145497681515",
    "geocoded_column": {
      "latitude": "30.017145497681515",
      "longitude": "-90.05776891814072"
    }
  },
  {
    "service_request": "2024-1146398",
    "request_type": "Traffic Signals",
    "request_reason": "Traffic Signal Malfunctioning or Damaged",
    "date_created": "2024-11-05T12:46:17.000",
    "date_modified": "2024-11-05T12:46:17.000",
    "request_status": "Pending",
    "responsible_agency": "Department of Public Works",
    "final_address": "5700 BLK Elysian Fields Ave",
    "address_councildis": "D",
    "status": "Pending",
    "rowid": "1146398",
    "final_x": "3683511.67658",
    "final_y": "554025.164703",
    "longitude": "-90.0609290555504",
    "latitude": "30.017315705633443",
    "geocoded_column": {
      "latitude": "30.017315705633443",
      "longitude": "-90.0609290555504"
    }
  },
  {
    "service_request": "2024-1146397",
    "request_type": "Utility Poles",
    "request_reason": "Wires Sagging/Hanging Low",
    "date_created": "2024-11-05T12:40:02.000",
    "date_modified": "2024-11-05T12:40:11.000",
    "request_status": "Pending",
    "responsible_agency": "Utility Company Collective",
    "final_address": "3520 Dryades St",
    "address_councildis": "B",
    "status": "Pending",
    "rowid": "1146397",
    "final_x": "3673277.94305",
    "final_y": "522195.27545",
    "longitude": "-90.09435103948925",
    "latitude": "29.930102824739105",
    "geocoded_column": {
      "latitude": "29.930102824739105",
      "longitude": "-90.09435103948925"
    }
  },
  {
    "service_request": "2024-1146396",
    "request_type": "Property Maintenance",
    "request_reason": "Property Maintenance",
    "date_created": "2024-11-05T12:38:45.000",
    "date_modified": "2024-11-05T12:38:45.000",
    "request_status": "Pending",
    "responsible_agency": "Department of Code Enforcement",
    "final_address": "1326 Lamanche St",
    "address_councildis": "E",
    "status": "Pending",
    "rowid": "1146396",
    "final_x": "3698568.89149",
    "final_y": "534633.89671",
    "longitude": "-90.01406002288743",
    "latitude": "29.963528502856104",
    "geocoded_column": {
      "latitude": "29.963528502856104",
      "longitude": "-90.01406002288743"
    }
  },
  {
    "service_request": "2024-1146395",
    "request_type": "Trash/Recycling",
    "request_reason": "Return Trash Cart",
    "date_created": "2024-11-05T12:37:54.000",
    "date_modified": "2024-11-05T12:37:54.000",
    "request_status": "Pending",
    "responsible_agency": "Department of Sanitation",
    "final_address": "3618 Danneel St",
    "address_councildis": "B",
    "status": "Assigned to Contractor",
    "contractor": "IV Waste",
    "rowid": "1146395",
    "final_x": "3672876.32276",
    "final_y": "522509.312634",
    "longitude": "-90.09560818292567",
    "latitude": "29.930978260482284",
    "geocoded_column": {
      "latitude": "29.930978260482284",
      "longitude": "-90.09560818292567"
    }
  },
  {
    "service_request": "2024-1146394",
    "request_type": "Trash/Recycling",
    "request_reason": "Replace Recycling Cart",
    "date_created": "2024-11-05T12:35:57.000",
    "date_modified": "2024-11-05T12:35:57.000",
    "request_status": "Pending",
    "responsible_agency": "Department of Sanitation",
    "final_address": "3500 Danneel St",
    "address_councildis": "B",
    "status": "Pending",
    "rowid": "1146394",
    "final_x": "3673225.53096",
    "final_y": "522661.39481",
    "longitude": "-90.09450058737058",
    "latitude": "29.931386060625425",
    "geocoded_column": {
      "latitude": "29.931386060625425",
      "longitude": "-90.09450058737058"
    }
  },
  {
    "service_request": "2024-1146393",
    "request_type": "Drainage",
    "request_reason": "Street Flooding",
    "date_created": "2024-11-05T12:27:13.000",
    "date_modified": "2024-11-05T12:27:13.000",
    "request_status": "Pending",
    "responsible_agency": "Department of Public Works",
    "final_address": "5800 BLK Painters St",
    "address_councildis": "D",
    "status": "Pending",
    "rowid": "1146393",
    "final_x": "3686105.98044",
    "final_y": "554610.550671",
    "longitude": "-90.05271144626259",
    "latitude": "30.018845833032096",
    "geocoded_column": {
      "latitude": "30.018845833032096",
      "longitude": "-90.05271144626259"
    }
  },
  {
    "service_request": "2024-1146392",
    "request_type": "Trash/Recycling",
    "request_reason": "Request a Large Item Pick Up",
    "date_created": "2024-11-05T12:25:31.000",
    "date_modified": "2024-11-05T12:25:32.000",
    "request_status": "Pending",
    "responsible_agency": "Department of Sanitation",
    "final_address": "5387 Chamberlain Dr",
    "address_councildis": "D",
    "status": "Assigned to Contractor",
    "contractor": "IV Waste",
    "rowid": "1146392",
    "final_x": "3679565.25339",
    "final_y": "552257.994902",
    "longitude": "-90.07345955401263",
    "latitude": "30.012576535596985",
    "geocoded_column": {
      "latitude": "30.012576535596985",
      "longitude": "-90.07345955401263"
    }
  },
  {
    "service_request": "2024-1146391",
    "request_type": "General Services",
    "request_reason": "General Service Request",
    "date_created": "2024-11-05T12:24:35.000",
    "date_modified": "2024-11-05T12:24:35.000",
    "request_status": "Pending",
    "responsible_agency": "Orleans Parish Communication District",
    "final_address": "N DERBIGNY ST & MARIGNY ST",
    "address_councildis": "D",
    "status": "Pending",
    "rowid": "1146391",
    "final_x": "3685237.7",
    "final_y": "538545.98",
    "longitude": "-90.05602072250586",
    "latitude": "29.97470068248653",
    "geocoded_column": {
      "latitude": "29.97470068248653",
      "longitude": "-90.05602072250586"
    }
  },
  {
    "service_request": "2024-1146390",
    "request_type": "Streetlights",
    "request_reason": "Streetlight Outage/Malfunction",
    "date_created": "2024-11-05T12:21:45.000",
    "date_modified": "2024-11-05T12:21:46.000",
    "request_status": "Pending",
    "responsible_agency": "Department of Public Works",
    "final_address": "7424 General Haig St",
    "address_councildis": "D",
    "status": "Pending",
    "contractor": "Legacy Professional Services",
    "rowid": "1146390",
    "final_x": "3671219.06151",
    "final_y": "555706.288985",
    "longitude": "-90.09971167496414",
    "latitude": "30.02230780513205",
    "geocoded_column": {
      "latitude": "30.02230780513205",
      "longitude": "-90.09971167496414"
    }
  },
  {
    "service_request": "2024-1146389",
    "request_type": "Roads and Streets",
    "request_reason": "Sidewalk Damaged or Missing",
    "date_created": "2024-11-05T12:19:57.000",
    "date_modified": "2024-11-05T12:19:57.000",
    "request_status": "Pending",
    "responsible_agency": "Department of Public Works",
    "final_address": "7611 Freret St",
    "address_councildis": "A",
    "status": "Pending",
    "rowid": "1146389",
    "final_x": "3662763.66707",
    "final_y": "526755.851838",
    "longitude": "-90.12739153119163",
    "latitude": "29.942951387199336",
    "geocoded_column": {
      "latitude": "29.942951387199336",
      "longitude": "-90.12739153119163"
    }
  },
  {
    "service_request": "2024-1146388",
    "request_type": "Alley Ways",
    "request_reason": "Alley Way Regrading",
    "date_created": "2024-11-05T12:02:20.000",
    "date_modified": "2024-11-05T12:02:20.000",
    "request_status": "Pending",
    "responsible_agency": "Department of Public Works",
    "final_address": "6030 Canal Blvd",
    "address_councildis": "A",
    "status": "Pending",
    "rowid": "1146388",
    "final_x": "3668368.47297",
    "final_y": "547544.515346",
    "longitude": "-90.10899442661419",
    "latitude": "29.999949869203796",
    "geocoded_column": {
      "latitude": "29.999949869203796",
      "longitude": "-90.10899442661419"
    }
  },
  {
    "service_request": "2024-1146387",
    "request_type": "Streetlights",
    "request_reason": "Streetlight Outage/Malfunction",
    "date_created": "2024-11-05T11:58:38.000",
    "date_modified": "2024-11-05T11:58:39.000",
    "request_status": "Pending",
    "responsible_agency": "Department of Public Works",
    "final_address": "7424 General Haig St",
    "address_councildis": "D",
    "status": "Pending",
    "contractor": "Legacy Professional Services",
    "rowid": "1146387",
    "final_x": "3671219.06151",
    "final_y": "555706.288985",
    "longitude": "-90.09971167496414",
    "latitude": "30.02230780513205",
    "geocoded_column": {
      "latitude": "30.02230780513205",
      "longitude": "-90.09971167496414"
    }
  },
  {
    "service_request": "2024-1146386",
    "request_type": "Roads and Streets",
    "request_reason": "Debris in Driving Lanes",
    "date_created": "2024-11-05T11:56:33.000",
    "date_modified": "2024-11-05T11:56:33.000",
    "request_status": "Pending",
    "responsible_agency": "Department of Public Works",
    "final_address": "6046 Pines Blvd",
    "address_councildis": "D",
    "status": "Pending",
    "rowid": "1146386",
    "final_x": "3696185.44323",
    "final_y": "556057.734681",
    "longitude": "-90.02081170516817",
    "latitude": "30.022511441711345",
    "geocoded_column": {
      "latitude": "30.022511441711345",
      "longitude": "-90.02081170516817"
    }
  },
  {
    "service_request": "2024-1146385",
    "request_type": "Trash/Recycling",
    "request_reason": "Request a Large Item Pick Up",
    "date_created": "2024-11-05T11:48:28.000",
    "date_modified": "2024-11-05T15:10:07.000",
    "case_close_date": "2024-11-05T09:10:07.000",
    "request_status": "Closed",
    "responsible_agency": "Department of Sanitation",
    "final_address": "5116 Basinview Dr",
    "address_councildis": "E",
    "status": "Duplicate Request",
    "contractor": "Waste Pro",
    "contractor_action": "Duplicate",
    "rowid": "1146385",
    "final_x": "3698546.13194",
    "final_y": "556236.299482",
    "longitude": "-90.01334603623096",
    "latitude": "30.02292786309006",
    "geocoded_column": {
      "latitude": "30.02292786309006",
      "longitude": "-90.01334603623096"
    }
  },
  {
    "service_request": "2024-1146384",
    "request_type": "Abandoned Vehicles",
    "request_reason": "Abandoned/Junk Vehicles",
    "date_created": "2024-11-05T11:46:27.000",
    "date_modified": "2024-11-05T11:46:27.000",
    "request_status": "Pending",
    "responsible_agency": "Department of Public Works",
    "final_address": "1300 BLK S Saratoga St",
    "address_councildis": "B",
    "status": "Pending",
    "rowid": "1146384",
    "final_x": "3677790.17621",
    "final_y": "526967.38811",
    "longitude": "-90.07994186264075",
    "latitude": "29.943089636833847",
    "geocoded_column": {
      "latitude": "29.943089636833847",
      "longitude": "-90.07994186264075"
    }
  },
  {
    "service_request": "2024-1146383",
    "request_type": "Trash/Recycling",
    "request_reason": "Request a Large Item Pick Up",
    "date_created": "2024-11-05T11:44:29.000",
    "date_modified": "2024-11-05T11:44:30.000",
    "request_status": "Pending",
    "responsible_agency": "Department of Sanitation",
    "final_address": "5116 Basinview Dr",
    "address_councildis": "E",
    "status": "Assigned to Contractor",
    "contractor": "Waste Pro",
    "rowid": "1146383",
    "final_x": "3698546.13194",
    "final_y": "556236.299482",
    "longitude": "-90.01334603623096",
    "latitude": "30.02292786309006",
    "geocoded_column": {
      "latitude": "30.02292786309006",
      "longitude": "-90.01334603623096"
    }
  },
  {
    "service_request": "2024-1146382",
    "request_type": "Parks & Parkways",
    "request_reason": "Request Tree Service (Right of Way/Public Property)",
    "date_created": "2024-11-05T11:34:59.000",
    "date_modified": "2024-11-05T11:34:59.000",
    "request_status": "Pending",
    "responsible_agency": "Department of Parks & Parkway",
    "final_address": "4514 Montegut Dr",
    "address_councildis": "D",
    "status": "Pending",
    "rowid": "1146382",
    "final_x": "3690059.70172",
    "final_y": "550086.6685",
    "longitude": "-90.04038041954071",
    "latitude": "30.006284735827627",
    "geocoded_column": {
      "latitude": "30.006284735827627",
      "longitude": "-90.04038041954071"
    }
  },
  {
    "service_request": "2024-1146381",
    "request_type": "Roads and Streets",
    "request_reason": "Sidewalk Damaged or Missing",
    "date_created": "2024-11-05T11:34:49.000",
    "date_modified": "2024-11-05T11:34:49.000",
    "request_status": "Pending",
    "responsible_agency": "Department of Public Works",
    "final_address": "7613 Freret St",
    "address_councildis": "A",
    "status": "Pending",
    "rowid": "1146381",
    "final_x": "3662751.72115",
    "final_y": "526768.912446",
    "longitude": "-90.12742881357703",
    "latitude": "29.942987645401846",
    "geocoded_column": {
      "latitude": "29.942987645401846",
      "longitude": "-90.12742881357703"
    }
  },
  {
    "service_request": "2024-1146380",
    "request_type": "Trash/Recycling",
    "request_reason": "Order Recycling Cart",
    "date_created": "2024-11-05T11:20:09.000",
    "date_modified": "2024-11-05T11:20:09.000",
    "request_status": "Pending",
    "responsible_agency": "Department of Sanitation",
    "final_address": "7518 Oak St",
    "address_councildis": "A",
    "status": "Pending",
    "rowid": "1146380",
    "final_x": "3663386.32083",
    "final_y": "527039.44179",
    "longitude": "-90.12541621401822",
    "latitude": "29.943713135267256",
    "geocoded_column": {
      "latitude": "29.943713135267256",
      "longitude": "-90.12541621401822"
    }
  },
  {
    "service_request": "2024-1146379",
    "request_type": "Trash/Recycling",
    "request_reason": "Request a Large Item Pick Up",
    "date_created": "2024-11-05T11:12:04.000",
    "date_modified": "2024-11-05T11:41:11.000",
    "request_status": "Pending",
    "responsible_agency": "Department of Sanitation",
    "final_address": "5168 desire dr",
    "address_councildis": "D",
    "status": "Assigned to Contractor",
    "contractor": "IV Waste",
    "rowid": "1146379",
    "final_x": "3691345.73014",
    "final_y": "552939.682391",
    "longitude": "-90.03621551896943",
    "latitude": "30.014089505645362",
    "geocoded_column": {
      "latitude": "30.014089505645362",
      "longitude": "-90.03621551896943"
    }
  },
  {
    "service_request": "2024-1146378",
    "request_type": "Trash/Recycling",
    "request_reason": "Request a Large Item Pick Up",
    "date_created": "2024-11-05T11:07:13.000",
    "date_modified": "2024-11-05T11:07:16.000",
    "request_status": "Pending",
    "responsible_agency": "Department of Sanitation",
    "final_address": "1820 Urquhart St",
    "address_councildis": "C",
    "status": "Assigned to Contractor",
    "contractor": "IV Waste",
    "rowid": "1146378",
    "final_x": "3683646.75151",
    "final_y": "536832.958536",
    "longitude": "-90.06110539401739",
    "latitude": "29.97003913767136",
    "geocoded_column": {
      "latitude": "29.97003913767136",
      "longitude": "-90.06110539401739"
    }
  },
  {
    "service_request": "2024-1146377",
    "request_type": "Drainage",
    "request_reason": "Catch Basin Clogged",
    "date_created": "2024-11-05T11:04:37.000",
    "date_modified": "2024-11-05T11:04:37.000",
    "request_status": "Pending",
    "responsible_agency": "Department of Public Works",
    "final_address": "5530 Willow St",
    "address_councildis": "A",
    "status": "Pending",
    "rowid": "1146377",
    "final_x": "3667642.75207",
    "final_y": "525376.073405",
    "longitude": "-90.11203345269419",
    "latitude": "29.939015343587098",
    "geocoded_column": {
      "latitude": "29.939015343587098",
      "longitude": "-90.11203345269419"
    }
  },
  {
    "service_request": "2024-1146376",
    "request_type": "Trash/Recycling",
    "request_reason": "Illegal Dumping",
    "date_created": "2024-11-05T11:02:35.000",
    "date_modified": "2024-11-05T11:02:35.000",
    "request_status": "Pending",
    "responsible_agency": "Department of Sanitation",
    "final_address": "2530 S Miro St",
    "address_councildis": "B",
    "status": "Pending",
    "rowid": "1146376",
    "final_x": "3672626.87252",
    "final_y": "528768.478656",
    "longitude": "-90.09618232555557",
    "latitude": "29.94819633477876",
    "geocoded_column": {
      "latitude": "29.94819633477876",
      "longitude": "-90.09618232555557"
    }
  },
  {
    "service_request": "2024-1146375",
    "request_type": "Trash/Recycling",
    "request_reason": "Missed Trash Pick-Up",
    "date_created": "2024-11-05T11:00:45.000",
    "date_modified": "2024-11-05T11:15:03.000",
    "case_close_date": "2024-11-05T05:15:03.000",
    "request_status": "Closed",
    "responsible_agency": "Department of Sanitation",
    "final_address": "4034 Hollygrove St",
    "address_councildis": "A",
    "status": "Invalid Request",
    "contractor": "IV Waste",
    "contractor_action": "Invalid",
    "rowid": "1146375",
    "final_x": "3666460.58145",
    "final_y": "538127.919433",
    "longitude": "-90.1153377763723",
    "latitude": "29.974113341408575",
    "geocoded_column": {
      "latitude": "29.974113341408575",
      "longitude": "-90.1153377763723"
    }
  },
  {
    "service_request": "2024-1146374",
    "request_type": "General Services",
    "request_reason": "General Service Request",
    "date_created": "2024-11-05T11:00:42.000",
    "date_modified": "2024-11-05T11:00:42.000",
    "request_status": "Pending",
    "responsible_agency": "Orleans Parish Communication District",
    "final_address": "PRENTISS AVE & PIETY DR",
    "address_councildis": "D",
    "status": "Pending",
    "rowid": "1146374",
    "final_x": "3690587.0",
    "final_y": "554176.48",
    "longitude": "-90.03856855936904",
    "latitude": "30.017513834486945",
    "geocoded_column": {
      "latitude": "30.017513834486945",
      "longitude": "-90.03856855936904"
    }
  },
  {
    "service_request": "2024-1146373",
    "request_type": "Trash/Recycling",
    "request_reason": "Replace Trash Cart",
    "date_created": "2024-11-05T10:59:08.000",
    "date_modified": "2024-11-05T10:59:09.000",
    "request_status": "Pending",
    "responsible_agency": "Department of Sanitation",
    "final_address": "1216 Short St",
    "address_councildis": "A",
    "status": "Assigned to Contractor",
    "contractor": "IV Waste",
    "rowid": "1146373",
    "final_x": "3662387.34931",
    "final_y": "528227.16576",
    "longitude": "-90.1285308203422",
    "latitude": "29.947007915296023",
    "geocoded_column": {
      "latitude": "29.947007915296023",
      "longitude": "-90.1285308203422"
    }
  },
  {
    "service_request": "2024-1146372",
    "request_type": "Parks & Parkways",
    "request_reason": "Request Tree Service (Right of Way/Public Property)",
    "date_created": "2024-11-05T10:57:17.000",
    "date_modified": "2024-11-05T10:57:17.000",
    "request_status": "Pending",
    "responsible_agency": "Department of Parks & Parkway",
    "final_address": " & BALDWIN ST",
    "address_councildis": "D",
    "status": "Pending",
    "rowid": "1146372",
    "final_x": "3687880.8",
    "final_y": "560035.64",
    "longitude": "-90.04691121641319",
    "latitude": "30.03370814054373",
    "geocoded_column": {
      "latitude": "30.03370814054373",
      "longitude": "-90.04691121641319"
    }
  },
  {
    "service_request": "2024-1146371",
    "request_type": "Trash/Recycling",
    "request_reason": "Request a Large Item Pick Up",
    "date_created": "2024-11-05T10:48:49.000",
    "date_modified": "2024-11-05T10:49:58.000",
    "request_status": "Pending",
    "responsible_agency": "Department of Sanitation",
    "final_address": "7350 W Laverne St",
    "address_councildis": "D",
    "status": "Assigned to Contractor",
    "contractor": "Waste Pro",
    "rowid": "1146371",
    "final_x": "3695311.26397",
    "final_y": "557881.324379",
    "longitude": "-90.02350802230136",
    "latitude": "30.027553125506007",
    "geocoded_column": {
      "latitude": "30.027553125506007",
      "longitude": "-90.02350802230136"
    }
  },
  {
    "service_request": "2024-1146370",
    "request_type": "Trash/Recycling",
    "request_reason": "Request a Large Item Pick Up",
    "date_created": "2024-11-05T10:45:46.000",
    "date_modified": "2024-11-05T10:45:47.000",
    "request_status": "Pending",
    "responsible_agency": "Department of Sanitation",
    "final_address": "4759 Warren Dr",
    "address_councildis": "E",
    "status": "Assigned to Contractor",
    "contractor": "Waste Pro",
    "rowid": "1146370",
    "final_x": "3713513.14642",
    "final_y": "556441.914522",
    "longitude": "-89.96604639716669",
    "latitude": "30.023010647377525",
    "geocoded_column": {
      "latitude": "30.023010647377525",
      "longitude": "-89.96604639716669"
    }
  },
  {
    "service_request": "2024-1146369",
    "request_type": "Trash/Recycling",
    "request_reason": "Order Trash Cart",
    "date_created": "2024-11-05T10:43:24.000",
    "date_modified": "2024-11-05T14:51:57.000",
    "request_status": "Pending",
    "responsible_agency": "Department of Sanitation",
    "final_address": "0 BLK Blanc Pl",
    "address_councildis": "B",
    "status": "Assigned to Contractor",
    "contractor": "IV Waste",
    "rowid": "1146369",
    "final_x": "3667951.08401",
    "final_y": "520874.262829",
    "longitude": "-90.11121159835395",
    "latitude": "29.926627762655404",
    "geocoded_column": {
      "latitude": "29.926627762655404",
      "longitude": "-90.11121159835395"
    }
  },
  {
    "service_request": "2024-1146368",
    "request_type": "Property Maintenance",
    "request_reason": "Property Maintenance",
    "date_created": "2024-11-05T10:41:37.000",
    "date_modified": "2024-11-05T10:41:37.000",
    "request_status": "Pending",
    "responsible_agency": "Department of Code Enforcement",
    "final_address": "N MIRO ST & CLOUET ST",
    "address_councildis": "D",
    "status": "Pending",
    "rowid": "1146368",
    "final_x": "3690035.1",
    "final_y": "540135.78",
    "longitude": "-90.0408127582683",
    "latitude": "29.978924149323937",
    "geocoded_column": {
      "latitude": "29.978924149323937",
      "longitude": "-90.0408127582683"
    }
  },
  {
    "service_request": "2024-1146367",
    "request_type": "Trash/Recycling",
    "request_reason": "Replace Recycling Cart",
    "date_created": "2024-11-05T10:39:01.000",
    "date_modified": "2024-11-05T10:39:01.000",
    "request_status": "Pending",
    "responsible_agency": "Department of Sanitation",
    "final_address": "24 Stilt St",
    "address_councildis": "D",
    "status": "Pending",
    "rowid": "1146367",
    "final_x": "3673265.09006",
    "final_y": "557458.127643",
    "longitude": "-90.09318680417893",
    "latitude": "30.02706400248228",
    "geocoded_column": {
      "latitude": "30.02706400248228",
      "longitude": "-90.09318680417893"
    }
  },
  {
    "service_request": "2024-1146366",
    "request_type": "Trash/Recycling",
    "request_reason": "Request a Large Item Pick Up",
    "date_created": "2024-11-05T10:26:00.000",
    "date_modified": "2024-11-05T10:26:01.000",
    "request_status": "Pending",
    "responsible_agency": "Department of Sanitation",
    "final_address": "1032 Aline St",
    "address_councildis": "B",
    "status": "Assigned to Contractor",
    "contractor": "IV Waste",
    "rowid": "1146366",
    "final_x": "3674459.26612",
    "final_y": "519246.629559",
    "longitude": "-90.09072273540635",
    "latitude": "29.92195982313663",
    "geocoded_column": {
      "latitude": "29.92195982313663",
      "longitude": "-90.09072273540635"
    }
  },
  {
    "service_request": "2024-1146365",
    "request_type": "Trash/Recycling",
    "request_reason": "Request a Large Item Pick Up",
    "date_created": "2024-11-05T10:24:20.000",
    "date_modified": "2024-11-05T10:24:21.000",
    "request_status": "Pending",
    "responsible_agency": "Department of Sanitation",
    "final_address": "81 Marywood Ct",
    "address_councildis": "E",
    "status": "Assigned to Contractor",
    "contractor": "Waste Pro",
    "rowid": "1146365",
    "final_x": "3712434.11826",
    "final_y": "566396.066531",
    "longitude": "-89.96908136935542",
    "latitude": "30.05041594328616",
    "geocoded_column": {
      "latitude": "30.05041594328616",
      "longitude": "-89.96908136935542"
    }
  },
  {
    "service_request": "2024-1146364",
    "request_type": "Roads and Streets",
    "request_reason": "Sidewalk Damaged or Missing",
    "date_created": "2024-11-05T10:17:45.000",
    "date_modified": "2024-11-05T10:17:45.000",
    "request_status": "Pending",
    "responsible_agency": "Department of Public Works",
    "final_address": "417 Eliza St",
    "address_councildis": "C",
    "status": "Pending",
    "rowid": "1146364",
    "final_x": "3686796.89084",
    "final_y": "529734.832513",
    "longitude": "-90.05140775006059",
    "latitude": "29.95042519447833",
    "geocoded_column": {
      "latitude": "29.95042519447833",
      "longitude": "-90.05140775006059"
    }
  },
  {
    "service_request": "2024-1146363",
    "request_type": "Street and Traffic Signs",
    "request_reason": "Traffic or Parking Sign Damaged or Missing",
    "date_created": "2024-11-05T10:16:44.000",
    "date_modified": "2024-11-05T10:16:44.000",
    "request_status": "Pending",
    "responsible_agency": "Department of Public Works",
    "final_address": "2600 BLK Gravier St",
    "address_councildis": "B",
    "status": "Pending",
    "rowid": "1146363",
    "final_x": "3674298.35642",
    "final_y": "533191.795609",
    "longitude": "-90.09075330610133",
    "latitude": "29.960309256474655",
    "geocoded_column": {
      "latitude": "29.960309256474655",
      "longitude": "-90.09075330610133"
    }
  },
  {
    "service_request": "2024-1146362",
    "request_type": "Trash/Recycling",
    "request_reason": "Request a Large Item Pick Up",
    "date_created": "2024-11-05T10:15:50.000",
    "date_modified": "2024-11-05T10:15:51.000",
    "request_status": "Pending",
    "responsible_agency": "Department of Sanitation",
    "final_address": "7923 Forshey St",
    "address_councildis": "B",
    "status": "Assigned to Contractor",
    "contractor": "IV Waste",
    "rowid": "1146362",
    "final_x": "3667459.30772",
    "final_y": "533554.005125",
    "longitude": "-90.11233748853374",
    "latitude": "29.961507368403353",
    "geocoded_column": {
      "latitude": "29.961507368403353",
      "longitude": "-90.11233748853374"
    }
  },
  {
    "service_request": "2024-1146361",
    "request_type": "Trash/Recycling",
    "request_reason": "Missed Trash Pick-Up",
    "date_created": "2024-11-05T10:12:57.000",
    "date_modified": "2024-11-05T10:12:59.000",
    "request_status": "Pending",
    "responsible_agency": "Department of Sanitation",
    "final_address": "530 Powder St",
    "address_councildis": "C",
    "status": "Assigned to Contractor",
    "contractor": "Richards Disposal",
    "rowid": "1146361",
    "final_x": "3686029.2127",
    "final_y": "529301.285569",
    "longitude": "-90.05384695877581",
    "latitude": "29.94925668129002",
    "geocoded_column": {
      "latitude": "29.94925668129002",
      "longitude": "-90.05384695877581"
    }
  },
  {
    "service_request": "2024-1146360",
    "request_type": "Abandoned Vehicles",
    "request_reason": "Abandoned/Junk Vehicles",
    "date_created": "2024-11-05T10:12:30.000",
    "date_modified": "2024-11-05T10:12:30.000",
    "request_status": "Pending",
    "responsible_agency": "Department of Public Works",
    "final_address": "2600 BLK Perdido St",
    "address_councildis": "B",
    "status": "Pending",
    "rowid": "1146360",
    "final_x": "3674006.11652",
    "final_y": "532784.602526",
    "longitude": "-90.09169007381799",
    "latitude": "29.959198322501567",
    "geocoded_column": {
      "latitude": "29.959198322501567",
      "longitude": "-90.09169007381799"
    }
  },
  {
    "service_request": "2024-1146359",
    "request_type": "Abandoned Vehicles",
    "request_reason": "Abandoned/Junk Vehicles",
    "date_created": "2024-11-05T10:10:21.000",
    "date_modified": "2024-11-05T10:10:21.000",
    "request_status": "Pending",
    "responsible_agency": "Department of Public Works",
    "final_address": "2600 BLK Perdido St",
    "address_councildis": "B",
    "status": "Pending",
    "rowid": "1146359",
    "final_x": "3674006.11652",
    "final_y": "532784.602526",
    "longitude": "-90.09169007381799",
    "latitude": "29.959198322501567",
    "geocoded_column": {
      "latitude": "29.959198322501567",
      "longitude": "-90.09169007381799"
    }
  },
  {
    "service_request": "2024-1146358",
    "request_type": "General Services",
    "request_reason": "General Service Request",
    "date_created": "2024-11-05T09:59:14.000",
    "date_modified": "2024-11-05T09:59:14.000",
    "request_status": "Pending",
    "responsible_agency": "Orleans Parish Communication District",
    "final_address": "821 Dante St",
    "address_councildis": "A",
    "status": "Pending",
    "rowid": "1146358",
    "final_x": "3660627.61165",
    "final_y": "527932.099903",
    "longitude": "-90.13409674662248",
    "latitude": "29.946247337782747",
    "geocoded_column": {
      "latitude": "29.946247337782747",
      "longitude": "-90.13409674662248"
    }
  },
  {
    "service_request": "2024-1146357",
    "request_type": "Drainage",
    "request_reason": "Street Flooding",
    "date_created": "2024-11-05T09:55:54.000",
    "date_modified": "2024-11-05T09:55:54.000",
    "request_status": "Pending",
    "responsible_agency": "Department of Public Works",
    "final_address": "8015 St Charles Ave",
    "address_councildis": "A",
    "status": "Pending",
    "rowid": "1146357",
    "final_x": "3660843.60531",
    "final_y": "526670.957822",
    "longitude": "-90.13345647242686",
    "latitude": "29.942773380565765",
    "geocoded_column": {
      "latitude": "29.942773380565765",
      "longitude": "-90.13345647242686"
    }
  },
  {
    "service_request": "2024-1146356",
    "request_type": "Trash/Recycling",
    "request_reason": "Dead Animal Pick Up",
    "date_created": "2024-11-05T09:47:35.000",
    "date_modified": "2024-11-05T10:50:56.000",
    "case_close_date": "2024-11-05T04:50:56.000",
    "request_status": "Closed",
    "responsible_agency": "Department of Sanitation",
    "final_address": "2421 St Thomas St",
    "address_councildis": "B",
    "status": "Invalid Request",
    "contractor": "IV Waste",
    "contractor_action": "Invalid",
    "rowid": "1146356",
    "final_x": "3678887.85397",
    "final_y": "519896.025144",
    "longitude": "-90.07672106564114",
    "latitude": "29.92361265141512",
    "geocoded_column": {
      "latitude": "29.92361265141512",
      "longitude": "-90.07672106564114"
    }
  },
  {
    "service_request": "2024-1146355",
    "request_type": "Trash/Recycling",
    "request_reason": "Request a Large Item Pick Up",
    "date_created": "2024-11-05T09:37:13.000",
    "date_modified": "2024-11-05T09:37:14.000",
    "request_status": "Pending",
    "responsible_agency": "Department of Sanitation",
    "final_address": "1488 Burbank Dr",
    "address_councildis": "D",
    "status": "Assigned to Contractor",
    "contractor": "IV Waste",
    "rowid": "1146355",
    "final_x": "3678172.35413",
    "final_y": "554265.79324",
    "longitude": "-90.07779083821676",
    "latitude": "30.01813929441009",
    "geocoded_column": {
      "latitude": "30.01813929441009",
      "longitude": "-90.07779083821676"
    }
  },
  {
    "service_request": "2024-1146353",
    "request_type": "Trash/Recycling",
    "request_reason": "Order Trash Cart",
    "date_created": "2024-11-05T09:25:35.000",
    "date_modified": "2024-11-05T09:25:36.000",
    "request_status": "Pending",
    "responsible_agency": "Department of Sanitation",
    "final_address": "2029 Charbonnet St",
    "address_councildis": "E",
    "status": "Assigned to Contractor",
    "contractor": "Waste Pro",
    "rowid": "1146353",
    "final_x": "3699602.02391",
    "final_y": "537095.108616",
    "longitude": "-90.01070780718456",
    "latitude": "29.970263204298835",
    "geocoded_column": {
      "latitude": "29.970263204298835",
      "longitude": "-90.01070780718456"
    }
  },
  {
    "service_request": "2024-1146352",
    "request_type": "Abandoned Vehicles",
    "request_reason": "Abandoned/Junk Vehicles",
    "date_created": "2024-11-05T09:24:16.000",
    "date_modified": "2024-11-05T09:24:16.000",
    "request_status": "Pending",
    "responsible_agency": "Department of Public Works",
    "final_address": "201 S Solomon St",
    "address_councildis": "A",
    "status": "Pending",
    "rowid": "1146352",
    "final_x": "3670241.26241",
    "final_y": "538411.785737",
    "longitude": "-90.10338786451712",
    "latitude": "29.97478283433782",
    "geocoded_column": {
      "latitude": "29.97478283433782",
      "longitude": "-90.10338786451712"
    }
  },
  {
    "service_request": "2024-1146351",
    "request_type": "Streetlights",
    "request_reason": "Streetlight Outage/Malfunction",
    "date_created": "2024-11-05T09:22:06.000",
    "date_modified": "2024-11-05T09:22:08.000",
    "request_status": "Pending",
    "responsible_agency": "Department of Public Works",
    "final_address": "7500 BLK Rochon Ave",
    "address_councildis": "E",
    "status": "Pending",
    "contractor": "Legacy Professional Services",
    "rowid": "1146351",
    "final_x": "3718722.29841",
    "final_y": "571638.115041",
    "longitude": "-89.94900674145693",
    "latitude": "30.06462204323582",
    "geocoded_column": {
      "latitude": "30.06462204323582",
      "longitude": "-89.94900674145693"
    }
  },
  {
    "service_request": "2024-1146350",
    "request_type": "Streetlights",
    "request_reason": "Streetlight Outage/Malfunction",
    "date_created": "2024-11-05T09:08:43.000",
    "date_modified": "2024-11-05T09:08:44.000",
    "request_status": "Pending",
    "responsible_agency": "Department of Public Works",
    "final_address": "331 Calhoun St",
    "address_councildis": "A",
    "status": "Pending",
    "contractor": "Legacy Professional Services",
    "rowid": "1146350",
    "final_x": "3662912.89619",
    "final_y": "518358.568694",
    "longitude": "-90.12719944997919",
    "latitude": "29.9198571836906",
    "geocoded_column": {
      "latitude": "29.9198571836906",
      "longitude": "-90.12719944997919"
    }
  },