[
  {
    "service_request": "2024-1144213",
    "request_type": "Health Related Request",
    "request_reason": "Noise Ordinance Complaint",
    "date_created": "2024-10-26T23:18:41.000",
    "date_modified": "2024-10-26T23:18:41.000",
    "request_status": "Pending",
    "responsible_agency": "Health Department",
    "final_address": "725 Huntlee Drive",
    "status": "Pending",
    "rowid": "1144213",
    "longitude": "0.0",
    "latitude": "0.0",
    "geocoded_column": {
      "latitude": "0.0",
      "longitude": "0.0"
    }
  },
  {
    "service_request": "2024-1144211",
    "request_type": "Roads and Streets",
    "request_reason": "Curb Damage",
    "date_created": "2024-10-26T21:34:33.000",
    "date_modified": "2024-10-26T21:34:33.000",
    "request_status": "Pending",
    "responsible_agency": "Department of Public Works",
    "final_address": "6760 Orleans Ave",
    "address_councildis": "A",
    "status": "Pending",
    "rowid": "1144211",
    "final_x": "3671266.44903",
    "final_y": "552313.372118",
    "longitude": "-90.0996773658574",
    "latitude": "30.012977088947768",
    "geocoded_column": {
      "latitude": "30.012977088947768",
      "longitude": "-90.0996773658574"
    }
  },
  {
    "service_request": "2024-1144210",
    "request_type": "Roads and Streets",
    "request_reason": "Pothole",
    "date_created": "2024-10-26T21:29:18.000",
    "date_modified": "2024-10-26T21:29:18.000",
    "request_status": "Pending",
    "responsible_agency": "Department of Public Works",
    "final_address": "6518 Argonne Blvd",
    "address_councildis": "A",
    "status": "Pending",
    "rowid": "1144210",
    "final_x": "3670416.0073",
    "final_y": "550714.943957",
    "longitude": "-90.10241856065055",
    "latitude": "30.008607123612975",
    "geocoded_column": {
      "latitude": "30.008607123612975",
      "longitude": "-90.10241856065055"
    }
  },
  {
    "service_request": "2024-1144209",
    "request_type": "Streetlights",
    "request_reason": "Streetlight Outage/Malfunction",
    "date_created": "2024-10-26T20:45:15.000",
    "date_modified": "2024-10-26T20:45:17.000",
    "request_status": "Pending",
    "responsible_agency": "Department of Public Works",
    "final_address": "4000 S Inwood Ave",
    "address_councildis": "C",
    "status": "Pending",
    "contractor": "Legacy Professional Services",
    "rowid": "1144209",
    "final_x": "3705430.82257",
    "final_y": "513324.444978",
    "longitude": "-89.993177992218",
    "latitude": "29.904715985142428",
    "geocoded_column": {
      "latitude": "29.904715985142428",
      "longitude": "-89.993177992218"
    }
  },
  {
    "service_request": "2024-1144208",
    "request_type": "Streetlights",
    "request_reason": "Streetlight Outage/Malfunction",
    "date_created": "2024-10-26T20:31:44.000",
    "date_modified": "2024-10-26T20:31:46.000",
    "request_status": "Pending",
    "responsible_agency": "Department of Public Works",
    "final_address": "4936 Lonely Oak Dr",
    "address_councildis": "E",
    "status": "Pending",
    "contractor": "Legacy Professional Services",
    "rowid": "1144208",
    "final_x": "3702172.29399",
    "final_y": "555366.699737",
    "longitude": "-90.00192018944705",
    "latitude": "30.02042143973628",
    "geocoded_column": {
      "latitude": "30.02042143973628",
      "longitude": "-90.00192018944705"
    }
  },
  {
    "service_request": "2024-1144207",
    "request_type": "Streetlights",
    "request_reason": "Streetlight Outage/Malfunction",
    "date_created": "2024-10-26T20:26:55.000",
    "date_modified": "2024-10-26T20:26:56.000",
    "request_status": "Pending",
    "responsible_agency": "Department of Public Works",
    "final_address": "CANAL ST & S BROAD ST & N BROAD ST",
    "address_councildis": "B",
    "status": "Pending",
    "contractor": "Legacy Professional Services",
    "rowid": "1144207",
    "final_x": "3675348.3",
    "final_y": "535171.68",
    "longitude": "-90.08736981491973",
    "latitude": "29.965721922519283",
    "geocoded_column": {
      "latitude": "29.965721922519283",
      "longitude": "-90.08736981491973"
    }
  },
  {
    "service_request": "2024-1144206",
    "request_type": "Trash/Recycling",
    "request_reason": "Request a Large Item Pick Up",
    "date_created": "2024-10-26T20:14:31.000",
    "date_modified": "2024-10-26T20:14:33.000",
    "request_status": "Pending",
    "responsible_agency": "Department of Sanitation",
    "final_address": " & BALDWIN ST",
    "address_councildis": "D",
    "status": "Assigned to Contractor",
    "contractor": "IV Waste",
    "rowid": "1144206",
    "final_x": "3687880.8",
    "final_y": "560035.64",
    "longitude": "-90.04691121641319",
    "latitude": "30.03370814054373",
    "geocoded_column": {
      "latitude": "30.03370814054373",
      "longitude": "-90.04691121641319"
    }
  },
  {
    "service_request": "2024-1144205",
    "request_type": "Traffic Safety",
    "request_reason": "Request for Traffic Calming due to Speeding",
    "date_created": "2024-10-26T20:02:18.000",
    "date_modified": "2024-10-26T20:02:18.000",
    "request_status": "Pending",
    "responsible_agency": "Department of Public Works",
    "final_address": "7431 Hansbrough Ave",
    "address_councildis": "E",
    "status": "Pending",
    "rowid": "1144205",
    "final_x": "3707961.22424",
    "final_y": "563985.953889",
    "longitude": "-89.98330822616263",
    "latitude": "30.043934770802807",
    "geocoded_column": {
      "latitude": "30.043934770802807",
      "longitude": "-89.98330822616263"
    }
  },
  {
    "service_request": "2024-1144204",
    "request_type": "Trash/Recycling",
    "request_reason": "Illegal Dumping",
    "date_created": "2024-10-26T18:44:00.000",
    "date_modified": "2024-10-26T18:44:00.000",
    "request_status": "Pending",
    "responsible_agency": "Department of Sanitation",
    "final_address": "401 Atlantic Ave",
    "address_councildis": "C",
    "status": "Pending",
    "rowid": "1144204",
    "final_x": "3688781.79638",
    "final_y": "530271.059201",
    "longitude": "-90.04512143499846",
    "latitude": "29.95183842423709",
    "geocoded_column": {
      "latitude": "29.95183842423709",
      "longitude": "-90.04512143499846"
    }
  },
  {
    "service_request": "2024-1144203",
    "request_type": "Trash/Recycling",
    "request_reason": "Request a Large Item Pick Up",
    "date_created": "2024-10-26T18:40:42.000",
    "date_modified": "2024-10-26T18:40:43.000",
    "request_status": "Pending",
    "responsible_agency": "Department of Sanitation",
    "final_address": "1601 Mandeville St",
    "address_councildis": "D",
    "status": "Assigned to Contractor",
    "contractor": "IV Waste",
    "rowid": "1144203",
    "final_x": "3685659.35785",
    "final_y": "538242.584841",
    "longitude": "-90.05469971763027",
    "latitude": "29.973853520802738",
    "geocoded_column": {
      "latitude": "29.973853520802738",
      "longitude": "-90.05469971763027"
    }
  },
  {
    "service_request": "2024-1144202",
    "request_type": "Trash/Recycling",
    "request_reason": "Request a Large Item Pick Up",
    "date_created": "2024-10-26T18:36:29.000",
    "date_modified": "2024-10-26T18:36:30.000",
    "request_status": "Pending",
    "responsible_agency": "Department of Sanitation",
    "final_address": "1601 Mandeville St",
    "address_councildis": "D",
    "status": "Assigned to Contractor",
    "contractor": "IV Waste",
    "rowid": "1144202",
    "final_x": "3685659.35785",
    "final_y": "538242.584841",
    "longitude": "-90.05469971763027",
    "latitude": "29.973853520802738",
    "geocoded_column": {
      "latitude": "29.973853520802738",
      "longitude": "-90.05469971763027"
    }
  },
  {
    "service_request": "2024-1144201",
    "request_type": "Drainage",
    "request_reason": "Catch Basin Damaged",
    "date_created": "2024-10-26T18:26:30.000",
    "date_modified": "2024-10-26T18:26:30.000",
    "request_status": "Pending",
    "responsible_agency": "Department of Public Works",
    "final_address": "3000 Octavia St",
    "address_councildis": "A",
    "status": "Pending",
    "rowid": "1144201",
    "final_x": "3668133.73997",
    "final_y": "526676.780478",
    "longitude": "-90.11043951421837",
    "latitude": "29.94257746973604",
    "geocoded_column": {
      "latitude": "29.94257746973604",
      "longitude": "-90.11043951421837"
    }
  },
  {
    "service_request": "2024-1144200",
    "request_type": "Drainage",
    "request_reason": "Catch Basin Damaged",
    "date_created": "2024-10-26T18:23:13.000",
    "date_modified": "2024-10-26T18:23:13.000",
    "request_status": "Pending",
    "responsible_agency": "Department of Public Works",
    "final_address": "3000 BLK Octavia St",
    "address_councildis": "A",
    "status": "Pending",
    "rowid": "1144200",
    "final_x": "3668205.9562",
    "final_y": "526858.45821",
    "longitude": "-90.11020538724765",
    "latitude": "29.943074905315108",
    "geocoded_column": {
      "latitude": "29.943074905315108",
      "longitude": "-90.11020538724765"
    }
  },
  {
    "service_request": "2024-1144199",
    "request_type": "Street and Traffic Signs",
    "request_reason": "Stop Sign Missing or Damaged",
    "date_created": "2024-10-26T17:48:05.000",
    "date_modified": "2024-10-26T17:48:05.000",
    "request_status": "Pending",
    "responsible_agency": "Department of Public Works",
    "final_address": "8100 BLK Pritchard Pl",
    "address_councildis": "A",
    "status": "Pending",
    "rowid": "1144199",
    "final_x": "3665951.13",
    "final_y": "532983.484018",
    "longitude": "-90.11711919897213",
    "latitude": "29.959982726322114",
    "geocoded_column": {
      "latitude": "29.959982726322114",
      "longitude": "-90.11711919897213"
    }
  },
  {
    "service_request": "2024-1144198",
    "request_type": "Street and Traffic Signs",
    "request_reason": "Stop Sign Missing or Damaged",
    "date_created": "2024-10-26T17:46:01.000",
    "date_modified": "2024-10-26T17:46:01.000",
    "request_status": "Pending",
    "responsible_agency": "Department of Public Works",
    "final_address": "8100 BLK Pritchard Pl",
    "address_councildis": "A",
    "status": "Pending",
    "rowid": "1144198",
    "final_x": "3665951.13",
    "final_y": "532983.484018",
    "longitude": "-90.11711919897213",
    "latitude": "29.959982726322114",
    "geocoded_column": {
      "latitude": "29.959982726322114",
      "longitude": "-90.11711919897213"
    }
  },
  {
    "service_request": "2024-1144197",
    "request_type": "Health Related Request",
    "request_reason": "Homeless Encampment Complaint",
    "date_created": "2024-10-26T17:29:25.000",
    "date_modified": "2024-10-26T17:29:25.000",
    "request_status": "Pending",
    "responsible_agency": "Health Department",
    "final_address": "739 Dauphine St",
    "address_councildis": "C",
    "status": "Pending",
    "rowid": "1144197",
    "final_x": "3682151.55644",
    "final_y": "533166.377924",
    "longitude": "-90.06595544197194",
    "latitude": "29.960002862619014",
    "geocoded_column": {
      "latitude": "29.960002862619014",
      "longitude": "-90.06595544197194"
    }
  },
  {
    "service_request": "2024-1144196",
    "request_type": "Drainage",
    "request_reason": "Drainage Manhole Cover Missing or Damaged",
    "date_created": "2024-10-26T17:13:59.000",
    "date_modified": "2024-10-26T17:13:59.000",
    "request_status": "Pending",
    "responsible_agency": "Department of Public Works",
    "final_address": "739 Dauphine St",
    "address_councildis": "C",
    "status": "Pending",
    "rowid": "1144196",
    "final_x": "3682151.55644",
    "final_y": "533166.377924",
    "longitude": "-90.06595544197194",
    "latitude": "29.960002862619014",
    "geocoded_column": {
      "latitude": "29.960002862619014",
      "longitude": "-90.06595544197194"
    }
  },
  {
    "service_request": "2024-1144195",
    "request_type": "Abandoned Vehicles",
    "request_reason": "Abandoned/Junk Vehicles",
    "date_created": "2024-10-26T17:01:35.000",
    "date_modified": "2024-10-26T17:01:35.000",
    "request_status": "Pending",
    "responsible_agency": "Department of Public Works",
    "final_address": "613 S Lopez St",
    "address_councildis": "B",
    "status": "Pending",
    "rowid": "1144195",
    "final_x": "3672498.89979",
    "final_y": "534490.610053",
    "longitude": "-90.09639135290179",
    "latitude": "29.96393409577859",
    "geocoded_column": {
      "latitude": "29.96393409577859",
      "longitude": "-90.09639135290179"
    }
  },
  {
    "service_request": "2024-1144194",
    "request_type": "Trash/Recycling",
    "request_reason": "Request a Large Item Pick Up",
    "date_created": "2024-10-26T16:48:28.000",
    "date_modified": "2024-10-26T16:48:29.000",
    "request_status": "Pending",
    "responsible_agency": "Department of Sanitation",
    "final_address": "532 Leontine St",
    "address_councildis": "B",
    "status": "Assigned to Contractor",
    "contractor": "IV Waste",
    "rowid": "1144194",
    "final_x": "3666968.8041",
    "final_y": "517471.549174",
    "longitude": "-90.11442666290054",
    "latitude": "29.917300142276066",
    "geocoded_column": {
      "latitude": "29.917300142276066",
      "longitude": "-90.11442666290054"
    }
  },
  {
    "service_request": "2024-1144193",
    "request_type": "Roads and Streets",
    "request_reason": "Pothole",
    "date_created": "2024-10-26T16:42:39.000",
    "date_modified": "2024-10-26T16:42:39.000",
    "request_status": "Pending",
    "responsible_agency": "Department of Public Works",
    "final_address": "356 Pine St",
    "address_councildis": "A",
    "status": "Pending",
    "rowid": "1144193",
    "final_x": "3661806.37485",
    "final_y": "523661.655291",
    "longitude": "-90.13051650010839",
    "latitude": "29.934470994983734",
    "geocoded_column": {
      "latitude": "29.934470994983734",
      "longitude": "-90.13051650010839"
    }
  },
  {
    "service_request": "2024-1144192",
    "request_type": "Streetlights",
    "request_reason": "Streetlight Outage/Malfunction",
    "date_created": "2024-10-26T16:23:18.000",
    "date_modified": "2024-10-26T16:23:19.000",
    "request_status": "Pending",
    "responsible_agency": "Department of Public Works",
    "final_address": "8643 Hickory St",
    "address_councildis": "A",
    "status": "Pending",
    "contractor": "Legacy Professional Services",
    "rowid": "1144192",
    "final_x": "3661855.15712",
    "final_y": "531369.613571",
    "longitude": "-90.13010696934349",
    "latitude": "29.95566401239345",
    "geocoded_column": {
      "latitude": "29.95566401239345",
      "longitude": "-90.13010696934349"
    }
  },
  {
    "service_request": "2024-1144191",
    "request_type": "Trash/Recycling",
    "request_reason": "Illegal Dumping",
    "date_created": "2024-10-26T16:01:05.000",
    "date_modified": "2024-10-26T16:01:07.000",
    "request_status": "Pending",
    "responsible_agency": "Department of Sanitation",
    "final_address": "1900 BLK N Johnson St",
    "address_councildis": "D",
    "status": "Pending",
    "rowid": "1144191",
    "final_x": "3683065.06723",
    "final_y": "539481.116035",
    "longitude": "-90.06284968028763",
    "latitude": "29.97733839621652",
    "geocoded_column": {
      "latitude": "29.97733839621652",
      "longitude": "-90.06284968028763"
    }
  },
  {
    "service_request": "2024-1144190",
    "request_type": "Roads and Streets",
    "request_reason": "Curb Damage",
    "date_created": "2024-10-26T15:32:26.000",
    "date_modified": "2024-10-26T15:32:26.000",
    "request_status": "Pending",
    "responsible_agency": "Department of Public Works",
    "final_address": "109 Kingston Ct",
    "address_councildis": "C",
    "status": "Pending",
    "rowid": "1144190",
    "final_x": "3705917.67236",
    "final_y": "517703.118582",
    "longitude": "-89.99147965871877",
    "latitude": "29.916740166215465",
    "geocoded_column": {
      "latitude": "29.916740166215465",
      "longitude": "-89.99147965871877"
    }
  },
  {
    "service_request": "2024-1144189",
    "request_type": "Roads and Streets",
    "request_reason": "Sidewalk Damaged or Missing",
    "date_created": "2024-10-26T15:31:35.000",
    "date_modified": "2024-10-26T15:31:35.000",
    "request_status": "Pending",
    "responsible_agency": "Department of Public Works",
    "final_address": "107 Kingston Ct",
    "address_councildis": "C",
    "status": "Pending",
    "rowid": "1144189",
    "final_x": "3705824.1715",
    "final_y": "517703.543862",
    "longitude": "-89.99177476798187",
    "latitude": "29.916744346023812",
    "geocoded_column": {
      "latitude": "29.916744346023812",
      "longitude": "-89.99177476798187"
    }
  },
  {
    "service_request": "2024-1144188",
    "request_type": "Trash/Recycling",
    "request_reason": "Request a Large Item Pick Up",
    "date_created": "2024-10-26T15:31:06.000",
    "date_modified": "2024-10-26T15:31:08.000",
    "request_status": "Pending",
    "responsible_agency": "Department of Sanitation",
    "final_address": "2223 Pine St",
    "address_councildis": "A",
    "status": "Assigned to Contractor",
    "contractor": "IV Waste",
    "rowid": "1144188",
    "final_x": "3666040.19104",
    "final_y": "529718.264897",
    "longitude": "-90.11694741920475",
    "latitude": "29.951001839909832",
    "geocoded_column": {
      "latitude": "29.951001839909832",
      "longitude": "-90.11694741920475"
    }
  },
  {
    "service_request": "2024-1144187",
    "request_type": "Trash/Recycling",
    "request_reason": "Request a Large Item Pick Up",
    "date_created": "2024-10-26T15:29:37.000",
    "date_modified": "2024-10-26T15:29:38.000",
    "request_status": "Pending",
    "responsible_agency": "Department of Sanitation",
    "final_address": "107 Kingston Ct",
    "address_councildis": "C",
    "status": "Assigned to Contractor",
    "contractor": "Richards Disposal",
    "rowid": "1144187",
    "final_x": "3705824.1715",
    "final_y": "517703.543862",
    "longitude": "-89.99177476798187",
    "latitude": "29.916744346023812",
    "geocoded_column": {
      "latitude": "29.916744346023812",
      "longitude": "-89.99177476798187"
    }
  },
  {
    "service_request": "2024-1144186",
    "request_type": "Trash/Recycling",
    "request_reason": "Order Trash Cart",
    "date_created": "2024-10-26T14:44:00.000",
    "date_modified": "2024-10-26T14:44:01.000",
    "request_status": "Pending",
    "responsible_agency": "Department of Sanitation",
    "final_address": "2425 Chartres St",
    "address_councildis": "C",
    "status": "Assigned to Contractor",
    "contractor": "IV Waste",
    "rowid": "1144186",
    "final_x": "3686130.22671",
    "final_y": "534620.938694",
    "longitude": "-90.05334038370131",
    "latitude": "29.963880798738845",
    "geocoded_column": {
      "latitude": "29.963880798738845",
      "longitude": "-90.05334038370131"
    }
  },
  {
    "service_request": "2024-1144185",
    "request_type": "Trash/Recycling",
    "request_reason": "Request a Large Item Pick Up",
    "date_created": "2024-10-26T14:06:10.000",
    "date_modified": "2024-10-26T14:06:12.000",
    "request_status": "Pending",
    "responsible_agency": "Department of Sanitation",
    "final_address": "6535 E Hermes St",
    "address_councildis": "D",
    "status": "Assigned to Contractor",
    "contractor": "Waste Pro",
    "rowid": "1144185",
    "final_x": "3697991.15523",
    "final_y": "555579.703769",
    "longitude": "-90.01512349541927",
    "latitude": "30.021140042087282",
    "geocoded_column": {
      "latitude": "30.021140042087282",
      "longitude": "-90.01512349541927"
    }
  },
  {
    "service_request": "2024-1144184",
    "request_type": "General Services",
    "request_reason": "General Service Request",
    "date_created": "2024-10-26T13:55:59.000",
    "date_modified": "2024-10-26T13:55:59.000",
    "request_status": "Pending",
    "responsible_agency": "Orleans Parish Communication District",
    "final_address": "900 Eleonore St",
    "address_councildis": "A",
    "status": "Pending",
    "rowid": "1144184",
    "final_x": "3665264.99066",
    "final_y": "519444.149431",
    "longitude": "-90.11973871053087",
    "latitude": "29.92277390299219",
    "geocoded_column": {
      "latitude": "29.92277390299219",
      "longitude": "-90.11973871053087"
    }
  },
  {
    "service_request": "2024-1144183",
    "request_type": "Streetlights",
    "request_reason": "Streetlight Outage/Malfunction",
    "date_created": "2024-10-26T13:32:41.000",
    "date_modified": "2024-10-26T13:32:43.000",
    "request_status": "Pending",
    "responsible_agency": "Department of Public Works",
    "final_address": "JOLIET ST & OAK ST",
    "address_councildis": "A",
    "status": "Pending",
    "contractor": "Legacy Professional Services",
    "rowid": "1144183",
    "final_x": "3660903.1",
    "final_y": "529332.88",
    "longitude": "-90.1331806055862",
    "latitude": "29.950091104597323",
    "geocoded_column": {
      "latitude": "29.950091104597323",
      "longitude": "-90.1331806055862"
    }
  },
  {
    "service_request": "2024-1144182",
    "request_type": "General Services",
    "request_reason": "General Service Request",
    "date_created": "2024-10-26T13:06:41.000",
    "date_modified": "2024-10-26T13:06:41.000",
    "request_status": "Pending",
    "responsible_agency": "Orleans Parish Communication District",
    "final_address": "2001 St Claude Ave",
    "address_councildis": "C",
    "status": "Pending",
    "rowid": "1144182",
    "final_x": "3684256.41276",
    "final_y": "536277.165191",
    "longitude": "-90.05919954345346",
    "latitude": "29.968492271981315",
    "geocoded_column": {
      "latitude": "29.968492271981315",
      "longitude": "-90.05919954345346"
    }
  },
  {
    "service_request": "2024-1144181",
    "request_type": "Abandoned Vehicles",
    "request_reason": "Abandoned/Junk Vehicles",
    "date_created": "2024-10-26T13:03:15.000",
    "date_modified": "2024-10-26T13:03:15.000",
    "request_status": "Pending",
    "responsible_agency": "Department of Public Works",
    "final_address": "1833 Jena St",
    "address_councildis": "B",
    "status": "Pending",
    "rowid": "1144181",
    "final_x": "3670389.54625",
    "final_y": "521845.363322",
    "longitude": "-90.10348111647913",
    "latitude": "29.929226239895005",
    "geocoded_column": {
      "latitude": "29.929226239895005",
      "longitude": "-90.10348111647913"
    }
  },
  {
    "service_request": "2024-1144180",
    "request_type": "Alley Ways",
    "request_reason": "Alley Way Regrading",
    "date_created": "2024-10-26T12:46:25.000",
    "date_modified": "2024-10-26T12:46:25.000",
    "request_status": "Pending",
    "responsible_agency": "Department of Public Works",
    "final_address": "6818 Louisville St",
    "address_councildis": "A",
    "status": "Pending",
    "rowid": "1144180",
    "final_x": "3668149.53389",
    "final_y": "552906.894551",
    "longitude": "-90.1095051378254",
    "latitude": "30.01470097073277",
    "geocoded_column": {
      "latitude": "30.01470097073277",
      "longitude": "-90.1095051378254"
    }
  },
  {
    "service_request": "2024-1144179",
    "request_type": "Property Maintenance",
    "request_reason": "Property Maintenance",
    "date_created": "2024-10-26T12:41:31.000",
    "date_modified": "2024-10-26T12:41:31.000",
    "request_status": "Pending",
    "responsible_agency": "Department of Code Enforcement",
    "final_address": "826 Rosedale Dr",
    "address_councildis": "A",
    "status": "Pending",
    "rowid": "1144179",
    "final_x": "3668596.19066",
    "final_y": "541900.123596",
    "longitude": "-90.1084656603649",
    "latitude": "29.984423036041996",
    "geocoded_column": {
      "latitude": "29.984423036041996",
      "longitude": "-90.1084656603649"
    }
  },
  {
    "service_request": "2024-1144178",
    "request_type": "Property Maintenance",
    "request_reason": "Property Maintenance",
    "date_created": "2024-10-26T12:40:42.000",
    "date_modified": "2024-10-26T12:40:42.000",
    "request_status": "Pending",
    "responsible_agency": "Department of Code Enforcement",
    "final_address": "2321 Ursulines Ave",
    "address_councildis": "D",
    "status": "Pending",
    "rowid": "1144178",
    "final_x": "3678872.01288",
    "final_y": "537259.890632",
    "longitude": "-90.076169705425",
    "latitude": "29.971357960922006",
    "geocoded_column": {
      "latitude": "29.971357960922006",
      "longitude": "-90.076169705425"
    }
  },
  {
    "service_request": "2024-1144177",
    "request_type": "Drainage",
    "request_reason": "Drainage Manhole Cover Missing or Damaged",
    "date_created": "2024-10-26T12:20:44.000",
    "date_modified": "2024-10-26T12:20:44.000",
    "request_status": "Pending",
    "responsible_agency": "Department of Public Works",
    "final_address": "LAMARQUE ST & THAYER ST",
    "address_councildis": "C",
    "status": "Pending",
    "rowid": "1144177",
    "final_x": "3689381.8",
    "final_y": "526638.28",
    "longitude": "-90.04335604969516",
    "latitude": "29.941830963886424",
    "geocoded_column": {
      "latitude": "29.941830963886424",
      "longitude": "-90.04335604969516"
    }
  },
  {
    "service_request": "2024-1144176",
    "request_type": "Trash/Recycling",
    "request_reason": "Missed Trash Pick-Up",
    "date_created": "2024-10-26T11:48:05.000",
    "date_modified": "2024-10-26T11:48:07.000",
    "request_status": "Pending",
    "responsible_agency": "Department of Sanitation",
    "final_address": "3611 Kent Dr",
    "address_councildis": "C",
    "status": "Assigned to Contractor",
    "contractor": "Richards Disposal",
    "rowid": "1144176",
    "final_x": "3708702.37278",
    "final_y": "517575.702518",
    "longitude": "-89.9826948128735",
    "latitude": "29.916299854240812",
    "geocoded_column": {
      "latitude": "29.916299854240812",
      "longitude": "-89.9826948128735"
    }
  },
  {
    "service_request": "2024-1144175",
    "request_type": "Roads and Streets",
    "request_reason": "Pothole",
    "date_created": "2024-10-26T11:47:50.000",
    "date_modified": "2024-10-26T11:47:50.000",
    "request_status": "Pending",
    "responsible_agency": "Department of Public Works",
    "final_address": "3100 BLK Dauphine St",
    "address_councildis": "C",
    "status": "Pending",
    "rowid": "1144175",
    "final_x": "3688994.94579",
    "final_y": "534787.860986",
    "longitude": "-90.04428796940631",
    "latitude": "29.964251473717294",
    "geocoded_column": {
      "latitude": "29.964251473717294",
      "longitude": "-90.04428796940631"
    }
  },
  {
    "service_request": "2024-1144174",
    "request_type": "Trash/Recycling",
    "request_reason": "MIssed Recycling Pick-Up",
    "date_created": "2024-10-26T11:46:17.000",
    "date_modified": "2024-10-26T11:46:19.000",
    "request_status": "Pending",
    "responsible_agency": "Department of Sanitation",
    "final_address": "6501 Peony St",
    "address_councildis": "C",
    "status": "Assigned to Contractor",
    "contractor": "Richards Disposal",
    "rowid": "1144174",
    "final_x": "3707858.54328",
    "final_y": "516387.512629",
    "longitude": "-89.98540237101216",
    "latitude": "29.913060066814687",
    "geocoded_column": {
      "latitude": "29.913060066814687",
      "longitude": "-89.98540237101216"
    }
  },
  {
    "service_request": "2024-1144173",
    "request_type": "Street and Traffic Signs",
    "request_reason": "Traffic or Parking Sign Damaged or Missing",
    "date_created": "2024-10-26T11:38:05.000",
    "date_modified": "2024-10-26T11:38:05.000",
    "request_status": "Pending",
    "responsible_agency": "Department of Public Works",
    "final_address": "6201 Canal Blvd",
    "address_councildis": "A",
    "status": "Pending",
    "rowid": "1144173",
    "final_x": "3668741.57262",
    "final_y": "548646.107027",
    "longitude": "-90.10777856275321",
    "latitude": "30.002967896984885",
    "geocoded_column": {
      "latitude": "30.002967896984885",
      "longitude": "-90.10777856275321"
    }
  },
  {
    "service_request": "2024-1144172",
    "request_type": "Trash/Recycling",
    "request_reason": "Request a Large Item Pick Up",
    "date_created": "2024-10-26T11:31:53.000",
    "date_modified": "2024-10-26T11:31:55.000",
    "request_status": "Pending",
    "responsible_agency": "Department of Sanitation",
    "final_address": "1230 Filmore Ave",
    "address_councildis": "D",
    "status": "Assigned to Contractor",
    "contractor": "IV Waste",
    "rowid": "1144172",
    "final_x": "3677063.31656",
    "final_y": "551598.973525",
    "longitude": "-90.08138704559273",
    "latitude": "30.01083986624184",
    "geocoded_column": {
      "latitude": "30.01083986624184",
      "longitude": "-90.08138704559273"
    }
  },
  {
    "service_request": "2024-1144171",
    "request_type": "Trash/Recycling",
    "request_reason": "Order Recycling Cart",
    "date_created": "2024-10-26T11:19:50.000",
    "date_modified": "2024-10-26T11:19:50.000",
    "request_status": "Pending",
    "responsible_agency": "Department of Sanitation",
    "final_address": "1108 General Pershing St",
    "address_councildis": "B",
    "status": "Pending",
    "rowid": "1144171",
    "final_x": "3671319.26683",
    "final_y": "519638.819064",
    "longitude": "-90.10062109673613",
    "latitude": "29.9231314774554",
    "geocoded_column": {
      "latitude": "29.9231314774554",
      "longitude": "-90.10062109673613"
    }
  },
  {
    "service_request": "2024-1144170",
    "request_type": "Trash/Recycling",
    "request_reason": "Replace Recycling Cart",
    "date_created": "2024-10-26T11:15:21.000",
    "date_modified": "2024-10-26T11:15:21.000",
    "request_status": "Pending",
    "responsible_agency": "Department of Sanitation",
    "final_address": "1110 General Pershing St",
    "address_councildis": "B",
    "status": "Pending",
    "rowid": "1144170",
    "final_x": "3671317.34132",
    "final_y": "519654.714424",
    "longitude": "-90.1006266350525",
    "latitude": "29.923175241588424",
    "geocoded_column": {
      "latitude": "29.923175241588424",
      "longitude": "-90.1006266350525"
    }
  },
  {
    "service_request": "2024-1144169",
    "request_type": "Trash/Recycling",
    "request_reason": "Request a Large Item Pick Up",
    "date_created": "2024-10-26T11:08:26.000",
    "date_modified": "2024-10-26T11:08:28.000",
    "request_status": "Pending",
    "responsible_agency": "Department of Sanitation",
    "final_address": "820 Andry St",
    "address_councildis": "E",
    "status": "Assigned to Contractor",
    "contractor": "Waste Pro",
    "rowid": "1144169",
    "final_x": "3696862.65687",
    "final_y": "533021.958916",
    "longitude": "-90.01950646759126",
    "latitude": "29.959150151598674",
    "geocoded_column": {
      "latitude": "29.959150151598674",
      "longitude": "-90.01950646759126"
    }
  },
  {
    "service_request": "2024-1144168",
    "request_type": "Trash/Recycling",
    "request_reason": "Replace Recycling Cart",
    "date_created": "2024-10-26T11:05:38.000",
    "date_modified": "2024-10-26T11:05:38.000",
    "request_status": "Pending",
    "responsible_agency": "Department of Sanitation",
    "final_address": "6959 W Laverne St",
    "address_councildis": "D",
    "status": "Pending",
    "rowid": "1144168",
    "final_x": "3696011.10998",
    "final_y": "556582.219354",
    "longitude": "-90.02134357836816",
    "latitude": "30.02395906526082",
    "geocoded_column": {
      "latitude": "30.02395906526082",
      "longitude": "-90.02134357836816"
    }
  },
  {
    "service_request": "2024-1144167",
    "request_type": "Trash/Recycling",
    "request_reason": "MIssed Recycling Pick-Up",
    "date_created": "2024-10-26T11:03:41.000",
    "date_modified": "2024-10-26T11:03:42.000",
    "request_status": "Pending",
    "responsible_agency": "Department of Sanitation",
    "final_address": "107 Maumus Ave",
    "address_councildis": "C",
    "status": "Assigned to Contractor",
    "contractor": "Richards Disposal",
    "rowid": "1144167",
    "final_x": "3705780.47204",
    "final_y": "516704.332021",
    "longitude": "-89.99194962192549",
    "latitude": "29.913998265246065",
    "geocoded_column": {
      "latitude": "29.913998265246065",
      "longitude": "-89.99194962192549"
    }
  },
  {
    "service_request": "2024-1144166",
    "request_type": "Drainage",
    "request_reason": "Catch Basin Clogged",
    "date_created": "2024-10-26T10:54:41.000",
    "date_modified": "2024-10-26T10:54:41.000",
    "request_status": "Pending",
    "responsible_agency": "Department of Public Works",
    "final_address": "316 Webster St",
    "address_councildis": "A",
    "status": "Inspected",
    "rowid": "1144166",
    "final_x": "3663525.47552",
    "final_y": "517931.616246",
    "longitude": "-90.12528003512276",
    "latitude": "29.91866545275852",
    "geocoded_column": {
      "latitude": "29.91866545275852",
      "longitude": "-90.12528003512276"
    }
  },
  {
    "service_request": "2024-1144165",
    "request_type": "Traffic Signals",
    "request_reason": "Traffic Signal Malfunctioning or Damaged",
    "date_created": "2024-10-26T10:48:56.000",
    "date_modified": "2024-10-26T10:48:56.000",
    "request_status": "Pending",
    "responsible_agency": "Department of Public Works",
    "final_address": "CANAL ST & S RAMPART ST",
    "address_councildis": "B",
    "status": "Pending",
    "rowid": "1144165",
    "final_x": "3679972.7",
    "final_y": "531544.98",
    "longitude": "-90.07289211617753",
    "latitude": "29.955610653469453",
    "geocoded_column": {
      "latitude": "29.955610653469453",
      "longitude": "-90.07289211617753"
    }
  },
  {
    "service_request": "2024-1144164",
    "request_type": "Abandoned Vehicles",
    "request_reason": "Abandoned/Junk Vehicles",
    "date_created": "2024-10-26T10:47:52.000",
    "date_modified": "2024-10-26T10:47:52.000",
    "request_status": "Pending",
    "responsible_agency": "Department of Public Works",
    "final_address": "4922 Baronne St",
    "address_councildis": "B",
    "status": "Pending",
    "rowid": "1144164",
    "final_x": "3668888.46945",
    "final_y": "521393.464377",
    "longitude": "-90.10823499607537",
    "latitude": "29.928027877430683",
    "geocoded_column": {
      "latitude": "29.928027877430683",
      "longitude": "-90.10823499607537"
    }
  },
  {
    "service_request": "2024-1144163",
    "request_type": "Trash/Recycling",
    "request_reason": "Order Recycling Cart",
    "date_created": "2024-10-26T10:12:05.000",
    "date_modified": "2024-10-26T10:12:05.000",
    "request_status": "Pending",
    "responsible_agency": "Department of Sanitation",
    "final_address": "7713 Olive St",
    "address_councildis": "B",
    "status": "Pending",
    "rowid": "1144163",
    "final_x": "3668253.26362",
    "final_y": "533317.482436",
    "longitude": "-90.10983827764713",
    "latitude": "29.960833722248964",
    "geocoded_column": {
      "latitude": "29.960833722248964",
      "longitude": "-90.10983827764713"
    }
  },
  {
    "service_request": "2024-1144162",
    "request_type": "Trash/Recycling",
    "request_reason": "Replace Trash Cart",
    "date_created": "2024-10-26T09:55:34.000",
    "date_modified": "2024-10-26T09:55:36.000",
    "request_status": "Pending",
    "responsible_agency": "Department of Sanitation",
    "final_address": "3142 State Street Dr",
    "address_councildis": "A",
    "status": "Assigned to Contractor",
    "contractor": "IV Waste",
    "rowid": "1144162",
    "final_x": "3667466.51156",
    "final_y": "527915.746623",
    "longitude": "-90.11250443888937",
    "latitude": "29.94600378952235",
    "geocoded_column": {
      "latitude": "29.94600378952235",
      "longitude": "-90.11250443888937"
    }
  },
  {
    "service_request": "2024-1144161",
    "request_type": "Trash/Recycling",
    "request_reason": "Replace Trash Cart",
    "date_created": "2024-10-26T09:54:30.000",
    "date_modified": "2024-10-26T09:54:32.000",
    "request_status": "Pending",
    "responsible_agency": "Department of Sanitation",
    "final_address": "3142 State Street Dr",
    "address_councildis": "A",
    "status": "Assigned to Contractor",
    "contractor": "IV Waste",
    "rowid": "1144161",
    "final_x": "3667466.51156",
    "final_y": "527915.746623",
    "longitude": "-90.11250443888937",
    "latitude": "29.94600378952235",
    "geocoded_column": {
      "latitude": "29.94600378952235",
      "longitude": "-90.11250443888937"
    }
  },
  {
    "service_request": "2024-1144160",
    "request_type": "Alley Ways",
    "request_reason": "Alley Way Regrading",
    "date_created": "2024-10-26T09:41:00.000",
    "date_modified": "2024-10-26T09:41:00.000",
    "request_status": "Pending",
    "responsible_agency": "Department of Public Works",
    "final_address": "6165 Louis Xiv St",
    "address_councildis": "A",
    "status": "Pending",
    "rowid": "1144160",
    "final_x": "3668234.16589",
    "final_y": "548468.24117",
    "longitude": "-90.1093875403318",
    "latitude": "30.00249374037747",
    "geocoded_column": {
      "latitude": "30.00249374037747",
      "longitude": "-90.1093875403318"
    }
  },
  {
    "service_request": "2024-1144159",
    "request_type": "Trash/Recycling",
    "request_reason": "Request a Large Item Pick Up",
    "date_created": "2024-10-26T09:40:55.000",
    "date_modified": "2024-10-26T09:40:56.000",
    "request_status": "Pending",
    "responsible_agency": "Department of Sanitation",
    "final_address": "1919 Annette St",
    "address_councildis": "D",
    "status": "Assigned to Contractor",
    "contractor": "IV Waste",
    "rowid": "1144159",
    "final_x": "3682982.6502",
    "final_y": "539264.348426",
    "longitude": "-90.06311756962596",
    "latitude": "29.976744873333352",
    "geocoded_column": {
      "latitude": "29.976744873333352",
      "longitude": "-90.06311756962596"
    }
  },
  {
    "service_request": "2024-1144158",
    "request_type": "Trash/Recycling",
    "request_reason": "Replace Trash Cart",
    "date_created": "2024-10-26T09:36:37.000",
    "date_modified": "2024-10-26T09:36:39.000",
    "request_status": "Pending",
    "responsible_agency": "Department of Sanitation",
    "final_address": "436 S Cortez St",
    "address_councildis": "B",
    "status": "Assigned to Contractor",
    "contractor": "IV Waste",
    "rowid": "1144158",
    "final_x": "3671187.05243",
    "final_y": "536367.066247",
    "longitude": "-90.10047029755826",
    "latitude": "29.969132596035525",
    "geocoded_column": {
      "latitude": "29.969132596035525",
      "longitude": "-90.10047029755826"
    }
  },
  {
    "service_request": "2024-1144156",
    "request_type": "Roads and Streets",
    "request_reason": "Pothole",
    "date_created": "2024-10-26T09:01:11.000",
    "date_modified": "2024-10-26T09:01:11.000",
    "request_status": "Pending",
    "responsible_agency": "Department of Public Works",
    "final_address": "2222 Columbus St",
    "address_councildis": "D",
    "status": "Pending",
    "rowid": "1144156",
    "final_x": "3679848.01768",
    "final_y": "538577.707401",
    "longitude": "-90.0730415688511",
    "latitude": "29.974952022742233",
    "geocoded_column": {
      "latitude": "29.974952022742233",
      "longitude": "-90.0730415688511"
    }
  },
  {
    "service_request": "2024-1144155",
    "request_type": "Trash/Recycling",
    "request_reason": "Request a Large Item Pick Up",
    "date_created": "2024-10-26T08:59:40.000",
    "date_modified": "2024-10-26T09:06:38.000",
    "request_status": "Pending",
    "responsible_agency": "Department of Sanitation",
    "final_address": "1320 Broadway St",
    "address_councildis": "A",
    "contractor": "IV Waste",
    "rowid": "1144155",
    "final_x": "3664458.11437",
    "final_y": "527009.754366",
    "longitude": "-90.1220332515434",
    "latitude": "29.943600393452623",
    "geocoded_column": {
      "latitude": "29.943600393452623",
      "longitude": "-90.1220332515434"
    }
  },
  {
    "service_request": "2024-1144154",
    "request_type": "Abandoned Vehicles",
    "request_reason": "Abandoned/Junk Vehicles",
    "date_created": "2024-10-26T08:45:13.000",
    "date_modified": "2024-10-26T08:45:13.000",
    "request_status": "Pending",
    "responsible_agency": "Department of Public Works",
    "final_address": "1600 BLK Philip St",
    "address_councildis": "B",
    "status": "Pending",
    "rowid": "1144154",
    "final_x": "3677025.50156",
    "final_y": "523512.382553",
    "longitude": "-90.0824752120065",
    "latitude": "29.933612485381424",
    "geocoded_column": {
      "latitude": "29.933612485381424",
      "longitude": "-90.0824752120065"
    }
  },
  {
    "service_request": "2024-1144153",
    "request_type": "Parks & Parkways",
    "request_reason": "Request Tree Service (Right of Way/Public Property)",
    "date_created": "2024-10-26T07:57:03.000",
    "date_modified": "2024-10-26T07:57:03.000",
    "request_status": "Pending",
    "responsible_agency": "Department of Parks & Parkway",
    "final_address": "6228 Wainwright Dr",
    "address_councildis": "D",
    "status": "Pending",
    "rowid": "1144153",
    "final_x": "3681292.83688",
    "final_y": "555962.448537",
    "longitude": "-90.06787209026446",
    "latitude": "30.02271009054685",
    "geocoded_column": {
      "latitude": "30.02271009054685",
      "longitude": "-90.06787209026446"
    }
  },
  {
    "service_request": "2024-1144152",
    "request_type": "Parks & Parkways",
    "request_reason": "Request Tree Service (Right of Way/Public Property)",
    "date_created": "2024-10-26T07:54:47.000",
    "date_modified": "2024-10-26T07:54:47.000",
    "request_status": "Pending",
    "responsible_agency": "Department of Parks & Parkway",
    "final_address": "6231 Wainwright Dr",
    "address_councildis": "D",
    "status": "Pending",
    "rowid": "1144152",
    "final_x": "3681400.76751",
    "final_y": "556000.111897",
    "longitude": "-90.06752974006322",
    "latitude": "30.022810373021912",
    "geocoded_column": {
      "latitude": "30.022810373021912",
      "longitude": "-90.06752974006322"
    }
  },
  {
    "service_request": "2024-1144151",
    "request_type": "Streetlights",
    "request_reason": "Streetlight Outage/Malfunction",
    "date_created": "2024-10-26T07:39:56.000",
    "date_modified": "2024-10-26T07:39:57.000",
    "request_status": "Pending",
    "responsible_agency": "Department of Public Works",
    "final_address": "5208 Westgrove Park",
    "address_councildis": "C",
    "status": "Pending",
    "contractor": "Legacy Professional Services",
    "rowid": "1144151",
    "final_x": "3703778.13457",
    "final_y": "510955.474095",
    "longitude": "-89.99848099007632",
    "latitude": "29.89825516426749",
    "geocoded_column": {
      "latitude": "29.89825516426749",
      "longitude": "-89.99848099007632"
    }
  },
  {
    "service_request": "2024-1144150",
    "request_type": "Streetlights",
    "request_reason": "Streetlight Outage/Malfunction",
    "date_created": "2024-10-26T07:38:09.000",
    "date_modified": "2024-10-26T07:38:10.000",
    "request_status": "Pending",
    "responsible_agency": "Department of Public Works",
    "final_address": "3702 Meadow Park Ln",
    "address_councildis": "C",
    "status": "Pending",
    "contractor": "Legacy Professional Services",
    "rowid": "1144150",
    "final_x": "3703828.13175",
    "final_y": "510825.808239",
    "longitude": "-89.99832797626483",
    "latitude": "29.89789702531592",
    "geocoded_column": {
      "latitude": "29.89789702531592",
      "longitude": "-89.99832797626483"
    }
  },
  {
    "service_request": "2024-1144149",
    "request_type": "Abandoned Vehicles",
    "request_reason": "Abandoned/Junk Vehicles",
    "date_created": "2024-10-26T07:35:44.000",
    "date_modified": "2024-10-26T07:35:44.000",
    "request_status": "Pending",
    "responsible_agency": "Department of Public Works",
    "final_address": "5237 Timber Crest Dr",
    "address_councildis": "C",
    "status": "Pending",
    "rowid": "1144149",
    "final_x": "3703595.75729",
    "final_y": "511133.01112",
    "longitude": "-89.99905001318669",
    "latitude": "29.898749171890685",
    "geocoded_column": {
      "latitude": "29.898749171890685",
      "longitude": "-89.99905001318669"
    }
  },
  {
    "service_request": "2024-1144148",
    "request_type": "Abandoned Vehicles",
    "request_reason": "Abandoned/Junk Vehicles",
    "date_created": "2024-10-26T07:33:46.000",
    "date_modified": "2024-10-26T07:33:46.000",
    "request_status": "Pending",
    "responsible_agency": "Department of Public Works",
    "final_address": "5206 Timber Crest Dr",
    "address_councildis": "C",
    "status": "Pending",
    "rowid": "1144148",
    "final_x": "3703400.31479",
    "final_y": "511253.031408",
    "longitude": "-89.99966238632473",
    "latitude": "29.89908544356334",
    "geocoded_column": {
      "latitude": "29.89908544356334",
      "longitude": "-89.99966238632473"
    }
  },
  {
    "service_request": "2024-1144147",
    "request_type": "Abandoned Vehicles",
    "request_reason": "Abandoned/Junk Vehicles",
    "date_created": "2024-10-26T07:05:01.000",
    "date_modified": "2024-10-26T07:05:01.000",
    "request_status": "Pending",
    "responsible_agency": "Department of Public Works",
    "final_address": "DWYER RD & MAYO RD",
    "address_councildis": "E",
    "status": "Pending",
    "rowid": "1144147",
    "final_x": "3702830.1",
    "final_y": "555955.48",
    "longitude": "-89.99982008739879",
    "latitude": "30.022019326193803",
    "geocoded_column": {
      "latitude": "30.022019326193803",
      "longitude": "-89.99982008739879"
    }
  },
  {
    "service_request": "2024-1144146",
    "request_type": "Abandoned Vehicles",
    "request_reason": "Abandoned/Junk Vehicles",
    "date_created": "2024-10-26T07:02:29.000",
    "date_modified": "2024-10-26T07:02:29.000",
    "request_status": "Pending",
    "responsible_agency": "Department of Public Works",
    "final_address": "DWYER RD & MAYO RD",
    "address_councildis": "E",
    "status": "Pending",
    "rowid": "1144146",
    "final_x": "3702830.1",
    "final_y": "555955.48",
    "longitude": "-89.99982008739879",
    "latitude": "30.022019326193803",
    "geocoded_column": {
      "latitude": "30.022019326193803",
      "longitude": "-89.99982008739879"
    }
  },
  {
    "service_request": "2024-1144145",
    "request_type": "Mosquito, Termite & Rodent Control",
    "request_reason": "Non-Rodent Complaint (Mice, Possums, Snakes)",
    "date_created": "2024-10-26T06:54:04.000",
    "date_modified": "2024-10-26T06:54:04.000",
    "request_status": "Pending",
    "responsible_agency": "Mosquito, Termite & Rodent Control Board",
    "final_address": "3048 Marais St",
    "address_councildis": "C",
    "status": "Pending",
    "rowid": "1144145",
    "final_x": "3688926.96489",
    "final_y": "536357.564615",
    "longitude": "-90.0444468886428",
    "latitude": "29.968569712625968",
    "geocoded_column": {
      "latitude": "29.968569712625968",
      "longitude": "-90.0444468886428"
    }
  },
  {
    "service_request": "2024-1144144",
    "request_type": "Trash/Recycling",
    "request_reason": "Order Recycling Cart",
    "date_created": "2024-10-26T06:32:35.000",
    "date_modified": "2024-10-26T06:32:35.000",
    "request_status": "Pending",
    "responsible_agency": "Department of Sanitation",
    "final_address": "1815 Marais St",
    "address_councildis": "C",
    "status": "Pending",
    "rowid": "1144144",
    "final_x": "3683616.7318",
    "final_y": "536592.648135",
    "longitude": "-90.06120862479816",
    "latitude": "29.969379283761157",
    "geocoded_column": {
      "latitude": "29.969379283761157",
      "longitude": "-90.06120862479816"
    }
  },
  {
    "service_request": "2024-1144143",
    "request_type": "Abandoned Vehicles",
    "request_reason": "Abandoned/Junk Vehicles",
    "date_created": "2024-10-26T05:13:13.000",
    "date_modified": "2024-10-26T05:13:13.000",
    "request_status": "Pending",
    "responsible_agency": "Department of Public Works",
    "final_address": "601 Philip St",
    "address_councildis": "B",
    "status": "Pending",
    "rowid": "1144143",
    "final_x": "3679659.76994",
    "final_y": "520440.728888",
    "longitude": "-90.0742655184243",
    "latitude": "29.9250871094847",
    "geocoded_column": {
      "latitude": "29.9250871094847",
      "longitude": "-90.0742655184243"
    }
  },
  {
    "service_request": "2024-1144142",
    "request_type": "Streetlights",
    "request_reason": "Streetlight Outage/Malfunction",
    "date_created": "2024-10-26T00:57:42.000",
    "date_modified": "2024-10-26T00:57:44.000",
    "request_status": "Pending",
    "responsible_agency": "Department of Public Works",
    "final_address": "DESIRE PKWY & CHEF MENTEUR HWY",
    "address_councildis": "D",
    "status": "Pending",
    "contractor": "Legacy Professional Services",
    "rowid": "1144142",
    "final_x": "3692027.1",
    "final_y": "550101.18",
    "longitude": "-90.03416442567848",
    "latitude": "30.00626344869749",
    "geocoded_column": {
      "latitude": "30.00626344869749",
      "longitude": "-90.03416442567848"
    }
  },
  {
    "service_request": "2024-1144141",
    "request_type": "Roads and Streets",
    "request_reason": "Pothole",
    "date_created": "2024-10-26T00:30:47.000",
    "date_modified": "2024-10-26T00:30:47.000",
    "request_status": "Pending",
    "responsible_agency": "Department of Public Works",
    "final_address": "500 BLK Webster St",
    "address_councildis": "A",
    "status": "Pending",
    "rowid": "1144141",
    "final_x": "3663819.37902",
    "final_y": "518611.721423",
    "longitude": "-90.12432968109948",
    "latitude": "29.920527006751712",
    "geocoded_column": {
      "latitude": "29.920527006751712",
      "longitude": "-90.12432968109948"
    }
  },
  {
    "service_request": "2024-1144140",
    "request_type": "Health Related Request",
    "request_reason": "Noise Ordinance Complaint",
    "date_created": "2024-10-26T00:24:17.000",
    "date_modified": "2024-10-26T00:24:17.000",
    "request_status": "Pending",
    "responsible_agency": "Health Department",
    "final_address": "2549 Banks St, New Orleans, Louisiana, 70119",
    "address_councildis": "B",
    "status": "Pending",
    "rowid": "1144140",
    "final_x": "3675148.01403",
    "final_y": "533816.262341",
    "longitude": "-90.08804882988795",
    "latitude": "29.962000967671727",
    "geocoded_column": {
      "latitude": "29.962000967671727",
      "longitude": "-90.08804882988795"
    }
  },
  {
    "service_request": "2024-1144139",
    "request_type": "Abandoned Vehicles",
    "request_reason": "Abandoned/Junk Vehicles",
    "date_created": "2024-10-25T23:41:05.000",
    "date_modified": "2024-10-25T23:41:05.000",
    "request_status": "Pending",
    "responsible_agency": "Department of Public Works",
    "final_address": "5930 Beechcraft St",
    "address_councildis": "D",
    "status": "Pending",
    "rowid": "1144139",
    "final_x": "3696409.66378",
    "final_y": "553266.699287",
    "longitude": "-90.02020429073559",
    "latitude": "30.014830084566565",
    "geocoded_column": {
      "latitude": "30.014830084566565",
      "longitude": "-90.02020429073559"
    }
  },
  {
    "service_request": "2024-1144138",
    "request_type": "Health Related Request",
    "request_reason": "Noise Ordinance Complaint",
    "date_created": "2024-10-25T23:37:26.000",
    "date_modified": "2024-10-25T23:37:26.000",
    "request_status": "Pending",
    "responsible_agency": "Health Department",
    "final_address": "2549 Banks St, New Orleans, Louisiana, 70119",
    "address_councildis": "B",
    "status": "Pending",
    "rowid": "1144138",
    "final_x": "3675148.01403",
    "final_y": "533816.262341",
    "longitude": "-90.08804882988795",
    "latitude": "29.962000967671727",
    "geocoded_column": {
      "latitude": "29.962000967671727",
      "longitude": "-90.08804882988795"
    }
  },
  {
    "service_request": "2024-1144137",
    "request_type": "Health Related Request",
    "request_reason": "Noise Ordinance Complaint",
    "date_created": "2024-10-25T23:03:45.000",
    "date_modified": "2024-10-25T23:03:45.000",
    "request_status": "Pending",
    "responsible_agency": "Health Department",
    "final_address": "2549 Banks St",
    "address_councildis": "B",
    "status": "Pending",
    "rowid": "1144137",
    "final_x": "3675148.01403",
    "final_y": "533816.262341",
    "longitude": "-90.08804882988795",
    "latitude": "29.962000967671727",
    "geocoded_column": {
      "latitude": "29.962000967671727",
      "longitude": "-90.08804882988795"
    }
  },
  {
    "service_request": "2024-1144136",
    "request_type": "Health Related Request",
    "request_reason": "Noise Ordinance Complaint",
    "date_created": "2024-10-25T22:59:58.000",
    "date_modified": "2024-10-25T22:59:58.000",
    "request_status": "Pending",
    "responsible_agency": "Health Department",
    "final_address": "2549 Banks St, New Orleans, Louisiana, 70119",
    "address_councildis": "B",
    "status": "Pending",
    "rowid": "1144136",
    "final_x": "3675148.01403",
    "final_y": "533816.262341",
    "longitude": "-90.08804882988795",
    "latitude": "29.962000967671727",
    "geocoded_column": {
      "latitude": "29.962000967671727",
      "longitude": "-90.08804882988795"
    }
  },
  {
    "service_request": "2024-1144135",
    "request_type": "Health Related Request",
    "request_reason": "Noise Ordinance Complaint",
    "date_created": "2024-10-25T22:57:14.000",
    "date_modified": "2024-10-25T22:57:14.000",
    "request_status": "Pending",
    "responsible_agency": "Health Department",
    "final_address": "2549 Banks St, New Orleans, Louisiana, 70119",
    "address_councildis": "B",
    "status": "Pending",
    "rowid": "1144135",
    "final_x": "3675148.01403",
    "final_y": "533816.262341",
    "longitude": "-90.08804882988795",
    "latitude": "29.962000967671727",
    "geocoded_column": {
      "latitude": "29.962000967671727",
      "longitude": "-90.08804882988795"
    }
  },
  {
    "service_request": "2024-1144134",
    "request_type": "Utility Poles",
    "request_reason": "Utility Pole Leaning",
    "date_created": "2024-10-25T22:29:13.000",
    "date_modified": "2024-10-25T22:29:17.000",
    "request_status": "Pending",
    "responsible_agency": "Utility Company Collective",
    "final_address": "3730 Annunciation St",
    "address_councildis": "B",
    "status": "Pending",
    "rowid": "1144134",
    "final_x": "3673677.07329",
    "final_y": "518013.580214",
    "longitude": "-90.09323391710254",
    "latitude": "29.91859263256555",
    "geocoded_column": {
      "latitude": "29.91859263256555",
      "longitude": "-90.09323391710254"
    }
  },
  {
    "service_request": "2024-1144133",
    "request_type": "Abandoned Vehicles",
    "request_reason": "Abandoned/Junk Vehicles",
    "date_created": "2024-10-25T22:26:49.000",
    "date_modified": "2024-10-25T22:26:49.000",
    "request_status": "Pending",
    "responsible_agency": "Department of Public Works",
    "final_address": "3730 Annunciation St",
    "address_councildis": "B",
    "status": "Pending",
    "rowid": "1144133",
    "final_x": "3673677.07329",
    "final_y": "518013.580214",
    "longitude": "-90.09323391710254",
    "latitude": "29.91859263256555",
    "geocoded_column": {
      "latitude": "29.91859263256555",
      "longitude": "-90.09323391710254"
    }
  },
  {
    "service_request": "2024-1144132",
    "request_type": "Trash/Recycling",
    "request_reason": "Order Recycling Cart",
    "date_created": "2024-10-25T22:09:16.000",
    "date_modified": "2024-10-25T22:09:16.000",
    "request_status": "Pending",
    "responsible_agency": "Department of Sanitation",
    "final_address": "1827 Clouet St",
    "address_councildis": "D",
    "status": "Pending",
    "rowid": "1144132",
    "final_x": "3689764.47862",
    "final_y": "538865.024009",
    "longitude": "-90.0417127225406",
    "latitude": "29.97543841185072",
    "geocoded_column": {
      "latitude": "29.97543841185072",
      "longitude": "-90.0417127225406"
    }
  },
  {
    "service_request": "2024-1144131",
    "request_type": "Trash/Recycling",
    "request_reason": "Order Trash Cart",
    "date_created": "2024-10-25T22:08:12.000",
    "date_modified": "2024-10-25T22:08:13.000",
    "request_status": "Pending",
    "responsible_agency": "Department of Sanitation",
    "final_address": "1827 Clouet St",
    "address_councildis": "D",
    "status": "Assigned to Contractor",
    "contractor": "IV Waste",
    "rowid": "1144131",
    "final_x": "3689764.47862",
    "final_y": "538865.024009",
    "longitude": "-90.0417127225406",
    "latitude": "29.97543841185072",
    "geocoded_column": {
      "latitude": "29.97543841185072",
      "longitude": "-90.0417127225406"
    }
  },
  {
    "service_request": "2024-1144130",
    "request_type": "Trash/Recycling",
    "request_reason": "Order Trash Cart",
    "date_created": "2024-10-25T22:07:10.000",
    "date_modified": "2024-10-25T22:07:12.000",
    "request_status": "Pending",
    "responsible_agency": "Department of Sanitation",
    "final_address": "1827 Clouet St",
    "address_councildis": "D",
    "status": "Assigned to Contractor",
    "contractor": "IV Waste",
    "rowid": "1144130",
    "final_x": "3689764.47862",
    "final_y": "538865.024009",
    "longitude": "-90.0417127225406",
    "latitude": "29.97543841185072",
    "geocoded_column": {
      "latitude": "29.97543841185072",
      "longitude": "-90.0417127225406"
    }
  },
  {
    "service_request": "2024-1144129",
    "request_type": "Streetlights",
    "request_reason": "Streetlight Outage/Malfunction",
    "date_created": "2024-10-25T21:39:07.000",
    "date_modified": "2024-10-25T21:39:09.000",
    "request_status": "Pending",
    "responsible_agency": "Department of Public Works",
    "final_address": "5042 Toulon St",
    "address_councildis": "E",
    "status": "Pending",
    "contractor": "Legacy Professional Services",
    "rowid": "1144129",
    "final_x": "3723591.50022",
    "final_y": "561562.215583",
    "longitude": "-89.93400391160907",
    "latitude": "30.036754867934103",
    "geocoded_column": {
      "latitude": "30.036754867934103",
      "longitude": "-89.93400391160907"
    }
  },
  {
    "service_request": "2024-1144128",
    "request_type": "Trash/Recycling",
    "request_reason": "Start Trash Service",
    "date_created": "2024-10-25T21:07:08.000",
    "date_modified": "2024-10-25T21:07:09.000",
    "request_status": "Pending",
    "responsible_agency": "Department of Sanitation",
    "final_address": "7509 Ligustrum Dr",
    "address_councildis": "E",
    "status": "Assigned to Contractor",
    "contractor": "Waste Pro",
    "rowid": "1144128",
    "final_x": "3701723.09866",
    "final_y": "560813.524062",
    "longitude": "-90.00313970785334",
    "latitude": "30.03541244569842",
    "geocoded_column": {
      "latitude": "30.03541244569842",
      "longitude": "-90.00313970785334"
    }
  },
  {
    "service_request": "2024-1144127",
    "request_type": "Trash/Recycling",
    "request_reason": "Order Recycling Cart",
    "date_created": "2024-10-25T20:18:58.000",
    "date_modified": "2024-10-25T20:18:58.000",
    "request_status": "Pending",
    "responsible_agency": "Department of Sanitation",
    "final_address": "4422 S Tonti St",
    "address_councildis": "B",
    "status": "Pending",
    "rowid": "1144127",
    "final_x": "3669853.61383",
    "final_y": "528074.148351",
    "longitude": "-90.10496216378918",
    "latitude": "29.94636919378032",
    "geocoded_column": {
      "latitude": "29.94636919378032",
      "longitude": "-90.10496216378918"
    }
  },
  {
    "service_request": "2024-1144126",
    "request_type": "Streetlights",
    "request_reason": "Streetlight Outage/Malfunction",
    "date_created": "2024-10-25T20:17:52.000",
    "date_modified": "2024-10-25T20:17:53.000",
    "request_status": "Pending",
    "responsible_agency": "Department of Public Works",
    "final_address": "2585 St Nick Dr",
    "address_councildis": "C",
    "status": "Pending",
    "contractor": "Legacy Professional Services",
    "rowid": "1144126",
    "final_x": "3699293.06212",
    "final_y": "521491.805625",
    "longitude": "-90.0122516660285",
    "latitude": "29.927369413148238",
    "geocoded_column": {
      "latitude": "29.927369413148238",
      "longitude": "-90.0122516660285"
    }
  },
  {
    "service_request": "2024-1144125",
    "request_type": "Street and Traffic Signs",
    "request_reason": "Traffic or Parking Sign Damaged or Missing",
    "date_created": "2024-10-25T19:48:49.000",
    "date_modified": "2024-10-25T19:48:49.000",
    "request_status": "Pending",
    "responsible_agency": "Department of Public Works",
    "final_address": "6900 BLK Ridgefield Dr",
    "address_councildis": "E",
    "status": "Pending",
    "rowid": "1144125",
    "final_x": "3719606.20215",
    "final_y": "569300.347407",
    "longitude": "-89.94630212621607",
    "latitude": "30.058164767185836",
    "geocoded_column": {
      "latitude": "30.058164767185836",
      "longitude": "-89.94630212621607"
    }
  },
  {
    "service_request": "2024-1144124",
    "request_type": "Property Maintenance",
    "request_reason": "Property Maintenance",
    "date_created": "2024-10-25T19:34:17.000",
    "date_modified": "2024-10-25T19:34:17.000",
    "request_status": "Pending",
    "responsible_agency": "Department of Code Enforcement",
    "final_address": "7619 Lady Gray St",
    "address_councildis": "E",
    "status": "Pending",
    "rowid": "1144124",
    "final_x": "3710018.99409",
    "final_y": "565281.042786",
    "longitude": "-89.9767563715992",
    "latitude": "30.04742892103371",
    "geocoded_column": {
      "latitude": "30.04742892103371",
      "longitude": "-89.9767563715992"
    }
  },
  {
    "service_request": "2024-1144123",
    "request_type": "Property Maintenance",
    "request_reason": "Property Maintenance",
    "date_created": "2024-10-25T19:26:42.000",
    "date_modified": "2024-10-25T19:26:42.000",
    "request_status": "Pending",
    "responsible_agency": "Department of Code Enforcement",
    "final_address": "7650 Lady Gray St",
    "address_councildis": "E",
    "status": "Pending",
    "rowid": "1144123",
    "final_x": "3709827.71339",
    "final_y": "565451.422114",
    "longitude": "-89.977354545809",
    "latitude": "30.047903620986805",
    "geocoded_column": {
      "latitude": "30.047903620986805",
      "longitude": "-89.977354545809"
    }
  },
  {
    "service_request": "2024-1144122",
    "request_type": "Property Maintenance",
    "request_reason": "Property Maintenance",
    "date_created": "2024-10-25T19:23:35.000",
    "date_modified": "2024-10-25T19:23:35.000",
    "request_status": "Pending",
    "responsible_agency": "Department of Code Enforcement",
    "final_address": "7650 Lady Gray St",
    "address_councildis": "E",
    "status": "Pending",
    "rowid": "1144122",
    "final_x": "3709827.71339",
    "final_y": "565451.422114",
    "longitude": "-89.977354545809",
    "latitude": "30.047903620986805",
    "geocoded_column": {
      "latitude": "30.047903620986805",
      "longitude": "-89.977354545809"
    }
  },
  {
    "service_request": "2024-1144121",
    "request_type": "Trash/Recycling",
    "request_reason": "Replace Trash Cart",
    "date_created": "2024-10-25T19:17:44.000",
    "date_modified": "2024-10-25T19:17:45.000",
    "request_status": "Pending",
    "responsible_agency": "Department of Sanitation",
    "final_address": "1443 St Mary St",
    "address_councildis": "B",
    "status": "Assigned to Contractor",
    "contractor": "IV Waste",
    "rowid": "1144121",
    "final_x": "3678855.51765",
    "final_y": "523854.656891",
    "longitude": "-90.07668609606944",
    "latitude": "29.93449856913883",
    "geocoded_column": {
      "latitude": "29.93449856913883",
      "longitude": "-90.07668609606944"
    }
  },
  {
    "service_request": "2024-1144120",
    "request_type": "Property Maintenance",
    "request_reason": "Property Maintenance",
    "date_created": "2024-10-25T19:09:45.000",
    "date_modified": "2024-10-25T19:09:45.000",
    "request_status": "Pending",
    "responsible_agency": "Department of Code Enforcement",
    "final_address": "7650 Lady Gray St",
    "address_councildis": "E",
    "status": "Pending",
    "rowid": "1144120",
    "final_x": "3709827.71339",
    "final_y": "565451.422114",
    "longitude": "-89.977354545809",
    "latitude": "30.047903620986805",
    "geocoded_column": {
      "latitude": "30.047903620986805",
      "longitude": "-89.977354545809"
    }
  },
  {
    "service_request": "2024-1144119",
    "request_type": "Streetlights",
    "request_reason": "Streetlight Outage/Malfunction",
    "date_created": "2024-10-25T18:54:13.000",
    "date_modified": "2024-10-25T18:54:14.000",
    "request_status": "Pending",
    "responsible_agency": "Department of Public Works",
    "final_address": "6515 Wuerpel St",
    "address_councildis": "A",
    "status": "Pending",
    "contractor": "Legacy Professional Services",
    "rowid": "1144119",
    "final_x": "3667091.53428",
    "final_y": "551004.648149",
    "longitude": "-90.11291192862373",
    "latitude": "30.009501488202474",
    "geocoded_column": {
      "latitude": "30.009501488202474",
      "longitude": "-90.11291192862373"
    }
  },
  {
    "service_request": "2024-1144118",
    "request_type": "Street and Traffic Signs",
    "request_reason": "Additional Signage Request",
    "date_created": "2024-10-25T18:51:04.000",
    "date_modified": "2024-10-25T18:51:04.000",
    "request_status": "Pending",
    "responsible_agency": "Department of Public Works",
    "final_address": "6900 BLK Ridgefield Dr",
    "address_councildis": "E",
    "status": "Pending",
    "rowid": "1144118",
    "final_x": "3719606.20215",
    "final_y": "569300.347407",
    "longitude": "-89.94630212621607",
    "latitude": "30.058164767185836",
    "geocoded_column": {
      "latitude": "30.058164767185836",
      "longitude": "-89.94630212621607"
    }
  },
  {
    "service_request": "2024-1144117",
    "request_type": "Trash/Recycling",
    "request_reason": "Request a Large Item Pick Up",
    "date_created": "2024-10-25T18:33:00.000",
    "date_modified": "2024-10-26T06:49:58.000",
    "request_status": "Pending",
    "responsible_agency": "Department of Sanitation",
    "final_address": "5642 Chatham Dr, New Orleans, Louisiana, 70122",
    "address_councildis": "D",
    "status": "Assigned to Contractor",
    "contractor": "IV Waste",
    "rowid": "1144117",
    "final_x": "3679606.24578",
    "final_y": "553335.493207",
    "longitude": "-90.07329260485847",
    "latitude": "30.01553802716469",
    "geocoded_column": {
      "latitude": "30.01553802716469",
      "longitude": "-90.07329260485847"
    }
  },
  {
    "service_request": "2024-1144116",
    "request_type": "Trash/Recycling",
    "request_reason": "Return Trash Cart",
    "date_created": "2024-10-25T17:41:28.000",
    "date_modified": "2024-10-25T17:41:29.000",
    "request_status": "Pending",
    "responsible_agency": "Department of Sanitation",
    "final_address": "1817 Jackson Ave, New Orleans, Louisiana, 70113",
    "address_councildis": "B",
    "status": "Assigned to Contractor",
    "contractor": "IV Waste",
    "rowid": "1144116",
    "final_x": "3676951.77192",
    "final_y": "524636.301884",
    "longitude": "-90.0826692453066",
    "latitude": "29.93670510818005",
    "geocoded_column": {
      "latitude": "29.93670510818005",
      "longitude": "-90.0826692453066"
    }
  },
  {
    "service_request": "2024-1144115",
    "request_type": "Roads and Streets",
    "request_reason": "Street Subsidence (Sinking)",
    "date_created": "2024-10-25T17:35:55.000",
    "date_modified": "2024-10-25T17:35:55.000",
    "request_status": "Pending",
    "responsible_agency": "Department of Public Works",
    "final_address": "863 Olga St",
    "address_councildis": "A",
    "status": "Pending",
    "rowid": "1144115",
    "final_x": "3673314.09627",
    "final_y": "540278.726731",
    "longitude": "-90.09361927570885",
    "latitude": "29.979825233768352",
    "geocoded_column": {
      "latitude": "29.979825233768352",
      "longitude": "-90.09361927570885"
    }
  },
  {
    "service_request": "2024-1144114",
    "request_type": "General Services",
    "request_reason": "General Service Request",
    "date_created": "2024-10-25T17:32:03.000",
    "date_modified": "2024-10-25T17:32:03.000",
    "request_status": "Pending",
    "responsible_agency": "Orleans Parish Communication District",
    "final_address": "1564 N Prieur St, New Orleans, Louisiana, 70116",
    "address_councildis": "D",
    "status": "Pending",
    "rowid": "1144114",
    "final_x": "3681296.45192",
    "final_y": "538269.626889",
    "longitude": "-90.06847778672835",
    "latitude": "29.97406102351161",
    "geocoded_column": {
      "latitude": "29.97406102351161",
      "longitude": "-90.06847778672835"
    }
  },
  {
    "service_request": "2024-1144113",
    "request_type": "Trash/Recycling",
    "request_reason": "Request a Large Item Pick Up",
    "date_created": "2024-10-25T17:13:09.000",
    "date_modified": "2024-10-25T17:13:10.000",
    "request_status": "Pending",
    "responsible_agency": "Department of Sanitation",
    "final_address": "225 N Roman St",
    "address_councildis": "B",
    "status": "Assigned to Contractor",
    "contractor": "IV Waste",
    "rowid": "1144113",
    "final_x": "3678197.74082",
    "final_y": "533802.411077",
    "longitude": "-90.07841873920084",
    "latitude": "29.961871394128256",
    "geocoded_column": {
      "latitude": "29.961871394128256",
      "longitude": "-90.07841873920084"
    }
  },
  {
    "service_request": "2024-1144112",
    "request_type": "Trash/Recycling",
    "request_reason": "Replace Trash Cart",
    "date_created": "2024-10-25T17:11:13.000",
    "date_modified": "2024-10-25T17:11:14.000",
    "request_status": "Pending",
    "responsible_agency": "Department of Sanitation",
    "final_address": "3111 Louisiana Avenue Prkwy",
    "address_councildis": "B",
    "status": "Assigned to Contractor",
    "contractor": "IV Waste",
    "rowid": "1144112",
    "final_x": "3672145.23867",
    "final_y": "526691.246526",
    "longitude": "-90.09777376600834",
    "latitude": "29.942498916608887",
    "geocoded_column": {
      "latitude": "29.942498916608887",
      "longitude": "-90.09777376600834"
    }
  },
  {
    "service_request": "2024-1144111",
    "request_type": "Trash/Recycling",
    "request_reason": "Repair Trash Cart",
    "date_created": "2024-10-25T17:04:41.000",
    "date_modified": "2024-10-25T17:04:42.000",
    "request_status": "Pending",
    "responsible_agency": "Department of Sanitation",
    "final_address": "1135 N White St",
    "address_councildis": "A",
    "status": "Assigned to Contractor",
    "contractor": "IV Waste",
    "rowid": "1144111",
    "final_x": "3677315.11349",
    "final_y": "539102.373258",
    "longitude": "-90.08102302237882",
    "latitude": "29.97647103317845",
    "geocoded_column": {
      "latitude": "29.97647103317845",
      "longitude": "-90.08102302237882"
    }
  },
  {
    "service_request": "2024-1144110",
    "request_type": "Trash/Recycling",
    "request_reason": "Dead Animal Pick Up",
    "date_created": "2024-10-25T16:55:37.000",
    "date_modified": "2024-10-25T16:55:38.000",
    "request_status": "Pending",
    "responsible_agency": "Department of Sanitation",
    "final_address": "5564 Tullis Dr",
    "address_councildis": "C",
    "status": "Assigned to Contractor",
    "contractor": "Richards Disposal",
    "rowid": "1144110",
    "final_x": "3704588.02404",
    "final_y": "512297.903025",
    "longitude": "-89.99587568776658",
    "latitude": "29.901920421149033",
    "geocoded_column": {
      "latitude": "29.901920421149033",
      "longitude": "-89.99587568776658"
    }
  },
  {
    "service_request": "2024-1144109",
    "request_type": "Trash/Recycling",
    "request_reason": "Request a Large Item Pick Up",
    "date_created": "2024-10-25T16:54:31.000",
    "date_modified": "2024-10-25T16:54:32.000",
    "request_status": "Pending",
    "responsible_agency": "Department of Sanitation",
    "final_address": "2667 Allen Toussaint Blvd",
    "address_councildis": "D",
    "status": "Assigned to Contractor",
    "contractor": "IV Waste",
    "rowid": "1144109",
    "final_x": "3686950.95228",
    "final_y": "556098.446234",
    "longitude": "-90.04998898722111",
    "latitude": "30.022911000914586",
    "geocoded_column": {
      "latitude": "30.022911000914586",
      "longitude": "-90.04998898722111"
    }
  },
  {
    "service_request": "2024-1144108",
    "request_type": "Streetlights",
    "request_reason": "Streetlight Knocked Down/Leaning",
    "date_created": "2024-10-25T16:47:00.000",
    "date_modified": "2024-10-25T16:47:01.000",
    "request_status": "Pending",
    "responsible_agency": "Department of Public Works",
    "final_address": "6521 Spanish Fort Blvd",
    "address_councildis": "D",
    "status": "Pending",
    "contractor": "Legacy Professional Services",
    "rowid": "1144108",
    "final_x": "3674192.7538",
    "final_y": "556167.959578",
    "longitude": "-90.09029969566677",
    "latitude": "30.02348886776225",
    "geocoded_column": {
      "latitude": "30.02348886776225",
      "longitude": "-90.09029969566677"
    }
  },
  {
    "service_request": "2024-1144107",
    "request_type": "Trash/Recycling",
    "request_reason": "Request a Large Item Pick Up",
    "date_created": "2024-10-25T16:44:20.000",
    "date_modified": "2024-10-25T16:44:21.000",
    "request_status": "Pending",
    "responsible_agency": "Department of Sanitation",
    "final_address": "429 Florida Blvd",
    "address_councildis": "A",
    "status": "Assigned to Contractor",
    "contractor": "IV Waste",
    "rowid": "1144107",
    "final_x": "3667555.70061",
    "final_y": "545538.817808",
    "longitude": "-90.11162957771627",
    "latitude": "29.994458745962586",
    "geocoded_column": {
      "latitude": "29.994458745962586",
      "longitude": "-90.11162957771627"
    }
  },
  {
    "service_request": "2024-1144106",
    "request_type": "Trash/Recycling",
    "request_reason": "Request a Large Item Pick Up",
    "date_created": "2024-10-25T16:36:04.000",
    "date_modified": "2024-10-25T16:36:06.000",
    "request_status": "Pending",
    "responsible_agency": "Department of Sanitation",
    "final_address": "6954 Thor Ct",
    "address_councildis": "E",
    "status": "Assigned to Contractor",
    "contractor": "Waste Pro",
    "rowid": "1144106",
    "final_x": "3702573.21053",
    "final_y": "558700.978268",
    "longitude": "-90.00053088170375",
    "latitude": "30.029576603945138",
    "geocoded_column": {
      "latitude": "30.029576603945138",
      "longitude": "-90.00053088170375"
    }
  },
  {
    "service_request": "2024-1144105",
    "request_type": "Property Maintenance",
    "request_reason": "Property Maintenance",
    "date_created": "2024-10-25T16:35:46.000",
    "date_modified": "2024-10-25T16:35:46.000",
    "request_status": "Pending",
    "responsible_agency": "Department of Code Enforcement",
    "final_address": "1312 Short St",
    "address_councildis": "A",
    "status": "Pending",
    "rowid": "1144105",
    "final_x": "3662611.44378",
    "final_y": "528484.059968",
    "longitude": "-90.127814733839",
    "latitude": "29.947707811182493",
    "geocoded_column": {
      "latitude": "29.947707811182493",
      "longitude": "-90.127814733839"
    }
  },
  {
    "service_request": "2024-1144104",
    "request_type": "Property Maintenance",
    "request_reason": "Property Maintenance",
    "date_created": "2024-10-25T16:31:51.000",
    "date_modified": "2024-10-25T16:31:51.000",
    "request_status": "Pending",
    "responsible_agency": "Department of Code Enforcement",
    "final_address": "933 Gordon St",
    "address_councildis": "E",
    "status": "Pending",
    "rowid": "1144104",
    "final_x": "3698985.75575",
    "final_y": "532943.462084",
    "longitude": "-90.01280513809115",
    "latitude": "29.958867205988412",
    "geocoded_column": {
      "latitude": "29.958867205988412",
      "longitude": "-90.01280513809115"
    }
  },
  {
    "service_request": "2024-1144103",
    "request_type": "Trash/Recycling",
    "request_reason": "Missed Trash Pick-Up",
    "date_created": "2024-10-25T16:24:20.000",
    "date_modified": "2024-10-25T16:24:22.000",
    "request_status": "Pending",
    "responsible_agency": "Department of Sanitation",
    "final_address": "6954 Thor Ct",
    "address_councildis": "E",
    "status": "Assigned to Contractor",
    "contractor": "Waste Pro",
    "rowid": "1144103",
    "final_x": "3702573.21053",
    "final_y": "558700.978268",
    "longitude": "-90.00053088170375",
    "latitude": "30.029576603945138",
    "geocoded_column": {
      "latitude": "30.029576603945138",
      "longitude": "-90.00053088170375"
    }
  },
  {
    "service_request": "2024-1144102",
    "request_type": "Property Maintenance",
    "request_reason": "Property Maintenance",
    "date_created": "2024-10-25T16:20:53.000",
    "date_modified": "2024-10-25T16:20:54.000",
    "request_status": "Pending",
    "responsible_agency": "Department of Code Enforcement",
    "final_address": "51 Westpark Ct",
    "address_councildis": "C",
    "status": "Pending",
    "rowid": "1144102",
    "final_x": "3695778.13814",
    "final_y": "521594.490681",
    "longitude": "-90.023343640404",
    "latitude": "29.92776272399358",
    "geocoded_column": {
      "latitude": "29.92776272399358",
      "longitude": "-90.023343640404"
    }
  },
  {
    "service_request": "2024-1144101",
    "request_type": "Trash/Recycling",
    "request_reason": "Request a Large Item Pick Up",
    "date_created": "2024-10-25T16:05:12.000",
    "date_modified": "2024-10-25T16:05:13.000",
    "request_status": "Pending",
    "responsible_agency": "Department of Sanitation",
    "final_address": "5715 Dauphine St",
    "address_councildis": "E",
    "status": "Assigned to Contractor",
    "contractor": "Waste Pro",
    "rowid": "1144101",
    "final_x": "3698197.70544",
    "final_y": "532553.081092",
    "longitude": "-90.01530776625226",
    "latitude": "29.95781874524404",
    "geocoded_column": {
      "latitude": "29.95781874524404",
      "longitude": "-90.01530776625226"
    }
  },
  {
    "service_request": "2024-1144100",
    "request_type": "Trash/Recycling",
    "request_reason": "Order Trash Cart",
    "date_created": "2024-10-25T16:04:12.000",
    "date_modified": "2024-10-25T16:04:13.000",
    "request_status": "Pending",
    "responsible_agency": "Department of Sanitation",
    "final_address": "1522 Camp St",
    "address_councildis": "B",
    "status": "Assigned to Contractor",
    "contractor": "IV Waste",
    "rowid": "1144100",
    "final_x": "3679800.20328",
    "final_y": "523733.730363",
    "longitude": "-90.07370794377567",
    "latitude": "29.93413753956748",
    "geocoded_column": {
      "latitude": "29.93413753956748",
      "longitude": "-90.07370794377567"
    }
  },
  {
    "service_request": "2024-1144099",
    "request_type": "Trash/Recycling",
    "request_reason": "Request a Large Item Pick Up",
    "date_created": "2024-10-25T16:03:53.000",
    "date_modified": "2024-10-26T10:45:18.000",
    "case_close_date": "2024-10-26T05:45:18.000",
    "request_status": "Closed",
    "responsible_agency": "Department of Sanitation",
    "final_address": "5610 Woodlawn Pl",
    "address_councildis": "A",
    "status": "Invalid Request",
    "contractor": "IV Waste",
    "contractor_action": "Invalid Request",
    "rowid": "1144099",
    "final_x": "3667425.01351",
    "final_y": "544764.612047",
    "longitude": "-90.11206846917456",
    "latitude": "29.992333776091748",
    "geocoded_column": {
      "latitude": "29.992333776091748",
      "longitude": "-90.11206846917456"
    }
  },
  {
    "service_request": "2024-1144098",
    "request_type": "Trash/Recycling",
    "request_reason": "Missed Trash Pick-Up",
    "date_created": "2024-10-25T15:58:23.000",
    "date_modified": "2024-10-25T16:55:33.000",
    "case_close_date": "2024-10-25T11:55:33.000",
    "request_status": "Closed",
    "responsible_agency": "Department of Sanitation",
    "final_address": "2306 Annunciation St",
    "address_councildis": "B",
    "status": "Invalid Request",
    "contractor": "IV Waste",
    "contractor_action": "Invalid Request",
    "rowid": "1144098",
    "final_x": "3679164.05858",
    "final_y": "520899.172025",
    "longitude": "-90.07581443756943",
    "latitude": "29.926362646658227",
    "geocoded_column": {
      "latitude": "29.926362646658227",
      "longitude": "-90.07581443756943"
    }
  },
  {
    "service_request": "2024-1144097",
    "request_type": "Trash/Recycling",
    "request_reason": "Request a Large Item Pick Up",
    "date_created": "2024-10-25T15:58:13.000",
    "date_modified": "2024-10-25T15:58:14.000",
    "request_status": "Pending",
    "responsible_agency": "Department of Sanitation",
    "final_address": "24 Curtis Dr",
    "address_councildis": "E",
    "status": "Assigned to Contractor",
    "contractor": "Waste Pro",
    "rowid": "1144097",
    "final_x": "3698255.90045",
    "final_y": "560915.634654",
    "longitude": "-90.01409286574878",
    "latitude": "30.03580342776011",
    "geocoded_column": {
      "latitude": "30.03580342776011",
      "longitude": "-90.01409286574878"
    }
  },
  {
    "service_request": "2024-1144096",
    "request_type": "Roads and Streets",
    "request_reason": "Street Subsidence (Sinking)",
    "date_created": "2024-10-25T15:57:08.000",
    "date_modified": "2024-10-25T15:57:08.000",
    "request_status": "Pending",
    "responsible_agency": "Department of Public Works",
    "final_address": "LAFITTE ST & N GALVEZ ST",
    "address_councildis": "D",
    "status": "Pending",
    "rowid": "1144096",
    "final_x": "3678063.5",
    "final_y": "535353.38",
    "longitude": "-90.07878902707445",
    "latitude": "29.96614007394721",
    "geocoded_column": {
      "latitude": "29.96614007394721",
      "longitude": "-90.07878902707445"
    }
  },
  {
    "service_request": "2024-1144095",
    "request_type": "Trash/Recycling",
    "request_reason": "MIssed Recycling Pick-Up",
    "date_created": "2024-10-25T15:56:22.000",
    "date_modified": "2024-10-25T15:56:23.000",
    "request_status": "Pending",
    "responsible_agency": "Department of Sanitation",
    "final_address": "61 Tradewinds Ct",
    "address_councildis": "E",
    "status": "Assigned to Contractor",
    "contractor": "Waste Pro",
    "rowid": "1144095",
    "final_x": "3715415.28171",
    "final_y": "570620.553767",
    "longitude": "-89.95949898692555",
    "latitude": "30.061933612513506",
    "geocoded_column": {
      "latitude": "30.061933612513506",
      "longitude": "-89.95949898692555"
    }
  },
  {
    "service_request": "2024-1144094",
    "request_type": "Trash/Recycling",
    "request_reason": "Request a Large Item Pick Up",
    "date_created": "2024-10-25T15:54:40.000",
    "date_modified": "2024-10-25T15:54:41.000",
    "request_status": "Pending",
    "responsible_agency": "Department of Sanitation",
    "final_address": "7131 Cove Dr",
    "address_councildis": "E",
    "status": "Assigned to Contractor",
    "contractor": "Waste Pro",
    "rowid": "1144094",
    "final_x": "3700319.29898",
    "final_y": "558756.521948",
    "longitude": "-90.00765113245635",
    "latitude": "30.029801221213713",
    "geocoded_column": {
      "latitude": "30.029801221213713",
      "longitude": "-90.00765113245635"
    }
  },
  {
    "service_request": "2024-1144093",
    "request_type": "Trash/Recycling",
    "request_reason": "Request a Large Item Pick Up",
    "date_created": "2024-10-25T15:54:01.000",
    "date_modified": "2024-10-25T15:54:02.000",
    "request_status": "Pending",
    "responsible_agency": "Department of Sanitation",
    "final_address": "7534 Birch St",
    "address_councildis": "A",
    "status": "Assigned to Contractor",
    "contractor": "IV Waste",
    "rowid": "1144093",
    "final_x": "3664291.62176",
    "final_y": "528107.041855",
    "longitude": "-90.12252230623676",
    "latitude": "29.94662242023292",
    "geocoded_column": {
      "latitude": "29.94662242023292",
      "longitude": "-90.12252230623676"
    }
  },
  {
    "service_request": "2024-1144091",
    "request_type": "Drainage",
    "request_reason": "Catch Basin Damaged",
    "date_created": "2024-10-25T15:48:52.000",
    "date_modified": "2024-10-25T15:48:52.000",
    "request_status": "Pending",
    "responsible_agency": "Department of Public Works",
    "final_address": "ROGER WILLIAMS ST & CASTINE ST",
    "address_councildis": "D",
    "status": "Pending",
    "rowid": "1144091",
    "final_x": "3677361.3",
    "final_y": "543957.08",
    "longitude": "-90.08070953604243",
    "latitude": "29.989818406226917",
    "geocoded_column": {
      "latitude": "29.989818406226917",
      "longitude": "-90.08070953604243"
    }
  },
  {
    "service_request": "2024-1144090",
    "request_type": "Abandoned Vehicles",
    "request_reason": "Abandoned/Junk Vehicles",
    "date_created": "2024-10-25T15:47:22.000",
    "date_modified": "2024-10-25T15:48:29.000",
    "request_status": "Pending",
    "responsible_agency": "Department of Public Works",
    "final_address": "4790 Camelot Dr",
    "address_councildis": "E",
    "status": "Pending",
    "rowid": "1144090",
    "final_x": "3708267.37816",
    "final_y": "555923.635545",
    "longitude": "-89.982641011221",
    "latitude": "30.021756653776233",
    "geocoded_column": {
      "latitude": "30.021756653776233",
      "longitude": "-89.982641011221"
    }
  },
  {
    "service_request": "2024-1144089",
    "request_type": "Abandoned Vehicles",
    "request_reason": "Abandoned/Junk Vehicles",
    "date_created": "2024-10-25T15:45:53.000",
    "date_modified": "2024-10-25T15:47:05.000",
    "request_status": "Pending",
    "responsible_agency": "Department of Public Works",
    "final_address": "4742 Camelot Dr",
    "address_councildis": "E",
    "status": "Pending",
    "rowid": "1144089",
    "final_x": "3708303.46238",
    "final_y": "555575.032665",
    "longitude": "-89.98253998069168",
    "latitude": "30.020796961962905",
    "geocoded_column": {
      "latitude": "30.020796961962905",
      "longitude": "-89.98253998069168"
    }
  },
  {
    "service_request": "2024-1144088",
    "request_type": "Trash/Recycling",
    "request_reason": "Illegal Dumping",
    "date_created": "2024-10-25T15:45:49.000",
    "date_modified": "2024-10-25T15:45:50.000",
    "request_status": "Pending",
    "responsible_agency": "Department of Sanitation",
    "final_address": "WALES ST & FLOUNDER ST",
    "address_councildis": "E",
    "status": "Pending",
    "rowid": "1144088",
    "final_x": "3699812.2",
    "final_y": "561221.48",
    "longitude": "-90.0091635364239",
    "latitude": "30.03659502366877",
    "geocoded_column": {
      "latitude": "30.03659502366877",
      "longitude": "-90.0091635364239"
    }
  },
  {
    "service_request": "2024-1144087",
    "request_type": "Trash/Recycling",
    "request_reason": "Repair Recycling Cart",
    "date_created": "2024-10-25T15:45:36.000",
    "date_modified": "2024-10-25T15:45:37.000",
    "request_status": "Pending",
    "responsible_agency": "Department of Sanitation",
    "final_address": "2933 St Charles Ave",
    "address_councildis": "B",
    "status": "Pending",
    "rowid": "1144087",
    "final_x": "3675231.0027",
    "final_y": "522181.186106",
    "longitude": "-90.08818602515754",
    "latitude": "29.930005871035295",
    "geocoded_column": {
      "latitude": "29.930005871035295",
      "longitude": "-90.08818602515754"
    }
  },
  {
    "service_request": "2024-1144086",
    "request_type": "Abandoned Vehicles",
    "request_reason": "Abandoned/Junk Vehicles",
    "date_created": "2024-10-25T15:43:48.000",
    "date_modified": "2024-10-25T15:45:31.000",
    "request_status": "Pending",
    "responsible_agency": "Department of Public Works",
    "final_address": "4643 Camelot Dr",
    "address_councildis": "E",
    "status": "Pending",
    "rowid": "1144086",
    "final_x": "3708487.16689",
    "final_y": "555046.535129",
    "longitude": "-89.98197922749928",
    "latitude": "30.01933784334017",
    "geocoded_column": {
      "latitude": "30.01933784334017",
      "longitude": "-89.98197922749928"
    }
  },
  {
    "service_request": "2024-1144085",
    "request_type": "Trash/Recycling",
    "request_reason": "Request a Large Item Pick Up",
    "date_created": "2024-10-25T15:41:37.000",
    "date_modified": "2024-10-25T15:41:39.000",
    "request_status": "Pending",
    "responsible_agency": "Department of Sanitation",
    "final_address": "14021 Linden St",
    "address_councildis": "E",
    "status": "Assigned to Contractor",
    "contractor": "Waste Pro",
    "rowid": "1144085",
    "final_x": "3718384.33113",
    "final_y": "572516.798633",
    "longitude": "-89.95004154345258",
    "latitude": "30.067049277630513",
    "geocoded_column": {
      "latitude": "30.067049277630513",
      "longitude": "-89.95004154345258"
    }
  },
  {
    "service_request": "2024-1144084",
    "request_type": "Roads and Streets",
    "request_reason": "Pothole",
    "date_created": "2024-10-25T15:35:55.000",
    "date_modified": "2024-10-25T15:35:55.000",
    "request_status": "Pending",
    "responsible_agency": "Department of Public Works",
    "final_address": "4400 BLK Bundy Rd",
    "address_councildis": "E",
    "status": "Pending",
    "rowid": "1144084",
    "final_x": "3709592.58111",
    "final_y": "553962.74324",
    "longitude": "-89.97852701549871",
    "latitude": "30.016321944597944",
    "geocoded_column": {
      "latitude": "30.016321944597944",
      "longitude": "-89.97852701549871"
    }
  },
  {
    "service_request": "2024-1144083",
    "request_type": "Trash/Recycling",
    "request_reason": "Return Trash Cart",
    "date_created": "2024-10-25T15:33:13.000",
    "date_modified": "2024-10-25T15:33:14.000",
    "request_status": "Pending",
    "responsible_agency": "Department of Sanitation",
    "final_address": "3560 Post Oak Ave",
    "address_councildis": "C",
    "status": "Assigned to Contractor",
    "contractor": "Richards Disposal",
    "rowid": "1144083",
    "final_x": "3703607.76478",
    "final_y": "514722.642675",
    "longitude": "-89.99888018966824",
    "latitude": "29.908619056062182",
    "geocoded_column": {
      "latitude": "29.908619056062182",
      "longitude": "-89.99888018966824"
    }
  },
  {
    "service_request": "2024-1144082",
    "request_type": "Abandoned Vehicles",
    "request_reason": "Abandoned/Junk Vehicles",
    "date_created": "2024-10-25T15:32:35.000",
    "date_modified": "2024-10-25T15:34:55.000",
    "request_status": "Pending",
    "responsible_agency": "Department of Public Works",
    "final_address": "1002 N Dupre St",
    "address_councildis": "A",
    "status": "Pending",
    "rowid": "1144082",
    "final_x": "3676758.83016",
    "final_y": "538405.259785",
    "longitude": "-90.08280396392445",
    "latitude": "29.974570915643255",
    "geocoded_column": {
      "latitude": "29.974570915643255",
      "longitude": "-90.08280396392445"
    }
  },
  {
    "service_request": "2024-1144080",
    "request_type": "Trash/Recycling",
    "request_reason": "Replace Trash Cart",
    "date_created": "2024-10-25T15:19:05.000",
    "date_modified": "2024-10-25T15:19:06.000",
    "request_status": "Pending",
    "responsible_agency": "Department of Sanitation",
    "final_address": "4220 Ulloa St",
    "address_councildis": "A",
    "status": "Assigned to Contractor",
    "contractor": "IV Waste",
    "rowid": "1144080",
    "final_x": "3668976.31502",
    "final_y": "536956.437192",
    "longitude": "-90.10743207231492",
    "latitude": "29.97081838822962",
    "geocoded_column": {
      "latitude": "29.97081838822962",
      "longitude": "-90.10743207231492"
    }
  },
  {
    "service_request": "2024-1144079",
    "request_type": "Streetlights",
    "request_reason": "Streetlight Outage/Malfunction",
    "date_created": "2024-10-25T15:17:45.000",
    "date_modified": "2024-10-25T15:17:47.000",
    "request_status": "Pending",
    "responsible_agency": "Department of Public Works",
    "final_address": "10 Wren St",
    "address_councildis": "D",
    "status": "Pending",
    "contractor": "Legacy Professional Services",
    "rowid": "1144079",
    "final_x": "3672129.47374",
    "final_y": "555974.084057",
    "longitude": "-90.09682585772734",
    "latitude": "30.023017163248607",
    "geocoded_column": {
      "latitude": "30.023017163248607",
      "longitude": "-90.09682585772734"
    }
  },
  {
    "service_request": "2024-1144078",
    "request_type": "Trash/Recycling",
    "request_reason": "Replace Trash Cart",
    "date_created": "2024-10-25T15:14:52.000",
    "date_modified": "2024-10-25T15:14:53.000",
    "request_status": "Pending",
    "responsible_agency": "Department of Sanitation",
    "final_address": "824 Sumner St",
    "address_councildis": "C",
    "status": "Assigned to Contractor",
    "contractor": "Richards Disposal",
    "rowid": "1144078",
    "final_x": "3691201.48912",
    "final_y": "528276.990144",
    "longitude": "-90.03755242699559",
    "latitude": "29.946280399973634",
    "geocoded_column": {
      "latitude": "29.946280399973634",
      "longitude": "-90.03755242699559"
    }
  },
  {
    "service_request": "2024-1144077",
    "request_type": "Trash/Recycling",
    "request_reason": "Illegal Dumping",
    "date_created": "2024-10-25T15:13:37.000",
    "date_modified": "2024-10-25T15:13:37.000",
    "request_status": "Pending",
    "responsible_agency": "Department of Sanitation",
    "final_address": "9800 BLK Grant St",
    "address_councildis": "E",
    "status": "Pending",
    "rowid": "1144077",
    "final_x": "3711937.37268",
    "final_y": "555126.589338",
    "longitude": "-89.97107485135072",
    "latitude": "30.01944562681986",
    "geocoded_column": {
      "latitude": "30.01944562681986",
      "longitude": "-89.97107485135072"
    }
  },
  {
    "service_request": "2024-1144076",
    "request_type": "Safety & Permits",
    "request_reason": "Zoning Enforcement",
    "date_created": "2024-10-25T15:11:48.000",
    "date_modified": "2024-10-25T15:15:53.000",
    "request_status": "Pending",
    "responsible_agency": "Safety and Permits",
    "final_address": "5600 BLK Cartier Ave",
    "address_councildis": "D",
    "rowid": "1144076",
    "final_x": "3677551.83482",
    "final_y": "553144.424339",
    "longitude": "-90.0797902078168",
    "latitude": "30.015074615450477",
    "geocoded_column": {
      "latitude": "30.015074615450477",
      "longitude": "-90.0797902078168"
    }
  },
  {
    "service_request": "2024-1144075",
    "request_type": "Safety & Permits",
    "request_reason": "Licenses & Permits",
    "date_created": "2024-10-25T15:11:37.000",
    "date_modified": "2024-10-25T15:11:38.000",
    "request_status": "Pending",
    "responsible_agency": "Safety and Permits",
    "final_address": "1531 Lowerline St",
    "address_councildis": "A",
    "status": "Pending",
    "rowid": "1144075",
    "final_x": "3664452.88448",
    "final_y": "527918.451199",
    "longitude": "-90.12201943441225",
    "latitude": "29.946099169987914",
    "geocoded_column": {
      "latitude": "29.946099169987914",
      "longitude": "-90.12201943441225"
    }
  },
  {
    "service_request": "2024-1144074",
    "request_type": "Trash/Recycling",
    "request_reason": "Return Trash Cart",
    "date_created": "2024-10-25T15:08:21.000",
    "date_modified": "2024-10-25T15:08:22.000",
    "request_status": "Pending",
    "responsible_agency": "Department of Sanitation",
    "final_address": "2552 Dumaine St",
    "address_councildis": "D",
    "status": "Assigned to Contractor",
    "contractor": "IV Waste",
    "rowid": "1144074",
    "final_x": "3677602.1677",
    "final_y": "537131.789768",
    "longitude": "-90.08018448309603",
    "latitude": "29.9710439749077",
    "geocoded_column": {
      "latitude": "29.9710439749077",
      "longitude": "-90.08018448309603"
    }
  },
  {
    "service_request": "2024-1144073",
    "request_type": "Roads and Streets",
    "request_reason": "Street Subsidence (Sinking)",
    "date_created": "2024-10-25T14:59:43.000",
    "date_modified": "2024-10-25T15:01:38.000",
    "request_status": "Pending",
    "responsible_agency": "Department of Public Works",
    "final_address": "ST CHARLES AVE & VALMONT ST",
    "address_councildis": "B",
    "status": "Pending",
    "rowid": "1144073",
    "final_x": "3667836.6",
    "final_y": "521269.78",
    "longitude": "-90.11155968151535",
    "latitude": "29.927718666374187",
    "geocoded_column": {
      "latitude": "29.927718666374187",
      "longitude": "-90.11155968151535"
    }
  },
  {
    "service_request": "2024-1144072",
    "request_type": "Abandoned Vehicles",
    "request_reason": "Abandoned/Junk Vehicles",
    "date_created": "2024-10-25T14:56:49.000",
    "date_modified": "2024-10-25T14:58:28.000",
    "request_status": "Pending",
    "responsible_agency": "Department of Public Works",
    "final_address": "2427 Eagle St",
    "address_councildis": "A",
    "status": "Pending",
    "rowid": "1144072",
    "final_x": "3663263.60128",
    "final_y": "533424.832516",
    "longitude": "-90.12559117883497",
    "latitude": "29.961274453685434",
    "geocoded_column": {
      "latitude": "29.961274453685434",
      "longitude": "-90.12559117883497"
    }
  },
  {
    "service_request": "2024-1144071",
    "request_type": "Roads and Streets",
    "request_reason": "Pothole",
    "date_created": "2024-10-25T14:54:44.000",
    "date_modified": "2024-10-25T14:56:53.000",
    "request_status": "Pending",
    "responsible_agency": "Department of Public Works",
    "final_address": "2630 S Miro St",
    "address_councildis": "B",
    "status": "Pending",
    "rowid": "1144071",
    "final_x": "3672344.31963",
    "final_y": "528579.061824",
    "longitude": "-90.09708091498773",
    "latitude": "29.947683886103356",
    "geocoded_column": {
      "latitude": "29.947683886103356",
      "longitude": "-90.09708091498773"
    }
  },
  {
    "service_request": "2024-1144070",
    "request_type": "Trash/Recycling",
    "request_reason": "Repair Recycling Cart",
    "date_created": "2024-10-25T14:49:41.000",
    "date_modified": "2024-10-25T14:49:42.000",
    "request_status": "Pending",
    "responsible_agency": "Department of Sanitation",
    "final_address": "4032 Laurel St",
    "address_councildis": "B",
    "status": "Pending",
    "rowid": "1144070",
    "final_x": "3672328.18811",
    "final_y": "518131.478262",
    "longitude": "-90.09748763136216",
    "latitude": "29.918956886886953",
    "geocoded_column": {
      "latitude": "29.918956886886953",
      "longitude": "-90.09748763136216"
    }
  },