[
  {
    "service_request": "2026-1302517",
    "request_type": "Trash/Recycling",
    "request_reason": "Order Second Trash Cart",
    "date_created": "2026-07-21T23:59:35.000",
    "date_modified": "2026-07-21T23:59:39.000",
    "request_status": "Pending",
    "responsible_agency": "Department of Sanitation",
    "final_address": "1609 Urquhart St",
    "address_councildis": "C",
    "status": "Assigned to Contractor",
    "contractor": "IV Waste",
    "rowid": "1302517",
    "final_x": "3682809.2397",
    "final_y": "536954.41492",
    "longitude": "-90.06374608732618",
    "latitude": "29.97039864291964",
    "geocoded_column": {
      "latitude": "29.97039864291964",
      "longitude": "-90.06374608732618"
    }
  },
  {
    "service_request": "2026-1302516",
    "request_type": "Trash/Recycling",
    "request_reason": "Order Second Trash Cart",
    "date_created": "2026-07-21T23:58:36.000",
    "date_modified": "2026-07-21T23:58:39.000",
    "request_status": "Pending",
    "responsible_agency": "Department of Sanitation",
    "final_address": "1609 Urquhart St",
    "address_councildis": "C",
    "status": "Assigned to Contractor",
    "contractor": "IV Waste",
    "rowid": "1302516",
    "final_x": "3682809.2397",
    "final_y": "536954.41492",
    "longitude": "-90.06374608732618",
    "latitude": "29.97039864291964",
    "geocoded_column": {
      "latitude": "29.97039864291964",
      "longitude": "-90.06374608732618"
    }
  },
  {
    "service_request": "2026-1302515",
    "request_type": "Trash/Recycling",
    "request_reason": "Request a Large Item Pick Up",
    "date_created": "2026-07-21T23:30:07.000",
    "date_modified": "2026-07-21T23:30:09.000",
    "request_status": "Pending",
    "responsible_agency": "Department of Sanitation",
    "final_address": "55 Winners Cir",
    "address_councildis": "E",
    "status": "Assigned to Contractor",
    "contractor": "Waste Pro",
    "rowid": "1302515",
    "final_x": "3715942.45752",
    "final_y": "570299.851495",
    "longitude": "-89.95784476675227",
    "latitude": "30.061034424210863",
    "geocoded_column": {
      "latitude": "30.061034424210863",
      "longitude": "-89.95784476675227"
    }
  },
  {
    "service_request": "2026-1302514",
    "request_type": "General Services",
    "request_reason": "General Service Request",
    "date_created": "2026-07-21T23:26:46.000",
    "date_modified": "2026-07-21T23:26:48.000",
    "request_status": "Pending",
    "responsible_agency": "Orleans Parish Communication District",
    "final_address": "5000 Loyola Ave",
    "address_councildis": "B",
    "status": "Pending",
    "rowid": "1302514",
    "final_x": "3668689.41543",
    "final_y": "522818.192123",
    "longitude": "-90.10881530239281",
    "latitude": "29.931951274619625",
    "geocoded_column": {
      "latitude": "29.931951274619625",
      "longitude": "-90.10881530239281"
    }
  },
  {
    "service_request": "2026-1302513",
    "request_type": "Streetlights",
    "request_reason": "Streetlight Outage/Malfunction",
    "date_created": "2026-07-21T23:20:36.000",
    "date_modified": "2026-07-21T23:20:38.000",
    "request_status": "Pending",
    "responsible_agency": "Department of Public Works",
    "final_address": "1300 Holiday Pl",
    "address_councildis": "C",
    "status": "Pending",
    "rowid": "1302513",
    "final_x": "3699071.31261",
    "final_y": "526545.62963",
    "longitude": "-90.01276780614253",
    "latitude": "29.941272707641865",
    "geocoded_column": {
      "latitude": "29.941272707641865",
      "longitude": "-90.01276780614253"
    }
  },
  {
    "service_request": "2026-1302512",
    "request_type": "Streetlights",
    "request_reason": "Streetlight Outage/Malfunction",
    "date_created": "2026-07-21T23:17:33.000",
    "date_modified": "2026-07-21T23:17:34.000",
    "request_status": "Pending",
    "responsible_agency": "Department of Public Works",
    "final_address": "3924 Socrates St",
    "address_councildis": "C",
    "status": "Pending",
    "rowid": "1302512",
    "final_x": "3698793.75824",
    "final_y": "526120.923262",
    "longitude": "-90.01365953566466",
    "latitude": "29.94011370568432",
    "geocoded_column": {
      "latitude": "29.94011370568432",
      "longitude": "-90.01365953566466"
    }
  },
  {
    "service_request": "2026-1302511",
    "request_type": "Health Related Request",
    "request_reason": "Noise Ordinance Complaint",
    "date_created": "2026-07-21T23:16:19.000",
    "date_modified": "2026-07-21T23:16:20.000",
    "request_status": "Pending",
    "responsible_agency": "Health Department",
    "final_address": "801 Bourbon St, New Orleans, Louisiana, 70116",
    "address_councildis": "C",
    "status": "Pending",
    "rowid": "1302511",
    "final_x": "3682490.98735",
    "final_y": "533018.672772",
    "longitude": "-90.06488875731978",
    "latitude": "29.959586396383013",
    "geocoded_column": {
      "latitude": "29.959586396383013",
      "longitude": "-90.06488875731978"
    }
  },
  {
    "service_request": "2026-1302510",
    "request_type": "Health Related Request",
    "request_reason": "Noise Ordinance Complaint",
    "date_created": "2026-07-21T23:15:59.000",
    "date_modified": "2026-07-21T23:16:02.000",
    "request_status": "Pending",
    "responsible_agency": "Health Department",
    "final_address": "800 Bourbon St, New Orleans, Louisiana, 70116",
    "address_councildis": "C",
    "status": "Pending",
    "rowid": "1302510",
    "final_x": "3682553.51528",
    "final_y": "533013.631428",
    "longitude": "-90.06469148499534",
    "latitude": "29.95957063099051",
    "geocoded_column": {
      "latitude": "29.95957063099051",
      "longitude": "-90.06469148499534"
    }
  },
  {
    "service_request": "2026-1302509",
    "request_type": "Property Maintenance",
    "request_reason": "Property Maintenance",
    "date_created": "2026-07-21T22:49:49.000",
    "date_modified": "2026-07-21T22:49:52.000",
    "request_status": "Pending",
    "responsible_agency": "Department of Code Enforcement",
    "final_address": "2509 Memorial Park Dr",
    "address_councildis": "C",
    "status": "Pending",
    "rowid": "1302509",
    "final_x": "3692667.34697",
    "final_y": "521156.961721",
    "longitude": "-90.03317930093436",
    "latitude": "29.92665709085535",
    "geocoded_column": {
      "latitude": "29.92665709085535",
      "longitude": "-90.03317930093436"
    }
  },
  {
    "service_request": "2026-1302508",
    "request_type": "Trash/Recycling",
    "request_reason": "Request a Large Item Pick Up",
    "date_created": "2026-07-21T22:44:19.000",
    "date_modified": "2026-07-21T22:44:22.000",
    "request_status": "Pending",
    "responsible_agency": "Department of Sanitation",
    "final_address": "7733 Panola St",
    "address_councildis": "A",
    "status": "Assigned to Contractor",
    "contractor": "IV Waste",
    "rowid": "1302508",
    "final_x": "3665040.31111",
    "final_y": "529959.024577",
    "longitude": "-90.1200965019609",
    "latitude": "29.9516929991974",
    "geocoded_column": {
      "latitude": "29.9516929991974",
      "longitude": "-90.1200965019609"
    }
  },
  {
    "service_request": "2026-1302507",
    "request_type": "Health Related Request",
    "request_reason": "Noise Ordinance Complaint",
    "date_created": "2026-07-21T22:23:33.000",
    "date_modified": "2026-07-21T22:23:36.000",
    "request_status": "Pending",
    "responsible_agency": "Health Department",
    "final_address": "733 Saint Peter St, New Orleans, Louisiana, 70116",
    "address_councildis": "C",
    "status": "Pending",
    "rowid": "1302507",
    "final_x": "3682344.91317",
    "final_y": "532622.317764",
    "longitude": "-90.06536387543098",
    "latitude": "29.958501000832207",
    "geocoded_column": {
      "latitude": "29.958501000832207",
      "longitude": "-90.06536387543098"
    }
  },
  {
    "service_request": "2026-1302506",
    "request_type": "Health Related Request",
    "request_reason": "Noise Ordinance Complaint",
    "date_created": "2026-07-21T22:23:08.000",
    "date_modified": "2026-07-21T22:23:09.000",
    "request_status": "Pending",
    "responsible_agency": "Health Department",
    "final_address": "640 Bourbon St, New Orleans, Louisiana, 70130",
    "address_councildis": "C",
    "status": "Pending",
    "rowid": "1302506",
    "final_x": "3682249.59644",
    "final_y": "532605.091844",
    "longitude": "-90.06566546190882",
    "latitude": "29.958456535312603",
    "geocoded_column": {
      "latitude": "29.958456535312603",
      "longitude": "-90.06566546190882"
    }
  },
  {
    "service_request": "2026-1302505",
    "request_type": "Health Related Request",
    "request_reason": "Noise Ordinance Complaint",
    "date_created": "2026-07-21T22:22:46.000",
    "date_modified": "2026-07-21T22:22:47.000",
    "request_status": "Pending",
    "responsible_agency": "Health Department",
    "final_address": "711 Bourbon St, New Orleans, Louisiana, 70116",
    "address_councildis": "C",
    "status": "Pending",
    "rowid": "1302505",
    "final_x": "3682299.38447",
    "final_y": "532765.705988",
    "longitude": "-90.06550263299877",
    "latitude": "29.95889665479323",
    "geocoded_column": {
      "latitude": "29.95889665479323",
      "longitude": "-90.06550263299877"
    }
  },
  {
    "service_request": "2026-1302504",
    "request_type": "Health Related Request",
    "request_reason": "Noise Ordinance Complaint",
    "date_created": "2026-07-21T22:22:24.000",
    "date_modified": "2026-07-21T22:22:26.000",
    "request_status": "Pending",
    "responsible_agency": "Health Department",
    "final_address": "801 Bourbon St, New Orleans, Louisiana, 70116",
    "address_councildis": "C",
    "status": "Pending",
    "rowid": "1302504",
    "final_x": "3682490.98735",
    "final_y": "533018.672772",
    "longitude": "-90.06488875731978",
    "latitude": "29.959586396383013",
    "geocoded_column": {
      "latitude": "29.959586396383013",
      "longitude": "-90.06488875731978"
    }
  },
  {
    "service_request": "2026-1302503",
    "request_type": "Health Related Request",
    "request_reason": "Noise Ordinance Complaint",
    "date_created": "2026-07-21T22:22:04.000",
    "date_modified": "2026-07-21T22:22:05.000",
    "request_status": "Pending",
    "responsible_agency": "Health Department",
    "final_address": "801 Bourbon St, New Orleans, Louisiana, 70116",
    "address_councildis": "C",
    "status": "Pending",
    "rowid": "1302503",
    "final_x": "3682490.98735",
    "final_y": "533018.672772",
    "longitude": "-90.06488875731978",
    "latitude": "29.959586396383013",
    "geocoded_column": {
      "latitude": "29.959586396383013",
      "longitude": "-90.06488875731978"
    }
  },
  {
    "service_request": "2026-1302502",
    "request_type": "Health Related Request",
    "request_reason": "Noise Ordinance Complaint",
    "date_created": "2026-07-21T22:21:43.000",
    "date_modified": "2026-07-21T22:21:45.000",
    "request_status": "Pending",
    "responsible_agency": "Health Department",
    "final_address": "801 Bourbon St, New Orleans, Louisiana, 70116",
    "address_councildis": "C",
    "status": "Pending",
    "rowid": "1302502",
    "final_x": "3682490.98735",
    "final_y": "533018.672772",
    "longitude": "-90.06488875731978",
    "latitude": "29.959586396383013",
    "geocoded_column": {
      "latitude": "29.959586396383013",
      "longitude": "-90.06488875731978"
    }
  },
  {
    "service_request": "2026-1302501",
    "request_type": "Health Related Request",
    "request_reason": "Noise Ordinance Complaint",
    "date_created": "2026-07-21T22:20:52.000",
    "date_modified": "2026-07-21T22:20:54.000",
    "request_status": "Pending",
    "responsible_agency": "Health Department",
    "final_address": "800 Bourbon St, New Orleans, Louisiana, 70116",
    "address_councildis": "C",
    "status": "Pending",
    "rowid": "1302501",
    "final_x": "3682553.51528",
    "final_y": "533013.631428",
    "longitude": "-90.06469148499534",
    "latitude": "29.95957063099051",
    "geocoded_column": {
      "latitude": "29.95957063099051",
      "longitude": "-90.06469148499534"
    }
  },
  {
    "service_request": "2026-1302500",
    "request_type": "Health Related Request",
    "request_reason": "Noise Ordinance Complaint",
    "date_created": "2026-07-21T22:20:05.000",
    "date_modified": "2026-07-21T22:20:07.000",
    "request_status": "Pending",
    "responsible_agency": "Health Department",
    "final_address": "800 Bourbon St, New Orleans, Louisiana, 70116",
    "address_councildis": "C",
    "status": "Pending",
    "rowid": "1302500",
    "final_x": "3682553.51528",
    "final_y": "533013.631428",
    "longitude": "-90.06469148499534",
    "latitude": "29.95957063099051",
    "geocoded_column": {
      "latitude": "29.95957063099051",
      "longitude": "-90.06469148499534"
    }
  },
  {
    "service_request": "2026-1302499",
    "request_type": "Health Related Request",
    "request_reason": "Noise Ordinance Complaint",
    "date_created": "2026-07-21T22:18:56.000",
    "date_modified": "2026-07-21T22:18:58.000",
    "request_status": "Pending",
    "responsible_agency": "Health Department",
    "final_address": "800 Bourbon St, New Orleans, Louisiana, 70116",
    "address_councildis": "C",
    "status": "Pending",
    "rowid": "1302499",
    "final_x": "3682553.51528",
    "final_y": "533013.631428",
    "longitude": "-90.06469148499534",
    "latitude": "29.95957063099051",
    "geocoded_column": {
      "latitude": "29.95957063099051",
      "longitude": "-90.06469148499534"
    }
  },
  {
    "service_request": "2026-1302498",
    "request_type": "Healthy Homes",
    "request_reason": "Healthy Homes",
    "date_created": "2026-07-21T22:14:43.000",
    "date_modified": "2026-07-21T22:14:45.000",
    "request_status": "Pending",
    "responsible_agency": "Department of Code Enforcement",
    "final_address": "722 Louisa St Apt 105",
    "address_councildis": "C",
    "status": "Pending",
    "rowid": "1302498",
    "final_x": "3689152.67228",
    "final_y": "534526.962053",
    "longitude": "-90.04379915593239",
    "latitude": "29.9635292127498",
    "geocoded_column": {
      "latitude": "29.9635292127498",
      "longitude": "-90.04379915593239"
    }
  },
  {
    "service_request": "2026-1302497",
    "request_type": "Streetlights",
    "request_reason": "Streetlight Outage/Malfunction",
    "date_created": "2026-07-21T22:12:44.000",
    "date_modified": "2026-07-21T22:12:47.000",
    "request_status": "Pending",
    "responsible_agency": "Department of Public Works",
    "final_address": "101 Finland Pl",
    "address_councildis": "C",
    "status": "Pending",
    "rowid": "1302497",
    "final_x": "3705679.26775",
    "final_y": "520692.512185",
    "longitude": "-89.9921217104106",
    "latitude": "29.92496763545273",
    "geocoded_column": {
      "latitude": "29.92496763545273",
      "longitude": "-89.9921217104106"
    }
  },
  {
    "service_request": "2026-1302496",
    "request_type": "Tree Service",
    "request_reason": "Tree Trim",
    "date_created": "2026-07-21T22:09:05.000",
    "date_modified": "2026-07-21T22:09:06.000",
    "request_status": "Pending",
    "responsible_agency": "Department of Parks & Parkways",
    "final_address": "4837 Patterson St",
    "address_councildis": "C",
    "status": "Pending",
    "rowid": "1302496",
    "final_x": "3702218.42532",
    "final_y": "524444.123772",
    "longitude": "-90.00290888110756",
    "latitude": "29.9353941973237",
    "geocoded_column": {
      "latitude": "29.9353941973237",
      "longitude": "-90.00290888110756"
    }
  },
  {
    "service_request": "2026-1302495",
    "request_type": "Streetlights",
    "request_reason": "Streetlight Outage/Malfunction",
    "date_created": "2026-07-21T22:07:18.000",
    "date_modified": "2026-07-21T22:07:20.000",
    "request_status": "Pending",
    "responsible_agency": "Department of Public Works",
    "final_address": "5250 Patterson St",
    "address_councildis": "C",
    "status": "Pending",
    "rowid": "1302495",
    "final_x": "3704064.14673",
    "final_y": "523338.544891",
    "longitude": "-89.99712267827415",
    "latitude": "29.93229518707566",
    "geocoded_column": {
      "latitude": "29.93229518707566",
      "longitude": "-89.99712267827415"
    }
  },
  {
    "service_request": "2026-1302494",
    "request_type": "Drainage",
    "request_reason": "Catch Basin Not Draining",
    "date_created": "2026-07-21T21:59:52.000",
    "date_modified": "2026-07-21T21:59:55.000",
    "request_status": "Pending",
    "responsible_agency": "Sewerage & Water Board",
    "final_address": "201 Woodland Dr",
    "address_councildis": "C",
    "status": "Pending",
    "rowid": "1302494",
    "final_x": "3705502.35915",
    "final_y": "521379.757305",
    "longitude": "-89.99265476577432",
    "latitude": "29.926863012443192",
    "geocoded_column": {
      "latitude": "29.926863012443192",
      "longitude": "-89.99265476577432"
    }
  },
  {
    "service_request": "2026-1302493",
    "request_type": "Trash/Recycling",
    "request_reason": "Illegal Dumping",
    "date_created": "2026-07-21T21:55:20.000",
    "date_modified": "2026-07-21T21:55:21.000",
    "request_status": "Pending",
    "responsible_agency": "Department of Sanitation",
    "final_address": "4525 Patterson St",
    "address_councildis": "C",
    "status": "Pending",
    "rowid": "1302493",
    "final_x": "3700607.53905",
    "final_y": "525534.825789",
    "longitude": "-90.00795459297763",
    "latitude": "29.93844457878178",
    "geocoded_column": {
      "latitude": "29.93844457878178",
      "longitude": "-90.00795459297763"
    }
  },
  {
    "service_request": "2026-1302492",
    "request_type": "Trash/Recycling",
    "request_reason": "Request a Large Item Pick Up",
    "date_created": "2026-07-21T21:52:11.000",
    "date_modified": "2026-07-21T21:52:13.000",
    "request_status": "Pending",
    "responsible_agency": "Department of Sanitation",
    "final_address": "1344 General Collins Ave",
    "address_councildis": "C",
    "status": "Assigned to Contractor",
    "contractor": "Richards Disposal",
    "rowid": "1302492",
    "final_x": "3698651.25604",
    "final_y": "526179.142078",
    "longitude": "-90.01410731805792",
    "latitude": "29.940278299173507",
    "geocoded_column": {
      "latitude": "29.940278299173507",
      "longitude": "-90.01410731805792"
    }
  },
  {
    "service_request": "2026-1302491",
    "request_type": "Roads and Streets",
    "request_reason": "Pothole",
    "date_created": "2026-07-21T21:50:16.000",
    "date_modified": "2026-07-21T21:50:18.000",
    "request_status": "Pending",
    "responsible_agency": "Department of Public Works",
    "final_address": "1535 General Collins Ave",
    "address_councildis": "C",
    "status": "Pending",
    "rowid": "1302491",
    "final_x": "3698426.70436",
    "final_y": "525439.793533",
    "longitude": "-90.01484311855248",
    "latitude": "29.93825245434859",
    "geocoded_column": {
      "latitude": "29.93825245434859",
      "longitude": "-90.01484311855248"
    }
  },
  {
    "service_request": "2026-1302490",
    "request_type": "Trash/Recycling",
    "request_reason": "Replace Trash Cart",
    "date_created": "2026-07-21T21:29:45.000",
    "date_modified": "2026-07-21T21:29:47.000",
    "request_status": "Pending",
    "responsible_agency": "Department of Sanitation",
    "final_address": "4212 Orleans Ave",
    "address_councildis": "A",
    "status": "Assigned to Contractor",
    "contractor": "IV Waste",
    "rowid": "1302490",
    "final_x": "3671866.15092",
    "final_y": "540622.761483",
    "longitude": "-90.09818077772137",
    "latitude": "29.98081420785195",
    "geocoded_column": {
      "latitude": "29.98081420785195",
      "longitude": "-90.09818077772137"
    }
  },
  {
    "service_request": "2026-1302489",
    "request_type": "Streetlights",
    "request_reason": "Streetlight Outage/Malfunction",
    "date_created": "2026-07-21T21:22:52.000",
    "date_modified": "2026-07-21T21:22:55.000",
    "request_status": "Pending",
    "responsible_agency": "Department of Public Works",
    "final_address": "2831 Baronne St",
    "address_councildis": "B",
    "status": "Pending",
    "rowid": "1302489",
    "final_x": "3675267.97032",
    "final_y": "523023.602555",
    "longitude": "-90.0880404225184",
    "latitude": "29.93232113798806",
    "geocoded_column": {
      "latitude": "29.93232113798806",
      "longitude": "-90.0880404225184"
    }
  },
  {
    "service_request": "2026-1302488",
    "request_type": "Trash/Recycling",
    "request_reason": "Request a Large Item Pick Up",
    "date_created": "2026-07-21T20:57:04.000",
    "date_modified": "2026-07-21T20:57:07.000",
    "request_status": "Pending",
    "responsible_agency": "Department of Sanitation",
    "final_address": "4911 Lafaye St",
    "address_councildis": "D",
    "status": "Assigned to Contractor",
    "contractor": "IV Waste",
    "rowid": "1302488",
    "final_x": "3687437.42326",
    "final_y": "551100.717909",
    "longitude": "-90.04862890719164",
    "latitude": "30.00915410106073",
    "geocoded_column": {
      "latitude": "30.00915410106073",
      "longitude": "-90.04862890719164"
    }
  },
  {
    "service_request": "2026-1302487",
    "request_type": "Property Maintenance",
    "request_reason": "Property Maintenance",
    "date_created": "2026-07-21T20:36:20.000",
    "date_modified": "2026-07-21T20:36:23.000",
    "request_status": "Pending",
    "responsible_agency": "Department of Code Enforcement",
    "final_address": "436 Lowerline St",
    "address_councildis": "A",
    "status": "Pending",
    "rowid": "1302487",
    "final_x": "3661796.24653",
    "final_y": "524178.173308",
    "longitude": "-90.1305313581377",
    "latitude": "29.935891548963873",
    "geocoded_column": {
      "latitude": "29.935891548963873",
      "longitude": "-90.1305313581377"
    }
  },
  {
    "service_request": "2026-1302486",
    "request_type": "Utility Poles",
    "request_reason": "Wires Sagging/Hanging Low",
    "date_created": "2026-07-21T20:13:38.000",
    "date_modified": "2026-07-21T20:13:43.000",
    "request_status": "Pending",
    "responsible_agency": "Utility Company Collective",
    "final_address": "2634 Joseph St",
    "address_councildis": "A",
    "status": "Pending",
    "rowid": "1302486",
    "final_x": "3667587.17281",
    "final_y": "525728.091453",
    "longitude": "-90.11219707967113",
    "latitude": "29.93998490877529",
    "geocoded_column": {
      "latitude": "29.93998490877529",
      "longitude": "-90.11219707967113"
    }
  },
  {
    "service_request": "2026-1302485",
    "request_type": "Street and Traffic Signs",
    "request_reason": "Street Name Sign Damaged or Missing",
    "date_created": "2026-07-21T20:11:11.000",
    "date_modified": "2026-07-21T20:11:15.000",
    "request_status": "Pending",
    "responsible_agency": "Department of Public Works",
    "final_address": "ANDRY ST & URQUHART ST",
    "address_councildis": "E",
    "status": "Pending",
    "rowid": "1302485",
    "final_x": "3697369.7",
    "final_y": "534701.48",
    "longitude": "-90.0178444711275",
    "latitude": "29.963752242835003",
    "geocoded_column": {
      "latitude": "29.963752242835003",
      "longitude": "-90.0178444711275"
    }
  },
  {
    "service_request": "2026-1302484",
    "request_type": "Trash/Recycling",
    "request_reason": "Order Second Trash Cart",
    "date_created": "2026-07-21T20:03:14.000",
    "date_modified": "2026-07-21T20:03:17.000",
    "request_status": "Pending",
    "responsible_agency": "Department of Sanitation",
    "final_address": "0 BLK Admiralty Ct",
    "address_councildis": "C",
    "status": "Assigned to Contractor",
    "contractor": "Richards Disposal",
    "rowid": "1302484",
    "final_x": "3704031.03777",
    "final_y": "523040.620373",
    "longitude": "-89.99723816614093",
    "latitude": "29.931477060413563",
    "geocoded_column": {
      "latitude": "29.931477060413563",
      "longitude": "-89.99723816614093"
    }
  },
  {
    "service_request": "2026-1302483",
    "request_type": "Trash/Recycling",
    "request_reason": "Request a Large Item Pick Up",
    "date_created": "2026-07-21T19:51:13.000",
    "date_modified": "2026-07-21T19:51:14.000",
    "request_status": "Pending",
    "responsible_agency": "Department of Sanitation",
    "final_address": "2561 Clover St",
    "address_councildis": "D",
    "status": "Assigned to Contractor",
    "contractor": "IV Waste",
    "rowid": "1302483",
    "final_x": "3686891.1053",
    "final_y": "546709.536145",
    "longitude": "-90.05051022391892",
    "latitude": "29.997096775464584",
    "geocoded_column": {
      "latitude": "29.997096775464584",
      "longitude": "-90.05051022391892"
    }
  },
  {
    "service_request": "2026-1302482",
    "request_type": "Trash/Recycling",
    "request_reason": "Replace Trash Cart",
    "date_created": "2026-07-21T19:47:22.000",
    "date_modified": "2026-07-21T19:47:25.000",
    "request_status": "Pending",
    "responsible_agency": "Department of Sanitation",
    "final_address": "4501 St Ann St",
    "address_councildis": "A",
    "status": "Assigned to Contractor",
    "contractor": "IV Waste",
    "rowid": "1302482",
    "final_x": "3671275.96961",
    "final_y": "541524.09742",
    "longitude": "-90.10001419353861",
    "latitude": "29.983310053852694",
    "geocoded_column": {
      "latitude": "29.983310053852694",
      "longitude": "-90.10001419353861"
    }
  },
  {
    "service_request": "2026-1302481",
    "request_type": "Trash/Recycling",
    "request_reason": "MIssed Recycling Pick-Up",
    "date_created": "2026-07-21T19:31:42.000",
    "date_modified": "2026-07-21T19:31:46.000",
    "request_status": "Pending",
    "responsible_agency": "Department of Sanitation",
    "final_address": "7510 Wave Dr",
    "address_councildis": "E",
    "status": "Assigned to Contractor",
    "contractor": "Waste Pro",
    "rowid": "1302481",
    "final_x": "3715293.8261",
    "final_y": "568203.056933",
    "longitude": "-89.95997449555371",
    "latitude": "30.055290497181026",
    "geocoded_column": {
      "latitude": "30.055290497181026",
      "longitude": "-89.95997449555371"
    }
  },
  {
    "service_request": "2026-1302480",
    "request_type": "Tree Service",
    "request_reason": "Tree Trim",
    "date_created": "2026-07-21T19:27:28.000",
    "date_modified": "2026-07-21T19:27:30.000",
    "request_status": "Pending",
    "responsible_agency": "Department of Parks & Parkways",
    "final_address": "1602 S Carrollton Ave",
    "address_councildis": "A",
    "status": "Pending",
    "rowid": "1302480",
    "final_x": "3662941.54567",
    "final_y": "529480.309569",
    "longitude": "-90.12673934388177",
    "latitude": "29.95043762374432",
    "geocoded_column": {
      "latitude": "29.95043762374432",
      "longitude": "-90.12673934388177"
    }
  },
  {
    "service_request": "2026-1302479",
    "request_type": "Tree Service",
    "request_reason": "Tree Trim",
    "date_created": "2026-07-21T19:22:30.000",
    "date_modified": "2026-07-21T19:22:31.000",
    "request_status": "Pending",
    "responsible_agency": "Department of Parks & Parkways",
    "final_address": "1602 S Carrollton Ave",
    "address_councildis": "A",
    "status": "Pending",
    "rowid": "1302479",
    "final_x": "3662941.54567",
    "final_y": "529480.309569",
    "longitude": "-90.12673934388177",
    "latitude": "29.95043762374432",
    "geocoded_column": {
      "latitude": "29.95043762374432",
      "longitude": "-90.12673934388177"
    }
  },
  {
    "service_request": "2026-1302478",
    "request_type": "Abandoned Vehicles",
    "request_reason": "Abandoned/Junk Vehicles",
    "date_created": "2026-07-21T19:22:04.000",
    "date_modified": "2026-07-21T19:22:06.000",
    "request_status": "Pending",
    "responsible_agency": "Department of Public Works",
    "final_address": "2719 Lavender St",
    "address_councildis": "D",
    "status": "Pending",
    "rowid": "1302478",
    "final_x": "3687984.52329",
    "final_y": "547041.236881",
    "longitude": "-90.04704441043513",
    "latitude": "29.997975127979437",
    "geocoded_column": {
      "latitude": "29.997975127979437",
      "longitude": "-90.04704441043513"
    }
  },
  {
    "service_request": "2026-1302477",
    "request_type": "Trash/Recycling",
    "request_reason": "Replace Trash Cart",
    "date_created": "2026-07-21T19:17:34.000",
    "date_modified": "2026-07-21T19:17:37.000",
    "request_status": "Pending",
    "responsible_agency": "Department of Sanitation",
    "final_address": "334 28Th St",
    "address_councildis": "A",
    "status": "Assigned to Contractor",
    "contractor": "IV Waste",
    "rowid": "1302477",
    "final_x": "3664986.66714",
    "final_y": "550197.262484",
    "longitude": "-90.11958898782605",
    "latitude": "30.007342933294247",
    "geocoded_column": {
      "latitude": "30.007342933294247",
      "longitude": "-90.11958898782605"
    }
  },
  {
    "service_request": "2026-1302476",
    "request_type": "Trash/Recycling",
    "request_reason": "Request a Large Item Pick Up",
    "date_created": "2026-07-21T19:13:57.000",
    "date_modified": "2026-07-21T19:13:59.000",
    "request_status": "Pending",
    "responsible_agency": "Department of Sanitation",
    "final_address": "20 Muirfield Pl",
    "address_councildis": "C",
    "status": "Assigned to Contractor",
    "contractor": "Richards Disposal",
    "rowid": "1302476",
    "final_x": "3720515.68985",
    "final_y": "513927.216946",
    "longitude": "-89.9455472217894",
    "latitude": "29.90587965267561",
    "geocoded_column": {
      "latitude": "29.90587965267561",
      "longitude": "-89.9455472217894"
    }
  },
  {
    "service_request": "2026-1302475",
    "request_type": "Trash/Recycling",
    "request_reason": "Start Trash Service",
    "date_created": "2026-07-21T19:11:16.000",
    "date_modified": "2026-07-21T19:11:19.000",
    "request_status": "Pending",
    "responsible_agency": "Department of Sanitation",
    "final_address": "1314 Ursulines Ave",
    "address_councildis": "C",
    "status": "Assigned to Contractor",
    "contractor": "IV Waste",
    "rowid": "1302475",
    "final_x": "3681576.56335",
    "final_y": "535032.243974",
    "longitude": "-90.06770606427742",
    "latitude": "29.965150831154816",
    "geocoded_column": {
      "latitude": "29.965150831154816",
      "longitude": "-90.06770606427742"
    }
  },
  {
    "service_request": "2026-1302474",
    "request_type": "Trash/Recycling",
    "request_reason": "Order Recycling Cart",
    "date_created": "2026-07-21T19:08:07.000",
    "date_modified": "2026-07-21T19:08:10.000",
    "request_status": "Pending",
    "responsible_agency": "Department of Sanitation",
    "final_address": "1314 Ursulines Ave",
    "address_councildis": "C",
    "status": "Pending",
    "rowid": "1302474",
    "final_x": "3681576.56335",
    "final_y": "535032.243974",
    "longitude": "-90.06770606427742",
    "latitude": "29.965150831154816",
    "geocoded_column": {
      "latitude": "29.965150831154816",
      "longitude": "-90.06770606427742"
    }
  },
  {
    "service_request": "2026-1302473",
    "request_type": "Drainage",
    "request_reason": "Catch Basin Not Draining",
    "date_created": "2026-07-21T19:06:06.000",
    "date_modified": "2026-07-21T19:06:09.000",
    "request_status": "Pending",
    "responsible_agency": "Sewerage & Water Board",
    "final_address": "7500 Willow St",
    "address_councildis": "A",
    "status": "Pending",
    "rowid": "1302473",
    "final_x": "3663944.07315",
    "final_y": "527462.694655",
    "longitude": "-90.1236411250706",
    "latitude": "29.944860766007665",
    "geocoded_column": {
      "latitude": "29.944860766007665",
      "longitude": "-90.1236411250706"
    }
  },
  {
    "service_request": "2026-1302472",
    "request_type": "Street and Traffic Signs",
    "request_reason": "Street Name Sign Damaged or Missing",
    "date_created": "2026-07-21T18:55:03.000",
    "date_modified": "2026-07-21T18:55:07.000",
    "request_status": "Pending",
    "responsible_agency": "Department of Public Works",
    "final_address": "URQUHART ST & PAULINE ST",
    "address_councildis": "D",
    "status": "Pending",
    "rowid": "1302472",
    "final_x": "3691392.9",
    "final_y": "536180.88",
    "longitude": "-90.03666567672057",
    "latitude": "29.96800739239442",
    "geocoded_column": {
      "latitude": "29.96800739239442",
      "longitude": "-90.03666567672057"
    }
  },
  {
    "service_request": "2026-1302471",
    "request_type": "Roads and Streets",
    "request_reason": "Pothole",
    "date_created": "2026-07-21T18:48:41.000",
    "date_modified": "2026-07-21T21:44:22.000",
    "request_status": "Pending",
    "responsible_agency": "Department of Public Works",
    "final_address": "129 12Th St",
    "address_councildis": "A",
    "status": "Pending",
    "rowid": "1302471",
    "final_x": "3665803.608",
    "final_y": "547852.85973",
    "longitude": "-90.11708664894337",
    "latitude": "30.00087281698452",
    "geocoded_column": {
      "latitude": "30.00087281698452",
      "longitude": "-90.11708664894337"
    }
  },
  {
    "service_request": "2026-1302470",
    "request_type": "Trash/Recycling",
    "request_reason": "Request a Large Item Pick Up",
    "date_created": "2026-07-21T18:44:58.000",
    "date_modified": "2026-07-21T18:45:00.000",
    "request_status": "Pending",
    "responsible_agency": "Department of Sanitation",
    "final_address": "4501 Marque Dr",
    "address_councildis": "E",
    "status": "Assigned to Contractor",
    "contractor": "Waste Pro",
    "rowid": "1302470",
    "final_x": "3710286.13758",
    "final_y": "554199.691736",
    "longitude": "-89.97632683350508",
    "latitude": "30.01695089448695",
    "geocoded_column": {
      "latitude": "30.01695089448695",
      "longitude": "-89.97632683350508"
    }
  },
  {
    "service_request": "2026-1302469",
    "request_type": "Street and Traffic Signs",
    "request_reason": "Crosswalk Signage Damaged or Missing",
    "date_created": "2026-07-21T18:41:13.000",
    "date_modified": "2026-07-21T18:41:15.000",
    "request_status": "Pending",
    "responsible_agency": "Department of Public Works",
    "final_address": "8701 Airline Hwy",
    "address_councildis": "A",
    "status": "Pending",
    "rowid": "1302469",
    "final_x": "3666945.24378",
    "final_y": "537182.141704",
    "longitude": "-90.11383888598499",
    "latitude": "29.97149859377334",
    "geocoded_column": {
      "latitude": "29.97149859377334",
      "longitude": "-90.11383888598499"
    }
  },
  {
    "service_request": "2026-1302468",
    "request_type": "Trash/Recycling",
    "request_reason": "Request a Large Item Pick Up",
    "date_created": "2026-07-21T18:41:04.000",
    "date_modified": "2026-07-21T18:41:06.000",
    "request_status": "Pending",
    "responsible_agency": "Department of Sanitation",
    "final_address": "4619 Pitt St",
    "address_councildis": "B",
    "status": "Assigned to Contractor",
    "contractor": "IV Waste",
    "rowid": "1302468",
    "final_x": "3669963.39182",
    "final_y": "520543.62636",
    "longitude": "-90.10487046479045",
    "latitude": "29.925659448828902",
    "geocoded_column": {
      "latitude": "29.925659448828902",
      "longitude": "-90.10487046479045"
    }
  },
  {
    "service_request": "2026-1302467",
    "request_type": "Trash/Recycling",
    "request_reason": "Replace Trash Cart",
    "date_created": "2026-07-21T18:32:29.000",
    "date_modified": "2026-07-21T18:32:30.000",
    "request_status": "Pending",
    "responsible_agency": "Department of Sanitation",
    "final_address": "304 20Th St",
    "address_councildis": "A",
    "status": "Assigned to Contractor",
    "contractor": "IV Waste",
    "rowid": "1302467",
    "final_x": "3664960.63188",
    "final_y": "548995.342611",
    "longitude": "-90.11971145918118",
    "latitude": "30.004038827556606",
    "geocoded_column": {
      "latitude": "30.004038827556606",
      "longitude": "-90.11971145918118"
    }
  },
  {
    "service_request": "2026-1302466",
    "request_type": "Trash/Recycling",
    "request_reason": "Order Recycling Cart",
    "date_created": "2026-07-21T18:30:43.000",
    "date_modified": "2026-07-21T18:30:45.000",
    "request_status": "Pending",
    "responsible_agency": "Department of Sanitation",
    "final_address": "1112 Mandeville St",
    "address_councildis": "C",
    "status": "Pending",
    "rowid": "1302466",
    "final_x": "3685735.50754",
    "final_y": "536556.771975",
    "longitude": "-90.05451864089547",
    "latitude": "29.969215786870137",
    "geocoded_column": {
      "latitude": "29.969215786870137",
      "longitude": "-90.05451864089547"
    }
  },
  {
    "service_request": "2026-1302465",
    "request_type": "Parks & Grass Service",
    "request_reason": "Request Grass Cutting Service (City Owned Property)",
    "date_created": "2026-07-21T18:21:36.000",
    "date_modified": "2026-07-21T18:21:38.000",
    "request_status": "Pending",
    "responsible_agency": "Department of Parks & Parkways",
    "final_address": "8800 BLK Airline Hwy",
    "address_councildis": "A",
    "status": "Pending",
    "rowid": "1302465",
    "final_x": "3666193.54094",
    "final_y": "537196.270211",
    "longitude": "-90.11621240879273",
    "latitude": "29.97155941893635",
    "geocoded_column": {
      "latitude": "29.97155941893635",
      "longitude": "-90.11621240879273"
    }
  },
  {
    "service_request": "2026-1302464",
    "request_type": "Trash/Recycling",
    "request_reason": "Replace Trash Cart",
    "date_created": "2026-07-21T18:21:29.000",
    "date_modified": "2026-07-21T18:21:31.000",
    "request_status": "Pending",
    "responsible_agency": "Department of Sanitation",
    "final_address": "1322 Dublin St",
    "address_councildis": "A",
    "status": "Assigned to Contractor",
    "contractor": "IV Waste",
    "rowid": "1302464",
    "final_x": "3662036.14842",
    "final_y": "529038.165248",
    "longitude": "-90.129612797842",
    "latitude": "29.949248053161902",
    "geocoded_column": {
      "latitude": "29.949248053161902",
      "longitude": "-90.129612797842"
    }
  },
  {
    "service_request": "2026-1302463",
    "request_type": "Trash/Recycling",
    "request_reason": "Request a Large Item Pick Up",
    "date_created": "2026-07-21T18:18:25.000",
    "date_modified": "2026-07-21T18:18:27.000",
    "request_status": "Pending",
    "responsible_agency": "Department of Sanitation",
    "final_address": "2310 Prentiss Ave",
    "address_councildis": "D",
    "status": "Assigned to Contractor",
    "contractor": "IV Waste",
    "rowid": "1302463",
    "final_x": "3684477.65346",
    "final_y": "553804.777495",
    "longitude": "-90.05788471361342",
    "latitude": "30.016680191632204",
    "geocoded_column": {
      "latitude": "30.016680191632204",
      "longitude": "-90.05788471361342"
    }
  },
  {
    "service_request": "2026-1302462",
    "request_type": "Trash/Recycling",
    "request_reason": "Replace Trash Cart",
    "date_created": "2026-07-21T17:58:24.000",
    "date_modified": "2026-07-21T17:58:26.000",
    "request_status": "Pending",
    "responsible_agency": "Department of Sanitation",
    "final_address": "1561 N Dorgenois St",
    "address_councildis": "D",
    "status": "Assigned to Contractor",
    "contractor": "IV Waste",
    "rowid": "1302462",
    "final_x": "3679401.88712",
    "final_y": "539658.554634",
    "longitude": "-90.0744130584233",
    "latitude": "29.977937463944524",
    "geocoded_column": {
      "latitude": "29.977937463944524",
      "longitude": "-90.0744130584233"
    }
  },
  {
    "service_request": "2026-1302461",
    "request_type": "Property Maintenance",
    "request_reason": "Property Maintenance",
    "date_created": "2026-07-21T17:56:34.000",
    "date_modified": "2026-07-21T17:56:36.000",
    "request_status": "Pending",
    "responsible_agency": "Department of Code Enforcement",
    "final_address": "2810 Mansfield Ave",
    "address_councildis": "C",
    "status": "Pending",
    "rowid": "1302461",
    "final_x": "3709260.97278",
    "final_y": "519544.928759",
    "longitude": "-89.98085829894822",
    "latitude": "29.921696421103096",
    "geocoded_column": {
      "latitude": "29.921696421103096",
      "longitude": "-89.98085829894822"
    }
  },
  {
    "service_request": "2026-1302460",
    "request_type": "Abandoned Vehicles",
    "request_reason": "Abandoned/Junk Vehicles",
    "date_created": "2026-07-21T17:49:50.000",
    "date_modified": "2026-07-21T17:49:52.000",
    "request_status": "Pending",
    "responsible_agency": "Department of Public Works",
    "final_address": "8800 BLK Peach St",
    "address_councildis": "A",
    "status": "Pending",
    "rowid": "1302460",
    "final_x": "3666699.07569",
    "final_y": "537514.504483",
    "longitude": "-90.11460515952483",
    "latitude": "29.97241968220673",
    "geocoded_column": {
      "latitude": "29.97241968220673",
      "longitude": "-90.11460515952483"
    }
  },
  {
    "service_request": "2026-1302459",
    "request_type": "Roads and Streets",
    "request_reason": "Pothole",
    "date_created": "2026-07-21T17:49:50.000",
    "date_modified": "2026-07-21T21:48:07.000",
    "request_status": "Pending",
    "responsible_agency": "Department of Public Works",
    "final_address": "5877 Louisville St",
    "address_councildis": "A",
    "status": "Pending",
    "rowid": "1302459",
    "final_x": "3667731.7282",
    "final_y": "546629.411921",
    "longitude": "-90.11103677774044",
    "latitude": "29.997452342898953",
    "geocoded_column": {
      "latitude": "29.997452342898953",
      "longitude": "-90.11103677774044"
    }
  },
  {
    "service_request": "2026-1302458",
    "request_type": "Trash/Recycling",
    "request_reason": "Repair Trash Cart",
    "date_created": "2026-07-21T17:39:28.000",
    "date_modified": "2026-07-21T17:39:30.000",
    "request_status": "Pending",
    "responsible_agency": "Department of Sanitation",
    "final_address": "1228 Antonine St, New Orleans, Louisiana, 70115",
    "address_councildis": "B",
    "status": "Assigned to Contractor",
    "contractor": "IV Waste",
    "rowid": "1302458",
    "final_x": "3673612.09716",
    "final_y": "519799.768056",
    "longitude": "-90.09337800138496",
    "latitude": "29.92350601126595",
    "geocoded_column": {
      "latitude": "29.92350601126595",
      "longitude": "-90.09337800138496"
    }
  },
  {
    "service_request": "2026-1302457",
    "request_type": "Trash/Recycling",
    "request_reason": "Replace Trash Cart",
    "date_created": "2026-07-21T17:37:31.000",
    "date_modified": "2026-07-21T17:37:33.000",
    "request_status": "Pending",
    "responsible_agency": "Department of Sanitation",
    "final_address": "1929 Fern St",
    "address_councildis": "A",
    "status": "Assigned to Contractor",
    "contractor": "IV Waste",
    "rowid": "1302457",
    "final_x": "3664385.55725",
    "final_y": "529824.033089",
    "longitude": "-90.12216841458321",
    "latitude": "29.951340862537677",
    "geocoded_column": {
      "latitude": "29.951340862537677",
      "longitude": "-90.12216841458321"
    }
  },
  {
    "service_request": "2026-1302456",
    "request_type": "Drainage",
    "request_reason": "Ditch and Culvert Maintenance",
    "date_created": "2026-07-21T17:28:36.000",
    "date_modified": "2026-07-21T17:28:38.000",
    "request_status": "Pending",
    "responsible_agency": "Department of Public Works",
    "final_address": "8313 Plum St",
    "address_councildis": "A",
    "status": "Pending",
    "rowid": "1302456",
    "final_x": "3661590.83885",
    "final_y": "529238.889857",
    "longitude": "-90.13101219423527",
    "latitude": "29.949812837032276",
    "geocoded_column": {
      "latitude": "29.949812837032276",
      "longitude": "-90.13101219423527"
    }
  },
  {
    "service_request": "2026-1302455",
    "request_type": "Trash/Recycling",
    "request_reason": "Request a Large Item Pick Up",
    "date_created": "2026-07-21T17:22:39.000",
    "date_modified": "2026-07-21T17:22:41.000",
    "request_status": "Pending",
    "responsible_agency": "Department of Sanitation",
    "final_address": "4616 Shalimar Dr",
    "address_councildis": "D",
    "status": "Assigned to Contractor",
    "contractor": "Waste Pro",
    "rowid": "1302455",
    "final_x": "3697175.03613",
    "final_y": "553563.849047",
    "longitude": "-90.01777531707988",
    "latitude": "30.015622994795326",
    "geocoded_column": {
      "latitude": "30.015622994795326",
      "longitude": "-90.01777531707988"
    }
  },
  {
    "service_request": "2026-1302454",
    "request_type": "Property Maintenance",
    "request_reason": "Property Maintenance",
    "date_created": "2026-07-21T17:13:53.000",
    "date_modified": "2026-07-21T17:13:54.000",
    "request_status": "Pending",
    "responsible_agency": "Department of Code Enforcement",
    "final_address": "5660 Norgate Dr",
    "address_councildis": "E",
    "status": "Pending",
    "rowid": "1302454",
    "final_x": "3707971.05124",
    "final_y": "558290.846236",
    "longitude": "-89.98348920390008",
    "latitude": "30.02827515959021",
    "geocoded_column": {
      "latitude": "30.02827515959021",
      "longitude": "-89.98348920390008"
    }
  },
  {
    "service_request": "2026-1302453",
    "request_type": "Trash/Recycling",
    "request_reason": "Replace Recycling Cart",
    "date_created": "2026-07-21T16:50:48.000",
    "date_modified": "2026-07-21T16:50:50.000",
    "request_status": "Pending",
    "responsible_agency": "Department of Sanitation",
    "final_address": "1020 Franklin Ave",
    "address_councildis": "C",
    "status": "Pending",
    "rowid": "1302453",
    "final_x": "3687041.00591",
    "final_y": "536272.093703",
    "longitude": "-90.05040585613712",
    "latitude": "29.968392893868263",
    "geocoded_column": {
      "latitude": "29.968392893868263",
      "longitude": "-90.05040585613712"
    }
  },
  {
    "service_request": "2026-1302452",
    "request_type": "Trash/Recycling",
    "request_reason": "Replace Trash Cart",
    "date_created": "2026-07-21T16:47:31.000",
    "date_modified": "2026-07-21T16:47:33.000",
    "request_status": "Pending",
    "responsible_agency": "Department of Sanitation",
    "final_address": "7048 Milne Blvd",
    "address_councildis": "A",
    "status": "Assigned to Contractor",
    "contractor": "IV Waste",
    "rowid": "1302452",
    "final_x": "3667609.53665",
    "final_y": "554453.6918",
    "longitude": "-90.11115914569247",
    "latitude": "30.018969965062563",
    "geocoded_column": {
      "latitude": "30.018969965062563",
      "longitude": "-90.11115914569247"
    }
  },
  {
    "service_request": "2026-1302451",
    "request_type": "Streetlights",
    "request_reason": "Streetlight Outage/Malfunction",
    "date_created": "2026-07-21T16:45:54.000",
    "date_modified": "2026-07-21T16:45:56.000",
    "request_status": "Pending",
    "responsible_agency": "Department of Public Works",
    "final_address": "216 Marais St Apt A",
    "address_councildis": "C",
    "status": "Pending",
    "rowid": "1302451",
    "final_x": "3679588.86971",
    "final_y": "532627.729476",
    "longitude": "-90.07406654150748",
    "latitude": "29.958599452457975",
    "geocoded_column": {
      "latitude": "29.958599452457975",
      "longitude": "-90.07406654150748"
    }
  },
  {
    "service_request": "2026-1302450",
    "request_type": "Streetlights",
    "request_reason": "Streetlight Outage/Malfunction",
    "date_created": "2026-07-21T16:45:15.000",
    "date_modified": "2026-07-21T16:45:16.000",
    "request_status": "Pending",
    "responsible_agency": "Department of Public Works",
    "final_address": "1460 Pressburg St",
    "address_councildis": "D",
    "status": "Pending",
    "rowid": "1302450",
    "final_x": "3677963.1581",
    "final_y": "553905.660183",
    "longitude": "-90.07846428067597",
    "latitude": "30.017155359898425",
    "geocoded_column": {
      "latitude": "30.017155359898425",
      "longitude": "-90.07846428067597"
    }
  },
  {
    "service_request": "2026-1302449",
    "request_type": "Trash/Recycling",
    "request_reason": "Order Trash Cart",
    "date_created": "2026-07-21T16:42:31.000",
    "date_modified": "2026-07-21T16:42:34.000",
    "request_status": "Pending",
    "responsible_agency": "Department of Sanitation",
    "final_address": "1323 Fern St",
    "address_councildis": "A",
    "status": "Assigned to Contractor",
    "contractor": "IV Waste",
    "rowid": "1302449",
    "final_x": "3662928.53837",
    "final_y": "528222.335552",
    "longitude": "-90.12682223784354",
    "latitude": "29.94697897602701",
    "geocoded_column": {
      "latitude": "29.94697897602701",
      "longitude": "-90.12682223784354"
    }
  },
  {
    "service_request": "2026-1302448",
    "request_type": "Trash/Recycling",
    "request_reason": "Request a Large Item Pick Up",
    "date_created": "2026-07-21T16:35:00.000",
    "date_modified": "2026-07-21T16:35:03.000",
    "request_status": "Pending",
    "responsible_agency": "Department of Sanitation",
    "final_address": "3728 General Pershing St",
    "address_councildis": "B",
    "status": "Assigned to Contractor",
    "contractor": "IV Waste",
    "rowid": "1302448",
    "final_x": "3670458.10254",
    "final_y": "528433.631872",
    "longitude": "-90.10304138896493",
    "latitude": "29.947339823563027",
    "geocoded_column": {
      "latitude": "29.947339823563027",
      "longitude": "-90.10304138896493"
    }
  },
  {
    "service_request": "2026-1302447",
    "request_type": "Trash/Recycling",
    "request_reason": "Request a Large Item Pick Up",
    "date_created": "2026-07-21T16:34:07.000",
    "date_modified": "2026-07-21T16:34:09.000",
    "request_status": "Pending",
    "responsible_agency": "Department of Sanitation",
    "final_address": "4241 America St",
    "address_councildis": "E",
    "status": "Assigned to Contractor",
    "contractor": "Waste Pro",
    "rowid": "1302447",
    "final_x": "3700028.62986",
    "final_y": "552383.992022",
    "longitude": "-90.00880241313918",
    "latitude": "30.012288441150698",
    "geocoded_column": {
      "latitude": "30.012288441150698",
      "longitude": "-90.00880241313918"
    }
  },
  {
    "service_request": "2026-1302446",
    "request_type": "Street and Traffic Signs",
    "request_reason": "Additional Signage Request",
    "date_created": "2026-07-21T16:31:14.000",
    "date_modified": "2026-07-21T16:31:15.000",
    "request_status": "Pending",
    "responsible_agency": "Department of Public Works",
    "final_address": "801 Exposition Blvd",
    "address_councildis": "A",
    "status": "Pending",
    "rowid": "1302446",
    "final_x": "3663176.78144",
    "final_y": "519905.883128",
    "longitude": "-90.12631503994788",
    "latitude": "29.92410417558466",
    "geocoded_column": {
      "latitude": "29.92410417558466",
      "longitude": "-90.12631503994788"
    }
  },
  {
    "service_request": "2026-1302445",
    "request_type": "Trash/Recycling",
    "request_reason": "Repair Trash Cart",
    "date_created": "2026-07-21T16:20:42.000",
    "date_modified": "2026-07-21T16:20:44.000",
    "request_status": "Pending",
    "responsible_agency": "Department of Sanitation",
    "final_address": "3717 Pin Oak Ave",
    "address_councildis": "C",
    "status": "Assigned to Contractor",
    "contractor": "Richards Disposal",
    "rowid": "1302445",
    "final_x": "3704333.53386",
    "final_y": "514477.053043",
    "longitude": "-89.99659860868316",
    "latitude": "29.907920507303412",
    "geocoded_column": {
      "latitude": "29.907920507303412",
      "longitude": "-89.99659860868316"
    }
  },
  {
    "service_request": "2026-1302444",
    "request_type": "Trash/Recycling",
    "request_reason": "Request a Large Item Pick Up",
    "date_created": "2026-07-21T16:20:39.000",
    "date_modified": "2026-07-21T16:20:41.000",
    "request_status": "Pending",
    "responsible_agency": "Department of Sanitation",
    "final_address": "7816 Beach Dr",
    "address_councildis": "E",
    "status": "Assigned to Contractor",
    "contractor": "Waste Pro",
    "rowid": "1302444",
    "final_x": "3702188.16081",
    "final_y": "562072.008991",
    "longitude": "-90.00162382128218",
    "latitude": "30.03885793421911",
    "geocoded_column": {
      "latitude": "30.03885793421911",
      "longitude": "-90.00162382128218"
    }
  },
  {
    "service_request": "2026-1302443",
    "request_type": "Trash/Recycling",
    "request_reason": "Repair Recycling Cart",
    "date_created": "2026-07-21T16:18:19.000",
    "date_modified": "2026-07-21T16:18:21.000",
    "request_status": "Pending",
    "responsible_agency": "Department of Sanitation",
    "final_address": "3690 Plymouth Pl",
    "address_councildis": "C",
    "status": "Pending",
    "rowid": "1302443",
    "final_x": "3702799.81527",
    "final_y": "516965.204597",
    "longitude": "-90.00134790993606",
    "latitude": "29.91481118388518",
    "geocoded_column": {
      "latitude": "29.91481118388518",
      "longitude": "-90.00134790993606"
    }
  },
  {
    "service_request": "2026-1302442",
    "request_type": "Trash/Recycling",
    "request_reason": "Request a Large Item Pick Up",
    "date_created": "2026-07-21T16:16:41.000",
    "date_modified": "2026-07-21T16:57:34.000",
    "request_status": "Pending",
    "responsible_agency": "Department of Sanitation",
    "final_address": "614 Esplanade Ave, New Orleans, Louisiana, 70116",
    "address_councildis": "C",
    "status": "Assigned to Contractor",
    "contractor": "IV Waste",
    "rowid": "1302442",
    "final_x": "3684193.25231",
    "final_y": "534226.798277",
    "longitude": "-90.05947099322388",
    "latitude": "29.962856401929088",
    "geocoded_column": {
      "latitude": "29.962856401929088",
      "longitude": "-90.05947099322388"
    }
  },
  {
    "service_request": "2026-1302441",
    "request_type": "Trash/Recycling",
    "request_reason": "Repair Trash Cart",
    "date_created": "2026-07-21T16:15:00.000",
    "date_modified": "2026-07-21T16:15:01.000",
    "request_status": "Pending",
    "responsible_agency": "Department of Sanitation",
    "final_address": "4415 Stephen Girard Ave",
    "address_councildis": "D",
    "status": "Assigned to Contractor",
    "contractor": "IV Waste",
    "rowid": "1302441",
    "final_x": "3690611.51657",
    "final_y": "550257.499028",
    "longitude": "-90.03863100772998",
    "latitude": "30.006737324524885",
    "geocoded_column": {
      "latitude": "30.006737324524885",
      "longitude": "-90.03863100772998"
    }
  },
  {
    "service_request": "2026-1302440",
    "request_type": "Trash/Recycling",
    "request_reason": "Request a Large Item Pick Up",
    "date_created": "2026-07-21T16:14:13.000",
    "date_modified": "2026-07-21T16:14:16.000",
    "request_status": "Pending",
    "responsible_agency": "Department of Sanitation",
    "final_address": "7519 Jonlee Dr",
    "address_councildis": "E",
    "status": "Assigned to Contractor",
    "contractor": "Waste Pro",
    "rowid": "1302440",
    "final_x": "3717511.02437",
    "final_y": "570094.616103",
    "longitude": "-89.95289442989109",
    "latitude": "30.06041824549227",
    "geocoded_column": {
      "latitude": "30.06041824549227",
      "longitude": "-89.95289442989109"
    }
  },
  {
    "service_request": "2026-1302439",
    "request_type": "Trash/Recycling",
    "request_reason": "Request a Large Item Pick Up",
    "date_created": "2026-07-21T16:13:07.000",
    "date_modified": "2026-07-21T16:13:09.000",
    "request_status": "Pending",
    "responsible_agency": "Department of Sanitation",
    "final_address": "2320 Marais St",
    "address_councildis": "C",
    "status": "Assigned to Contractor",
    "contractor": "IV Waste",
    "rowid": "1302439",
    "final_x": "3685943.79497",
    "final_y": "536712.748039",
    "longitude": "-90.05385535478608",
    "latitude": "29.969638273260625",
    "geocoded_column": {
      "latitude": "29.969638273260625",
      "longitude": "-90.05385535478608"
    }
  },
  {
    "service_request": "2026-1302438",
    "request_type": "Trash/Recycling",
    "request_reason": "Request a Large Item Pick Up",
    "date_created": "2026-07-21T16:12:56.000",
    "date_modified": "2026-07-21T16:12:57.000",
    "request_status": "Pending",
    "responsible_agency": "Department of Sanitation",
    "final_address": "5130 Norgate Dr",
    "address_councildis": "E",
    "status": "Assigned to Contractor",
    "contractor": "Waste Pro",
    "rowid": "1302438",
    "final_x": "3707461.99012",
    "final_y": "557177.310875",
    "longitude": "-89.98513919545572",
    "latitude": "30.02522985222701",
    "geocoded_column": {
      "latitude": "30.02522985222701",
      "longitude": "-89.98513919545572"
    }
  },
  {
    "service_request": "2026-1302437",
    "request_type": "Drainage",
    "request_reason": "Catch Basin Not Draining",
    "date_created": "2026-07-21T16:12:26.000",
    "date_modified": "2026-07-21T16:12:28.000",
    "request_status": "Pending",
    "responsible_agency": "Sewerage & Water Board",
    "final_address": "8941 Edinburgh St",
    "address_councildis": "A",
    "status": "Pending",
    "rowid": "1302437",
    "final_x": "3665183.67904",
    "final_y": "536580.631239",
    "longitude": "-90.11942231354824",
    "latitude": "29.969896072441166",
    "geocoded_column": {
      "latitude": "29.969896072441166",
      "longitude": "-90.11942231354824"
    }
  },
  {
    "service_request": "2026-1302436",
    "request_type": "Streetlights",
    "request_reason": "Streetlight Outage/Malfunction",
    "date_created": "2026-07-21T16:11:47.000",
    "date_modified": "2026-07-21T16:11:50.000",
    "request_status": "Pending",
    "responsible_agency": "Department of Public Works",
    "final_address": "2513 S Dorgenois St",
    "address_councildis": "B",
    "status": "Pending",
    "rowid": "1302436",
    "final_x": "3672140.70164",
    "final_y": "529718.574145",
    "longitude": "-90.0976850194793",
    "latitude": "29.950823209142555",
    "geocoded_column": {
      "latitude": "29.950823209142555",
      "longitude": "-90.0976850194793"
    }
  },
  {
    "service_request": "2026-1302435",
    "request_type": "Trash/Recycling",
    "request_reason": "Replace Trash Cart",
    "date_created": "2026-07-21T16:09:56.000",
    "date_modified": "2026-07-21T16:09:58.000",
    "request_status": "Pending",
    "responsible_agency": "Department of Sanitation",
    "final_address": "7115 Freret St",
    "address_councildis": "A",
    "status": "Assigned to Contractor",
    "contractor": "IV Waste",
    "rowid": "1302435",
    "final_x": "3663949.3104",
    "final_y": "525831.916029",
    "longitude": "-90.12367894561389",
    "latitude": "29.940376494367715",
    "geocoded_column": {
      "latitude": "29.940376494367715",
      "longitude": "-90.12367894561389"
    }
  },
  {
    "service_request": "2026-1302434",
    "request_type": "Trash/Recycling",
    "request_reason": "Repair Trash Cart",
    "date_created": "2026-07-21T16:07:20.000",
    "date_modified": "2026-07-21T16:07:22.000",
    "request_status": "Pending",
    "responsible_agency": "Department of Sanitation",
    "final_address": "7307 St Charles Ave",
    "address_councildis": "A",
    "status": "Assigned to Contractor",
    "contractor": "IV Waste",
    "rowid": "1302434",
    "final_x": "3662745.12973",
    "final_y": "524994.963581",
    "longitude": "-90.12750856438514",
    "latitude": "29.938110041104068",
    "geocoded_column": {
      "latitude": "29.938110041104068",
      "longitude": "-90.12750856438514"
    }
  },
  {
    "service_request": "2026-1302433",
    "request_type": "Abandoned Vehicles",
    "request_reason": "Abandoned/Junk Vehicles",
    "date_created": "2026-07-21T16:06:54.000",
    "date_modified": "2026-07-21T16:06:56.000",
    "request_status": "Pending",
    "responsible_agency": "Department of Public Works",
    "final_address": "4721 Dauphine St",
    "address_councildis": "E",
    "status": "Pending",
    "rowid": "1302433",
    "final_x": "3694516.51363",
    "final_y": "533473.203524",
    "longitude": "-90.02689873314694",
    "latitude": "29.96046467549144",
    "geocoded_column": {
      "latitude": "29.96046467549144",
      "longitude": "-90.02689873314694"
    }
  },
  {
    "service_request": "2026-1302432",
    "request_type": "Trash/Recycling",
    "request_reason": "Request a Large Item Pick Up",
    "date_created": "2026-07-21T16:06:25.000",
    "date_modified": "2026-07-21T16:06:27.000",
    "request_status": "Pending",
    "responsible_agency": "Department of Sanitation",
    "final_address": "4660 Wright Rd",
    "address_councildis": "E",
    "status": "Assigned to Contractor",
    "contractor": "Waste Pro",
    "rowid": "1302432",
    "final_x": "3716647.66552",
    "final_y": "556543.747738",
    "longitude": "-89.95613826416984",
    "latitude": "30.023187431526804",
    "geocoded_column": {
      "latitude": "30.023187431526804",
      "longitude": "-89.95613826416984"
    }
  },
  {
    "service_request": "2026-1302431",
    "request_type": "Trash/Recycling",
    "request_reason": "Request a Large Item Pick Up",
    "date_created": "2026-07-21T16:01:00.000",
    "date_modified": "2026-07-21T16:01:02.000",
    "request_status": "Pending",
    "responsible_agency": "Department of Sanitation",
    "final_address": "1515 Allen Toussaint Blvd",
    "address_councildis": "D",
    "status": "Assigned to Contractor",
    "contractor": "IV Waste",
    "rowid": "1302431",
    "final_x": "3678491.00686",
    "final_y": "555452.476313",
    "longitude": "-90.07674289669221",
    "latitude": "30.021392637676072",
    "geocoded_column": {
      "latitude": "30.021392637676072",
      "longitude": "-90.07674289669221"
    }
  },
  {
    "service_request": "2026-1302430",
    "request_type": "Trash/Recycling",
    "request_reason": "Request a Large Item Pick Up",
    "date_created": "2026-07-21T16:00:40.000",
    "date_modified": "2026-07-21T16:00:42.000",
    "request_status": "Pending",
    "responsible_agency": "Department of Sanitation",
    "final_address": "4475 Arts St",
    "address_councildis": "D",
    "status": "Assigned to Contractor",
    "contractor": "IV Waste",
    "rowid": "1302430",
    "final_x": "3686047.82063",
    "final_y": "549498.420051",
    "longitude": "-90.05307568369992",
    "latitude": "30.00479113121108",
    "geocoded_column": {
      "latitude": "30.00479113121108",
      "longitude": "-90.05307568369992"
    }
  },
  {
    "service_request": "2026-1302429",
    "request_type": "Property Maintenance",
    "request_reason": "Property Maintenance",
    "date_created": "2026-07-21T16:00:14.000",
    "date_modified": "2026-07-21T16:00:19.000",
    "request_status": "Pending",
    "responsible_agency": "Department of Code Enforcement",
    "final_address": "2121 Comet St",
    "address_councildis": "C",
    "status": "Pending",
    "rowid": "1302429",
    "final_x": "3700170.26832",
    "final_y": "523291.562555",
    "longitude": "-90.0094169200436",
    "latitude": "29.932290284622766",
    "geocoded_column": {
      "latitude": "29.932290284622766",
      "longitude": "-90.0094169200436"
    }
  },
  {
    "service_request": "2026-1302428",
    "request_type": "Streetlights",
    "request_reason": "Streetlight Outage/Malfunction",
    "date_created": "2026-07-21T15:58:56.000",
    "date_modified": "2026-07-21T15:58:58.000",
    "request_status": "Pending",
    "responsible_agency": "Department of Public Works",
    "final_address": "7701 Poitevent Ave",
    "address_councildis": "E",
    "status": "Pending",
    "rowid": "1302428",
    "final_x": "3706899.0083",
    "final_y": "564357.292129",
    "longitude": "-89.98665147455759",
    "latitude": "30.044990171644447",
    "geocoded_column": {
      "latitude": "30.044990171644447",
      "longitude": "-89.98665147455759"
    }
  },
  {
    "service_request": "2026-1302427",
    "request_type": "Roads and Streets",
    "request_reason": "Sidewalk Damaged or Missing",
    "date_created": "2026-07-21T15:58:45.000",
    "date_modified": "2026-07-21T21:51:12.000",
    "request_status": "Pending",
    "responsible_agency": "Department of Public Works",
    "final_address": "5948 Babylon St",
    "address_councildis": "D",
    "status": "Pending",
    "rowid": "1302427",
    "final_x": "3696144.25693",
    "final_y": "555123.942681",
    "longitude": "-90.02097563677833",
    "latitude": "30.019945164375024",
    "geocoded_column": {
      "latitude": "30.019945164375024",
      "longitude": "-90.02097563677833"
    }
  },
  {
    "service_request": "2026-1302426",
    "request_type": "Property Maintenance",
    "request_reason": "Property Maintenance",
    "date_created": "2026-07-21T15:57:42.000",
    "date_modified": "2026-07-21T15:57:47.000",
    "request_status": "Pending",
    "responsible_agency": "Department of Code Enforcement",
    "final_address": "2121 Comet St",
    "address_councildis": "C",
    "status": "Pending",
    "rowid": "1302426",
    "final_x": "3700170.26832",
    "final_y": "523291.562555",
    "longitude": "-90.0094169200436",
    "latitude": "29.932290284622766",
    "geocoded_column": {
      "latitude": "29.932290284622766",
      "longitude": "-90.0094169200436"
    }
  },
  {
    "service_request": "2026-1302425",
    "request_type": "Trash/Recycling",
    "request_reason": "Repair Trash Cart",
    "date_created": "2026-07-21T15:56:41.000",
    "date_modified": "2026-07-21T15:56:43.000",
    "request_status": "Pending",
    "responsible_agency": "Department of Sanitation",
    "final_address": "77 Versailles Blvd",
    "address_councildis": "B",
    "status": "Assigned to Contractor",
    "contractor": "IV Waste",
    "rowid": "1302425",
    "final_x": "3667916.8978",
    "final_y": "530633.721794",
    "longitude": "-90.11099086651464",
    "latitude": "29.953464133672952",
    "geocoded_column": {
      "latitude": "29.953464133672952",
      "longitude": "-90.11099086651464"
    }
  },
  {
    "service_request": "2026-1302424",
    "request_type": "Parks & Grass Service",
    "request_reason": "Park Maintenance/Clean Up",
    "date_created": "2026-07-21T15:54:50.000",
    "date_modified": "2026-07-21T15:59:56.000",
    "request_status": "Pending",
    "responsible_agency": "Department of Parks & Parkways",
    "final_address": "WRIGHT RD & DWYER RD",
    "address_councildis": "E",
    "status": "Pending",
    "rowid": "1302424",
    "final_x": "3716325.8",
    "final_y": "558449.78",
    "longitude": "-89.95708294067948",
    "latitude": "30.028438893641248",
    "geocoded_column": {
      "latitude": "30.028438893641248",
      "longitude": "-89.95708294067948"
    }
  },
  {
    "service_request": "2026-1302423",
    "request_type": "Tree Service",
    "request_reason": "Tree Trim",
    "date_created": "2026-07-21T15:54:16.000",
    "date_modified": "2026-07-21T15:56:36.000",
    "request_status": "Pending",
    "responsible_agency": "Department of Parks & Parkways",
    "final_address": "1240 Lesseps St",
    "address_councildis": "D",
    "status": "Pending",
    "rowid": "1302423",
    "final_x": "3692835.89072",
    "final_y": "535783.495751",
    "longitude": "-90.03212293059758",
    "latitude": "29.966869747238146",
    "geocoded_column": {
      "latitude": "29.966869747238146",
      "longitude": "-90.03212293059758"
    }
  },
  {
    "service_request": "2026-1302422",
    "request_type": "Trash/Recycling",
    "request_reason": "Order Second Trash Cart",
    "date_created": "2026-07-21T15:53:48.000",
    "date_modified": "2026-07-21T15:53:50.000",
    "request_status": "Pending",
    "responsible_agency": "Department of Sanitation",
    "final_address": "4801 Lonely Oak Dr",
    "address_councildis": "E",
    "status": "Assigned to Contractor",
    "contractor": "Waste Pro",
    "rowid": "1302422",
    "final_x": "3702362.45719",
    "final_y": "554610.183896",
    "longitude": "-90.00134712271661",
    "latitude": "30.018335234107713",
    "geocoded_column": {
      "latitude": "30.018335234107713",
      "longitude": "-90.00134712271661"
    }
  },
  {
    "service_request": "2026-1302421",
    "request_type": "Trash/Recycling",
    "request_reason": "Repair Trash Cart",
    "date_created": "2026-07-21T15:50:47.000",
    "date_modified": "2026-07-21T15:51:08.000",
    "request_status": "Pending",
    "responsible_agency": "Department of Sanitation",
    "final_address": "2928 Bell St",
    "address_councildis": "A",
    "status": "Assigned to Contractor",
    "contractor": "IV Waste",
    "rowid": "1302421",
    "final_x": "3676763.31573",
    "final_y": "539223.550346",
    "longitude": "-90.08276159163633",
    "latitude": "29.976820799361775",
    "geocoded_column": {
      "latitude": "29.976820799361775",
      "longitude": "-90.08276159163633"
    }
  },
  {
    "service_request": "2026-1302420",
    "request_type": "Property Maintenance",
    "request_reason": "Property Maintenance",
    "date_created": "2026-07-21T15:49:24.000",
    "date_modified": "2026-07-21T15:57:15.000",
    "request_status": "Pending",
    "responsible_agency": "Department of Code Enforcement",
    "final_address": "1243 Lesseps St",
    "address_councildis": "D",
    "status": "Pending",
    "rowid": "1302420",
    "final_x": "3692904.16566",
    "final_y": "535781.555207",
    "longitude": "-90.03190738886127",
    "latitude": "29.966862279370474",
    "geocoded_column": {
      "latitude": "29.966862279370474",
      "longitude": "-90.03190738886127"
    }
  },
  {
    "service_request": "2026-1302419",
    "request_type": "Trash/Recycling",
    "request_reason": "Repair Trash Cart",
    "date_created": "2026-07-21T15:48:33.000",
    "date_modified": "2026-07-21T15:49:41.000",
    "request_status": "Pending",
    "responsible_agency": "Department of Sanitation",
    "final_address": "11417 S St Andrews Cir",
    "address_councildis": "E",
    "status": "Assigned to Contractor",
    "contractor": "Waste Pro",
    "rowid": "1302419",
    "final_x": "3719549.47461",
    "final_y": "559519.532637",
    "longitude": "-89.94685551967636",
    "latitude": "30.031273425293886",
    "geocoded_column": {
      "latitude": "30.031273425293886",
      "longitude": "-89.94685551967636"
    }
  },
  {
    "service_request": "2026-1302418",
    "request_type": "Abandoned Vehicles",
    "request_reason": "Abandoned/Junk Vehicles",
    "date_created": "2026-07-21T15:43:45.000",
    "date_modified": "2026-07-21T15:43:47.000",
    "request_status": "Pending",
    "responsible_agency": "Department of Public Works",
    "final_address": "2124 Spain St",
    "address_councildis": "D",
    "status": "Pending",
    "rowid": "1302418",
    "final_x": "3685773.47042",
    "final_y": "540331.721739",
    "longitude": "-90.05426567468439",
    "latitude": "29.979594412151",
    "geocoded_column": {
      "latitude": "29.979594412151",
      "longitude": "-90.05426567468439"
    }
  },
  {
    "service_request": "2026-1302417",
    "request_type": "Roads and Streets",
    "request_reason": "Sidewalk Damaged or Missing",
    "date_created": "2026-07-21T15:42:26.000",
    "date_modified": "2026-07-21T15:43:26.000",
    "request_status": "Pending",
    "responsible_agency": "Department of Public Works",
    "final_address": "827 Ursulines Ave",
    "address_councildis": "C",
    "status": "Pending",
    "rowid": "1302417",
    "final_x": "3682987.84604",
    "final_y": "534006.369797",
    "longitude": "-90.06328522394176",
    "latitude": "29.96228709189507",
    "geocoded_column": {
      "latitude": "29.96228709189507",
      "longitude": "-90.06328522394176"
    }
  },
  {
    "service_request": "2026-1302416",
    "request_type": "Trash/Recycling",
    "request_reason": "Request a Large Item Pick Up",
    "date_created": "2026-07-21T15:32:57.000",
    "date_modified": "2026-07-21T15:32:59.000",
    "request_status": "Pending",
    "responsible_agency": "Department of Sanitation",
    "final_address": "6115 Chestnut St",
    "address_councildis": "A",
    "status": "Assigned to Contractor",
    "contractor": "IV Waste",
    "rowid": "1302416",
    "final_x": "3664245.72404",
    "final_y": "520224.55916",
    "longitude": "-90.12293012427479",
    "latitude": "29.924949429705837",
    "geocoded_column": {
      "latitude": "29.924949429705837",
      "longitude": "-90.12293012427479"
    }
  },
  {
    "service_request": "2026-1302415",
    "request_type": "Trash/Recycling",
    "request_reason": "Request a Large Item Pick Up",
    "date_created": "2026-07-21T15:30:49.000",
    "date_modified": "2026-07-21T15:30:51.000",
    "request_status": "Pending",
    "responsible_agency": "Department of Sanitation",
    "final_address": "35 Kings Canyon Dr",
    "address_councildis": "C",
    "status": "Assigned to Contractor",
    "contractor": "Richards Disposal",
    "rowid": "1302415",
    "final_x": "3700148.73213",
    "final_y": "515723.776244",
    "longitude": "-90.00976087175701",
    "latitude": "29.911482149545247",
    "geocoded_column": {
      "latitude": "29.911482149545247",
      "longitude": "-90.00976087175701"
    }
  },
  {
    "service_request": "2026-1302414",
    "request_type": "Safety & Permits",
    "request_reason": "Zoning Enforcement",
    "date_created": "2026-07-21T15:29:37.000",
    "date_modified": "2026-07-21T15:31:27.000",
    "request_status": "Pending",
    "responsible_agency": "Safety and Permits",
    "final_address": "5703 Elysian Fields Ave",
    "address_councildis": "D",
    "status": "Pending",
    "rowid": "1302414",
    "final_x": "3683743.03535",
    "final_y": "553915.051159",
    "longitude": "-90.06020192168377",
    "latitude": "30.017005867494245",
    "geocoded_column": {
      "latitude": "30.017005867494245",
      "longitude": "-90.06020192168377"
    }
  },
  {
    "service_request": "2026-1302413",
    "request_type": "Safety & Permits",
    "request_reason": "Zoning Enforcement",
    "date_created": "2026-07-21T15:27:58.000",
    "date_modified": "2026-07-21T15:28:00.000",
    "request_status": "Pending",
    "responsible_agency": "Safety and Permits",
    "final_address": "4876 Feliciana Dr",
    "address_councildis": "D",
    "status": "Pending",
    "rowid": "1302413",
    "final_x": "3690007.24528",
    "final_y": "551230.478933",
    "longitude": "-90.04050537064653",
    "latitude": "30.00943142160334",
    "geocoded_column": {
      "latitude": "30.00943142160334",
      "longitude": "-90.04050537064653"
    }
  },
  {
    "service_request": "2026-1302412",
    "request_type": "Street and Traffic Signs",
    "request_reason": "Stop Sign Missing or Damaged",
    "date_created": "2026-07-21T15:25:19.000",
    "date_modified": "2026-07-21T15:25:20.000",
    "request_status": "Pending",
    "responsible_agency": "Department of Public Works",
    "final_address": "S VILLERE ST & CANAL ST",
    "address_councildis": "B",
    "status": "Pending",
    "rowid": "1302412",
    "final_x": "3678922.4",
    "final_y": "532340.88",
    "longitude": "-90.07618101637682",
    "latitude": "29.95783083623167",
    "geocoded_column": {
      "latitude": "29.95783083623167",
      "longitude": "-90.07618101637682"
    }
  },
  {
    "service_request": "2026-1302411",
    "request_type": "Trash/Recycling",
    "request_reason": "Order Trash Cart",
    "date_created": "2026-07-21T15:21:35.000",
    "date_modified": "2026-07-21T15:21:37.000",
    "request_status": "Pending",
    "responsible_agency": "Department of Sanitation",
    "final_address": "25565 Chef Menteur Hwy",
    "address_councildis": "E",
    "status": "Assigned to Contractor",
    "contractor": "Waste Pro",
    "rowid": "1302411",
    "final_x": "3780583.14642",
    "final_y": "600279.213763",
    "longitude": "-89.75221604676413",
    "latitude": "30.141170732298203",
    "geocoded_column": {
      "latitude": "30.141170732298203",
      "longitude": "-89.75221604676413"
    }
  },
  {
    "service_request": "2026-1302410",
    "request_type": "Trash/Recycling",
    "request_reason": "Replace Trash Cart",
    "date_created": "2026-07-21T15:20:52.000",
    "date_modified": "2026-07-21T15:20:54.000",
    "request_status": "Pending",
    "responsible_agency": "Department of Sanitation",
    "final_address": "916 Whitney Ave",
    "address_councildis": "C",
    "status": "Assigned to Contractor",
    "contractor": "Richards Disposal",
    "rowid": "1302410",
    "final_x": "3690255.15446",
    "final_y": "528084.409727",
    "longitude": "-90.04054718524343",
    "latitude": "29.945780261964885",
    "geocoded_column": {
      "latitude": "29.945780261964885",
      "longitude": "-90.04054718524343"
    }
  },
  {
    "service_request": "2026-1302409",
    "request_type": "Trash/Recycling",
    "request_reason": "Request a Large Item Pick Up",
    "date_created": "2026-07-21T15:20:20.000",
    "date_modified": "2026-07-21T15:20:23.000",
    "request_status": "Pending",
    "responsible_agency": "Department of Sanitation",
    "final_address": "4858 Haydel St",
    "address_councildis": "E",
    "status": "Assigned to Contractor",
    "contractor": "Waste Pro",
    "rowid": "1302409",
    "final_x": "3698891.27236",
    "final_y": "555132.824729",
    "longitude": "-90.01229567522428",
    "latitude": "30.019882791084665",
    "geocoded_column": {
      "latitude": "30.019882791084665",
      "longitude": "-90.01229567522428"
    }
  },
  {
    "service_request": "2026-1302408",
    "request_type": "Trash/Recycling",
    "request_reason": "Order Trash Cart",
    "date_created": "2026-07-21T15:20:14.000",
    "date_modified": "2026-07-21T15:20:15.000",
    "request_status": "Pending",
    "responsible_agency": "Department of Sanitation",
    "final_address": "25549 Chef Menteur Hwy",
    "address_councildis": "E",
    "status": "Assigned to Contractor",
    "contractor": "Waste Pro",
    "rowid": "1302408",
    "final_x": "3780483.31998",
    "final_y": "600206.297091",
    "longitude": "-89.7525350216771",
    "latitude": "30.140974036296672",
    "geocoded_column": {
      "latitude": "30.140974036296672",
      "longitude": "-89.7525350216771"
    }
  },
  {
    "service_request": "2026-1302407",
    "request_type": "Trash/Recycling",
    "request_reason": "Request a Large Item Pick Up",
    "date_created": "2026-07-21T15:18:39.000",
    "date_modified": "2026-07-21T15:18:40.000",
    "request_status": "Pending",
    "responsible_agency": "Department of Sanitation",
    "final_address": "3706 Franklin Ave",
    "address_councildis": "D",
    "status": "Assigned to Contractor",
    "contractor": "IV Waste",
    "rowid": "1302407",
    "final_x": "3687032.99734",
    "final_y": "546749.222993",
    "longitude": "-90.050060590116",
    "latitude": "29.997201531284045",
    "geocoded_column": {
      "latitude": "29.997201531284045",
      "longitude": "-90.050060590116"
    }
  },
  {
    "service_request": "2026-1302406",
    "request_type": "Trash/Recycling",
    "request_reason": "Request a Large Item Pick Up",
    "date_created": "2026-07-21T15:17:37.000",
    "date_modified": "2026-07-21T15:17:38.000",
    "request_status": "Pending",
    "responsible_agency": "Department of Sanitation",
    "final_address": "9801 E Rockton Cir",
    "address_councildis": "E",
    "status": "Assigned to Contractor",
    "contractor": "Waste Pro",
    "rowid": "1302406",
    "final_x": "3708321.63736",
    "final_y": "562852.77072",
    "longitude": "-89.98221140186925",
    "latitude": "30.040807288153356",
    "geocoded_column": {
      "latitude": "30.040807288153356",
      "longitude": "-89.98221140186925"
    }
  },
  {
    "service_request": "2026-1302405",
    "request_type": "Trash/Recycling",
    "request_reason": "Request a Large Item Pick Up",
    "date_created": "2026-07-21T15:17:19.000",
    "date_modified": "2026-07-21T15:17:21.000",
    "request_status": "Pending",
    "responsible_agency": "Department of Sanitation",
    "final_address": "3747 Pin Oak Ave",
    "address_councildis": "C",
    "status": "Assigned to Contractor",
    "contractor": "Richards Disposal",
    "rowid": "1302405",
    "final_x": "3704642.50679",
    "final_y": "514368.936819",
    "longitude": "-89.99562743970773",
    "latitude": "29.907613309895346",
    "geocoded_column": {
      "latitude": "29.907613309895346",
      "longitude": "-89.99562743970773"
    }
  },
  {
    "service_request": "2026-1302404",
    "request_type": "Streetlights",
    "request_reason": "Streetlight Outage/Malfunction",
    "date_created": "2026-07-21T15:17:13.000",
    "date_modified": "2026-07-21T15:17:15.000",
    "request_status": "Pending",
    "responsible_agency": "Department of Public Works",
    "final_address": "149 Cypress Grove Ct",
    "address_councildis": "C",
    "status": "Pending",
    "rowid": "1302404",
    "final_x": "3705032.68683",
    "final_y": "511661.286832",
    "longitude": "-89.99449584270432",
    "latitude": "29.900155663946006",
    "geocoded_column": {
      "latitude": "29.900155663946006",
      "longitude": "-89.99449584270432"
    }
  },
  {
    "service_request": "2026-1302403",
    "request_type": "Trash/Recycling",
    "request_reason": "Repair Recycling Cart",
    "date_created": "2026-07-21T15:13:57.000",
    "date_modified": "2026-07-21T15:13:58.000",
    "request_status": "Pending",
    "responsible_agency": "Department of Sanitation",
    "final_address": "1010 Short St Apt C",
    "address_councildis": "A",
    "status": "Pending",
    "contractor": "IV Waste",
    "rowid": "1302403",
    "final_x": "3661835.3799",
    "final_y": "527638.154815",
    "longitude": "-90.13029312737288",
    "latitude": "29.945404270179942",
    "geocoded_column": {
      "latitude": "29.945404270179942",
      "longitude": "-90.13029312737288"
    }
  },
  {
    "service_request": "2026-1302402",
    "request_type": "Trash/Recycling",
    "request_reason": "Request a Large Item Pick Up",
    "date_created": "2026-07-21T15:12:38.000",
    "date_modified": "2026-07-21T15:12:41.000",
    "request_status": "Pending",
    "responsible_agency": "Department of Sanitation",
    "final_address": "7361 Symmes Ave",
    "address_councildis": "E",
    "status": "Assigned to Contractor",
    "contractor": "Waste Pro",
    "rowid": "1302402",
    "final_x": "3708303.68657",
    "final_y": "563883.998113",
    "longitude": "-89.98222970363396",
    "latitude": "30.043643334321047",
    "geocoded_column": {
      "latitude": "30.043643334321047",
      "longitude": "-89.98222970363396"
    }
  },
  {
    "service_request": "2026-1302401",
    "request_type": "Trash/Recycling",
    "request_reason": "Request a Large Item Pick Up",
    "date_created": "2026-07-21T15:11:42.000",
    "date_modified": "2026-07-21T15:11:43.000",
    "request_status": "Pending",
    "responsible_agency": "Department of Sanitation",
    "final_address": "4 Five Oaks Dr",
    "address_councildis": "C",
    "status": "Assigned to Contractor",
    "contractor": "Richards Disposal",
    "rowid": "1302401",
    "final_x": "3699225.5889",
    "final_y": "526131.385022",
    "longitude": "-90.01229580775204",
    "latitude": "29.940128789561918",
    "geocoded_column": {
      "latitude": "29.940128789561918",
      "longitude": "-90.01229580775204"
    }
  },
  {
    "service_request": "2026-1302400",
    "request_type": "Trash/Recycling",
    "request_reason": "Order Trash Cart",
    "date_created": "2026-07-21T15:07:50.000",
    "date_modified": "2026-07-21T15:07:52.000",
    "request_status": "Pending",
    "responsible_agency": "Department of Sanitation",
    "final_address": "31 Lake Breeze Dr",
    "address_councildis": "E",
    "status": "Assigned to Contractor",
    "contractor": "Waste Pro",
    "rowid": "1302400",
    "final_x": "3763057.31101",
    "final_y": "571985.934632",
    "longitude": "-89.80884875986133",
    "latitude": "30.06403108396738",
    "geocoded_column": {
      "latitude": "30.06403108396738",
      "longitude": "-89.80884875986133"
    }
  },
  {
    "service_request": "2026-1302399",
    "request_type": "Property Maintenance",
    "request_reason": "Property Maintenance",
    "date_created": "2026-07-21T15:04:22.000",
    "date_modified": "2026-07-21T15:04:24.000",
    "request_status": "Pending",
    "responsible_agency": "Department of Code Enforcement",
    "final_address": "2617 S Miro St",
    "address_councildis": "B",
    "status": "Pending",
    "rowid": "1302399",
    "final_x": "3672384.02049",
    "final_y": "528686.105984",
    "longitude": "-90.09695191665469",
    "latitude": "29.947977044528805",
    "geocoded_column": {
      "latitude": "29.947977044528805",
      "longitude": "-90.09695191665469"
    }
  },
  {
    "service_request": "2026-1302398",
    "request_type": "Abandoned Vehicles",
    "request_reason": "Abandoned/Junk Vehicles",
    "date_created": "2026-07-21T15:03:43.000",
    "date_modified": "2026-07-21T15:03:45.000",
    "request_status": "Pending",
    "responsible_agency": "Department of Public Works",
    "final_address": "5521 Edenboro Rd",
    "address_councildis": "E",
    "status": "Pending",
    "rowid": "1302398",
    "final_x": "3708171.54129",
    "final_y": "558187.975259",
    "longitude": "-89.98285950343262",
    "latitude": "30.027985809028255",
    "geocoded_column": {
      "latitude": "30.027985809028255",
      "longitude": "-89.98285950343262"
    }
  },
  {
    "service_request": "2026-1302397",
    "request_type": "Property Maintenance",
    "request_reason": "Property Maintenance",
    "date_created": "2026-07-21T15:02:43.000",
    "date_modified": "2026-07-21T15:02:45.000",
    "request_status": "Pending",
    "responsible_agency": "Department of Code Enforcement",
    "final_address": "220 Liberty Terrace Dr",
    "address_councildis": "D",
    "status": "Pending",
    "rowid": "1302397",
    "final_x": "3689518.70953",
    "final_y": "545650.822672",
    "longitude": "-90.04224744562075",
    "latitude": "29.994104547816892",
    "geocoded_column": {
      "latitude": "29.994104547816892",
      "longitude": "-90.04224744562075"
    }
  },
  {
    "service_request": "2026-1302396",
    "request_type": "Trash/Recycling",
    "request_reason": "Repair Recycling Cart",
    "date_created": "2026-07-21T15:02:17.000",
    "date_modified": "2026-07-21T15:02:19.000",
    "request_status": "Pending",
    "responsible_agency": "Department of Sanitation",
    "final_address": "802 Pine St",
    "address_councildis": "A",
    "status": "Pending",
    "rowid": "1302396",
    "final_x": "3663130.85997",
    "final_y": "525554.604285",
    "longitude": "-90.1262721611563",
    "latitude": "29.93963770798344",
    "geocoded_column": {
      "latitude": "29.93963770798344",
      "longitude": "-90.1262721611563"
    }
  },
  {
    "service_request": "2026-1302395",
    "request_type": "Tree Service",
    "request_reason": "Tree Trim",
    "date_created": "2026-07-21T15:01:59.000",
    "date_modified": "2026-07-21T15:02:19.000",
    "request_status": "Pending",
    "responsible_agency": "Department of Parks & Parkways",
    "final_address": "6026 Memphis St",
    "address_councildis": "A",
    "status": "Pending",
    "rowid": "1302395",
    "final_x": "3669116.93396",
    "final_y": "547447.849553",
    "longitude": "-90.10663326516743",
    "latitude": "29.999662060625905",
    "geocoded_column": {
      "latitude": "29.999662060625905",
      "longitude": "-90.10663326516743"
    }
  },
  {
    "service_request": "2026-1302394",
    "request_type": "Trash/Recycling",
    "request_reason": "Order Trash Cart",
    "date_created": "2026-07-21T15:01:51.000",
    "date_modified": "2026-07-21T15:01:53.000",
    "request_status": "Pending",
    "responsible_agency": "Department of Sanitation",
    "final_address": "2616 Cambronne St",
    "address_councildis": "A",
    "status": "Assigned to Contractor",
    "contractor": "IV Waste",
    "rowid": "1302394",
    "final_x": "3664635.32916",
    "final_y": "532964.361028",
    "longitude": "-90.1212748677714",
    "latitude": "29.95996848092952",
    "geocoded_column": {
      "latitude": "29.95996848092952",
      "longitude": "-90.1212748677714"
    }
  },
  {
    "service_request": "2026-1302393",
    "request_type": "Abandoned Vehicles",
    "request_reason": "Abandoned/Junk Vehicles",
    "date_created": "2026-07-21T14:57:57.000",
    "date_modified": "2026-07-21T15:03:44.000",
    "request_status": "Pending",
    "responsible_agency": "Department of Public Works",
    "final_address": "4300 Hollygrove St",
    "address_councildis": "A",
    "status": "Pending",
    "rowid": "1302393",
    "final_x": "3667019.66714",
    "final_y": "538699.573193",
    "longitude": "-90.11355283009351",
    "latitude": "29.97566884502796",
    "geocoded_column": {
      "latitude": "29.97566884502796",
      "longitude": "-90.11355283009351"
    }
  },
  {
    "service_request": "2026-1302392",
    "request_type": "Abandoned Vehicles",
    "request_reason": "Abandoned/Junk Vehicles",
    "date_created": "2026-07-21T14:56:54.000",
    "date_modified": "2026-07-21T14:56:56.000",
    "request_status": "Pending",
    "responsible_agency": "Department of Public Works",
    "status": "Pending",
    "rowid": "1302392",
    "longitude": "0.0",
    "latitude": "0.0",
    "geocoded_column": {
      "latitude": "0.0",
      "longitude": "0.0"
    }
  },
  {
    "service_request": "2026-1302391",
    "request_type": "Abandoned Vehicles",
    "request_reason": "Abandoned/Junk Vehicles",
    "date_created": "2026-07-21T14:55:16.000",
    "date_modified": "2026-07-21T14:55:18.000",
    "request_status": "Pending",
    "responsible_agency": "Department of Public Works",
    "final_address": "7612 Oak St",
    "address_councildis": "A",
    "status": "Pending",
    "rowid": "1302391",
    "final_x": "3663201.63373",
    "final_y": "527210.916991",
    "longitude": "-90.12599361878064",
    "latitude": "29.944189989355966",
    "geocoded_column": {
      "latitude": "29.944189989355966",
      "longitude": "-90.12599361878064"
    }
  },
  {
    "service_request": "2026-1302390",
    "request_type": "Trash/Recycling",
    "request_reason": "Repair Recycling Cart",
    "date_created": "2026-07-21T14:54:30.000",
    "date_modified": "2026-07-21T14:54:33.000",
    "request_status": "Pending",
    "responsible_agency": "Department of Sanitation",
    "final_address": "1360 Soldiers St",
    "address_councildis": "D",
    "status": "Pending",
    "rowid": "1302390",
    "final_x": "3677181.99989",
    "final_y": "554373.927768",
    "longitude": "-90.08091625199772",
    "latitude": "30.01846642636617",
    "geocoded_column": {
      "latitude": "30.01846642636617",
      "longitude": "-90.08091625199772"
    }
  },
  {
    "service_request": "2026-1302389",
    "request_type": "Property Maintenance",
    "request_reason": "Property Maintenance",
    "date_created": "2026-07-21T14:53:42.000",
    "date_modified": "2026-07-21T15:38:16.000",
    "case_close_date": "2026-07-21T10:38:14.000",
    "request_status": "Closed",
    "responsible_agency": "Department of Code Enforcement",
    "final_address": "PRITCHARD PL & COLLEGE CT & VERSAILLES BLVD",
    "address_councildis": "B",
    "status": "Resolved",
    "rowid": "1302389",
    "final_x": "3668101.5",
    "final_y": "531078.08",
    "longitude": "-90.11039299411843",
    "latitude": "29.9546805570753",
    "geocoded_column": {
      "latitude": "29.9546805570753",
      "longitude": "-90.11039299411843"
    }
  },
  {
    "service_request": "2026-1302388",
    "request_type": "Abandoned Vehicles",
    "request_reason": "Abandoned/Junk Vehicles",
    "date_created": "2026-07-21T14:53:36.000",
    "date_modified": "2026-07-21T14:59:04.000",
    "request_status": "Pending",
    "responsible_agency": "Department of Public Works",
    "final_address": "JOURDAN AVE & URQUHART ST",
    "address_councildis": "E",
    "status": "Pending",
    "rowid": "1302388",
    "final_x": "3695195.0",
    "final_y": "535238.58",
    "longitude": "-90.02469255401716",
    "latitude": "29.965297548377787",
    "geocoded_column": {
      "latitude": "29.965297548377787",
      "longitude": "-90.02469255401716"
    }
  },
  {
    "service_request": "2026-1302387",
    "request_type": "Drainage",
    "request_reason": "Catch Basin Not Draining",
    "date_created": "2026-07-21T14:53:23.000",
    "date_modified": "2026-07-21T14:53:25.000",
    "request_status": "Pending",
    "responsible_agency": "Sewerage & Water Board",
    "final_address": "7104 Spruce St",
    "address_councildis": "A",
    "status": "Pending",
    "rowid": "1302387",
    "final_x": "3665909.5216",
    "final_y": "528696.72768",
    "longitude": "-90.11739423760807",
    "latitude": "29.94819675712515",
    "geocoded_column": {
      "latitude": "29.94819675712515",
      "longitude": "-90.11739423760807"
    }
  },
  {
    "service_request": "2026-1302386",
    "request_type": "Trash/Recycling",
    "request_reason": "Order Trash Cart",
    "date_created": "2026-07-21T14:53:09.000",
    "date_modified": "2026-07-21T14:53:11.000",
    "request_status": "Pending",
    "responsible_agency": "Department of Sanitation",
    "final_address": "4011 Iberville St",
    "address_councildis": "A",
    "status": "Assigned to Contractor",
    "contractor": "IV Waste",
    "rowid": "1302386",
    "final_x": "3671656.16398",
    "final_y": "538500.464329",
    "longitude": "-90.09891622391767",
    "latitude": "29.974984834001837",
    "geocoded_column": {
      "latitude": "29.974984834001837",
      "longitude": "-90.09891622391767"
    }
  },
  {
    "service_request": "2026-1302385",
    "request_type": "Trash/Recycling",
    "request_reason": "Request a Large Item Pick Up",
    "date_created": "2026-07-21T14:50:58.000",
    "date_modified": "2026-07-21T14:51:00.000",
    "request_status": "Pending",
    "responsible_agency": "Department of Sanitation",
    "final_address": "12920 Parlange Ct",
    "address_councildis": "E",
    "status": "Assigned to Contractor",
    "contractor": "Waste Pro",
    "rowid": "1302385",
    "final_x": "3716828.11519",
    "final_y": "567831.076068",
    "longitude": "-89.9551391131594",
    "latitude": "30.054217050233348",
    "geocoded_column": {
      "latitude": "30.054217050233348",
      "longitude": "-89.9551391131594"
    }
  },
  {
    "service_request": "2026-1302384",
    "request_type": "Trash/Recycling",
    "request_reason": "Request a Large Item Pick Up",
    "date_created": "2026-07-21T14:49:45.000",
    "date_modified": "2026-07-21T14:49:47.000",
    "request_status": "Pending",
    "responsible_agency": "Department of Sanitation",
    "final_address": "2340 Tupelo St",
    "address_councildis": "E",
    "status": "Assigned to Contractor",
    "contractor": "Waste Pro",
    "rowid": "1302384",
    "final_x": "3701227.65841",
    "final_y": "537957.931657",
    "longitude": "-90.00554233857996",
    "latitude": "29.97258395934112",
    "geocoded_column": {
      "latitude": "29.97258395934112",
      "longitude": "-90.00554233857996"
    }
  },
  {
    "service_request": "2026-1302383",
    "request_type": "Trash/Recycling",
    "request_reason": "Request a Large Item Pick Up",
    "date_created": "2026-07-21T14:43:32.000",
    "date_modified": "2026-07-21T14:43:33.000",
    "request_status": "Pending",
    "responsible_agency": "Department of Sanitation",
    "final_address": "2339 Ursulines Ave",
    "address_councildis": "C",
    "status": "Assigned to Contractor",
    "contractor": "IV Waste",
    "rowid": "1302383",
    "final_x": "3678772.89435",
    "final_y": "537331.066376",
    "longitude": "-90.07648027023875",
    "latitude": "29.971556659635425",
    "geocoded_column": {
      "latitude": "29.971556659635425",
      "longitude": "-90.07648027023875"
    }
  },
  {
    "service_request": "2026-1302382",
    "request_type": "Drainage",
    "request_reason": "Illegal Dumping (Sewer Odor)",
    "date_created": "2026-07-21T14:42:33.000",
    "date_modified": "2026-07-21T14:42:35.000",
    "request_status": "Pending",
    "responsible_agency": "Sewerage & Water Board",
    "final_address": "7656 Anne Marie Ct",
    "address_councildis": "E",
    "status": "Pending",
    "rowid": "1302382",
    "final_x": "3717737.04057",
    "final_y": "571303.543272",
    "longitude": "-89.95213394696222",
    "latitude": "30.063734802869117",
    "geocoded_column": {
      "latitude": "30.063734802869117",
      "longitude": "-89.95213394696222"
    }
  },
  {
    "service_request": "2026-1302381",
    "request_type": "Trash/Recycling",
    "request_reason": "Request a Large Item Pick Up",
    "date_created": "2026-07-21T14:42:11.000",
    "date_modified": "2026-07-21T14:42:12.000",
    "request_status": "Pending",
    "responsible_agency": "Department of Sanitation",
    "final_address": "13374 Lourdes St",
    "address_councildis": "E",
    "status": "Assigned to Contractor",
    "contractor": "Waste Pro",
    "rowid": "1302381",
    "final_x": "3725770.9488",
    "final_y": "560790.027998",
    "longitude": "-89.92714643959879",
    "latitude": "30.034558306125394",
    "geocoded_column": {
      "latitude": "30.034558306125394",
      "longitude": "-89.92714643959879"
    }
  },
  {
    "service_request": "2026-1302380",
    "request_type": "Drainage",
    "request_reason": "Catch Basin Not Draining",
    "date_created": "2026-07-21T14:41:22.000",
    "date_modified": "2026-07-21T14:41:24.000",
    "request_status": "Pending",
    "responsible_agency": "Sewerage & Water Board",
    "final_address": "2125 Bienville Ave",
    "address_councildis": "B",
    "status": "Pending",
    "rowid": "1302380",
    "final_x": "3677594.92187",
    "final_y": "534467.585925",
    "longitude": "-90.0802993767018",
    "latitude": "29.963718539246827",
    "geocoded_column": {
      "latitude": "29.963718539246827",
      "longitude": "-90.0802993767018"
    }
  },
  {
    "service_request": "2026-1302379",
    "request_type": "Trash/Recycling",
    "request_reason": "Repair Trash Cart",
    "date_created": "2026-07-21T14:36:17.000",
    "date_modified": "2026-07-21T15:13:42.000",
    "request_status": "Pending",
    "responsible_agency": "Department of Sanitation",
    "final_address": "1010 Short St Apt C",
    "address_councildis": "A",
    "status": "Pending",
    "contractor": "IV Waste",
    "rowid": "1302379",
    "final_x": "3661835.3799",
    "final_y": "527638.154815",
    "longitude": "-90.13029312737288",
    "latitude": "29.945404270179942",
    "geocoded_column": {
      "latitude": "29.945404270179942",
      "longitude": "-90.13029312737288"
    }
  },