[
  {
    "service_request": "2022-892108",
    "request_type": "Trash/Recycling",
    "request_reason": "Replace Recycling Cart",
    "date_created": "2022-06-15T23:49:07.000",
    "date_modified": "2022-06-15T23:49:07.000",
    "request_status": "Pending",
    "responsible_agency": "Department of Sanitation",
    "final_address": "4436 St Charles Ave",
    "address_councildis": "B",
    "status": "Pending",
    "rowid": "892108",
    "final_x": "3670501.14247",
    "final_y": "520746.785913",
    "longitude": "-90.10316605987217",
    "latitude": "29.92620220923419",
    "geocoded_column": {
      "latitude": "29.92620220923419",
      "longitude": "-90.10316605987217"
    }
  },
  {
    "service_request": "2022-892107",
    "request_type": "Roads/Drainage",
    "request_reason": "Catch Basin - Clogged",
    "date_created": "2022-06-15T23:37:24.000",
    "date_modified": "2022-06-15T23:37:24.000",
    "request_status": "Pending",
    "responsible_agency": "Department of Public Works",
    "final_address": "4436 St Charles Ave",
    "address_councildis": "B",
    "status": "Pending",
    "rowid": "892107",
    "final_x": "3670501.14247",
    "final_y": "520746.785913",
    "longitude": "-90.10316605987217",
    "latitude": "29.92620220923419",
    "geocoded_column": {
      "latitude": "29.92620220923419",
      "longitude": "-90.10316605987217"
    }
  },
  {
    "service_request": "2022-892106",
    "request_type": "Trash/Recycling",
    "request_reason": "Repair Trash Cart",
    "date_created": "2022-06-15T23:34:43.000",
    "date_modified": "2022-06-15T23:34:44.000",
    "request_status": "Pending",
    "responsible_agency": "Department of Sanitation",
    "final_address": "2511 Hudson Pl",
    "address_councildis": "C",
    "status": "Assigned to Contractor",
    "contractor": "Richards Disposal",
    "rowid": "892106",
    "final_x": "3703367.07217",
    "final_y": "521977.782778",
    "longitude": "-89.99937327109326",
    "latitude": "29.928575898787244",
    "geocoded_column": {
      "latitude": "29.928575898787244",
      "longitude": "-89.99937327109326"
    }
  },
  {
    "service_request": "2022-892105",
    "request_type": "Abandoned Vehicles",
    "request_reason": "Abandoned/Junk Vehicles",
    "date_created": "2022-06-15T22:45:37.000",
    "date_modified": "2022-06-15T22:45:37.000",
    "request_status": "Pending",
    "responsible_agency": "Department of Public Works",
    "final_address": "7923 Panola St",
    "address_councildis": "A",
    "status": "Pending",
    "rowid": "892105",
    "final_x": "3664546.59821",
    "final_y": "530349.257602",
    "longitude": "-90.12164238707688",
    "latitude": "29.952780378315854",
    "geocoded_column": {
      "latitude": "29.952780378315854",
      "longitude": "-90.12164238707688"
    }
  },
  {
    "service_request": "2022-892104",
    "request_type": "Traffic Signals/Signs/Striping/Streetlights",
    "request_reason": "Traffic Sign Missing/Damaged",
    "date_created": "2022-06-15T22:27:38.000",
    "date_modified": "2022-06-15T22:27:38.000",
    "request_status": "Pending",
    "responsible_agency": "Department of Public Works",
    "final_address": "7240 Crowder Blvd",
    "address_councildis": "E",
    "status": "Pending",
    "rowid": "892104",
    "final_x": "3703716.62775",
    "final_y": "560583.926878",
    "longitude": "-89.99684832690215",
    "latitude": "30.03471735902151",
    "geocoded_column": {
      "latitude": "30.03471735902151",
      "longitude": "-89.99684832690215"
    }
  },
  {
    "service_request": "2022-892103",
    "request_type": "Trash/Recycling",
    "request_reason": "Missed Trash Pick-Up",
    "date_created": "2022-06-15T22:20:59.000",
    "date_modified": "2022-06-15T22:20:59.000",
    "request_status": "Pending",
    "responsible_agency": "Department of Sanitation",
    "final_address": "621 N Pierce St",
    "address_councildis": "A",
    "status": "Assigned to Contractor",
    "contractor": "Richards Disposal",
    "rowid": "892103",
    "final_x": "3672654.93019",
    "final_y": "539638.471242",
    "longitude": "-90.09572303795275",
    "latitude": "29.978084342701408",
    "geocoded_column": {
      "latitude": "29.978084342701408",
      "longitude": "-90.09572303795275"
    }
  },
  {
    "service_request": "2022-892102",
    "request_type": "Trash/Recycling",
    "request_reason": "Request a Large Item Pick Up",
    "date_created": "2022-06-15T22:06:34.000",
    "date_modified": "2022-06-15T22:06:35.000",
    "request_status": "Pending",
    "responsible_agency": "Department of Sanitation",
    "final_address": "400 S Hennessey St",
    "address_councildis": "A",
    "status": "Assigned to Contractor",
    "contractor": "Richards Disposal",
    "rowid": "892102",
    "final_x": "3669552.60564",
    "final_y": "537924.683273",
    "longitude": "-90.10557930493242",
    "latitude": "29.973463774100505",
    "geocoded_column": {
      "latitude": "29.973463774100505",
      "longitude": "-90.10557930493242"
    }
  },
  {
    "service_request": "2022-892101",
    "request_type": "Trash/Recycling",
    "request_reason": "Replace Trash Cart",
    "date_created": "2022-06-15T22:04:46.000",
    "date_modified": "2022-06-15T22:04:46.000",
    "request_status": "Pending",
    "responsible_agency": "Department of Sanitation",
    "final_address": "424 S Hennessey St",
    "address_councildis": "A",
    "status": "Assigned to Contractor",
    "contractor": "Richards Disposal",
    "rowid": "892101",
    "final_x": "3669431.8146",
    "final_y": "537756.991752",
    "longitude": "-90.10596646220742",
    "latitude": "29.973006236996117",
    "geocoded_column": {
      "latitude": "29.973006236996117",
      "longitude": "-90.10596646220742"
    }
  },
  {
    "service_request": "2022-892100",
    "request_type": "Traffic Signals/Signs/Striping/Streetlights",
    "request_reason": "Street Light Outage/Malfunction",
    "date_created": "2022-06-15T22:02:12.000",
    "date_modified": "2022-06-15T22:02:13.000",
    "request_status": "Pending",
    "responsible_agency": "Department of Public Works",
    "final_address": "533 S Alexander St",
    "address_councildis": "A",
    "status": "Pending",
    "contractor": "Royal Engineering",
    "rowid": "892100",
    "final_x": "3668765.90202",
    "final_y": "537680.406408",
    "longitude": "-90.10807213627888",
    "latitude": "29.97281524928413",
    "geocoded_column": {
      "latitude": "29.97281524928413",
      "longitude": "-90.10807213627888"
    }
  },
  {
    "service_request": "2022-892099",
    "request_type": "Traffic Signals/Signs/Striping/Streetlights",
    "request_reason": "Street Light Outage/Malfunction",
    "date_created": "2022-06-15T22:00:59.000",
    "date_modified": "2022-06-15T22:00:59.000",
    "request_status": "Pending",
    "responsible_agency": "Department of Public Works",
    "final_address": "4621 Bright Dr",
    "address_councildis": "E",
    "status": "Pending",
    "contractor": "Royal Engineering",
    "rowid": "892099",
    "final_x": "3715977.64037",
    "final_y": "556442.915226",
    "longitude": "-89.95825919718584",
    "latitude": "30.022932308097566",
    "geocoded_column": {
      "latitude": "30.022932308097566",
      "longitude": "-89.95825919718584"
    }
  },
  {
    "service_request": "2022-892098",
    "request_type": "Trash/Recycling",
    "request_reason": "Missed Trash Pick-Up",
    "date_created": "2022-06-15T21:49:24.000",
    "date_modified": "2022-06-15T21:49:25.000",
    "request_status": "Pending",
    "responsible_agency": "Department of Sanitation",
    "final_address": "935 Jackson Ave",
    "address_councildis": "B",
    "status": "Assigned to Contractor",
    "contractor": "Richards Disposal",
    "rowid": "892098",
    "final_x": "3679163.96111",
    "final_y": "521756.026746",
    "longitude": "-90.07578505981203",
    "latitude": "29.928718720106005",
    "geocoded_column": {
      "latitude": "29.928718720106005",
      "longitude": "-90.07578505981203"
    }
  },
  {
    "service_request": "2022-892097",
    "request_type": "Traffic Signals/Signs/Striping/Streetlights",
    "request_reason": "Street Light Outage/Malfunction",
    "date_created": "2022-06-15T21:36:05.000",
    "date_modified": "2022-06-15T21:36:06.000",
    "request_status": "Pending",
    "responsible_agency": "Department of Public Works",
    "final_address": "7929 Parry St",
    "address_councildis": "E",
    "status": "Pending",
    "contractor": "Royal Engineering",
    "rowid": "892097",
    "final_x": "3713734.3468",
    "final_y": "569485.814822",
    "longitude": "-89.96485522170887",
    "latitude": "30.058868856385303",
    "geocoded_column": {
      "latitude": "30.058868856385303",
      "longitude": "-89.96485522170887"
    }
  },
  {
    "service_request": "2022-892096",
    "request_type": "Traffic Signals/Signs/Striping/Streetlights",
    "request_reason": "Traffic Signal Malfunctioning/Damaged",
    "date_created": "2022-06-15T21:31:02.000",
    "date_modified": "2022-06-15T21:31:03.000",
    "request_status": "Pending",
    "responsible_agency": "Department of Public Works",
    "final_address": "3300 S Claiborne Ave",
    "address_councildis": "B",
    "status": "Pending",
    "rowid": "892096",
    "final_x": "3672553.49697",
    "final_y": "526110.318398",
    "longitude": "-90.09650459627572",
    "latitude": "29.9408894428693",
    "geocoded_column": {
      "latitude": "29.9408894428693",
      "longitude": "-90.09650459627572"
    }
  },
  {
    "service_request": "2022-892095",
    "request_type": "Trash/Recycling",
    "request_reason": "Order Trash Cart",
    "date_created": "2022-06-15T21:27:51.000",
    "date_modified": "2022-06-15T21:27:51.000",
    "request_status": "Pending",
    "responsible_agency": "Department of Sanitation",
    "final_address": "4530 Urquhart St",
    "address_councildis": "D",
    "status": "Assigned to Contractor",
    "contractor": "Metro Disposal",
    "rowid": "892095",
    "final_x": "3693731.24169",
    "final_y": "535549.676934",
    "longitude": "-90.02930382842364",
    "latitude": "29.96619884055709",
    "geocoded_column": {
      "latitude": "29.96619884055709",
      "longitude": "-90.02930382842364"
    }
  },
  {
    "service_request": "2022-892094",
    "request_type": "Trash/Recycling",
    "request_reason": "Order Trash Cart",
    "date_created": "2022-06-15T21:09:00.000",
    "date_modified": "2022-06-15T21:09:00.000",
    "request_status": "Pending",
    "responsible_agency": "Department of Sanitation",
    "final_address": "2036 Deslonde St",
    "address_councildis": "E",
    "status": "Assigned to Contractor",
    "contractor": "Metro Disposal",
    "rowid": "892094",
    "final_x": "3696376.39786",
    "final_y": "538091.006729",
    "longitude": "-90.02085860071462",
    "latitude": "29.973103550709936",
    "geocoded_column": {
      "latitude": "29.973103550709936",
      "longitude": "-90.02085860071462"
    }
  },
  {
    "service_request": "2022-892093",
    "request_type": "Property Maintenance",
    "request_reason": "Property Maintenance",
    "date_created": "2022-06-15T21:08:26.000",
    "date_modified": "2022-06-15T21:08:26.000",
    "request_status": "Pending",
    "responsible_agency": "Department of Code Enforcement",
    "final_address": "13933 Explorers Ave",
    "address_councildis": "E",
    "status": "Pending",
    "rowid": "892093",
    "final_x": "3726288.88819",
    "final_y": "570352.294375",
    "longitude": "-89.92513833389398",
    "latitude": "30.060833057589694",
    "geocoded_column": {
      "latitude": "30.060833057589694",
      "longitude": "-89.92513833389398"
    }
  },
  {
    "service_request": "2022-892092",
    "request_type": "Roads/Drainage",
    "request_reason": "Street Subsidence (Sinking)",
    "date_created": "2022-06-15T20:54:53.000",
    "date_modified": "2022-06-15T20:54:53.000",
    "request_status": "Pending",
    "responsible_agency": "Department of Public Works",
    "final_address": "3027 Jena St",
    "address_councildis": "B",
    "status": "Pending",
    "rowid": "892092",
    "final_x": "3669959.12417",
    "final_y": "526135.094078",
    "longitude": "-90.1046946764278",
    "latitude": "29.941034314356507",
    "geocoded_column": {
      "latitude": "29.941034314356507",
      "longitude": "-90.1046946764278"
    }
  },
  {
    "service_request": "2022-892090",
    "request_type": "Trash/Recycling",
    "request_reason": "Missed Trash Pick-Up",
    "date_created": "2022-06-15T20:47:24.000",
    "date_modified": "2022-06-15T20:47:25.000",
    "request_status": "Pending",
    "responsible_agency": "Department of Sanitation",
    "final_address": "464 Pine St",
    "address_councildis": "A",
    "status": "Assigned to Contractor",
    "contractor": "Richards Disposal",
    "rowid": "892090",
    "final_x": "3662259.04045",
    "final_y": "524263.752636",
    "longitude": "-90.12906746175246",
    "latitude": "29.93611349903106",
    "geocoded_column": {
      "latitude": "29.93611349903106",
      "longitude": "-90.12906746175246"
    }
  },
  {
    "service_request": "2022-892089",
    "request_type": "Roads/Drainage",
    "request_reason": "Street Subsidence (Sinking)",
    "date_created": "2022-06-15T20:42:52.000",
    "date_modified": "2022-06-15T20:42:52.000",
    "request_status": "Pending",
    "responsible_agency": "Department of Public Works",
    "final_address": "965 Navarre St",
    "address_councildis": "A",
    "status": "Pending",
    "rowid": "892089",
    "final_x": "3670335.99034",
    "final_y": "543731.92763",
    "longitude": "-90.10290826236762",
    "latitude": "29.98940861754111",
    "geocoded_column": {
      "latitude": "29.98940861754111",
      "longitude": "-90.10290826236762"
    }
  },
  {
    "service_request": "2022-892088",
    "request_type": "Roads/Drainage",
    "request_reason": "Pothole",
    "date_created": "2022-06-15T20:38:40.000",
    "date_modified": "2022-06-15T20:38:40.000",
    "request_status": "Pending",
    "responsible_agency": "Department of Public Works",
    "final_address": "741 Navarre St",
    "address_councildis": "A",
    "status": "Pending",
    "rowid": "892088",
    "final_x": "3668643.71726",
    "final_y": "543876.248974",
    "longitude": "-90.10824881076562",
    "latitude": "29.98985530986403",
    "geocoded_column": {
      "latitude": "29.98985530986403",
      "longitude": "-90.10824881076562"
    }
  },
  {
    "service_request": "2022-892087",
    "request_type": "Traffic Signals/Signs/Striping/Streetlights",
    "request_reason": "Traffic Signal Malfunctioning/Damaged",
    "date_created": "2022-06-15T20:34:31.000",
    "date_modified": "2022-06-15T20:34:31.000",
    "request_status": "Pending",
    "responsible_agency": "Department of Public Works",
    "final_address": "5700 Canal Blvd",
    "address_councildis": "A",
    "status": "Pending",
    "rowid": "892087",
    "final_x": "3668150.17818",
    "final_y": "545527.471952",
    "longitude": "-90.10975207495828",
    "latitude": "29.994410107075574",
    "geocoded_column": {
      "latitude": "29.994410107075574",
      "longitude": "-90.10975207495828"
    }
  },
  {
    "service_request": "2022-892086",
    "request_type": "Traffic Signals/Signs/Striping/Streetlights",
    "request_reason": "Street Light Outage/Malfunction",
    "date_created": "2022-06-15T20:32:20.000",
    "date_modified": "2022-06-15T20:32:21.000",
    "request_status": "Pending",
    "responsible_agency": "Department of Public Works",
    "final_address": "2232 St Anthony St",
    "address_councildis": "D",
    "status": "Pending",
    "contractor": "Royal Engineering",
    "rowid": "892086",
    "final_x": "3683084.28098",
    "final_y": "540499.693707",
    "longitude": "-90.06275332480472",
    "latitude": "29.980138542980878",
    "geocoded_column": {
      "latitude": "29.980138542980878",
      "longitude": "-90.06275332480472"
    }
  },
  {
    "service_request": "2022-892085",
    "request_type": "Safety & Permits",
    "request_reason": "Construction permit",
    "date_created": "2022-06-15T20:28:43.000",
    "date_modified": "2022-06-15T20:28:43.000",
    "request_status": "Pending",
    "responsible_agency": "Department of Code Enforcement",
    "status": "Pending",
    "rowid": "892085",
    "longitude": "0.0",
    "latitude": "0.0",
    "geocoded_column": {
      "latitude": "0.0",
      "longitude": "0.0"
    }
  },
  {
    "service_request": "2022-892084",
    "request_type": "Trash/Recycling",
    "request_reason": "Request a Large Item Pick Up",
    "date_created": "2022-06-15T20:14:24.000",
    "date_modified": "2022-06-15T20:14:24.000",
    "request_status": "Pending",
    "responsible_agency": "Department of Sanitation",
    "final_address": "2123 Foucher St",
    "address_councildis": "B",
    "status": "Assigned to Contractor",
    "contractor": "Richards Disposal",
    "rowid": "892084",
    "final_x": "3672883.60008",
    "final_y": "523151.000571",
    "longitude": "-90.09556332692465",
    "latitude": "29.93274247881015",
    "geocoded_column": {
      "latitude": "29.93274247881015",
      "longitude": "-90.09556332692465"
    }
  },
  {
    "service_request": "2022-892083",
    "request_type": "Traffic Signals/Signs/Striping/Streetlights",
    "request_reason": "Street Light Outage/Malfunction",
    "date_created": "2022-06-15T20:03:19.000",
    "date_modified": "2022-06-15T20:03:20.000",
    "request_status": "Pending",
    "responsible_agency": "Department of Public Works",
    "final_address": "1401 Canal St",
    "address_councildis": "C",
    "status": "Pending",
    "contractor": "Royal Engineering",
    "rowid": "892083",
    "final_x": "3679468.65333",
    "final_y": "532106.147907",
    "longitude": "-90.07446424816251",
    "latitude": "29.95716891180708",
    "geocoded_column": {
      "latitude": "29.95716891180708",
      "longitude": "-90.07446424816251"
    }
  },
  {
    "service_request": "2022-892082",
    "request_type": "Traffic Signals/Signs/Striping/Streetlights",
    "request_reason": "Street Light Outage/Malfunction",
    "date_created": "2022-06-15T20:01:03.000",
    "date_modified": "2022-06-15T20:01:04.000",
    "request_status": "Pending",
    "responsible_agency": "Department of Public Works",
    "final_address": "1441 Canal St Ste 401",
    "address_councildis": "C",
    "status": "Pending",
    "contractor": "Royal Engineering",
    "rowid": "892082",
    "final_x": "3679347.10191",
    "final_y": "532229.555587",
    "longitude": "-90.07484379025671",
    "latitude": "29.95751191259802",
    "geocoded_column": {
      "latitude": "29.95751191259802",
      "longitude": "-90.07484379025671"
    }
  },
  {
    "service_request": "2022-892081",
    "request_type": "Traffic Signals/Signs/Striping/Streetlights",
    "request_reason": "Street Light Outage/Malfunction",
    "date_created": "2022-06-15T19:58:53.000",
    "date_modified": "2022-06-15T19:58:54.000",
    "request_status": "Pending",
    "responsible_agency": "Department of Public Works",
    "final_address": "1441 Canal St",
    "address_councildis": "C",
    "status": "Pending",
    "contractor": "Royal Engineering",
    "rowid": "892081",
    "final_x": "3679335.018",
    "final_y": "532208.988931",
    "longitude": "-90.07488266092123",
    "latitude": "29.957455726173055",
    "geocoded_column": {
      "latitude": "29.957455726173055",
      "longitude": "-90.07488266092123"
    }
  },
  {
    "service_request": "2022-892080",
    "request_type": "Abandoned Vehicles",
    "request_reason": "Abandoned/Junk Vehicles",
    "date_created": "2022-06-15T19:57:09.000",
    "date_modified": "2022-06-15T20:04:56.000",
    "request_status": "Pending",
    "responsible_agency": "Department of Public Works",
    "final_address": "7191 E Renaissance Ct",
    "address_councildis": "E",
    "status": "Pending",
    "rowid": "892080",
    "final_x": "3717117.27064",
    "final_y": "568217.080485",
    "longitude": "-89.95421048666744",
    "latitude": "30.05526883712014",
    "geocoded_column": {
      "latitude": "30.05526883712014",
      "longitude": "-89.95421048666744"
    }
  },
  {
    "service_request": "2022-892079",
    "request_type": "Traffic Signals/Signs/Striping/Streetlights",
    "request_reason": "Street Light Outage/Malfunction",
    "date_created": "2022-06-15T19:55:31.000",
    "date_modified": "2022-06-15T19:55:32.000",
    "request_status": "Pending",
    "responsible_agency": "Department of Public Works",
    "final_address": "1501 Canal St",
    "address_councildis": "C",
    "status": "Pending",
    "contractor": "Royal Engineering",
    "rowid": "892079",
    "final_x": "3679209.26984",
    "final_y": "532311.398083",
    "longitude": "-90.07527618565476",
    "latitude": "29.957741113588057",
    "geocoded_column": {
      "latitude": "29.957741113588057",
      "longitude": "-90.07527618565476"
    }
  },
  {
    "service_request": "2022-892078",
    "request_type": "Traffic Signals/Signs/Striping/Streetlights",
    "request_reason": "Street Light Outage/Malfunction",
    "date_created": "2022-06-15T19:53:11.000",
    "date_modified": "2022-06-15T19:53:12.000",
    "request_status": "Pending",
    "responsible_agency": "Department of Public Works",
    "final_address": "1500 Canal St",
    "address_councildis": "B",
    "status": "Pending",
    "contractor": "Royal Engineering",
    "rowid": "892078",
    "final_x": "3679081.04053",
    "final_y": "532173.512067",
    "longitude": "-90.07568587566018",
    "latitude": "29.957365844181673",
    "geocoded_column": {
      "latitude": "29.957365844181673",
      "longitude": "-90.07568587566018"
    }
  },
  {
    "service_request": "2022-892077",
    "request_type": "Traffic Signals/Signs/Striping/Streetlights",
    "request_reason": "Street Light Outage/Malfunction",
    "date_created": "2022-06-15T19:48:17.000",
    "date_modified": "2022-06-15T19:48:18.000",
    "request_status": "Pending",
    "responsible_agency": "Department of Public Works",
    "final_address": "1501 Canal St",
    "address_councildis": "C",
    "status": "Pending",
    "contractor": "Royal Engineering",
    "rowid": "892077",
    "final_x": "3679209.26984",
    "final_y": "532311.398083",
    "longitude": "-90.07527618565476",
    "latitude": "29.957741113588057",
    "geocoded_column": {
      "latitude": "29.957741113588057",
      "longitude": "-90.07527618565476"
    }
  },
  {
    "service_request": "2022-892076",
    "request_type": "Traffic Signals/Signs/Striping/Streetlights",
    "request_reason": "Street Light Outage/Malfunction",
    "date_created": "2022-06-15T19:45:58.000",
    "date_modified": "2022-06-15T19:45:59.000",
    "request_status": "Pending",
    "responsible_agency": "Department of Public Works",
    "final_address": "1501 Canal St",
    "address_councildis": "C",
    "status": "Pending",
    "contractor": "Royal Engineering",
    "rowid": "892076",
    "final_x": "3679209.26984",
    "final_y": "532311.398083",
    "longitude": "-90.07527618565476",
    "latitude": "29.957741113588057",
    "geocoded_column": {
      "latitude": "29.957741113588057",
      "longitude": "-90.07527618565476"
    }
  },
  {
    "service_request": "2022-892075",
    "request_type": "Traffic Signals/Signs/Striping/Streetlights",
    "request_reason": "Street Light Outage/Malfunction",
    "date_created": "2022-06-15T19:43:48.000",
    "date_modified": "2022-06-15T19:43:49.000",
    "request_status": "Pending",
    "responsible_agency": "Department of Public Works",
    "final_address": "1501 Canal St",
    "address_councildis": "C",
    "status": "Pending",
    "contractor": "Royal Engineering",
    "rowid": "892075",
    "final_x": "3679209.26984",
    "final_y": "532311.398083",
    "longitude": "-90.07527618565476",
    "latitude": "29.957741113588057",
    "geocoded_column": {
      "latitude": "29.957741113588057",
      "longitude": "-90.07527618565476"
    }
  },
  {
    "service_request": "2022-892074",
    "request_type": "Roads/Drainage",
    "request_reason": "Catch Basin - Clogged",
    "date_created": "2022-06-15T19:40:31.000",
    "date_modified": "2022-06-15T19:40:31.000",
    "request_status": "Pending",
    "responsible_agency": "Department of Public Works",
    "final_address": "1500 Canal St",
    "address_councildis": "B",
    "status": "Pending",
    "rowid": "892074",
    "final_x": "3679081.04053",
    "final_y": "532173.512067",
    "longitude": "-90.07568587566018",
    "latitude": "29.957365844181673",
    "geocoded_column": {
      "latitude": "29.957365844181673",
      "longitude": "-90.07568587566018"
    }
  },
  {
    "service_request": "2022-892073",
    "request_type": "Roads/Drainage",
    "request_reason": "Man hole cover issue",
    "date_created": "2022-06-15T19:37:51.000",
    "date_modified": "2022-06-15T19:37:51.000",
    "request_status": "Pending",
    "responsible_agency": "Department of Public Works",
    "status": "Pending",
    "rowid": "892073",
    "longitude": "0.0",
    "latitude": "0.0",
    "geocoded_column": {
      "latitude": "0.0",
      "longitude": "0.0"
    }
  },
  {
    "service_request": "2022-892072",
    "request_type": "Traffic Signals/Signs/Striping/Streetlights",
    "request_reason": "Street Light Outage/Malfunction",
    "date_created": "2022-06-15T19:33:37.000",
    "date_modified": "2022-06-15T19:33:37.000",
    "request_status": "Pending",
    "responsible_agency": "Department of Public Works",
    "final_address": "1500 Canal St Ste 101",
    "address_councildis": "B",
    "status": "Pending",
    "contractor": "Royal Engineering",
    "rowid": "892072",
    "final_x": "3679068.75624",
    "final_y": "532159.202883",
    "longitude": "-90.07572516166748",
    "latitude": "29.957326869488583",
    "geocoded_column": {
      "latitude": "29.957326869488583",
      "longitude": "-90.07572516166748"
    }
  },
  {
    "service_request": "2022-892071",
    "request_type": "Traffic Signals/Signs/Striping/Streetlights",
    "request_reason": "Street Light Outage/Malfunction",
    "date_created": "2022-06-15T19:31:00.000",
    "date_modified": "2022-06-15T19:31:01.000",
    "request_status": "Pending",
    "responsible_agency": "Department of Public Works",
    "final_address": "1535 Canal St",
    "address_councildis": "C",
    "status": "Pending",
    "contractor": "Royal Engineering",
    "rowid": "892071",
    "final_x": "3678936.45589",
    "final_y": "532521.076676",
    "longitude": "-90.07613038878848",
    "latitude": "29.958325892153642",
    "geocoded_column": {
      "latitude": "29.958325892153642",
      "longitude": "-90.07613038878848"
    }
  },
  {
    "service_request": "2022-892070",
    "request_type": "Traffic Signals/Signs/Striping/Streetlights",
    "request_reason": "Street Light Outage/Malfunction",
    "date_created": "2022-06-15T19:28:39.000",
    "date_modified": "2022-06-15T19:28:40.000",
    "request_status": "Pending",
    "responsible_agency": "Department of Public Works",
    "final_address": "1500 Canal St",
    "address_councildis": "B",
    "status": "Pending",
    "contractor": "Royal Engineering",
    "rowid": "892070",
    "final_x": "3679081.04053",
    "final_y": "532173.512067",
    "longitude": "-90.07568587566018",
    "latitude": "29.957365844181673",
    "geocoded_column": {
      "latitude": "29.957365844181673",
      "longitude": "-90.07568587566018"
    }
  },
  {
    "service_request": "2022-892069",
    "request_type": "Traffic Signals/Signs/Striping/Streetlights",
    "request_reason": "Street Light Outage/Malfunction",
    "date_created": "2022-06-15T19:26:54.000",
    "date_modified": "2022-06-15T19:26:55.000",
    "request_status": "Pending",
    "responsible_agency": "Department of Public Works",
    "final_address": "1540 Canal St",
    "address_councildis": "B",
    "status": "Pending",
    "contractor": "Royal Engineering",
    "rowid": "892069",
    "final_x": "3678861.602",
    "final_y": "532330.713987",
    "longitude": "-90.07637335122413",
    "latitude": "29.957804717129143",
    "geocoded_column": {
      "latitude": "29.957804717129143",
      "longitude": "-90.07637335122413"
    }
  },
  {
    "service_request": "2022-892068",
    "request_type": "Abandoned Vehicles",
    "request_reason": "Abandoned/Junk Vehicles",
    "date_created": "2022-06-15T19:25:52.000",
    "date_modified": "2022-06-15T19:25:52.000",
    "request_status": "Pending",
    "responsible_agency": "Department of Public Works",
    "final_address": "7328 Plum St",
    "address_councildis": "A",
    "status": "Pending",
    "rowid": "892068",
    "final_x": "3663927.37088",
    "final_y": "527035.813182",
    "longitude": "-90.12370808767713",
    "latitude": "29.94368746359225",
    "geocoded_column": {
      "latitude": "29.94368746359225",
      "longitude": "-90.12370808767713"
    }
  },
  {
    "service_request": "2022-892067",
    "request_type": "Traffic Signals/Signs/Striping/Streetlights",
    "request_reason": "Street Light Outage/Malfunction",
    "date_created": "2022-06-15T19:25:08.000",
    "date_modified": "2022-06-15T19:25:09.000",
    "request_status": "Pending",
    "responsible_agency": "Department of Public Works",
    "final_address": "1500 Canal St",
    "address_councildis": "B",
    "status": "Pending",
    "contractor": "Royal Engineering",
    "rowid": "892067",
    "final_x": "3679081.04053",
    "final_y": "532173.512067",
    "longitude": "-90.07568587566018",
    "latitude": "29.957365844181673",
    "geocoded_column": {
      "latitude": "29.957365844181673",
      "longitude": "-90.07568587566018"
    }
  },
  {
    "service_request": "2022-892066",
    "request_type": "Traffic Signals/Signs/Striping/Streetlights",
    "request_reason": "Street Light Outage/Malfunction",
    "date_created": "2022-06-15T19:19:57.000",
    "date_modified": "2022-06-15T19:19:57.000",
    "request_status": "Pending",
    "responsible_agency": "Department of Public Works",
    "final_address": "POYDRAS ST & PENN ST",
    "address_councildis": "B",
    "status": "Pending",
    "contractor": "Royal Engineering",
    "rowid": "892066",
    "final_x": "3679811.4",
    "final_y": "529549.58",
    "longitude": "-90.07347072146914",
    "latitude": "29.950128853065824",
    "geocoded_column": {
      "latitude": "29.950128853065824",
      "longitude": "-90.07347072146914"
    }
  },
  {
    "service_request": "2022-892065",
    "request_type": "Traffic Signals/Signs/Striping/Streetlights",
    "request_reason": "Street Light Outage/Malfunction",
    "date_created": "2022-06-15T19:18:31.000",
    "date_modified": "2022-06-15T19:18:32.000",
    "request_status": "Pending",
    "responsible_agency": "Department of Public Works",
    "final_address": "POYDRAS ST & PENN ST",
    "address_councildis": "B",
    "status": "Pending",
    "contractor": "Royal Engineering",
    "rowid": "892065",
    "final_x": "3679811.4",
    "final_y": "529549.58",
    "longitude": "-90.07347072146914",
    "latitude": "29.950128853065824",
    "geocoded_column": {
      "latitude": "29.950128853065824",
      "longitude": "-90.07347072146914"
    }
  },
  {
    "service_request": "2022-892064",
    "request_type": "Traffic Signals/Signs/Striping/Streetlights",
    "request_reason": "Street Light Outage/Malfunction",
    "date_created": "2022-06-15T19:15:56.000",
    "date_modified": "2022-06-15T19:15:57.000",
    "request_status": "Pending",
    "responsible_agency": "Department of Public Works",
    "final_address": "POYDRAS ST & PENN ST",
    "address_councildis": "B",
    "status": "Pending",
    "contractor": "Royal Engineering",
    "rowid": "892064",
    "final_x": "3679811.4",
    "final_y": "529549.58",
    "longitude": "-90.07347072146914",
    "latitude": "29.950128853065824",
    "geocoded_column": {
      "latitude": "29.950128853065824",
      "longitude": "-90.07347072146914"
    }
  },
  {
    "service_request": "2022-892063",
    "request_type": "Traffic Signals/Signs/Striping/Streetlights",
    "request_reason": "Street Light Outage/Malfunction",
    "date_created": "2022-06-15T19:12:36.000",
    "date_modified": "2022-06-15T19:12:37.000",
    "request_status": "Pending",
    "responsible_agency": "Department of Public Works",
    "final_address": "900 Perdido St",
    "address_councildis": "B",
    "status": "Pending",
    "contractor": "Royal Engineering",
    "rowid": "892063",
    "final_x": "3679904.90651",
    "final_y": "529938.874689",
    "longitude": "-90.07316195918962",
    "latitude": "29.951196455396516",
    "geocoded_column": {
      "latitude": "29.951196455396516",
      "longitude": "-90.07316195918962"
    }
  },
  {
    "service_request": "2022-892061",
    "request_type": "Traffic Signals/Signs/Striping/Streetlights",
    "request_reason": "Street Light Outage/Malfunction",
    "date_created": "2022-06-15T19:10:22.000",
    "date_modified": "2022-06-15T19:10:22.000",
    "request_status": "Pending",
    "responsible_agency": "Department of Public Works",
    "final_address": "900 Perdido St",
    "address_councildis": "B",
    "status": "Pending",
    "contractor": "Royal Engineering",
    "rowid": "892061",
    "final_x": "3679904.90651",
    "final_y": "529938.874689",
    "longitude": "-90.07316195918962",
    "latitude": "29.951196455396516",
    "geocoded_column": {
      "latitude": "29.951196455396516",
      "longitude": "-90.07316195918962"
    }
  },
  {
    "service_request": "2022-892060",
    "request_type": "Traffic Signals/Signs/Striping/Streetlights",
    "request_reason": "Street Light Outage/Malfunction",
    "date_created": "2022-06-15T19:10:21.000",
    "date_modified": "2022-06-15T19:10:22.000",
    "request_status": "Pending",
    "responsible_agency": "Department of Public Works",
    "final_address": "900 Perdido St",
    "address_councildis": "B",
    "status": "Pending",
    "contractor": "Royal Engineering",
    "rowid": "892060",
    "final_x": "3679904.90651",
    "final_y": "529938.874689",
    "longitude": "-90.07316195918962",
    "latitude": "29.951196455396516",
    "geocoded_column": {
      "latitude": "29.951196455396516",
      "longitude": "-90.07316195918962"
    }
  },
  {
    "service_request": "2022-892059",
    "request_type": "Trash/Recycling",
    "request_reason": "Replace Recycling Cart",
    "date_created": "2022-06-15T19:03:18.000",
    "date_modified": "2022-06-15T19:03:18.000",
    "request_status": "Pending",
    "responsible_agency": "Department of Sanitation",
    "final_address": "310 S Scott St",
    "address_councildis": "A",
    "status": "Pending",
    "rowid": "892059",
    "final_x": "3671253.20276",
    "final_y": "537075.164872",
    "longitude": "-90.10023732443071",
    "latitude": "29.971077671904176",
    "geocoded_column": {
      "latitude": "29.971077671904176",
      "longitude": "-90.10023732443071"
    }
  },
  {
    "service_request": "2022-892058",
    "request_type": "Abandoned Vehicles",
    "request_reason": "Abandoned/Junk Vehicles",
    "date_created": "2022-06-15T19:01:05.000",
    "date_modified": "2022-06-15T19:01:05.000",
    "request_status": "Pending",
    "responsible_agency": "Department of Public Works",
    "final_address": "6010 Brighton Pl",
    "address_councildis": "C",
    "status": "Pending",
    "rowid": "892058",
    "final_x": "3706164.49687",
    "final_y": "520150.501304",
    "longitude": "-89.99061006233049",
    "latitude": "29.92346166855914",
    "geocoded_column": {
      "latitude": "29.92346166855914",
      "longitude": "-89.99061006233049"
    }
  },
  {
    "service_request": "2022-892057",
    "request_type": "Trash/Recycling",
    "request_reason": "Request a Large Item Pick Up",
    "date_created": "2022-06-15T19:00:26.000",
    "date_modified": "2022-06-15T19:00:26.000",
    "request_status": "Pending",
    "responsible_agency": "Department of Sanitation",
    "final_address": "1410 Thalia St",
    "address_councildis": "B",
    "status": "Assigned to Contractor",
    "contractor": "Richards Disposal",
    "rowid": "892057",
    "final_x": "3679969.49877",
    "final_y": "525375.765245",
    "longitude": "-90.0731164711927",
    "latitude": "29.938647474163314",
    "geocoded_column": {
      "latitude": "29.938647474163314",
      "longitude": "-90.0731164711927"
    }
  },
  {
    "service_request": "2022-892056",
    "request_type": "Trash/Recycling",
    "request_reason": "Return Recycling Cart",
    "date_created": "2022-06-15T18:54:59.000",
    "date_modified": "2022-06-15T18:54:59.000",
    "request_status": "Pending",
    "responsible_agency": "Department of Sanitation",
    "final_address": "816 Upperline St",
    "address_councildis": "B",
    "status": "Pending",
    "rowid": "892056",
    "final_x": "3668889.7986",
    "final_y": "518356.503542",
    "longitude": "-90.10833329334672",
    "latitude": "29.91967715877183",
    "geocoded_column": {
      "latitude": "29.91967715877183",
      "longitude": "-90.10833329334672"
    }
  },
  {
    "service_request": "2022-892055",
    "request_type": "Property Maintenance",
    "request_reason": "Property Maintenance",
    "date_created": "2022-06-15T18:42:32.000",
    "date_modified": "2022-06-15T18:42:32.000",
    "request_status": "Pending",
    "responsible_agency": "Department of Code Enforcement",
    "final_address": "811 Decatur St",
    "address_councildis": "C",
    "status": "Pending",
    "rowid": "892055",
    "final_x": "3683418.06594",
    "final_y": "532396.856387",
    "longitude": "-90.06198304701488",
    "latitude": "29.95784836228955",
    "geocoded_column": {
      "latitude": "29.95784836228955",
      "longitude": "-90.06198304701488"
    }
  },
  {
    "service_request": "2022-892054",
    "request_type": "Trash/Recycling",
    "request_reason": "Order Trash Cart",
    "date_created": "2022-06-15T18:29:28.000",
    "date_modified": "2022-06-15T18:29:28.000",
    "request_status": "Pending",
    "responsible_agency": "Department of Sanitation",
    "final_address": "729 Lowerline St, New Orleans, Louisiana, 70118",
    "address_councildis": "A",
    "status": "Assigned to Contractor",
    "contractor": "Richards Disposal",
    "rowid": "892054",
    "final_x": "3666937.63591",
    "final_y": "531466.928387",
    "longitude": "-90.1140549759421",
    "latitude": "29.955783867371395",
    "geocoded_column": {
      "latitude": "29.955783867371395",
      "longitude": "-90.1140549759421"
    }
  },
  {
    "service_request": "2022-892053",
    "request_type": "Trash/Recycling",
    "request_reason": "Request a Large Item Pick Up",
    "date_created": "2022-06-15T18:23:21.000",
    "date_modified": "2022-06-15T18:23:22.000",
    "request_status": "Pending",
    "responsible_agency": "Department of Sanitation",
    "final_address": "1410 Thalia St",
    "address_councildis": "B",
    "status": "Assigned to Contractor",
    "contractor": "Richards Disposal",
    "rowid": "892053",
    "final_x": "3679969.49877",
    "final_y": "525375.765245",
    "longitude": "-90.0731164711927",
    "latitude": "29.938647474163314",
    "geocoded_column": {
      "latitude": "29.938647474163314",
      "longitude": "-90.0731164711927"
    }
  },
  {
    "service_request": "2022-892052",
    "request_type": "Trash/Recycling",
    "request_reason": "Request a Large Item Pick Up",
    "date_created": "2022-06-15T18:20:47.000",
    "date_modified": "2022-06-15T18:20:48.000",
    "request_status": "Pending",
    "responsible_agency": "Department of Sanitation",
    "final_address": "2106 Marais St",
    "address_councildis": "C",
    "status": "Assigned to Contractor",
    "contractor": "Metro Disposal",
    "rowid": "892052",
    "final_x": "3684646.05442",
    "final_y": "536608.310919",
    "longitude": "-90.05795739721242",
    "latitude": "29.969390888717662",
    "geocoded_column": {
      "latitude": "29.969390888717662",
      "longitude": "-90.05795739721242"
    }
  },
  {
    "service_request": "2022-892051",
    "request_type": "Trash/Recycling",
    "request_reason": "Request a Large Item Pick Up",
    "date_created": "2022-06-15T18:20:36.000",
    "date_modified": "2022-06-15T18:20:36.000",
    "request_status": "Pending",
    "responsible_agency": "Department of Sanitation",
    "final_address": "7721 Willow St",
    "address_councildis": "A",
    "status": "Assigned to Contractor",
    "contractor": "Richards Disposal",
    "rowid": "892051",
    "final_x": "3663413.77978",
    "final_y": "528054.478271",
    "longitude": "-90.1252957313476",
    "latitude": "29.946503364452695",
    "geocoded_column": {
      "latitude": "29.946503364452695",
      "longitude": "-90.1252957313476"
    }
  },
  {
    "service_request": "2022-892050",
    "request_type": "Safety & Permits",
    "request_reason": "Licenses & Permits",
    "date_created": "2022-06-15T18:18:23.000",
    "date_modified": "2022-06-15T18:18:23.000",
    "request_status": "Pending",
    "responsible_agency": "Safety and Permits",
    "final_address": "1420 Music St",
    "address_councildis": "C",
    "status": "Pending",
    "rowid": "892050",
    "final_x": "3686711.96079",
    "final_y": "537738.876616",
    "longitude": "-90.05139317041242",
    "latitude": "29.97243616050283",
    "geocoded_column": {
      "latitude": "29.97243616050283",
      "longitude": "-90.05139317041242"
    }
  },
  {
    "service_request": "2022-892049",
    "request_type": "Trash/Recycling",
    "request_reason": "Order Recycling Cart",
    "date_created": "2022-06-15T18:14:35.000",
    "date_modified": "2022-06-15T18:14:35.000",
    "request_status": "Pending",
    "responsible_agency": "Department of Sanitation",
    "final_address": "13327 Curran Rd",
    "address_councildis": "E",
    "status": "Pending",
    "rowid": "892049",
    "final_x": "3716334.2526",
    "final_y": "570450.761639",
    "longitude": "-89.95660059237792",
    "latitude": "30.061436426785736",
    "geocoded_column": {
      "latitude": "30.061436426785736",
      "longitude": "-89.95660059237792"
    }
  },
  {
    "service_request": "2022-892048",
    "request_type": "Trash/Recycling",
    "request_reason": "Order Trash Cart",
    "date_created": "2022-06-15T18:11:36.000",
    "date_modified": "2022-06-15T18:11:37.000",
    "request_status": "Pending",
    "responsible_agency": "Department of Sanitation",
    "final_address": "1202 St Maurice Ave",
    "address_councildis": "E",
    "status": "Assigned to Contractor",
    "contractor": "Metro Disposal",
    "rowid": "892048",
    "final_x": "3699942.16861",
    "final_y": "533570.663621",
    "longitude": "-90.00976217070438",
    "latitude": "29.960561444667498",
    "geocoded_column": {
      "latitude": "29.960561444667498",
      "longitude": "-90.00976217070438"
    }
  },
  {
    "service_request": "2022-892047",
    "request_type": "Parks & Parkways",
    "request_reason": "Request Grass Cutting Service (City Owned Property)",
    "date_created": "2022-06-15T18:03:20.000",
    "date_modified": "2022-06-15T18:03:20.000",
    "request_status": "Pending",
    "responsible_agency": "Department of Parks & Parkway",
    "final_address": "13442 Lourdes St",
    "address_councildis": "E",
    "status": "Pending",
    "rowid": "892047",
    "final_x": "3726109.73171",
    "final_y": "560913.22083",
    "longitude": "-89.92607107184814",
    "latitude": "30.034885599617613",
    "geocoded_column": {
      "latitude": "30.034885599617613",
      "longitude": "-89.92607107184814"
    }
  },
  {
    "service_request": "2022-892046",
    "request_type": "Abandoned Vehicles",
    "request_reason": "Abandoned/Junk Vehicles",
    "date_created": "2022-06-15T17:58:21.000",
    "date_modified": "2022-06-15T17:58:22.000",
    "request_status": "Pending",
    "responsible_agency": "Department of Public Works",
    "final_address": "S ROCHEBLAVE ST & TULANE AVE",
    "address_councildis": "B",
    "status": "Pending",
    "rowid": "892046",
    "final_x": "3675200.7",
    "final_y": "533271.98",
    "longitude": "-90.08790113700002",
    "latitude": "29.96050279963332",
    "geocoded_column": {
      "latitude": "29.96050279963332",
      "longitude": "-90.08790113700002"
    }
  },
  {
    "service_request": "2022-892045",
    "request_type": "Roads/Drainage",
    "request_reason": "Pothole",
    "date_created": "2022-06-15T17:57:56.000",
    "date_modified": "2022-06-15T17:57:56.000",
    "request_status": "Pending",
    "responsible_agency": "Department of Public Works",
    "final_address": "5330 Camp St",
    "address_councildis": "B",
    "status": "Pending",
    "rowid": "892045",
    "final_x": "3667254.12948",
    "final_y": "519003.313463",
    "longitude": "-90.11347457721239",
    "latitude": "29.921503664049855",
    "geocoded_column": {
      "latitude": "29.921503664049855",
      "longitude": "-90.11347457721239"
    }
  },
  {
    "service_request": "2022-892044",
    "request_type": "Trash/Recycling",
    "request_reason": "Request a Large Item Pick Up",
    "date_created": "2022-06-15T17:49:48.000",
    "date_modified": "2022-06-15T17:49:49.000",
    "request_status": "Pending",
    "responsible_agency": "Department of Sanitation",
    "final_address": "1043 Jena St",
    "address_councildis": "B",
    "status": "Assigned to Contractor",
    "contractor": "Richards Disposal",
    "rowid": "892044",
    "final_x": "3670638.12692",
    "final_y": "519451.822135",
    "longitude": "-90.10277753870902",
    "latitude": "29.92263742690297",
    "geocoded_column": {
      "latitude": "29.92263742690297",
      "longitude": "-90.10277753870902"
    }
  },
  {
    "service_request": "2022-892043",
    "request_type": "Traffic Signals/Signs/Striping/Streetlights",
    "request_reason": "Street Light Outage/Malfunction",
    "date_created": "2022-06-15T17:44:57.000",
    "date_modified": "2022-06-15T17:44:57.000",
    "request_status": "Pending",
    "responsible_agency": "Department of Public Works",
    "final_address": "1431 Cleveland Ave",
    "address_councildis": "B",
    "status": "Pending",
    "contractor": "Royal Engineering",
    "rowid": "892043",
    "final_x": "3679003.65922",
    "final_y": "531852.149507",
    "longitude": "-90.07594135813909",
    "latitude": "29.956484540730425",
    "geocoded_column": {
      "latitude": "29.956484540730425",
      "longitude": "-90.07594135813909"
    }
  },
  {
    "service_request": "2022-892042",
    "request_type": "Traffic Signals/Signs/Striping/Streetlights",
    "request_reason": "Street Light Knocked Down/Leaning",
    "date_created": "2022-06-15T17:43:19.000",
    "date_modified": "2022-06-15T17:43:20.000",
    "request_status": "Pending",
    "responsible_agency": "Department of Public Works",
    "final_address": "2419 Decatur St",
    "address_councildis": "C",
    "status": "Pending",
    "contractor": "Royal Engineering",
    "rowid": "892042",
    "final_x": "3686107.96598",
    "final_y": "534256.239621",
    "longitude": "-90.05342354520306",
    "latitude": "29.962878686214506",
    "geocoded_column": {
      "latitude": "29.962878686214506",
      "longitude": "-90.05342354520306"
    }
  },
  {
    "service_request": "2022-892041",
    "request_type": "Trash/Recycling",
    "request_reason": "Request a Large Item Pick Up",
    "date_created": "2022-06-15T17:39:42.000",
    "date_modified": "2022-06-15T17:39:42.000",
    "request_status": "Pending",
    "responsible_agency": "Department of Sanitation",
    "final_address": "3720 Delachaise St",
    "address_councildis": "B",
    "status": "Assigned to Contractor",
    "contractor": "Richards Disposal",
    "rowid": "892041",
    "final_x": "3671121.52353",
    "final_y": "528468.190144",
    "longitude": "-90.10094553694064",
    "latitude": "29.94741524447143",
    "geocoded_column": {
      "latitude": "29.94741524447143",
      "longitude": "-90.10094553694064"
    }
  },
  {
    "service_request": "2022-892040",
    "request_type": "Traffic Signals/Signs/Striping/Streetlights",
    "request_reason": "Street Name Sign Damaged or Missing",
    "date_created": "2022-06-15T17:39:18.000",
    "date_modified": "2022-06-15T17:39:18.000",
    "request_status": "Pending",
    "responsible_agency": "Department of Public Works",
    "final_address": "S CARROLLTON AVE & EARHART BLVD",
    "address_councildis": "A",
    "status": "Pending",
    "rowid": "892040",
    "final_x": "3666566.6",
    "final_y": "533372.08",
    "longitude": "-90.11516262601634",
    "latitude": "29.961033260434334",
    "geocoded_column": {
      "latitude": "29.961033260434334",
      "longitude": "-90.11516262601634"
    }
  },
  {
    "service_request": "2022-892039",
    "request_type": "Property Maintenance",
    "request_reason": "Property Maintenance",
    "date_created": "2022-06-15T17:35:43.000",
    "date_modified": "2022-06-15T17:35:43.000",
    "request_status": "Pending",
    "responsible_agency": "Department of Code Enforcement",
    "final_address": "253 Pine St",
    "address_councildis": "A",
    "status": "Pending",
    "rowid": "892039",
    "final_x": "3661493.77888",
    "final_y": "522988.368251",
    "longitude": "-90.13152565661873",
    "latitude": "29.932628686486552",
    "geocoded_column": {
      "latitude": "29.932628686486552",
      "longitude": "-90.13152565661873"
    }
  },
  {
    "service_request": "2022-892038",
    "request_type": "Property Maintenance",
    "request_reason": "Property Maintenance",
    "date_created": "2022-06-15T17:31:28.000",
    "date_modified": "2022-06-15T17:31:28.000",
    "request_status": "Pending",
    "responsible_agency": "Department of Code Enforcement",
    "final_address": "1725 Paul Morphy St",
    "address_councildis": "D",
    "status": "Pending",
    "rowid": "892038",
    "final_x": "3679355.5172",
    "final_y": "541184.911756",
    "longitude": "-90.07450654960651",
    "latitude": "29.982135817218385",
    "geocoded_column": {
      "latitude": "29.982135817218385",
      "longitude": "-90.07450654960651"
    }
  },
  {
    "service_request": "2022-892036",
    "request_type": "Parks & Parkways",
    "request_reason": "Request Grass Cutting Service (City Owned Property)",
    "date_created": "2022-06-15T17:26:18.000",
    "date_modified": "2022-06-15T17:26:19.000",
    "request_status": "Pending",
    "responsible_agency": "Department of Parks & Parkway",
    "final_address": "6400 BLK Peoples Ave",
    "address_councildis": "D",
    "status": "Pending",
    "rowid": "892036",
    "final_x": "3687674.05933",
    "final_y": "557044.321066",
    "longitude": "-90.04767060343696",
    "latitude": "30.02548951566262",
    "geocoded_column": {
      "latitude": "30.02548951566262",
      "longitude": "-90.04767060343696"
    }
  },
  {
    "service_request": "2022-892035",
    "request_type": "Trash/Recycling",
    "request_reason": "Illegal Dumping",
    "date_created": "2022-06-15T17:22:28.000",
    "date_modified": "2022-06-15T17:22:28.000",
    "request_status": "Pending",
    "responsible_agency": "Department of Sanitation",
    "final_address": "3112 Washington Ave",
    "address_councildis": "B",
    "status": "Pending",
    "rowid": "892035",
    "final_x": "3672815.31976",
    "final_y": "527097.355455",
    "longitude": "-90.09564431312201",
    "latitude": "29.943595698590197",
    "geocoded_column": {
      "latitude": "29.943595698590197",
      "longitude": "-90.09564431312201"
    }
  },
  {
    "service_request": "2022-892034",
    "request_type": "Abandoned Vehicles",
    "request_reason": "Abandoned/Junk Vehicles",
    "date_created": "2022-06-15T17:19:05.000",
    "date_modified": "2022-06-15T17:19:05.000",
    "request_status": "Pending",
    "responsible_agency": "Department of Public Works",
    "final_address": "816 Alabo St",
    "address_councildis": "E",
    "status": "Pending",
    "rowid": "892034",
    "final_x": "3698601.92503",
    "final_y": "532566.541124",
    "longitude": "-90.01403087493652",
    "latitude": "29.957842964523383",
    "geocoded_column": {
      "latitude": "29.957842964523383",
      "longitude": "-90.01403087493652"
    }
  },
  {
    "service_request": "2022-892032",
    "request_type": "Trash/Recycling",
    "request_reason": "MIssed Recycling Pick-Up",
    "date_created": "2022-06-15T17:08:24.000",
    "date_modified": "2022-06-15T17:08:25.000",
    "request_status": "Pending",
    "responsible_agency": "Department of Sanitation",
    "final_address": "1823 Martin Luther King, Jr. Blvd",
    "address_councildis": "B",
    "status": "Assigned to Contractor",
    "contractor": "Richards Disposal",
    "rowid": "892032",
    "final_x": "3678293.37557",
    "final_y": "526182.716926",
    "longitude": "-90.07838027043971",
    "latitude": "29.940916906441064",
    "geocoded_column": {
      "latitude": "29.940916906441064",
      "longitude": "-90.07838027043971"
    }
  },
  {
    "service_request": "2022-892031",
    "request_type": "Roads/Drainage",
    "request_reason": "Street Flooding / Drainage",
    "date_created": "2022-06-15T17:02:36.000",
    "date_modified": "2022-06-15T17:02:36.000",
    "request_status": "Pending",
    "responsible_agency": "Department of Public Works",
    "final_address": "HARRISON AVE & HARRISON CT",
    "address_councildis": "A",
    "status": "Pending",
    "rowid": "892031",
    "final_x": "3669525.2",
    "final_y": "549152.88",
    "longitude": "-90.10528580657869",
    "latitude": "30.004338276736252",
    "geocoded_column": {
      "latitude": "30.004338276736252",
      "longitude": "-90.10528580657869"
    }
  },
  {
    "service_request": "2022-892030",
    "request_type": "Traffic Signals/Signs/Striping/Streetlights",
    "request_reason": "Request for Traffic Calming due to Speeding",
    "date_created": "2022-06-15T16:58:16.000",
    "date_modified": "2022-06-15T16:58:16.000",
    "request_status": "Pending",
    "responsible_agency": "Department of Public Works",
    "final_address": "4600 BLK Baccich St",
    "address_councildis": "D",
    "status": "Pending",
    "rowid": "892030",
    "final_x": "3687768.49385",
    "final_y": "550051.846534",
    "longitude": "-90.04762012827426",
    "latitude": "30.006259877552242",
    "geocoded_column": {
      "latitude": "30.006259877552242",
      "longitude": "-90.04762012827426"
    }
  },
  {
    "service_request": "2022-892029",
    "request_type": "Trash/Recycling",
    "request_reason": "MIssed Recycling Pick-Up",
    "date_created": "2022-06-15T16:41:04.000",
    "date_modified": "2022-06-15T16:41:04.000",
    "request_status": "Pending",
    "responsible_agency": "Department of Sanitation",
    "final_address": "1701 Jena St Unit 1",
    "address_councildis": "B",
    "status": "Assigned to Contractor",
    "contractor": "Richards Disposal",
    "rowid": "892029",
    "final_x": "3670448.18318",
    "final_y": "521317.038841",
    "longitude": "-90.10331391387989",
    "latitude": "29.92777178592791",
    "geocoded_column": {
      "latitude": "29.92777178592791",
      "longitude": "-90.10331391387989"
    }
  },
  {
    "service_request": "2022-892028",
    "request_type": "Parks & Parkways",
    "request_reason": "Request Tree Service (Right of Way/Public Property)",
    "date_created": "2022-06-15T16:38:23.000",
    "date_modified": "2022-06-15T16:38:24.000",
    "request_status": "Pending",
    "responsible_agency": "Department of Parks & Parkway",
    "final_address": "3329 Delachaise St",
    "address_councildis": "B",
    "status": "Pending",
    "rowid": "892028",
    "final_x": "3671538.8075",
    "final_y": "527332.270207",
    "longitude": "-90.09966662246568",
    "latitude": "29.944279489141188",
    "geocoded_column": {
      "latitude": "29.944279489141188",
      "longitude": "-90.09966662246568"
    }
  },
  {
    "service_request": "2022-892027",
    "request_type": "Trash/Recycling",
    "request_reason": "MIssed Recycling Pick-Up",
    "date_created": "2022-06-15T16:38:22.000",
    "date_modified": "2022-06-15T16:38:23.000",
    "request_status": "Pending",
    "responsible_agency": "Department of Sanitation",
    "final_address": "526 Marengo St",
    "address_councildis": "B",
    "status": "Assigned to Contractor",
    "contractor": "Richards Disposal",
    "rowid": "892027",
    "final_x": "3672175.21236",
    "final_y": "517779.987702",
    "longitude": "-90.09798245936544",
    "latitude": "29.917994935398834",
    "geocoded_column": {
      "latitude": "29.917994935398834",
      "longitude": "-90.09798245936544"
    }
  },
  {
    "service_request": "2022-892026",
    "request_type": "Trash/Recycling",
    "request_reason": "Illegal Dumping",
    "date_created": "2022-06-15T16:35:12.000",
    "date_modified": "2022-06-15T16:35:12.000",
    "request_status": "Pending",
    "responsible_agency": "Department of Sanitation",
    "final_address": "2200 Feliciana St",
    "address_councildis": "D",
    "status": "Pending",
    "rowid": "892026",
    "final_x": "3689703.83382",
    "final_y": "540264.000715",
    "longitude": "-90.04185445541488",
    "latitude": "29.979286981245398",
    "geocoded_column": {
      "latitude": "29.979286981245398",
      "longitude": "-90.04185445541488"
    }
  },
  {
    "service_request": "2022-892025",
    "request_type": "Property Maintenance",
    "request_reason": "Property Maintenance",
    "date_created": "2022-06-15T16:34:08.000",
    "date_modified": "2022-06-15T16:34:08.000",
    "request_status": "Pending",
    "responsible_agency": "Department of Code Enforcement",
    "final_address": "2200 Feliciana St",
    "address_councildis": "D",
    "status": "Pending",
    "rowid": "892025",
    "final_x": "3689703.83382",
    "final_y": "540264.000715",
    "longitude": "-90.04185445541488",
    "latitude": "29.979286981245398",
    "geocoded_column": {
      "latitude": "29.979286981245398",
      "longitude": "-90.04185445541488"
    }
  },
  {
    "service_request": "2022-892024",
    "request_type": "Property Maintenance",
    "request_reason": "Property Maintenance",
    "date_created": "2022-06-15T16:31:27.000",
    "date_modified": "2022-06-15T16:31:28.000",
    "request_status": "Pending",
    "responsible_agency": "Department of Code Enforcement",
    "final_address": "3221 Homer St",
    "address_councildis": "C",
    "status": "Pending",
    "rowid": "892024",
    "final_x": "3696383.54077",
    "final_y": "528119.867775",
    "longitude": "-90.02119665244703",
    "latitude": "29.945686216369594",
    "geocoded_column": {
      "latitude": "29.945686216369594",
      "longitude": "-90.02119665244703"
    }
  },
  {
    "service_request": "2022-892022",
    "request_type": "Property Maintenance",
    "request_reason": "Property Maintenance",
    "date_created": "2022-06-15T16:23:53.000",
    "date_modified": "2022-06-15T16:23:53.000",
    "request_status": "Pending",
    "responsible_agency": "Department of Code Enforcement",
    "final_address": "2309 Ursulines Ave",
    "address_councildis": "D",
    "status": "Pending",
    "rowid": "892022",
    "final_x": "3678944.77928",
    "final_y": "537210.96308",
    "longitude": "-90.07594159442337",
    "latitude": "29.971221231525945",
    "geocoded_column": {
      "latitude": "29.971221231525945",
      "longitude": "-90.07594159442337"
    }
  },
  {
    "service_request": "2022-892021",
    "request_type": "Trash/Recycling",
    "request_reason": "Start Trash Service",
    "date_created": "2022-06-15T16:20:17.000",
    "date_modified": "2022-06-15T16:20:17.000",
    "request_status": "Pending",
    "responsible_agency": "Department of Sanitation",
    "final_address": "32 Harbour Town Ct",
    "address_councildis": "C",
    "status": "Assigned to Contractor",
    "contractor": "Richards Disposal",
    "rowid": "892021",
    "final_x": "3717841.31237",
    "final_y": "512854.994225",
    "longitude": "-89.95402837794283",
    "latitude": "29.903020211049554",
    "geocoded_column": {
      "latitude": "29.903020211049554",
      "longitude": "-89.95402837794283"
    }
  },
  {
    "service_request": "2022-892020",
    "request_type": "Roads/Drainage",
    "request_reason": "Street Flooding / Drainage",
    "date_created": "2022-06-15T16:13:17.000",
    "date_modified": "2022-06-15T16:13:17.000",
    "request_status": "Pending",
    "responsible_agency": "Department of Public Works",
    "final_address": "5117 Forest Park Ln",
    "address_councildis": "C",
    "status": "Pending",
    "rowid": "892020",
    "final_x": "3703027.96318",
    "final_y": "510910.392239",
    "longitude": "-90.00085004018709",
    "latitude": "29.89815521290149",
    "geocoded_column": {
      "latitude": "29.89815521290149",
      "longitude": "-90.00085004018709"
    }
  },
  {
    "service_request": "2022-892019",
    "request_type": "Parks & Parkways",
    "request_reason": "Request Tree Service (Right of Way/Public Property)",
    "date_created": "2022-06-15T16:10:51.000",
    "date_modified": "2022-06-15T16:10:51.000",
    "request_status": "Pending",
    "responsible_agency": "Department of Parks & Parkway",
    "final_address": "1449 Mirabeau Ave",
    "address_councildis": "D",
    "status": "Pending",
    "rowid": "892019",
    "final_x": "3677854.65147",
    "final_y": "550355.899412",
    "longitude": "-90.07892990193061",
    "latitude": "30.00739805970323",
    "geocoded_column": {
      "latitude": "30.00739805970323",
      "longitude": "-90.07892990193061"
    }
  },
  {
    "service_request": "2022-892018",
    "request_type": "Tax and Revenue",
    "request_reason": "Sales Tax Question",
    "date_created": "2022-06-15T16:06:39.000",
    "date_modified": "2022-06-15T16:06:39.000",
    "request_status": "Pending",
    "responsible_agency": "Bureau of Revenue",
    "final_address": "1615 Poydras St",
    "address_councildis": "B",
    "status": "Pending",
    "rowid": "892018",
    "final_x": "3677744.54139",
    "final_y": "530458.22925",
    "longitude": "-90.0799653859107",
    "latitude": "29.95268965979097",
    "geocoded_column": {
      "latitude": "29.95268965979097",
      "longitude": "-90.0799653859107"
    }
  },
  {
    "service_request": "2022-892017",
    "request_type": "Trash/Recycling",
    "request_reason": "Missed Trash Pick-Up",
    "date_created": "2022-06-15T16:00:44.000",
    "date_modified": "2022-06-15T16:00:45.000",
    "request_status": "Pending",
    "responsible_agency": "Department of Sanitation",
    "final_address": "2106 Josephine St",
    "address_councildis": "B",
    "status": "Assigned to Contractor",
    "contractor": "Richards Disposal",
    "rowid": "892017",
    "final_x": "3676685.79521",
    "final_y": "525489.721405",
    "longitude": "-90.08347955792952",
    "latitude": "29.939059711402567",
    "geocoded_column": {
      "latitude": "29.939059711402567",
      "longitude": "-90.08347955792952"
    }
  },
  {
    "service_request": "2022-892016",
    "request_type": "Traffic Signals/Signs/Striping/Streetlights",
    "request_reason": "Street Light Outage/Malfunction",
    "date_created": "2022-06-15T15:58:57.000",
    "date_modified": "2022-06-15T15:58:58.000",
    "request_status": "Pending",
    "responsible_agency": "Department of Public Works",
    "final_address": "6959 Louis Xiv St",
    "address_councildis": "A",
    "status": "Pending",
    "contractor": "Royal Engineering",
    "rowid": "892016",
    "final_x": "3668764.27022",
    "final_y": "553811.781591",
    "longitude": "-90.10753227833895",
    "latitude": "30.017171022595196",
    "geocoded_column": {
      "latitude": "30.017171022595196",
      "longitude": "-90.10753227833895"
    }
  },
  {
    "service_request": "2022-892015",
    "request_type": "Traffic Signals/Signs/Striping/Streetlights",
    "request_reason": "Street Light Outage/Malfunction",
    "date_created": "2022-06-15T15:58:17.000",
    "date_modified": "2022-06-15T15:58:18.000",
    "request_status": "Pending",
    "responsible_agency": "Department of Public Works",
    "final_address": "6959 Louis Xiv St",
    "address_councildis": "A",
    "status": "Pending",
    "contractor": "Royal Engineering",
    "rowid": "892015",
    "final_x": "3668764.27022",
    "final_y": "553811.781591",
    "longitude": "-90.10753227833895",
    "latitude": "30.017171022595196",
    "geocoded_column": {
      "latitude": "30.017171022595196",
      "longitude": "-90.10753227833895"
    }
  },
  {
    "service_request": "2022-892014",
    "request_type": "Property Maintenance",
    "request_reason": "Property Maintenance",
    "date_created": "2022-06-15T15:58:07.000",
    "date_modified": "2022-06-15T15:58:08.000",
    "request_status": "Pending",
    "responsible_agency": "Department of Code Enforcement",
    "final_address": "1722 Elysian Fields Ave",
    "address_councildis": "D",
    "status": "Pending",
    "rowid": "892014",
    "final_x": "3684717.6566",
    "final_y": "538702.917449",
    "longitude": "-90.057657627522",
    "latitude": "29.975148135475365",
    "geocoded_column": {
      "latitude": "29.975148135475365",
      "longitude": "-90.057657627522"
    }
  },
  {
    "service_request": "2022-892013",
    "request_type": "Traffic Signals/Signs/Striping/Streetlights",
    "request_reason": "Street Light Outage/Malfunction",
    "date_created": "2022-06-15T15:57:40.000",
    "date_modified": "2022-06-15T15:57:41.000",
    "request_status": "Pending",
    "responsible_agency": "Department of Public Works",
    "final_address": "6959 Louis Xiv St",
    "address_councildis": "A",
    "status": "Pending",
    "contractor": "Royal Engineering",
    "rowid": "892013",
    "final_x": "3668764.27022",
    "final_y": "553811.781591",
    "longitude": "-90.10753227833895",
    "latitude": "30.017171022595196",
    "geocoded_column": {
      "latitude": "30.017171022595196",
      "longitude": "-90.10753227833895"
    }
  },
  {
    "service_request": "2022-892012",
    "request_type": "Traffic Signals/Signs/Striping/Streetlights",
    "request_reason": "Street Light Outage/Malfunction",
    "date_created": "2022-06-15T15:55:34.000",
    "date_modified": "2022-06-15T15:55:34.000",
    "request_status": "Pending",
    "responsible_agency": "Department of Public Works",
    "final_address": "1951 Treasure St",
    "address_councildis": "D",
    "status": "Pending",
    "contractor": "Royal Engineering",
    "rowid": "892012",
    "final_x": "3682618.93576",
    "final_y": "543943.896654",
    "longitude": "-90.06410258220652",
    "latitude": "29.989623070040167",
    "geocoded_column": {
      "latitude": "29.989623070040167",
      "longitude": "-90.06410258220652"
    }
  },
  {
    "service_request": "2022-892011",
    "request_type": "Trash/Recycling",
    "request_reason": "Repair Trash Cart",
    "date_created": "2022-06-15T15:50:14.000",
    "date_modified": "2022-06-15T15:50:15.000",
    "request_status": "Pending",
    "responsible_agency": "Department of Sanitation",
    "final_address": "2340 Annette St",
    "address_councildis": "D",
    "status": "Assigned to Contractor",
    "contractor": "Metro Disposal",
    "rowid": "892011",
    "final_x": "3682729.17756",
    "final_y": "540906.465803",
    "longitude": "-90.06386065550835",
    "latitude": "29.98126784613711",
    "geocoded_column": {
      "latitude": "29.98126784613711",
      "longitude": "-90.06386065550835"
    }
  },
  {
    "service_request": "2022-892010",
    "request_type": "Trash/Recycling",
    "request_reason": "Repair Trash Cart",
    "date_created": "2022-06-15T15:48:38.000",
    "date_modified": "2022-06-15T15:48:38.000",
    "request_status": "Pending",
    "responsible_agency": "Department of Sanitation",
    "final_address": "3214 Palmyra St",
    "address_councildis": "B",
    "status": "Assigned to Contractor",
    "contractor": "Richards Disposal",
    "rowid": "892010",
    "final_x": "3673252.23739",
    "final_y": "535638.92999",
    "longitude": "-90.09397315607858",
    "latitude": "29.967069206981968",
    "geocoded_column": {
      "latitude": "29.967069206981968",
      "longitude": "-90.09397315607858"
    }
  },
  {
    "service_request": "2022-892009",
    "request_type": "Trash/Recycling",
    "request_reason": "Missed Trash Pick-Up",
    "date_created": "2022-06-15T15:48:27.000",
    "date_modified": "2022-06-15T15:48:28.000",
    "request_status": "Pending",
    "responsible_agency": "Department of Sanitation",
    "final_address": "2505 Octavia St",
    "address_councildis": "A",
    "status": "Assigned to Contractor",
    "contractor": "Richards Disposal",
    "rowid": "892009",
    "final_x": "3667799.05268",
    "final_y": "524811.67846",
    "longitude": "-90.11155899092616",
    "latitude": "29.937458857135002",
    "geocoded_column": {
      "latitude": "29.937458857135002",
      "longitude": "-90.11155899092616"
    }
  },
  {
    "service_request": "2022-892008",
    "request_type": "Trash/Recycling",
    "request_reason": "Repair Trash Cart",
    "date_created": "2022-06-15T15:48:18.000",
    "date_modified": "2022-06-15T15:48:19.000",
    "request_status": "Pending",
    "responsible_agency": "Department of Sanitation",
    "final_address": "3212 Palmyra St",
    "address_councildis": "B",
    "status": "Assigned to Contractor",
    "contractor": "Richards Disposal",
    "rowid": "892008",
    "final_x": "3673237.34894",
    "final_y": "535623.792646",
    "longitude": "-90.09402069101407",
    "latitude": "29.967028027168766",
    "geocoded_column": {
      "latitude": "29.967028027168766",
      "longitude": "-90.09402069101407"
    }
  },
  {
    "service_request": "2022-892006",
    "request_type": "Property Maintenance",
    "request_reason": "Property Maintenance",
    "date_created": "2022-06-15T15:45:21.000",
    "date_modified": "2022-06-15T15:45:22.000",
    "request_status": "Pending",
    "responsible_agency": "Department of Code Enforcement",
    "final_address": "11100 BLK Old Spanish Trl",
    "address_councildis": "E",
    "status": "Pending",
    "rowid": "892006",
    "final_x": "3716433.33186",
    "final_y": "555963.375394",
    "longitude": "-89.95683753400135",
    "latitude": "30.02159871962468",
    "geocoded_column": {
      "latitude": "30.02159871962468",
      "longitude": "-89.95683753400135"
    }
  },
  {
    "service_request": "2022-892005",
    "request_type": "Trash/Recycling",
    "request_reason": "Request a Large Item Pick Up",
    "date_created": "2022-06-15T15:45:08.000",
    "date_modified": "2022-06-15T15:45:09.000",
    "request_status": "Pending",
    "responsible_agency": "Department of Sanitation",
    "final_address": "7021 Bamberry St",
    "address_councildis": "E",
    "status": "Assigned to Contractor",
    "contractor": "Metro Disposal",
    "rowid": "892005",
    "final_x": "3699409.113",
    "final_y": "559381.893917",
    "longitude": "-90.01050448142769",
    "latitude": "30.031549676262316",
    "geocoded_column": {
      "latitude": "30.031549676262316",
      "longitude": "-90.01050448142769"
    }
  },
  {
    "service_request": "2022-892004",
    "request_type": "Trash/Recycling",
    "request_reason": "Missed Trash Pick-Up",
    "date_created": "2022-06-15T15:43:57.000",
    "date_modified": "2022-06-15T15:43:58.000",
    "request_status": "Pending",
    "responsible_agency": "Department of Sanitation",
    "final_address": "440 Pine St",
    "address_councildis": "A",
    "status": "Assigned to Contractor",
    "contractor": "Richards Disposal",
    "rowid": "892004",
    "final_x": "3662079.13799",
    "final_y": "524067.913532",
    "longitude": "-90.12964191636387",
    "latitude": "29.93558020108946",
    "geocoded_column": {
      "latitude": "29.93558020108946",
      "longitude": "-90.12964191636387"
    }
  },
  {
    "service_request": "2022-892003",
    "request_type": "Trash/Recycling",
    "request_reason": "MIssed Recycling Pick-Up",
    "date_created": "2022-06-15T15:41:54.000",
    "date_modified": "2022-06-15T15:41:54.000",
    "request_status": "Pending",
    "responsible_agency": "Department of Sanitation",
    "final_address": "4133 Palmyra St",
    "address_councildis": "A",
    "status": "Assigned to Contractor",
    "contractor": "Richards Disposal",
    "rowid": "892003",
    "final_x": "3670324.20186",
    "final_y": "538004.627337",
    "longitude": "-90.1031397260172",
    "latitude": "29.97366083781889",
    "geocoded_column": {
      "latitude": "29.97366083781889",
      "longitude": "-90.1031397260172"
    }
  },
  {
    "service_request": "2022-892002",
    "request_type": "Mosquito, Termite & Rodent Control",
    "request_reason": "Mosquito Complaint",
    "date_created": "2022-06-15T15:40:18.000",
    "date_modified": "2022-06-15T15:40:18.000",
    "request_status": "Pending",
    "responsible_agency": "Mosquito, Termite & Rodent Control Board",
    "final_address": "5712 Durbridge Dr",
    "address_councildis": "C",
    "status": "Pending",
    "rowid": "892002",
    "final_x": "3704780.25463",
    "final_y": "521760.77657",
    "longitude": "-89.99492019046247",
    "latitude": "29.927933894490945",
    "geocoded_column": {
      "latitude": "29.927933894490945",
      "longitude": "-89.99492019046247"
    }
  },
  {
    "service_request": "2022-892001",
    "request_type": "Roads/Drainage",
    "request_reason": "Street Subsidence (Sinking)",
    "date_created": "2022-06-15T15:14:16.000",
    "date_modified": "2022-06-15T15:14:16.000",
    "request_status": "Pending",
    "responsible_agency": "Department of Public Works",
    "final_address": "2306 Joliet St",
    "address_councildis": "A",
    "status": "Pending",
    "rowid": "892001",
    "final_x": "3663526.60883",
    "final_y": "532270.354051",
    "longitude": "-90.12479909486812",
    "latitude": "29.95809238912202",
    "geocoded_column": {
      "latitude": "29.95809238912202",
      "longitude": "-90.12479909486812"
    }
  },
  {
    "service_request": "2022-892000",
    "request_type": "Trash/Recycling",
    "request_reason": "MIssed Recycling Pick-Up",
    "date_created": "2022-06-15T15:11:12.000",
    "date_modified": "2022-06-15T15:11:13.000",
    "request_status": "Pending",
    "responsible_agency": "Department of Sanitation",
    "final_address": "414 S Norman C Francis Prkwy",
    "address_councildis": "B",
    "status": "Assigned to Contractor",
    "contractor": "Richards Disposal",
    "rowid": "892000",
    "final_x": "3672495.69441",
    "final_y": "535550.683334",
    "longitude": "-90.0963653367395",
    "latitude": "29.96684903682913",
    "geocoded_column": {
      "latitude": "29.96684903682913",
      "longitude": "-90.0963653367395"
    }
  },
  {
    "service_request": "2022-891999",
    "request_type": "Abandoned Vehicles",
    "request_reason": "Abandoned/Junk Vehicles",
    "date_created": "2022-06-15T15:09:13.000",
    "date_modified": "2022-06-15T15:09:14.000",
    "request_status": "Pending",
    "responsible_agency": "Department of Public Works",
    "final_address": "7701 Brevard Ave",
    "address_councildis": "E",
    "status": "Pending",
    "rowid": "891999",
    "final_x": "3706327.14782",
    "final_y": "563656.573281",
    "longitude": "-89.98848480173329",
    "latitude": "30.043081941192497",
    "geocoded_column": {
      "latitude": "30.043081941192497",
      "longitude": "-89.98848480173329"
    }
  },
  {
    "service_request": "2022-891996",
    "request_type": "Parks & Parkways",
    "request_reason": "Request Tree Service (Right of Way/Public Property)",
    "date_created": "2022-06-15T15:08:13.000",
    "date_modified": "2022-06-15T15:08:14.000",
    "request_status": "Pending",
    "responsible_agency": "Department of Parks & Parkway",
    "final_address": "2038 General Taylor St",
    "address_councildis": "B",
    "status": "Pending",
    "rowid": "891996",
    "final_x": "3672183.78375",
    "final_y": "522752.010362",
    "longitude": "-90.09778617776102",
    "latitude": "29.93166615241248",
    "geocoded_column": {
      "latitude": "29.93166615241248",
      "longitude": "-90.09778617776102"
    }
  },
  {
    "service_request": "2022-891995",
    "request_type": "Trash/Recycling",
    "request_reason": "Replace Trash Cart",
    "date_created": "2022-06-15T15:06:54.000",
    "date_modified": "2022-06-15T15:06:54.000",
    "request_status": "Pending",
    "responsible_agency": "Department of Sanitation",
    "final_address": "2413 S Robertson St",
    "address_councildis": "B",
    "status": "Assigned to Contractor",
    "contractor": "Richards Disposal",
    "rowid": "891995",
    "final_x": "3674830.78657",
    "final_y": "526192.82803",
    "longitude": "-90.08931195043175",
    "latitude": "29.941048530558167",
    "geocoded_column": {
      "latitude": "29.941048530558167",
      "longitude": "-90.08931195043175"
    }
  },
  {
    "service_request": "2022-891994",
    "request_type": "Property Maintenance",
    "request_reason": "Property Maintenance",
    "date_created": "2022-06-15T15:05:55.000",
    "date_modified": "2022-06-15T15:05:56.000",
    "request_status": "Pending",
    "responsible_agency": "Department of Code Enforcement",
    "final_address": "1814 Delery St",
    "address_councildis": "E",
    "status": "Pending",
    "rowid": "891994",
    "final_x": "3701407.80855",
    "final_y": "535562.945094",
    "longitude": "-90.0050610761079",
    "latitude": "29.965992870834825",
    "geocoded_column": {
      "latitude": "29.965992870834825",
      "longitude": "-90.0050610761079"
    }
  },
  {
    "service_request": "2022-891993",
    "request_type": "Property Maintenance",
    "request_reason": "Property Maintenance",
    "date_created": "2022-06-15T15:02:24.000",
    "date_modified": "2022-06-15T15:02:25.000",
    "request_status": "Pending",
    "responsible_agency": "Department of Code Enforcement",
    "final_address": "1707 Odeon St",
    "address_councildis": "C",
    "status": "Pending",
    "rowid": "891993",
    "final_x": "3695873.02768",
    "final_y": "525038.318525",
    "longitude": "-90.0229197708008",
    "latitude": "29.93722908699791",
    "geocoded_column": {
      "latitude": "29.93722908699791",
      "longitude": "-90.0229197708008"
    }
  },
  {
    "service_request": "2022-891992",
    "request_type": "Trash/Recycling",
    "request_reason": "Illegal Dumping",
    "date_created": "2022-06-15T15:02:06.000",
    "date_modified": "2022-06-15T15:02:07.000",
    "request_status": "Pending",
    "responsible_agency": "Department of Code Enforcement",
    "final_address": "7073 Boston Dr",
    "address_councildis": "E",
    "status": "Pending",
    "rowid": "891992",
    "final_x": "3706354.33623",
    "final_y": "560907.669342",
    "longitude": "-89.98850083971607",
    "latitude": "30.035522665481086",
    "geocoded_column": {
      "latitude": "30.035522665481086",
      "longitude": "-89.98850083971607"
    }
  },
  {
    "service_request": "2022-891991",
    "request_type": "Property Maintenance",
    "request_reason": "Property Maintenance",
    "date_created": "2022-06-15T15:00:40.000",
    "date_modified": "2022-06-15T15:00:41.000",
    "request_status": "Pending",
    "responsible_agency": "Department of Code Enforcement",
    "final_address": "6215 Chef Menteur Hwy",
    "address_councildis": "D",
    "status": "Pending",
    "rowid": "891991",
    "final_x": "3697747.88759",
    "final_y": "551775.659798",
    "longitude": "-90.01603033123423",
    "latitude": "30.010688050767648",
    "geocoded_column": {
      "latitude": "30.010688050767648",
      "longitude": "-90.01603033123423"
    }
  },
  {
    "service_request": "2022-891990",
    "request_type": "Property Maintenance",
    "request_reason": "Property Maintenance",
    "date_created": "2022-06-15T14:46:40.000",
    "date_modified": "2022-06-15T14:46:40.000",
    "request_status": "Pending",
    "responsible_agency": "Department of Code Enforcement",
    "final_address": "2079 Farragut St",
    "address_councildis": "C",
    "status": "Pending",
    "rowid": "891990",
    "final_x": "3692161.25302",
    "final_y": "523247.728955",
    "longitude": "-90.03470209494554",
    "latitude": "29.93242177342144",
    "geocoded_column": {
      "latitude": "29.93242177342144",
      "longitude": "-90.03470209494554"
    }
  },
  {
    "service_request": "2022-891989",
    "request_type": "Trash/Recycling",
    "request_reason": "Request a Large Item Pick Up",
    "date_created": "2022-06-15T14:45:14.000",
    "date_modified": "2022-06-15T14:45:15.000",
    "request_status": "Pending",
    "responsible_agency": "Department of Sanitation",
    "final_address": "3024 Toulouse St",
    "address_councildis": "A",
    "status": "Assigned to Contractor",
    "contractor": "Richards Disposal",
    "rowid": "891989",
    "final_x": "3675259.72539",
    "final_y": "537422.184584",
    "longitude": "-90.08757226297212",
    "latitude": "29.97191269503866",
    "geocoded_column": {
      "latitude": "29.97191269503866",
      "longitude": "-90.08757226297212"
    }
  },
  {
    "service_request": "2022-891988",
    "request_type": "Trash/Recycling",
    "request_reason": "Repair Trash Cart",
    "date_created": "2022-06-15T14:44:15.000",
    "date_modified": "2022-06-15T14:44:15.000",
    "request_status": "Pending",
    "responsible_agency": "Department of Sanitation",
    "final_address": "2621 Eagle St",
    "address_councildis": "A",
    "status": "Assigned to Contractor",
    "contractor": "Richards Disposal",
    "rowid": "891988",
    "final_x": "3663679.79507",
    "final_y": "533888.119813",
    "longitude": "-90.124261469423",
    "latitude": "29.96253627353794",
    "geocoded_column": {
      "latitude": "29.96253627353794",
      "longitude": "-90.124261469423"
    }
  },
  {
    "service_request": "2022-891987",
    "request_type": "Trash/Recycling",
    "request_reason": "Repair Trash Cart",
    "date_created": "2022-06-15T14:43:36.000",
    "date_modified": "2022-06-15T14:43:37.000",
    "request_status": "Pending",
    "responsible_agency": "Department of Sanitation",
    "final_address": "2623 Eagle St",
    "address_councildis": "A",
    "status": "Assigned to Contractor",
    "contractor": "Richards Disposal",
    "rowid": "891987",
    "final_x": "3663687.40128",
    "final_y": "533897.521093",
    "longitude": "-90.1242371366765",
    "latitude": "29.962561903292777",
    "geocoded_column": {
      "latitude": "29.962561903292777",
      "longitude": "-90.1242371366765"
    }
  },
  {
    "service_request": "2022-891986",
    "request_type": "Trash/Recycling",
    "request_reason": "Repair Trash Cart",
    "date_created": "2022-06-15T14:42:38.000",
    "date_modified": "2022-06-15T14:42:38.000",
    "request_status": "Pending",
    "responsible_agency": "Department of Sanitation",
    "final_address": "2821 Monroe St",
    "address_councildis": "A",
    "status": "Assigned to Contractor",
    "contractor": "Richards Disposal",
    "rowid": "891986",
    "final_x": "3664400.1504",
    "final_y": "534162.084165",
    "longitude": "-90.12197753011206",
    "latitude": "29.96326866561197",
    "geocoded_column": {
      "latitude": "29.96326866561197",
      "longitude": "-90.12197753011206"
    }
  },
  {
    "service_request": "2022-891985",
    "request_type": "Trash/Recycling",
    "request_reason": "Missed Trash Pick-Up",
    "date_created": "2022-06-15T14:42:21.000",
    "date_modified": "2022-06-15T14:42:22.000",
    "request_status": "Pending",
    "responsible_agency": "Department of Sanitation",
    "final_address": "5412 York St",
    "address_councildis": "A",
    "status": "Assigned to Contractor",
    "contractor": "Richards Disposal",
    "rowid": "891985",
    "final_x": "3668844.75687",
    "final_y": "528534.885376",
    "longitude": "-90.10813193469403",
    "latitude": "29.947665770349705",
    "geocoded_column": {
      "latitude": "29.947665770349705",
      "longitude": "-90.10813193469403"
    }
  },
  {
    "service_request": "2022-891984",
    "request_type": "Tax and Revenue",
    "request_reason": "Occupational License Tax",
    "date_created": "2022-06-15T14:39:14.000",
    "date_modified": "2022-06-15T14:39:14.000",
    "request_status": "Pending",
    "responsible_agency": "Bureau of Revenue",
    "status": "Pending",
    "rowid": "891984",
    "longitude": "0.0",
    "latitude": "0.0",
    "geocoded_column": {
      "latitude": "0.0",
      "longitude": "0.0"
    }
  },
  {
    "service_request": "2022-891983",
    "request_type": "Property Maintenance",
    "request_reason": "Property Maintenance",
    "date_created": "2022-06-15T14:36:22.000",
    "date_modified": "2022-06-15T14:36:23.000",
    "request_status": "Pending",
    "responsible_agency": "Department of Code Enforcement",
    "final_address": "7014 Bellaire Dr",
    "address_councildis": "A",
    "status": "Pending",
    "rowid": "891983",
    "final_x": "3664631.99341",
    "final_y": "554455.655704",
    "longitude": "-90.12056711406798",
    "latitude": "30.019062354875487",
    "geocoded_column": {
      "latitude": "30.019062354875487",
      "longitude": "-90.12056711406798"
    }
  },
  {
    "service_request": "2022-891982",
    "request_type": "Property Maintenance",
    "request_reason": "Property Maintenance",
    "date_created": "2022-06-15T14:33:39.000",
    "date_modified": "2022-06-15T14:33:40.000",
    "request_status": "Pending",
    "responsible_agency": "Department of Code Enforcement",
    "final_address": "2431 Ap Tureaud Ave",
    "address_councildis": "D",
    "status": "Pending",
    "rowid": "891982",
    "final_x": "3681663.96546",
    "final_y": "541112.499532",
    "longitude": "-90.06721788753791",
    "latitude": "29.98186677375577",
    "geocoded_column": {
      "latitude": "29.98186677375577",
      "longitude": "-90.06721788753791"
    }
  },
  {
    "service_request": "2022-891981",
    "request_type": "Trash/Recycling",
    "request_reason": "Request a Large Item Pick Up",
    "date_created": "2022-06-15T14:33:36.000",
    "date_modified": "2022-06-15T14:33:36.000",
    "request_status": "Pending",
    "responsible_agency": "Department of Sanitation",
    "final_address": "2732 Iberville St",
    "address_councildis": "B",
    "status": "Assigned to Contractor",
    "contractor": "Richards Disposal",
    "rowid": "891981",
    "final_x": "3675318.5915",
    "final_y": "535621.871686",
    "longitude": "-90.08744817519946",
    "latitude": "29.96696068564989",
    "geocoded_column": {
      "latitude": "29.96696068564989",
      "longitude": "-90.08744817519946"
    }
  },
  {
    "service_request": "2022-891979",
    "request_type": "Property Maintenance",
    "request_reason": "Property Maintenance",
    "date_created": "2022-06-15T14:30:36.000",
    "date_modified": "2022-06-15T14:30:36.000",
    "request_status": "Pending",
    "responsible_agency": "Department of Code Enforcement",
    "final_address": "3146 N Claiborne Ave",
    "address_councildis": "D",
    "status": "Pending",
    "rowid": "891979",
    "final_x": "3689844.36137",
    "final_y": "537659.101448",
    "longitude": "-90.04150337075208",
    "latitude": "29.972120074654125",
    "geocoded_column": {
      "latitude": "29.972120074654125",
      "longitude": "-90.04150337075208"
    }
  },
  {
    "service_request": "2022-891978",
    "request_type": "Traffic Signals/Signs/Striping/Streetlights",
    "request_reason": "Street Light Outage/Malfunction",
    "date_created": "2022-06-15T14:29:42.000",
    "date_modified": "2022-06-15T14:29:44.000",
    "request_status": "Pending",
    "responsible_agency": "Department of Public Works",
    "final_address": "500 N Carrollton Ave",
    "address_councildis": "A",
    "status": "Pending",
    "contractor": "Royal Engineering",
    "rowid": "891978",
    "final_x": "3672388.13723",
    "final_y": "539543.875082",
    "longitude": "-90.09656889126259",
    "latitude": "29.977832156177136",
    "geocoded_column": {
      "latitude": "29.977832156177136",
      "longitude": "-90.09656889126259"
    }
  },
  {
    "service_request": "2022-891977",
    "request_type": "Trash/Recycling",
    "request_reason": "Replace Trash Cart",
    "date_created": "2022-06-15T14:28:20.000",
    "date_modified": "2022-06-15T14:28:20.000",
    "request_status": "Pending",
    "responsible_agency": "Department of Sanitation",
    "final_address": "4011 Laurel St",
    "address_councildis": "B",
    "status": "Assigned to Contractor",
    "contractor": "Richards Disposal",
    "rowid": "891977",
    "final_x": "3672474.6139",
    "final_y": "518223.737334",
    "longitude": "-90.09702229766205",
    "latitude": "29.919206226667217",
    "geocoded_column": {
      "latitude": "29.919206226667217",
      "longitude": "-90.09702229766205"
    }
  },
  {
    "service_request": "2022-891976",
    "request_type": "Trash/Recycling",
    "request_reason": "Missed Trash Pick-Up",
    "date_created": "2022-06-15T14:28:14.000",
    "date_modified": "2022-06-15T14:28:14.000",
    "request_status": "Pending",
    "responsible_agency": "Department of Sanitation",
    "final_address": "4211 State Street Dr",
    "address_councildis": "B",
    "status": "Assigned to Contractor",
    "contractor": "Richards Disposal",
    "rowid": "891976",
    "final_x": "3668529.99521",
    "final_y": "531143.419714",
    "longitude": "-90.1090377628428",
    "latitude": "29.954847637920505",
    "geocoded_column": {
      "latitude": "29.954847637920505",
      "longitude": "-90.1090377628428"
    }
  },
  {
    "service_request": "2022-891975",
    "request_type": "Property Maintenance",
    "request_reason": "Property Maintenance",
    "date_created": "2022-06-15T14:27:48.000",
    "date_modified": "2022-06-15T14:27:48.000",
    "request_status": "Pending",
    "responsible_agency": "Department of Code Enforcement",
    "final_address": "MENDEZ ST & PRESS DR",
    "address_councildis": "D",
    "status": "Pending",
    "rowid": "891975",
    "final_x": "3689418.1",
    "final_y": "553921.98",
    "longitude": "-90.04227086858594",
    "latitude": "30.016850319876784",
    "geocoded_column": {
      "latitude": "30.016850319876784",
      "longitude": "-90.04227086858594"
    }
  },
  {
    "service_request": "2022-891974",
    "request_type": "Traffic Signals/Signs/Striping/Streetlights",
    "request_reason": "Street Light Outage/Malfunction",
    "date_created": "2022-06-15T14:26:17.000",
    "date_modified": "2022-06-15T14:26:18.000",
    "request_status": "Pending",
    "responsible_agency": "Department of Public Works",
    "final_address": "ARGONNE BLVD & HARRISON AVE",
    "address_councildis": "A",
    "status": "Pending",
    "contractor": "Royal Engineering",
    "rowid": "891974",
    "final_x": "3670361.8",
    "final_y": "549162.68",
    "longitude": "-90.10264249196207",
    "latitude": "30.0043405428806",
    "geocoded_column": {
      "latitude": "30.0043405428806",
      "longitude": "-90.10264249196207"
    }
  },
  {
    "service_request": "2022-891973",
    "request_type": "Abandoned Vehicles",
    "request_reason": "Abandoned/Junk Vehicles",
    "date_created": "2022-06-15T14:25:17.000",
    "date_modified": "2022-06-15T14:25:17.000",
    "request_status": "Pending",
    "responsible_agency": "Department of Public Works",
    "final_address": "MICHOUD BLVD & WILLOWBROOK DR",
    "address_councildis": "E",
    "status": "Pending",
    "rowid": "891973",
    "final_x": "3724600.8",
    "final_y": "564191.98",
    "longitude": "-89.93071262602129",
    "latitude": "30.043951704875788",
    "geocoded_column": {
      "latitude": "30.043951704875788",
      "longitude": "-89.93071262602129"
    }
  },
  {
    "service_request": "2022-891972",
    "request_type": "Traffic Signals/Signs/Striping/Streetlights",
    "request_reason": "Street Name Sign Damaged or Missing",
    "date_created": "2022-06-15T14:24:38.000",
    "date_modified": "2022-06-15T14:24:38.000",
    "request_status": "Pending",
    "responsible_agency": "Department of Public Works",
    "final_address": "MENDEZ ST & PRESS DR",
    "address_councildis": "D",
    "status": "Pending",
    "rowid": "891972",
    "final_x": "3689418.1",
    "final_y": "553921.98",
    "longitude": "-90.04227086858594",
    "latitude": "30.016850319876784",
    "geocoded_column": {
      "latitude": "30.016850319876784",
      "longitude": "-90.04227086858594"
    }
  },
  {
    "service_request": "2022-891971",
    "request_type": "Safety & Permits",
    "request_reason": "Construction permit",
    "date_created": "2022-06-15T14:20:47.000",
    "date_modified": "2022-06-15T14:20:48.000",
    "request_status": "Pending",
    "responsible_agency": "Department of Code Enforcement",
    "final_address": "97 E Park Pl",
    "address_councildis": "A",
    "status": "Pending",
    "rowid": "891971",
    "final_x": "3670337.58484",
    "final_y": "544607.298255",
    "longitude": "-90.10287353334863",
    "latitude": "29.991815538691174",
    "geocoded_column": {
      "latitude": "29.991815538691174",
      "longitude": "-90.10287353334863"
    }
  },
  {
    "service_request": "2022-891970",
    "request_type": "Trash/Recycling",
    "request_reason": "MIssed Recycling Pick-Up",
    "date_created": "2022-06-15T14:17:58.000",
    "date_modified": "2022-06-15T14:17:59.000",
    "request_status": "Pending",
    "responsible_agency": "Department of Sanitation",
    "final_address": "2053 Chippewa St",
    "address_councildis": "B",
    "status": "Assigned to Contractor",
    "contractor": "Richards Disposal",
    "rowid": "891970",
    "final_x": "3680131.4141",
    "final_y": "521261.502649",
    "longitude": "-90.07274818635328",
    "latitude": "29.927329710260626",
    "geocoded_column": {
      "latitude": "29.927329710260626",
      "longitude": "-90.07274818635328"
    }
  },
  {
    "service_request": "2022-891969",
    "request_type": "Trash/Recycling",
    "request_reason": "Missed Trash Pick-Up",
    "date_created": "2022-06-15T14:12:06.000",
    "date_modified": "2022-06-15T14:14:40.000",
    "request_status": "Pending",
    "responsible_agency": "Department of Sanitation",
    "final_address": "17 St Claude Ave",
    "address_councildis": "C",
    "status": "Assigned to Contractor",
    "contractor": "Metro Disposal",
    "rowid": "891969",
    "final_x": "3689389.51945",
    "final_y": "536118.783687",
    "longitude": "-90.04299461286386",
    "latitude": "29.967898834263604",
    "geocoded_column": {
      "latitude": "29.967898834263604",
      "longitude": "-90.04299461286386"
    }
  },
  {
    "service_request": "2022-891967",
    "request_type": "Trash/Recycling",
    "request_reason": "Request a Large Item Pick Up",
    "date_created": "2022-06-15T14:07:35.000",
    "date_modified": "2022-06-15T14:07:36.000",
    "request_status": "Pending",
    "responsible_agency": "Department of Sanitation",
    "final_address": "2309 Joliet St",
    "address_councildis": "A",
    "status": "Assigned to Contractor",
    "contractor": "Richards Disposal",
    "rowid": "891967",
    "final_x": "3663603.09287",
    "final_y": "532239.414147",
    "longitude": "-90.1245586090678",
    "latitude": "29.958005096110096",
    "geocoded_column": {
      "latitude": "29.958005096110096",
      "longitude": "-90.1245586090678"
    }
  },
  {
    "service_request": "2022-891966",
    "request_type": "Trash/Recycling",
    "request_reason": "Request a Large Item Pick Up",
    "date_created": "2022-06-15T14:03:15.000",
    "date_modified": "2022-06-15T14:03:17.000",
    "request_status": "Pending",
    "responsible_agency": "Department of Sanitation",
    "final_address": "2304 Joliet St",
    "address_councildis": "A",
    "status": "Assigned to Contractor",
    "contractor": "Richards Disposal",
    "rowid": "891966",
    "final_x": "3663514.15603",
    "final_y": "532255.172803",
    "longitude": "-90.12483892312723",
    "latitude": "29.958051006768624",
    "geocoded_column": {
      "latitude": "29.958051006768624",
      "longitude": "-90.12483892312723"
    }
  },
  {
    "service_request": "2022-891965",
    "request_type": "Trash/Recycling",
    "request_reason": "MIssed Recycling Pick-Up",
    "date_created": "2022-06-15T14:03:12.000",
    "date_modified": "2022-06-15T14:03:12.000",
    "request_status": "Pending",
    "responsible_agency": "Department of Sanitation",
    "final_address": "215 S Gayoso St",
    "address_councildis": "B",
    "status": "Assigned to Contractor",
    "contractor": "Richards Disposal",
    "rowid": "891965",
    "final_x": "3673945.96097",
    "final_y": "535466.185094",
    "longitude": "-90.0917882802285",
    "latitude": "29.96657356665307",
    "geocoded_column": {
      "latitude": "29.96657356665307",
      "longitude": "-90.0917882802285"
    }
  },
  {
    "service_request": "2022-891964",
    "request_type": "Trash/Recycling",
    "request_reason": "Request a Large Item Pick Up",
    "date_created": "2022-06-15T14:01:29.000",
    "date_modified": "2022-06-15T14:01:30.000",
    "request_status": "Pending",
    "responsible_agency": "Department of Sanitation",
    "final_address": "1417 Harmony St",
    "address_councildis": "B",
    "status": "Assigned to Contractor",
    "contractor": "Richards Disposal",
    "rowid": "891964",
    "final_x": "3675270.95259",
    "final_y": "521091.607929",
    "longitude": "-90.08809728972221",
    "latitude": "29.927008690181342",
    "geocoded_column": {
      "latitude": "29.927008690181342",
      "longitude": "-90.08809728972221"
    }
  },
  {
    "service_request": "2022-891963",
    "request_type": "Trash/Recycling",
    "request_reason": "Order Trash Cart",
    "date_created": "2022-06-15T13:57:51.000",
    "date_modified": "2022-06-15T13:57:52.000",
    "request_status": "Pending",
    "responsible_agency": "Department of Sanitation",
    "final_address": "8327 Sycamore St",
    "address_councildis": "A",
    "status": "Assigned to Contractor",
    "contractor": "Richards Disposal",
    "rowid": "891963",
    "final_x": "3663653.48973",
    "final_y": "531670.479491",
    "longitude": "-90.12441842351333",
    "latitude": "29.956439248838567",
    "geocoded_column": {
      "latitude": "29.956439248838567",
      "longitude": "-90.12441842351333"
    }
  },
  {
    "service_request": "2022-891962",
    "request_type": "EMS",
    "request_reason": "EMS General",
    "date_created": "2022-06-15T13:55:59.000",
    "date_modified": "2022-06-15T14:57:04.000",
    "case_close_date": "2022-06-15T09:57:04.000",
    "request_status": "Closed",
    "responsible_agency": "Emergency Medical Services",
    "status": "Resolved",
    "rowid": "891962",
    "longitude": "0.0",
    "latitude": "0.0",
    "geocoded_column": {
      "latitude": "0.0",
      "longitude": "0.0"
    }
  },
  {
    "service_request": "2022-891961",
    "request_type": "Trash/Recycling",
    "request_reason": "Order Recycling Cart",
    "date_created": "2022-06-15T13:55:16.000",
    "date_modified": "2022-06-15T13:55:17.000",
    "request_status": "Pending",
    "responsible_agency": "Department of Sanitation",
    "final_address": "631 Aurora Oaks Dr",
    "address_councildis": "C",
    "status": "Pending",
    "rowid": "891961",
    "final_x": "3701230.47498",
    "final_y": "520534.17548",
    "longitude": "-90.00617079303574",
    "latitude": "29.92467469878807",
    "geocoded_column": {
      "latitude": "29.92467469878807",
      "longitude": "-90.00617079303574"
    }
  },