[
  {
    "service_request": "2023-1049227",
    "request_type": "Property Maintenance",
    "request_reason": "Property Maintenance",
    "date_created": "2023-11-10T01:30:09.000",
    "date_modified": "2023-11-10T01:30:09.000",
    "request_status": "Pending",
    "responsible_agency": "Department of Code Enforcement",
    "final_address": "522 Madison St",
    "address_councildis": "C",
    "status": "Pending",
    "rowid": "1049227",
    "final_x": "3683329.05775",
    "final_y": "532536.941444",
    "longitude": "-90.0622592021555",
    "latitude": "29.95823626354598",
    "geocoded_column": {
      "latitude": "29.95823626354598",
      "longitude": "-90.0622592021555"
    }
  },
  {
    "service_request": "2023-1049226",
    "request_type": "Roads/Drainage",
    "request_reason": "Pothole",
    "date_created": "2023-11-10T01:05:24.000",
    "date_modified": "2023-11-10T01:05:24.000",
    "request_status": "Pending",
    "responsible_agency": "Department of Public Works",
    "final_address": "4200 Perrier St",
    "address_councildis": "B",
    "status": "Pending",
    "rowid": "1049226",
    "final_x": "3671579.76411",
    "final_y": "520095.16844",
    "longitude": "-90.09978329705561",
    "latitude": "29.924378584144126",
    "geocoded_column": {
      "latitude": "29.924378584144126",
      "longitude": "-90.09978329705561"
    }
  },
  {
    "service_request": "2023-1049225",
    "request_type": "Abandoned Vehicles",
    "request_reason": "Abandoned/Junk Vehicles",
    "date_created": "2023-11-10T00:56:37.000",
    "date_modified": "2023-11-10T00:56:37.000",
    "request_status": "Pending",
    "responsible_agency": "Department of Public Works",
    "final_address": "212 N Tonti St",
    "address_councildis": "B",
    "status": "Pending",
    "rowid": "1049225",
    "final_x": "3676793.08046",
    "final_y": "534702.473094",
    "longitude": "-90.08282341854117",
    "latitude": "29.96438848559437",
    "geocoded_column": {
      "latitude": "29.96438848559437",
      "longitude": "-90.08282341854117"
    }
  },
  {
    "service_request": "2023-1049224",
    "request_type": "Abandoned Vehicles",
    "request_reason": "Abandoned/Junk Vehicles",
    "date_created": "2023-11-10T00:52:44.000",
    "date_modified": "2023-11-10T00:52:44.000",
    "request_status": "Pending",
    "responsible_agency": "Department of Public Works",
    "final_address": "221 N Tonti St",
    "address_councildis": "B",
    "status": "Pending",
    "rowid": "1049224",
    "final_x": "3676708.91105",
    "final_y": "534839.579974",
    "longitude": "-90.08308449486326",
    "latitude": "29.96476800860436",
    "geocoded_column": {
      "latitude": "29.96476800860436",
      "longitude": "-90.08308449486326"
    }
  },
  {
    "service_request": "2023-1049223",
    "request_type": "Abandoned Vehicles",
    "request_reason": "Abandoned/Junk Vehicles",
    "date_created": "2023-11-10T00:43:29.000",
    "date_modified": "2023-11-10T00:43:29.000",
    "request_status": "Pending",
    "responsible_agency": "Department of Public Works",
    "final_address": "222 N Tonti St",
    "address_councildis": "B",
    "status": "Pending",
    "rowid": "1049223",
    "final_x": "3676831.96449",
    "final_y": "534776.733574",
    "longitude": "-90.08269806618439",
    "latitude": "29.964591509861442",
    "geocoded_column": {
      "latitude": "29.964591509861442",
      "longitude": "-90.08269806618439"
    }
  },
  {
    "service_request": "2023-1049222",
    "request_type": "Abandoned Vehicles",
    "request_reason": "Abandoned/Junk Vehicles",
    "date_created": "2023-11-10T00:39:53.000",
    "date_modified": "2023-11-10T00:39:53.000",
    "request_status": "Pending",
    "responsible_agency": "Department of Public Works",
    "final_address": "222 N Tonti St",
    "address_councildis": "B",
    "status": "Pending",
    "rowid": "1049222",
    "final_x": "3676831.96449",
    "final_y": "534776.733574",
    "longitude": "-90.08269806618439",
    "latitude": "29.964591509861442",
    "geocoded_column": {
      "latitude": "29.964591509861442",
      "longitude": "-90.08269806618439"
    }
  },
  {
    "service_request": "2023-1049221",
    "request_type": "Trash/Recycling",
    "request_reason": "MIssed Recycling Pick-Up",
    "date_created": "2023-11-10T00:35:56.000",
    "date_modified": "2023-11-10T00:35:57.000",
    "request_status": "Pending",
    "responsible_agency": "Department of Sanitation",
    "final_address": "219 N Tonti St",
    "address_councildis": "B",
    "status": "Assigned to Contractor",
    "contractor": "Richards Disposal",
    "rowid": "1049221",
    "final_x": "3676708.91105",
    "final_y": "534839.579974",
    "longitude": "-90.08308449486326",
    "latitude": "29.96476800860436",
    "geocoded_column": {
      "latitude": "29.96476800860436",
      "longitude": "-90.08308449486326"
    }
  },
  {
    "service_request": "2023-1049220",
    "request_type": "EMS",
    "request_reason": "EMS Lost & Found",
    "date_created": "2023-11-09T21:47:52.000",
    "date_modified": "2023-11-09T21:47:53.000",
    "request_status": "Pending",
    "responsible_agency": "Emergency Medical Services",
    "final_address": "1305 S Gayoso St",
    "address_councildis": "B",
    "status": "Pending",
    "rowid": "1049220",
    "final_x": "3671038.94177",
    "final_y": "531258.59661",
    "longitude": "-90.10111153411962",
    "latitude": "29.95509038667018",
    "geocoded_column": {
      "latitude": "29.95509038667018",
      "longitude": "-90.10111153411962"
    }
  },
  {
    "service_request": "2023-1049219",
    "request_type": "Roads/Drainage",
    "request_reason": "Pothole",
    "date_created": "2023-11-09T20:43:13.000",
    "date_modified": "2023-11-09T20:43:13.000",
    "request_status": "Pending",
    "responsible_agency": "Department of Public Works",
    "final_address": "6060 Chestnut St",
    "address_councildis": "A",
    "status": "Pending",
    "rowid": "1049219",
    "final_x": "3664493.20845",
    "final_y": "519950.4654",
    "longitude": "-90.12215803894134",
    "latitude": "29.924188567075998",
    "geocoded_column": {
      "latitude": "29.924188567075998",
      "longitude": "-90.12215803894134"
    }
  },
  {
    "service_request": "2023-1049218",
    "request_type": "Roads/Drainage",
    "request_reason": "Pothole",
    "date_created": "2023-11-09T20:39:53.000",
    "date_modified": "2023-11-09T20:39:53.000",
    "request_status": "Pending",
    "responsible_agency": "Department of Public Works",
    "final_address": "6031 Pitt St",
    "address_councildis": "A",
    "status": "Pending",
    "rowid": "1049218",
    "final_x": "3665074.90548",
    "final_y": "521345.766329",
    "longitude": "-90.12027518893876",
    "latitude": "29.928008285877205",
    "geocoded_column": {
      "latitude": "29.928008285877205",
      "longitude": "-90.12027518893876"
    }
  },
  {
    "service_request": "2023-1049217",
    "request_type": "Roads/Drainage",
    "request_reason": "Pothole",
    "date_created": "2023-11-09T20:36:03.000",
    "date_modified": "2023-11-09T20:36:03.000",
    "request_status": "Pending",
    "responsible_agency": "Department of Public Works",
    "final_address": "5828 Perrier St",
    "address_councildis": "A",
    "status": "Pending",
    "rowid": "1049217",
    "final_x": "3665577.52973",
    "final_y": "520350.275704",
    "longitude": "-90.11872182463097",
    "latitude": "29.925256359696807",
    "geocoded_column": {
      "latitude": "29.925256359696807",
      "longitude": "-90.11872182463097"
    }
  },
  {
    "service_request": "2023-1049216",
    "request_type": "Roads/Drainage",
    "request_reason": "Pothole",
    "date_created": "2023-11-09T19:04:06.000",
    "date_modified": "2023-11-09T19:04:06.000",
    "request_status": "Pending",
    "responsible_agency": "Department of Public Works",
    "final_address": "1422 General Pershing St",
    "address_councildis": "B",
    "status": "Pending",
    "rowid": "1049216",
    "final_x": "3671239.44116",
    "final_y": "520532.324984",
    "longitude": "-90.10084273889387",
    "latitude": "29.925590694745555",
    "geocoded_column": {
      "latitude": "29.925590694745555",
      "longitude": "-90.10084273889387"
    }
  },
  {
    "service_request": "2023-1049215",
    "request_type": "Trash/Recycling",
    "request_reason": "Illegal Dumping",
    "date_created": "2023-11-09T18:55:04.000",
    "date_modified": "2023-11-09T18:55:04.000",
    "request_status": "Pending",
    "responsible_agency": "Department of Sanitation",
    "final_address": "North Derbigny Street & Saint Ann Street",
    "address_councildis": "D",
    "status": "Pending",
    "rowid": "1049215",
    "final_x": "3679626.14933",
    "final_y": "535179.347974",
    "longitude": "-90.07386025838144",
    "latitude": "29.965614409010925",
    "geocoded_column": {
      "latitude": "29.965614409010925",
      "longitude": "-90.07386025838144"
    }
  },
  {
    "service_request": "2023-1049214",
    "request_type": "Roads/Drainage",
    "request_reason": "Pothole",
    "date_created": "2023-11-09T18:50:39.000",
    "date_modified": "2023-11-09T18:50:39.000",
    "request_status": "Pending",
    "responsible_agency": "Department of Public Works",
    "final_address": "1317 Milan St",
    "address_councildis": "B",
    "status": "Pending",
    "rowid": "1049214",
    "final_x": "3671700.96097",
    "final_y": "520272.658936",
    "longitude": "-90.09939468590763",
    "latitude": "29.9248630381211",
    "geocoded_column": {
      "latitude": "29.9248630381211",
      "longitude": "-90.09939468590763"
    }
  },
  {
    "service_request": "2023-1049213",
    "request_type": "Traffic Signals/Signs/Striping/Streetlights",
    "request_reason": "Street Light Outage/Malfunction",
    "date_created": "2023-11-09T18:33:18.000",
    "date_modified": "2023-11-09T18:33:19.000",
    "request_status": "Pending",
    "responsible_agency": "Department of Public Works",
    "final_address": "2439 Allen Toussaint Blvd",
    "address_councildis": "D",
    "status": "Assigned to Contractor",
    "contractor": "Legacy Professional Services",
    "rowid": "1049213",
    "final_x": "3685317.50357",
    "final_y": "555963.438937",
    "longitude": "-90.05515506570424",
    "latitude": "30.02258998327325",
    "geocoded_column": {
      "latitude": "30.02258998327325",
      "longitude": "-90.05515506570424"
    }
  },
  {
    "service_request": "2023-1049212",
    "request_type": "Traffic Signals/Signs/Striping/Streetlights",
    "request_reason": "Street Light Outage/Malfunction",
    "date_created": "2023-11-09T18:32:13.000",
    "date_modified": "2023-11-09T18:32:14.000",
    "request_status": "Pending",
    "responsible_agency": "Department of Public Works",
    "final_address": "2439 Allen Toussaint Blvd",
    "address_councildis": "D",
    "status": "Assigned to Contractor",
    "contractor": "Legacy Professional Services",
    "rowid": "1049212",
    "final_x": "3685317.50357",
    "final_y": "555963.438937",
    "longitude": "-90.05515506570424",
    "latitude": "30.02258998327325",
    "geocoded_column": {
      "latitude": "30.02258998327325",
      "longitude": "-90.05515506570424"
    }
  },
  {
    "service_request": "2023-1049211",
    "request_type": "Trash/Recycling",
    "request_reason": "Request a Large Item Pick Up",
    "date_created": "2023-11-09T17:35:58.000",
    "date_modified": "2023-11-09T17:35:59.000",
    "request_status": "Pending",
    "responsible_agency": "Department of Sanitation",
    "final_address": "600 BLK N Olympia St",
    "address_councildis": "A",
    "status": "Assigned to Contractor",
    "contractor": "Richards Disposal",
    "rowid": "1049211",
    "final_x": "3670597.5528",
    "final_y": "541184.329492",
    "longitude": "-90.10216852305487",
    "latitude": "29.982395868685114",
    "geocoded_column": {
      "latitude": "29.982395868685114",
      "longitude": "-90.10216852305487"
    }
  },
  {
    "service_request": "2023-1049210",
    "request_type": "Traffic Signals/Signs/Striping/Streetlights",
    "request_reason": "Street Light Outage/Malfunction",
    "date_created": "2023-11-09T17:35:00.000",
    "date_modified": "2023-11-09T17:35:00.000",
    "request_status": "Pending",
    "responsible_agency": "Department of Public Works",
    "final_address": "3715 Constance St",
    "address_councildis": "B",
    "status": "Assigned to Contractor",
    "contractor": "Legacy Professional Services",
    "rowid": "1049210",
    "final_x": "3673599.04564",
    "final_y": "518758.716343",
    "longitude": "-90.09345475936342",
    "latitude": "29.920643840746266",
    "geocoded_column": {
      "latitude": "29.920643840746266",
      "longitude": "-90.09345475936342"
    }
  },
  {
    "service_request": "2023-1049209",
    "request_type": "Roads/Drainage",
    "request_reason": "Pothole",
    "date_created": "2023-11-09T17:13:34.000",
    "date_modified": "2023-11-09T17:13:34.000",
    "request_status": "Pending",
    "responsible_agency": "Department of Public Works",
    "final_address": "1031 Opelousas Ave",
    "address_councildis": "C",
    "status": "Pending",
    "rowid": "1049209",
    "final_x": "3688723.80259",
    "final_y": "529002.961856",
    "longitude": "-90.04534955878101",
    "latitude": "29.948353384292016",
    "geocoded_column": {
      "latitude": "29.948353384292016",
      "longitude": "-90.04534955878101"
    }
  },
  {
    "service_request": "2023-1049208",
    "request_type": "Trash/Recycling",
    "request_reason": "MIssed Recycling Pick-Up",
    "date_created": "2023-11-09T16:48:10.000",
    "date_modified": "2023-11-09T16:48:11.000",
    "request_status": "Pending",
    "responsible_agency": "Department of Sanitation",
    "final_address": "914 Ninth St",
    "address_councildis": "B",
    "status": "Assigned to Contractor",
    "contractor": "Richards Disposal",
    "rowid": "1049208",
    "final_x": "3676158.83547",
    "final_y": "519515.706807",
    "longitude": "-90.08534865452376",
    "latitude": "29.922648910036585",
    "geocoded_column": {
      "latitude": "29.922648910036585",
      "longitude": "-90.08534865452376"
    }
  },
  {
    "service_request": "2023-1049207",
    "request_type": "Trash/Recycling",
    "request_reason": "Request a Large Item Pick Up",
    "date_created": "2023-11-09T16:41:08.000",
    "date_modified": "2023-11-09T16:41:09.000",
    "request_status": "Pending",
    "responsible_agency": "Department of Sanitation",
    "final_address": "745 Hidalgo St",
    "address_councildis": "A",
    "status": "Assigned to Contractor",
    "contractor": "IV Waste",
    "rowid": "1049207",
    "final_x": "3668685.20199",
    "final_y": "544170.100942",
    "longitude": "-90.10810784633935",
    "latitude": "29.9906620825363",
    "geocoded_column": {
      "latitude": "29.9906620825363",
      "longitude": "-90.10810784633935"
    }
  },
  {
    "service_request": "2023-1049206",
    "request_type": "Traffic Signals/Signs/Striping/Streetlights",
    "request_reason": "Street Name Sign Damaged or Missing",
    "date_created": "2023-11-09T16:20:40.000",
    "date_modified": "2023-11-09T16:20:40.000",
    "request_status": "Pending",
    "responsible_agency": "Department of Public Works",
    "final_address": "1744 Flanders St",
    "address_councildis": "C",
    "status": "Pending",
    "rowid": "1049206",
    "final_x": "3696708.32029",
    "final_y": "524744.71334",
    "longitude": "-90.02029333632261",
    "latitude": "29.936395481086507",
    "geocoded_column": {
      "latitude": "29.936395481086507",
      "longitude": "-90.02029333632261"
    }
  },
  {
    "service_request": "2023-1049205",
    "request_type": "Trash/Recycling",
    "request_reason": "Return Trash Cart",
    "date_created": "2023-11-09T16:20:02.000",
    "date_modified": "2023-11-09T16:20:02.000",
    "request_status": "Pending",
    "responsible_agency": "Department of Sanitation",
    "final_address": "2570 Valentine Ct",
    "address_councildis": "C",
    "status": "Assigned to Contractor",
    "contractor": "Richards Disposal",
    "rowid": "1049205",
    "final_x": "3699154.70525",
    "final_y": "521707.767289",
    "longitude": "-90.01268056397629",
    "latitude": "29.92796761892402",
    "geocoded_column": {
      "latitude": "29.92796761892402",
      "longitude": "-90.01268056397629"
    }
  },
  {
    "service_request": "2023-1049204",
    "request_type": "Trash/Recycling",
    "request_reason": "Repair Trash Cart",
    "date_created": "2023-11-09T16:18:46.000",
    "date_modified": "2023-11-09T16:18:46.000",
    "request_status": "Pending",
    "responsible_agency": "Department of Sanitation",
    "final_address": "2570 Valentine Ct",
    "address_councildis": "C",
    "status": "Assigned to Contractor",
    "contractor": "Richards Disposal",
    "rowid": "1049204",
    "final_x": "3699154.70525",
    "final_y": "521707.767289",
    "longitude": "-90.01268056397629",
    "latitude": "29.92796761892402",
    "geocoded_column": {
      "latitude": "29.92796761892402",
      "longitude": "-90.01268056397629"
    }
  },
  {
    "service_request": "2023-1049203",
    "request_type": "Trash/Recycling",
    "request_reason": "Request a Large Item Pick Up",
    "date_created": "2023-11-09T16:16:19.000",
    "date_modified": "2023-11-09T16:16:19.000",
    "request_status": "Pending",
    "responsible_agency": "Department of Sanitation",
    "final_address": "2819 Third St",
    "address_councildis": "B",
    "status": "Assigned to Contractor",
    "contractor": "Richards Disposal",
    "rowid": "1049203",
    "final_x": "3674053.43329",
    "final_y": "526588.755326",
    "longitude": "-90.09175265606781",
    "latitude": "29.942160384122165",
    "geocoded_column": {
      "latitude": "29.942160384122165",
      "longitude": "-90.09175265606781"
    }
  },
  {
    "service_request": "2023-1049202",
    "request_type": "Traffic Signals/Signs/Striping/Streetlights",
    "request_reason": "Street Light Outage/Malfunction",
    "date_created": "2023-11-09T16:14:01.000",
    "date_modified": "2023-11-09T16:14:02.000",
    "request_status": "Pending",
    "responsible_agency": "Department of Public Works",
    "final_address": "1748 Flanders St",
    "address_councildis": "C",
    "status": "Assigned to Contractor",
    "contractor": "Legacy Professional Services",
    "rowid": "1049202",
    "final_x": "3696705.62058",
    "final_y": "524706.581052",
    "longitude": "-90.02030323885847",
    "latitude": "29.93629071550933",
    "geocoded_column": {
      "latitude": "29.93629071550933",
      "longitude": "-90.02030323885847"
    }
  },
  {
    "service_request": "2023-1049201",
    "request_type": "Trash/Recycling",
    "request_reason": "Order Trash Cart",
    "date_created": "2023-11-09T16:08:41.000",
    "date_modified": "2023-11-09T16:10:35.000",
    "case_close_date": "2023-11-09T10:10:35.000",
    "request_status": "Closed",
    "responsible_agency": "Department of Sanitation",
    "final_address": "4882 Viola St",
    "address_councildis": "E",
    "status": "Duplicate Request",
    "contractor": "Waste Pro",
    "rowid": "1049201",
    "final_x": "3703787.70532",
    "final_y": "556093.375642",
    "longitude": "-89.99678923855684",
    "latitude": "30.022367808081032",
    "geocoded_column": {
      "latitude": "30.022367808081032",
      "longitude": "-89.99678923855684"
    }
  },
  {
    "service_request": "2023-1049200",
    "request_type": "Abandoned Vehicles",
    "request_reason": "Abandoned/Junk Vehicles",
    "date_created": "2023-11-09T16:06:29.000",
    "date_modified": "2023-11-09T16:06:29.000",
    "request_status": "Pending",
    "responsible_agency": "Department of Public Works",
    "final_address": "4500 Lafon Dr",
    "address_councildis": "E",
    "status": "Pending",
    "rowid": "1049200",
    "final_x": "3701195.7457",
    "final_y": "552896.367575",
    "longitude": "-90.00509624334141",
    "latitude": "30.013660131919124",
    "geocoded_column": {
      "latitude": "30.013660131919124",
      "longitude": "-90.00509624334141"
    }
  },
  {
    "service_request": "2023-1049199",
    "request_type": "Trash/Recycling",
    "request_reason": "Request a Large Item Pick Up",
    "date_created": "2023-11-09T15:58:17.000",
    "date_modified": "2023-11-09T15:58:17.000",
    "request_status": "Pending",
    "responsible_agency": "Department of Sanitation",
    "final_address": "1497 Gardena Dr",
    "address_councildis": "D",
    "status": "Assigned to Contractor",
    "contractor": "IV Waste",
    "rowid": "1049199",
    "final_x": "3678441.37275",
    "final_y": "551586.145493",
    "longitude": "-90.0770336691967",
    "latitude": "30.010763121380517",
    "geocoded_column": {
      "latitude": "30.010763121380517",
      "longitude": "-90.0770336691967"
    }
  },
  {
    "service_request": "2023-1049198",
    "request_type": "Traffic Signals/Signs/Striping/Streetlights",
    "request_reason": "Traffic Signal Malfunctioning/Damaged",
    "date_created": "2023-11-09T15:55:51.000",
    "date_modified": "2023-11-09T15:55:52.000",
    "request_status": "Pending",
    "responsible_agency": "Department of Public Works",
    "final_address": "BULLARD AVE & HAYNE BLVD",
    "address_councildis": "E",
    "status": "Pending",
    "rowid": "1049198",
    "final_x": "3712142.2",
    "final_y": "568794.68",
    "longitude": "-89.96991380312626",
    "latitude": "30.057020706348293",
    "geocoded_column": {
      "latitude": "30.057020706348293",
      "longitude": "-89.96991380312626"
    }
  },
  {
    "service_request": "2023-1049196",
    "request_type": "Mayor's Request",
    "request_reason": "Requests to the Mayor",
    "date_created": "2023-11-09T15:50:51.000",
    "date_modified": "2023-11-09T15:50:51.000",
    "request_status": "Pending",
    "responsible_agency": "Executive Office of the Mayor",
    "final_address": "6101 Chatham Dr",
    "address_councildis": "D",
    "status": "Pending",
    "rowid": "1049196",
    "final_x": "3679634.71887",
    "final_y": "555106.195865",
    "longitude": "-90.07314111363992",
    "latitude": "30.020405955549922",
    "geocoded_column": {
      "latitude": "30.020405955549922",
      "longitude": "-90.07314111363992"
    }
  },
  {
    "service_request": "2023-1049195",
    "request_type": "Roads/Drainage",
    "request_reason": "Catch Basin - Clogged",
    "date_created": "2023-11-09T15:49:02.000",
    "date_modified": "2023-11-09T15:49:14.000",
    "request_status": "Pending",
    "responsible_agency": "Department of Public Works",
    "final_address": "7700 S Claiborne Ave",
    "address_councildis": "A",
    "status": "Pending",
    "rowid": "1049195",
    "final_x": "3665827.98304",
    "final_y": "530501.896322",
    "longitude": "-90.11759121551809",
    "latitude": "29.953162764260373",
    "geocoded_column": {
      "latitude": "29.953162764260373",
      "longitude": "-90.11759121551809"
    }
  },
  {
    "service_request": "2023-1049194",
    "request_type": "Parks & Parkways",
    "request_reason": "Request Tree Service (Right of Way/Public Property)",
    "date_created": "2023-11-09T15:46:15.000",
    "date_modified": "2023-11-09T15:46:16.000",
    "request_status": "Pending",
    "responsible_agency": "Department of Parks & Parkway",
    "final_address": "359 Sharon Dr",
    "address_councildis": "A",
    "status": "Pending",
    "rowid": "1049194",
    "final_x": "3664617.73613",
    "final_y": "547229.089681",
    "longitude": "-90.12085377638381",
    "latitude": "29.99919222095791",
    "geocoded_column": {
      "latitude": "29.99919222095791",
      "longitude": "-90.12085377638381"
    }
  },
  {
    "service_request": "2023-1049193",
    "request_type": "Safety & Permits",
    "request_reason": "Safety & Permits Request (Cyber Incident Back Up)",
    "date_created": "2023-11-09T15:44:24.000",
    "date_modified": "2023-11-09T15:44:24.000",
    "request_status": "Pending",
    "responsible_agency": "Safety and Permits",
    "final_address": "6101 Chatham Dr",
    "address_councildis": "D",
    "status": "Pending",
    "rowid": "1049193",
    "final_x": "3679634.71887",
    "final_y": "555106.195865",
    "longitude": "-90.07314111363992",
    "latitude": "30.020405955549922",
    "geocoded_column": {
      "latitude": "30.020405955549922",
      "longitude": "-90.07314111363992"
    }
  },
  {
    "service_request": "2023-1049192",
    "request_type": "Roads/Drainage",
    "request_reason": "Accessibility Ramps, Curbs and Sidewalk Repair",
    "date_created": "2023-11-09T15:41:40.000",
    "date_modified": "2023-11-09T15:41:40.000",
    "request_status": "Pending",
    "responsible_agency": "Department of Public Works",
    "final_address": "6101 Chatham Dr",
    "address_councildis": "D",
    "status": "Pending",
    "rowid": "1049192",
    "final_x": "3679634.71887",
    "final_y": "555106.195865",
    "longitude": "-90.07314111363992",
    "latitude": "30.020405955549922",
    "geocoded_column": {
      "latitude": "30.020405955549922",
      "longitude": "-90.07314111363992"
    }
  },
  {
    "service_request": "2023-1049191",
    "request_type": "Trash/Recycling",
    "request_reason": "Request a Large Item Pick Up",
    "date_created": "2023-11-09T15:35:52.000",
    "date_modified": "2023-11-09T15:35:53.000",
    "request_status": "Pending",
    "responsible_agency": "Department of Sanitation",
    "final_address": "4901 Hauck Dr",
    "address_councildis": "E",
    "status": "Assigned to Contractor",
    "contractor": "Waste Pro",
    "rowid": "1049191",
    "final_x": "3714566.1877",
    "final_y": "557378.631835",
    "longitude": "-89.96268365305812",
    "latitude": "30.025551656244847",
    "geocoded_column": {
      "latitude": "30.025551656244847",
      "longitude": "-89.96268365305812"
    }
  },
  {
    "service_request": "2023-1049190",
    "request_type": "Trash/Recycling",
    "request_reason": "Order Trash Cart",
    "date_created": "2023-11-09T15:30:52.000",
    "date_modified": "2023-11-09T15:30:52.000",
    "request_status": "Pending",
    "responsible_agency": "Department of Sanitation",
    "final_address": "4831 Shalimar Dr",
    "address_councildis": "D",
    "status": "Assigned to Contractor",
    "contractor": "Waste Pro",
    "rowid": "1049190",
    "final_x": "3697175.68739",
    "final_y": "554713.850008",
    "longitude": "-90.01773154154311",
    "latitude": "30.018785042496074",
    "geocoded_column": {
      "latitude": "30.018785042496074",
      "longitude": "-90.01773154154311"
    }
  },
  {
    "service_request": "2023-1049189",
    "request_type": "Trash/Recycling",
    "request_reason": "Order Trash Cart",
    "date_created": "2023-11-09T15:24:13.000",
    "date_modified": "2023-11-09T15:24:14.000",
    "request_status": "Pending",
    "responsible_agency": "Department of Sanitation",
    "final_address": "2109 Desire St",
    "address_councildis": "D",
    "status": "Assigned to Contractor",
    "contractor": "IV Waste",
    "rowid": "1049189",
    "final_x": "3691174.07657",
    "final_y": "539550.366474",
    "longitude": "-90.03723636324557",
    "latitude": "29.977279094556668",
    "geocoded_column": {
      "latitude": "29.977279094556668",
      "longitude": "-90.03723636324557"
    }
  },
  {
    "service_request": "2023-1049188",
    "request_type": "Abandoned Vehicles",
    "request_reason": "Abandoned/Junk Vehicles",
    "date_created": "2023-11-09T15:17:46.000",
    "date_modified": "2023-11-09T15:17:46.000",
    "request_status": "Pending",
    "responsible_agency": "Department of Public Works",
    "final_address": "611 Desire St",
    "address_councildis": "C",
    "status": "Pending",
    "rowid": "1049188",
    "final_x": "3689786.99862",
    "final_y": "533972.388165",
    "longitude": "-90.04181576635632",
    "latitude": "29.9619846837172",
    "geocoded_column": {
      "latitude": "29.9619846837172",
      "longitude": "-90.04181576635632"
    }
  },
  {
    "service_request": "2023-1049187",
    "request_type": "Trash/Recycling",
    "request_reason": "Request a Large Item Pick Up",
    "date_created": "2023-11-09T15:12:00.000",
    "date_modified": "2023-11-09T15:12:01.000",
    "request_status": "Pending",
    "responsible_agency": "Department of Sanitation",
    "final_address": "4607 Haydel St",
    "address_councildis": "E",
    "status": "Assigned to Contractor",
    "contractor": "Waste Pro",
    "rowid": "1049187",
    "final_x": "3699167.99428",
    "final_y": "553673.120855",
    "longitude": "-90.01147453520497",
    "latitude": "30.01586038464293",
    "geocoded_column": {
      "latitude": "30.01586038464293",
      "longitude": "-90.01147453520497"
    }
  },
  {
    "service_request": "2023-1049186",
    "request_type": "Trash/Recycling",
    "request_reason": "Repair Trash Cart",
    "date_created": "2023-11-09T15:11:30.000",
    "date_modified": "2023-11-09T15:11:55.000",
    "request_status": "Pending",
    "responsible_agency": "Department of Sanitation",
    "final_address": "417 Leboeuf St",
    "address_councildis": "C",
    "status": "Assigned to Contractor",
    "contractor": "Richards Disposal",
    "rowid": "1049186",
    "final_x": "3689794.61449",
    "final_y": "530124.315841",
    "longitude": "-90.04192866977242",
    "latitude": "29.95140358236985",
    "geocoded_column": {
      "latitude": "29.95140358236985",
      "longitude": "-90.04192866977242"
    }
  },
  {
    "service_request": "2023-1049185",
    "request_type": "Trash/Recycling",
    "request_reason": "Repair Trash Cart",
    "date_created": "2023-11-09T15:11:23.000",
    "date_modified": "2023-11-09T15:11:23.000",
    "request_status": "Pending",
    "responsible_agency": "Department of Sanitation",
    "final_address": "2701 Allen St",
    "address_councildis": "D",
    "status": "Assigned to Contractor",
    "contractor": "IV Waste",
    "rowid": "1049185",
    "final_x": "3682373.33628",
    "final_y": "542063.933132",
    "longitude": "-90.06494409529277",
    "latitude": "29.98446131076071",
    "geocoded_column": {
      "latitude": "29.98446131076071",
      "longitude": "-90.06494409529277"
    }
  },
  {
    "service_request": "2023-1049184",
    "request_type": "Trash/Recycling",
    "request_reason": "Request a Large Item Pick Up",
    "date_created": "2023-11-09T15:05:06.000",
    "date_modified": "2023-11-09T15:05:07.000",
    "request_status": "Pending",
    "responsible_agency": "Department of Sanitation",
    "final_address": "4442 Dale St",
    "address_councildis": "E",
    "status": "Assigned to Contractor",
    "contractor": "Waste Pro",
    "rowid": "1049184",
    "final_x": "3699501.87978",
    "final_y": "553416.202071",
    "longitude": "-90.01042898540115",
    "latitude": "30.015143360229608",
    "geocoded_column": {
      "latitude": "30.015143360229608",
      "longitude": "-90.01042898540115"
    }
  },
  {
    "service_request": "2023-1049183",
    "request_type": "Trash/Recycling",
    "request_reason": "Order Trash Cart",
    "date_created": "2023-11-09T14:59:48.000",
    "date_modified": "2023-11-09T14:59:49.000",
    "request_status": "Pending",
    "responsible_agency": "Department of Sanitation",
    "final_address": "4882 Viola St",
    "address_councildis": "E",
    "status": "Assigned to Contractor",
    "contractor": "Waste Pro",
    "rowid": "1049183",
    "final_x": "3703787.70532",
    "final_y": "556093.375642",
    "longitude": "-89.99678923855684",
    "latitude": "30.022367808081032",
    "geocoded_column": {
      "latitude": "30.022367808081032",
      "longitude": "-89.99678923855684"
    }
  },
  {
    "service_request": "2023-1049182",
    "request_type": "Abandoned Vehicles",
    "request_reason": "Abandoned/Junk Vehicles",
    "date_created": "2023-11-09T14:59:12.000",
    "date_modified": "2023-11-09T14:59:12.000",
    "request_status": "Pending",
    "responsible_agency": "Department of Public Works",
    "final_address": "9696 Hayne Blvd",
    "address_councildis": "E",
    "status": "Pending",
    "rowid": "1049182",
    "final_x": "3706773.12158",
    "final_y": "565285.425506",
    "longitude": "-89.98701486730513",
    "latitude": "30.047546235439572",
    "geocoded_column": {
      "latitude": "30.047546235439572",
      "longitude": "-89.98701486730513"
    }
  },
  {
    "service_request": "2023-1049181",
    "request_type": "Roads/Drainage",
    "request_reason": "Debris in Roadway",
    "date_created": "2023-11-09T14:55:33.000",
    "date_modified": "2023-11-09T14:55:33.000",
    "request_status": "Pending",
    "responsible_agency": "Department of Public Works",
    "final_address": "3636 Monroe St",
    "address_councildis": "A",
    "status": "Pending",
    "rowid": "1049181",
    "final_x": "3666303.12231",
    "final_y": "536384.515783",
    "longitude": "-90.11589357161647",
    "latitude": "29.969324163095756",
    "geocoded_column": {
      "latitude": "29.969324163095756",
      "longitude": "-90.11589357161647"
    }
  },
  {
    "service_request": "2023-1049180",
    "request_type": "Property Maintenance",
    "request_reason": "Property Maintenance",
    "date_created": "2023-11-09T14:52:42.000",
    "date_modified": "2023-11-09T14:52:42.000",
    "request_status": "Pending",
    "responsible_agency": "Department of Code Enforcement",
    "final_address": "2400 Napoleon Ave",
    "address_councildis": "B",
    "status": "Pending",
    "rowid": "1049180",
    "final_x": "3670433.47783",
    "final_y": "523797.044603",
    "longitude": "-90.1032762933551",
    "latitude": "29.93459144002167",
    "geocoded_column": {
      "latitude": "29.93459144002167",
      "longitude": "-90.1032762933551"
    }
  },
  {
    "service_request": "2023-1049179",
    "request_type": "Traffic Signals/Signs/Striping/Streetlights",
    "request_reason": "Street Light Outage/Malfunction",
    "date_created": "2023-11-09T14:48:12.000",
    "date_modified": "2023-11-09T14:48:12.000",
    "request_status": "Pending",
    "responsible_agency": "Department of Public Works",
    "final_address": "1521 Congress St",
    "address_councildis": "D",
    "status": "Assigned to Contractor",
    "contractor": "Legacy Professional Services",
    "rowid": "1049179",
    "final_x": "3691159.14307",
    "final_y": "537214.243336",
    "longitude": "-90.03736697718533",
    "latitude": "29.97085604860546",
    "geocoded_column": {
      "latitude": "29.97085604860546",
      "longitude": "-90.03736697718533"
    }
  },
  {
    "service_request": "2023-1049178",
    "request_type": "Abandoned Vehicles",
    "request_reason": "Abandoned/Junk Vehicles",
    "date_created": "2023-11-09T14:47:29.000",
    "date_modified": "2023-11-09T14:47:30.000",
    "request_status": "Pending",
    "responsible_agency": "Department of Public Works",
    "final_address": "1236 Burdette St",
    "address_councildis": "A",
    "status": "Pending",
    "rowid": "1049178",
    "final_x": "3662970.66061",
    "final_y": "527865.125823",
    "longitude": "-90.12670111851043",
    "latitude": "29.945995544148605",
    "geocoded_column": {
      "latitude": "29.945995544148605",
      "longitude": "-90.12670111851043"
    }
  },
  {
    "service_request": "2023-1049177",
    "request_type": "Roads/Drainage",
    "request_reason": "Street Subsidence (Sinking)",
    "date_created": "2023-11-09T14:46:42.000",
    "date_modified": "2023-11-09T14:46:42.000",
    "request_status": "Pending",
    "responsible_agency": "Department of Public Works",
    "final_address": "4739 Dryades St",
    "address_councildis": "B",
    "status": "Pending",
    "rowid": "1049177",
    "final_x": "3669310.42426",
    "final_y": "521851.683194",
    "longitude": "-90.10688749493693",
    "latitude": "29.92927542130942",
    "geocoded_column": {
      "latitude": "29.92927542130942",
      "longitude": "-90.10688749493693"
    }
  },
  {
    "service_request": "2023-1049176",
    "request_type": "Trash/Recycling",
    "request_reason": "Replace Trash Cart",
    "date_created": "2023-11-09T14:45:51.000",
    "date_modified": "2023-11-09T14:45:52.000",
    "request_status": "Pending",
    "responsible_agency": "Department of Sanitation",
    "final_address": "2754 St Ann St",
    "address_councildis": "A",
    "status": "Assigned to Contractor",
    "contractor": "Richards Disposal",
    "rowid": "1049176",
    "final_x": "3676512.84603",
    "final_y": "537480.659336",
    "longitude": "-90.08361269083125",
    "latitude": "29.97203595990948",
    "geocoded_column": {
      "latitude": "29.97203595990948",
      "longitude": "-90.08361269083125"
    }
  },
  {
    "service_request": "2023-1049175",
    "request_type": "Traffic Signals/Signs/Striping/Streetlights",
    "request_reason": "Street Light Outage/Malfunction",
    "date_created": "2023-11-09T14:45:25.000",
    "date_modified": "2023-11-09T14:45:26.000",
    "request_status": "Pending",
    "responsible_agency": "Department of Public Works",
    "final_address": "SHARON DR & MARCIA AVE",
    "address_councildis": "A",
    "status": "Assigned to Contractor",
    "contractor": "Legacy Professional Services",
    "rowid": "1049175",
    "final_x": "3664818.2",
    "final_y": "547126.58",
    "longitude": "-90.12022393209543",
    "latitude": "29.9989045203414",
    "geocoded_column": {
      "latitude": "29.9989045203414",
      "longitude": "-90.12022393209543"
    }
  },
  {
    "service_request": "2023-1049174",
    "request_type": "Roads/Drainage",
    "request_reason": "Damaged Sidewalk",
    "date_created": "2023-11-09T14:44:31.000",
    "date_modified": "2023-11-09T14:44:32.000",
    "request_status": "Pending",
    "responsible_agency": "Department of Public Works",
    "final_address": "1515 Dumaine St",
    "address_councildis": "C",
    "status": "Pending",
    "rowid": "1049174",
    "final_x": "3680674.88603",
    "final_y": "534874.777926",
    "longitude": "-90.070558990941",
    "latitude": "29.964745207506184",
    "geocoded_column": {
      "latitude": "29.964745207506184",
      "longitude": "-90.070558990941"
    }
  },
  {
    "service_request": "2023-1049173",
    "request_type": "Roads/Drainage",
    "request_reason": "Debris in Roadway",
    "date_created": "2023-11-09T14:38:03.000",
    "date_modified": "2023-11-09T14:38:03.000",
    "request_status": "Pending",
    "responsible_agency": "Department of Public Works",
    "final_address": "4500 Viola St",
    "address_councildis": "E",
    "status": "Pending",
    "rowid": "1049173",
    "final_x": "3704045.79703",
    "final_y": "553537.868951",
    "longitude": "-89.99606797508197",
    "latitude": "30.01533286702284",
    "geocoded_column": {
      "latitude": "30.01533286702284",
      "longitude": "-89.99606797508197"
    }
  },
  {
    "service_request": "2023-1049172",
    "request_type": "Traffic Signals/Signs/Striping/Streetlights",
    "request_reason": "Street Light Outage/Malfunction",
    "date_created": "2023-11-09T14:37:44.000",
    "date_modified": "2023-11-09T14:37:45.000",
    "request_status": "Pending",
    "responsible_agency": "Department of Public Works",
    "final_address": "2000 BLK Broadway St",
    "address_councildis": "A",
    "status": "Assigned to Contractor",
    "contractor": "Legacy Professional Services",
    "rowid": "1049172",
    "final_x": "3665835.08398",
    "final_y": "529003.27938",
    "longitude": "-90.1176189992121",
    "latitude": "29.949041846888985",
    "geocoded_column": {
      "latitude": "29.949041846888985",
      "longitude": "-90.1176189992121"
    }
  },
  {
    "service_request": "2023-1049171",
    "request_type": "Traffic Signals/Signs/Striping/Streetlights",
    "request_reason": "Street Light Outage/Malfunction",
    "date_created": "2023-11-09T14:36:52.000",
    "date_modified": "2023-11-09T14:36:53.000",
    "request_status": "Pending",
    "responsible_agency": "Department of Public Works",
    "final_address": "2000 BLK Broadway St",
    "address_councildis": "A",
    "status": "Assigned to Contractor",
    "contractor": "Legacy Professional Services",
    "rowid": "1049171",
    "final_x": "3665835.08398",
    "final_y": "529003.27938",
    "longitude": "-90.1176189992121",
    "latitude": "29.949041846888985",
    "geocoded_column": {
      "latitude": "29.949041846888985",
      "longitude": "-90.1176189992121"
    }
  },
  {
    "service_request": "2023-1049170",
    "request_type": "Trash/Recycling",
    "request_reason": "Replace Trash Cart",
    "date_created": "2023-11-09T14:36:36.000",
    "date_modified": "2023-11-09T14:36:37.000",
    "request_status": "Pending",
    "responsible_agency": "Department of Sanitation",
    "final_address": "4421 Elba St",
    "address_councildis": "B",
    "status": "Assigned to Contractor",
    "contractor": "Richards Disposal",
    "rowid": "1049170",
    "final_x": "3669663.47572",
    "final_y": "530512.32653",
    "longitude": "-90.10548000642322",
    "latitude": "29.95307898953855",
    "geocoded_column": {
      "latitude": "29.95307898953855",
      "longitude": "-90.10548000642322"
    }
  },
  {
    "service_request": "2023-1049169",
    "request_type": "Trash/Recycling",
    "request_reason": "Repair Recycling Cart",
    "date_created": "2023-11-09T14:36:02.000",
    "date_modified": "2023-11-09T14:36:02.000",
    "request_status": "Pending",
    "responsible_agency": "Department of Sanitation",
    "final_address": "4421 Elba St",
    "address_councildis": "B",
    "status": "Pending",
    "rowid": "1049169",
    "final_x": "3669663.47572",
    "final_y": "530512.32653",
    "longitude": "-90.10548000642322",
    "latitude": "29.95307898953855",
    "geocoded_column": {
      "latitude": "29.95307898953855",
      "longitude": "-90.10548000642322"
    }
  },
  {
    "service_request": "2023-1049168",
    "request_type": "Traffic Signals/Signs/Striping/Streetlights",
    "request_reason": "Street Light Outage/Malfunction",
    "date_created": "2023-11-09T14:35:27.000",
    "date_modified": "2023-11-09T14:35:28.000",
    "request_status": "Pending",
    "responsible_agency": "Department of Public Works",
    "final_address": "2000 BLK Broadway St",
    "address_councildis": "A",
    "status": "Assigned to Contractor",
    "contractor": "Legacy Professional Services",
    "rowid": "1049168",
    "final_x": "3665835.08398",
    "final_y": "529003.27938",
    "longitude": "-90.1176189992121",
    "latitude": "29.949041846888985",
    "geocoded_column": {
      "latitude": "29.949041846888985",
      "longitude": "-90.1176189992121"
    }
  },
  {
    "service_request": "2023-1049166",
    "request_type": "Traffic Signals/Signs/Striping/Streetlights",
    "request_reason": "Street Light Outage/Malfunction",
    "date_created": "2023-11-09T14:33:33.000",
    "date_modified": "2023-11-09T14:33:34.000",
    "request_status": "Pending",
    "responsible_agency": "Department of Public Works",
    "final_address": "3000 BLK Broadway St",
    "address_councildis": "B",
    "status": "Assigned to Contractor",
    "contractor": "Legacy Professional Services",
    "rowid": "1049166",
    "final_x": "3667810.74144",
    "final_y": "532001.111638",
    "longitude": "-90.1112800161932",
    "latitude": "29.957227120962788",
    "geocoded_column": {
      "latitude": "29.957227120962788",
      "longitude": "-90.1112800161932"
    }
  },
  {
    "service_request": "2023-1049165",
    "request_type": "Traffic Signals/Signs/Striping/Streetlights",
    "request_reason": "Street Light Outage/Malfunction",
    "date_created": "2023-11-09T14:32:14.000",
    "date_modified": "2023-11-09T14:32:15.000",
    "request_status": "Pending",
    "responsible_agency": "Department of Public Works",
    "final_address": "2000 BLK Broadway St",
    "address_councildis": "A",
    "status": "Assigned to Contractor",
    "contractor": "Legacy Professional Services",
    "rowid": "1049165",
    "final_x": "3665835.08398",
    "final_y": "529003.27938",
    "longitude": "-90.1176189992121",
    "latitude": "29.949041846888985",
    "geocoded_column": {
      "latitude": "29.949041846888985",
      "longitude": "-90.1176189992121"
    }
  },
  {
    "service_request": "2023-1049164",
    "request_type": "Traffic Signals/Signs/Striping/Streetlights",
    "request_reason": "Street Light Outage/Malfunction",
    "date_created": "2023-11-09T14:30:23.000",
    "date_modified": "2023-11-09T14:30:24.000",
    "request_status": "Pending",
    "responsible_agency": "Department of Public Works",
    "final_address": "1900 BLK Broadway St",
    "address_councildis": "A",
    "status": "Assigned to Contractor",
    "contractor": "Legacy Professional Services",
    "rowid": "1049164",
    "final_x": "3665661.96818",
    "final_y": "528691.045752",
    "longitude": "-90.11817605840031",
    "latitude": "29.948188354661863",
    "geocoded_column": {
      "latitude": "29.948188354661863",
      "longitude": "-90.11817605840031"
    }
  },
  {
    "service_request": "2023-1049163",
    "request_type": "Traffic Signals/Signs/Striping/Streetlights",
    "request_reason": "Street Light Outage/Malfunction",
    "date_created": "2023-11-09T14:28:57.000",
    "date_modified": "2023-11-09T14:28:57.000",
    "request_status": "Pending",
    "responsible_agency": "Department of Public Works",
    "final_address": "1840 Broadway St",
    "address_councildis": "A",
    "status": "Assigned to Contractor",
    "contractor": "Legacy Professional Services",
    "rowid": "1049163",
    "final_x": "3665480.36692",
    "final_y": "528549.099904",
    "longitude": "-90.11875420081938",
    "latitude": "29.94780334370108",
    "geocoded_column": {
      "latitude": "29.94780334370108",
      "longitude": "-90.11875420081938"
    }
  },
  {
    "service_request": "2023-1049162",
    "request_type": "Traffic Signals/Signs/Striping/Streetlights",
    "request_reason": "Street Light Outage/Malfunction",
    "date_created": "2023-11-09T14:26:11.000",
    "date_modified": "2023-11-09T14:26:12.000",
    "request_status": "Pending",
    "responsible_agency": "Department of Public Works",
    "final_address": "1834 Broadway St",
    "address_councildis": "A",
    "status": "Assigned to Contractor",
    "contractor": "Legacy Professional Services",
    "rowid": "1049162",
    "final_x": "3665456.008",
    "final_y": "528520.851968",
    "longitude": "-90.118832057248",
    "latitude": "29.947726380948694",
    "geocoded_column": {
      "latitude": "29.947726380948694",
      "longitude": "-90.118832057248"
    }
  },
  {
    "service_request": "2023-1049161",
    "request_type": "Trash/Recycling",
    "request_reason": "Repair Recycling Cart",
    "date_created": "2023-11-09T14:24:27.000",
    "date_modified": "2023-11-09T14:24:27.000",
    "request_status": "Pending",
    "responsible_agency": "Department of Sanitation",
    "final_address": "2460 N Rampart St",
    "address_councildis": "C",
    "status": "Pending",
    "rowid": "1049161",
    "final_x": "3686348.36412",
    "final_y": "536018.401287",
    "longitude": "-90.05260220229154",
    "latitude": "29.967716633660633",
    "geocoded_column": {
      "latitude": "29.967716633660633",
      "longitude": "-90.05260220229154"
    }
  },
  {
    "service_request": "2023-1049160",
    "request_type": "Traffic Signals/Signs/Striping/Streetlights",
    "request_reason": "Street Light Outage/Malfunction",
    "date_created": "2023-11-09T14:24:23.000",
    "date_modified": "2023-11-09T14:24:24.000",
    "request_status": "Pending",
    "responsible_agency": "Department of Public Works",
    "final_address": "1834 Broadway St",
    "address_councildis": "A",
    "status": "Assigned to Contractor",
    "contractor": "Legacy Professional Services",
    "rowid": "1049160",
    "final_x": "3665456.008",
    "final_y": "528520.851968",
    "longitude": "-90.118832057248",
    "latitude": "29.947726380948694",
    "geocoded_column": {
      "latitude": "29.947726380948694",
      "longitude": "-90.118832057248"
    }
  },
  {
    "service_request": "2023-1049159",
    "request_type": "Abandoned Vehicles",
    "request_reason": "Abandoned/Junk Vehicles",
    "date_created": "2023-11-09T14:23:49.000",
    "date_modified": "2023-11-09T14:23:49.000",
    "request_status": "Pending",
    "responsible_agency": "Department of Public Works",
    "final_address": "2428 Rousseau St",
    "address_councildis": "B",
    "status": "Pending",
    "rowid": "1049159",
    "final_x": "3679135.48879",
    "final_y": "519459.648887",
    "longitude": "-90.07595448942723",
    "latitude": "29.922405288840064",
    "geocoded_column": {
      "latitude": "29.922405288840064",
      "longitude": "-90.07595448942723"
    }
  },
  {
    "service_request": "2023-1049157",
    "request_type": "Property Maintenance",
    "request_reason": "Property Maintenance",
    "date_created": "2023-11-09T14:23:02.000",
    "date_modified": "2023-11-09T14:23:02.000",
    "request_status": "Pending",
    "responsible_agency": "Department of Code Enforcement",
    "final_address": "1929 Julia St",
    "address_councildis": "B",
    "status": "Pending",
    "rowid": "1049157",
    "final_x": "3675479.57627",
    "final_y": "530655.138306",
    "longitude": "-90.08711037488403",
    "latitude": "29.953299023038806",
    "geocoded_column": {
      "latitude": "29.953299023038806",
      "longitude": "-90.08711037488403"
    }
  },
  {
    "service_request": "2023-1049156",
    "request_type": "Trash/Recycling",
    "request_reason": "Order Trash Cart",
    "date_created": "2023-11-09T14:22:51.000",
    "date_modified": "2023-11-09T14:22:51.000",
    "request_status": "Pending",
    "responsible_agency": "Department of Sanitation",
    "final_address": "2468 N Rampart St",
    "address_councildis": "C",
    "status": "Assigned to Contractor",
    "contractor": "IV Waste",
    "rowid": "1049156",
    "final_x": "3686398.71222",
    "final_y": "536025.156679",
    "longitude": "-90.05244296351907",
    "latitude": "29.967733661168083",
    "geocoded_column": {
      "latitude": "29.967733661168083",
      "longitude": "-90.05244296351907"
    }
  },
  {
    "service_request": "2023-1049155",
    "request_type": "Traffic Signals/Signs/Striping/Streetlights",
    "request_reason": "Street Light Outage/Malfunction",
    "date_created": "2023-11-09T14:22:20.000",
    "date_modified": "2023-11-09T14:22:21.000",
    "request_status": "Pending",
    "responsible_agency": "Department of Public Works",
    "final_address": "1834 Broadway St",
    "address_councildis": "A",
    "status": "Assigned to Contractor",
    "contractor": "Legacy Professional Services",
    "rowid": "1049155",
    "final_x": "3665456.008",
    "final_y": "528520.851968",
    "longitude": "-90.118832057248",
    "latitude": "29.947726380948694",
    "geocoded_column": {
      "latitude": "29.947726380948694",
      "longitude": "-90.118832057248"
    }
  },
  {
    "service_request": "2023-1049154",
    "request_type": "Property Maintenance",
    "request_reason": "Property Maintenance",
    "date_created": "2023-11-09T14:20:56.000",
    "date_modified": "2023-11-09T14:20:56.000",
    "request_status": "Pending",
    "responsible_agency": "Department of Code Enforcement",
    "final_address": "2131 Tennessee St",
    "address_councildis": "E",
    "status": "Pending",
    "rowid": "1049154",
    "final_x": "3696851.84439",
    "final_y": "538318.668681",
    "longitude": "-90.01934880996349",
    "latitude": "29.973714556457836",
    "geocoded_column": {
      "latitude": "29.973714556457836",
      "longitude": "-90.01934880996349"
    }
  },
  {
    "service_request": "2023-1049153",
    "request_type": "Traffic Signals/Signs/Striping/Streetlights",
    "request_reason": "Street Light Outage/Malfunction",
    "date_created": "2023-11-09T14:20:08.000",
    "date_modified": "2023-11-09T14:20:08.000",
    "request_status": "Pending",
    "responsible_agency": "Department of Public Works",
    "final_address": "1834 Broadway St",
    "address_councildis": "A",
    "status": "Assigned to Contractor",
    "contractor": "Legacy Professional Services",
    "rowid": "1049153",
    "final_x": "3665456.008",
    "final_y": "528520.851968",
    "longitude": "-90.118832057248",
    "latitude": "29.947726380948694",
    "geocoded_column": {
      "latitude": "29.947726380948694",
      "longitude": "-90.118832057248"
    }
  },
  {
    "service_request": "2023-1049148",
    "request_type": "Roads/Drainage",
    "request_reason": "Catch Basin - Clogged",
    "date_created": "2023-11-09T14:08:40.000",
    "date_modified": "2023-11-09T14:08:40.000",
    "request_status": "Pending",
    "responsible_agency": "Department of Public Works",
    "final_address": "0 BLK Versailles Blvd",
    "address_councildis": "B",
    "status": "Pending",
    "rowid": "1049148",
    "final_x": "3668013.94445",
    "final_y": "530904.032468",
    "longitude": "-90.11067532587455",
    "latitude": "29.954204552564242",
    "geocoded_column": {
      "latitude": "29.954204552564242",
      "longitude": "-90.11067532587455"
    }
  },
  {
    "service_request": "2023-1049147",
    "request_type": "Trash/Recycling",
    "request_reason": "Illegal Dumping",
    "date_created": "2023-11-09T14:08:29.000",
    "date_modified": "2023-11-09T14:08:29.000",
    "request_status": "Pending",
    "responsible_agency": "Department of Sanitation",
    "final_address": "828 N Gayoso St",
    "address_councildis": "A",
    "status": "Pending",
    "rowid": "1049147",
    "final_x": "3676108.93595",
    "final_y": "538139.744009",
    "longitude": "-90.08486562675591",
    "latitude": "29.97386032456357",
    "geocoded_column": {
      "latitude": "29.97386032456357",
      "longitude": "-90.08486562675591"
    }
  },
  {
    "service_request": "2023-1049146",
    "request_type": "Abandoned Vehicles",
    "request_reason": "Abandoned/Junk Vehicles",
    "date_created": "2023-11-09T14:04:41.000",
    "date_modified": "2023-11-09T14:04:41.000",
    "request_status": "Pending",
    "responsible_agency": "Department of Public Works",
    "final_address": "2925 St Ann St",
    "address_councildis": "A",
    "status": "Pending",
    "rowid": "1049146",
    "final_x": "3676071.67643",
    "final_y": "537925.587081",
    "longitude": "-90.08499066926001",
    "latitude": "29.97327258239066",
    "geocoded_column": {
      "latitude": "29.97327258239066",
      "longitude": "-90.08499066926001"
    }
  },
  {
    "service_request": "2023-1049145",
    "request_type": "Trash/Recycling",
    "request_reason": "Request a Large Item Pick Up",
    "date_created": "2023-11-09T14:03:37.000",
    "date_modified": "2023-11-09T14:03:37.000",
    "request_status": "Pending",
    "responsible_agency": "Department of Sanitation",
    "final_address": "5242 Michoud Blvd",
    "address_councildis": "E",
    "status": "Assigned to Contractor",
    "contractor": "Waste Pro",
    "rowid": "1049145",
    "final_x": "3724690.9166",
    "final_y": "562703.125216",
    "longitude": "-89.93048543016496",
    "latitude": "30.039854936404147",
    "geocoded_column": {
      "latitude": "30.039854936404147",
      "longitude": "-89.93048543016496"
    }
  },
  {
    "service_request": "2023-1049144",
    "request_type": "Trash/Recycling",
    "request_reason": "MIssed Recycling Pick-Up",
    "date_created": "2023-11-09T14:01:54.000",
    "date_modified": "2023-11-09T14:01:54.000",
    "request_status": "Pending",
    "responsible_agency": "Department of Sanitation",
    "final_address": "1706 S Rampart St",
    "address_councildis": "B",
    "status": "Assigned to Contractor",
    "contractor": "Richards Disposal",
    "rowid": "1049144",
    "final_x": "3677420.85685",
    "final_y": "525843.496829",
    "longitude": "-90.08114667319602",
    "latitude": "29.940010410237925",
    "geocoded_column": {
      "latitude": "29.940010410237925",
      "longitude": "-90.08114667319602"
    }
  },
  {
    "service_request": "2023-1049143",
    "request_type": "Parks & Parkways",
    "request_reason": "Request Tree Service (Right of Way/Public Property)",
    "date_created": "2023-11-09T14:01:26.000",
    "date_modified": "2023-11-09T14:01:26.000",
    "request_status": "Pending",
    "responsible_agency": "Department of Parks & Parkway",
    "final_address": "5508 St Anthony Ave",
    "address_councildis": "D",
    "status": "Pending",
    "rowid": "1049143",
    "final_x": "3682044.04392",
    "final_y": "553120.266391",
    "longitude": "-90.06559781224588",
    "latitude": "30.01487229521824",
    "geocoded_column": {
      "latitude": "30.01487229521824",
      "longitude": "-90.06559781224588"
    }
  },
  {
    "service_request": "2023-1049142",
    "request_type": "Trash/Recycling",
    "request_reason": "Missed Trash Pick-Up",
    "date_created": "2023-11-09T14:00:59.000",
    "date_modified": "2023-11-09T14:01:00.000",
    "request_status": "Pending",
    "responsible_agency": "Department of Sanitation",
    "final_address": "5434 N Tonti St",
    "address_councildis": "E",
    "status": "Assigned to Contractor",
    "contractor": "Waste Pro",
    "rowid": "1049142",
    "final_x": "3698722.59306",
    "final_y": "538343.385609",
    "longitude": "-90.01343971726627",
    "latitude": "29.973723399103985",
    "geocoded_column": {
      "latitude": "29.973723399103985",
      "longitude": "-90.01343971726627"
    }
  },
  {
    "service_request": "2023-1049141",
    "request_type": "Parks & Parkways",
    "request_reason": "Request Tree Service (Right of Way/Public Property)",
    "date_created": "2023-11-09T14:00:45.000",
    "date_modified": "2023-11-09T14:00:45.000",
    "request_status": "Pending",
    "responsible_agency": "Department of Parks & Parkway",
    "final_address": "ESPLANADE AVE & N CLAIBORNE AVE",
    "address_councildis": "D",
    "status": "Pending",
    "rowid": "1049141",
    "final_x": "3681231.3",
    "final_y": "536639.18",
    "longitude": "-90.06874038104324",
    "latitude": "29.969579834804723",
    "geocoded_column": {
      "latitude": "29.969579834804723",
      "longitude": "-90.06874038104324"
    }
  },
  {
    "service_request": "2023-1049140",
    "request_type": "Parks & Parkways",
    "request_reason": "Request Tree Service (Right of Way/Public Property)",
    "date_created": "2023-11-09T13:56:37.000",
    "date_modified": "2023-11-09T13:56:38.000",
    "request_status": "Pending",
    "responsible_agency": "Department of Parks & Parkway",
    "final_address": "WISNER BLVD & ROBERT E LEE BLVD",
    "address_councildis": "A",
    "status": "Pending",
    "rowid": "1049140",
    "final_x": "3676295.4",
    "final_y": "555150.78",
    "longitude": "-90.08369081598791",
    "latitude": "30.020629105491057",
    "geocoded_column": {
      "latitude": "30.020629105491057",
      "longitude": "-90.08369081598791"
    }
  },
  {
    "service_request": "2023-1049139",
    "request_type": "Trash/Recycling",
    "request_reason": "Repair Trash Cart",
    "date_created": "2023-11-09T13:56:25.000",
    "date_modified": "2023-11-09T13:58:20.000",
    "request_status": "Pending",
    "responsible_agency": "Department of Sanitation",
    "final_address": "5325 Urquhart St",
    "address_councildis": "E",
    "status": "Assigned to Contractor",
    "contractor": "Waste Pro",
    "rowid": "1049139",
    "final_x": "3697229.86237",
    "final_y": "534769.337158",
    "longitude": "-90.01828360278002",
    "latitude": "29.96394323947354",
    "geocoded_column": {
      "latitude": "29.96394323947354",
      "longitude": "-90.01828360278002"
    }
  },
  {
    "service_request": "2023-1049138",
    "request_type": "Traffic Signals/Signs/Striping/Streetlights",
    "request_reason": "Traffic Sign Missing/Damaged",
    "date_created": "2023-11-09T13:56:09.000",
    "date_modified": "2023-11-09T13:56:09.000",
    "request_status": "Pending",
    "responsible_agency": "Department of Public Works",
    "final_address": "TOURO ST & ROYAL ST",
    "address_councildis": "C",
    "status": "Pending",
    "rowid": "1049138",
    "final_x": "3684352.0",
    "final_y": "534809.48",
    "longitude": "-90.05894922445478",
    "latitude": "29.964453722190264",
    "geocoded_column": {
      "latitude": "29.964453722190264",
      "longitude": "-90.05894922445478"
    }
  },
  {
    "service_request": "2023-1049137",
    "request_type": "Trash/Recycling",
    "request_reason": "Request a Large Item Pick Up",
    "date_created": "2023-11-09T13:53:58.000",
    "date_modified": "2023-11-09T13:53:58.000",
    "request_status": "Pending",
    "responsible_agency": "Department of Sanitation",
    "final_address": "1225 Independence St",
    "address_councildis": "D",
    "status": "Assigned to Contractor",
    "contractor": "IV Waste",
    "rowid": "1049137",
    "final_x": "3691124.94064",
    "final_y": "536071.158983",
    "longitude": "-90.0375158174397",
    "latitude": "29.96771403330538",
    "geocoded_column": {
      "latitude": "29.96771403330538",
      "longitude": "-90.0375158174397"
    }
  },
  {
    "service_request": "2023-1049136",
    "request_type": "Trash/Recycling",
    "request_reason": "Return Trash Cart",
    "date_created": "2023-11-09T13:49:46.000",
    "date_modified": "2023-11-09T13:49:47.000",
    "request_status": "Pending",
    "responsible_agency": "Department of Sanitation",
    "final_address": "1817 Martin Luther King, Jr. Blvd",
    "address_councildis": "B",
    "status": "Assigned to Contractor",
    "contractor": "Richards Disposal",
    "rowid": "1049136",
    "final_x": "3678314.3069",
    "final_y": "526150.96915",
    "longitude": "-90.07831528431124",
    "latitude": "29.940828980198035",
    "geocoded_column": {
      "latitude": "29.940828980198035",
      "longitude": "-90.07831528431124"
    }
  },
  {
    "service_request": "2023-1049135",
    "request_type": "Trash/Recycling",
    "request_reason": "Request a Large Item Pick Up",
    "date_created": "2023-11-09T13:47:50.000",
    "date_modified": "2023-11-09T13:47:51.000",
    "request_status": "Pending",
    "responsible_agency": "Department of Sanitation",
    "final_address": "2973 Potomac St",
    "address_councildis": "C",
    "status": "Assigned to Contractor",
    "contractor": "Richards Disposal",
    "rowid": "1049135",
    "final_x": "3693310.81072",
    "final_y": "518954.553911",
    "longitude": "-90.03122707525212",
    "latitude": "29.920581120684854",
    "geocoded_column": {
      "latitude": "29.920581120684854",
      "longitude": "-90.03122707525212"
    }
  },
  {
    "service_request": "2023-1049134",
    "request_type": "Property Maintenance",
    "request_reason": "Property Maintenance",
    "date_created": "2023-11-09T13:42:26.000",
    "date_modified": "2023-11-09T13:42:26.000",
    "request_status": "Pending",
    "responsible_agency": "Department of Code Enforcement",
    "final_address": "719 St Ann St",
    "address_councildis": "C",
    "status": "Pending",
    "rowid": "1049134",
    "final_x": "3682665.41039",
    "final_y": "532885.825284",
    "longitude": "-90.06434261604952",
    "latitude": "29.959215800799633",
    "geocoded_column": {
      "latitude": "29.959215800799633",
      "longitude": "-90.06434261604952"
    }
  },
  {
    "service_request": "2023-1049133",
    "request_type": "Trash/Recycling",
    "request_reason": "Replace Trash Cart",
    "date_created": "2023-11-09T13:40:29.000",
    "date_modified": "2023-11-09T13:40:30.000",
    "request_status": "Pending",
    "responsible_agency": "Department of Sanitation",
    "final_address": "3516 Second St",
    "address_councildis": "B",
    "status": "Assigned to Contractor",
    "contractor": "Richards Disposal",
    "rowid": "1049133",
    "final_x": "3672857.52769",
    "final_y": "528779.730304",
    "longitude": "-90.09545366767107",
    "latitude": "29.948220423436105",
    "geocoded_column": {
      "latitude": "29.948220423436105",
      "longitude": "-90.09545366767107"
    }
  },
  {
    "service_request": "2023-1049132",
    "request_type": "Trash/Recycling",
    "request_reason": "MIssed Recycling Pick-Up",
    "date_created": "2023-11-09T13:40:18.000",
    "date_modified": "2023-11-09T13:40:18.000",
    "request_status": "Pending",
    "responsible_agency": "Department of Sanitation",
    "final_address": "6421 N Miro St",
    "address_councildis": "E",
    "status": "Assigned to Contractor",
    "contractor": "Waste Pro",
    "rowid": "1049132",
    "final_x": "3702179.46212",
    "final_y": "536742.532552",
    "longitude": "-90.00258097073336",
    "latitude": "29.969211691400773",
    "geocoded_column": {
      "latitude": "29.969211691400773",
      "longitude": "-90.00258097073336"
    }
  },
  {
    "service_request": "2023-1049131",
    "request_type": "Trash/Recycling",
    "request_reason": "Return Trash Cart",
    "date_created": "2023-11-09T13:35:49.000",
    "date_modified": "2023-11-09T13:35:50.000",
    "request_status": "Pending",
    "responsible_agency": "Department of Sanitation",
    "final_address": "4519 Loyola Ave",
    "address_councildis": "B",
    "status": "Assigned to Contractor",
    "contractor": "Richards Disposal",
    "rowid": "1049131",
    "final_x": "3670070.73127",
    "final_y": "522980.838523",
    "longitude": "-90.10444911456405",
    "latitude": "29.93235783810154",
    "geocoded_column": {
      "latitude": "29.93235783810154",
      "longitude": "-90.10444911456405"
    }
  },
  {
    "service_request": "2023-1049130",
    "request_type": "Abandoned Vehicles",
    "request_reason": "Abandoned/Junk Vehicles",
    "date_created": "2023-11-09T13:33:39.000",
    "date_modified": "2023-11-09T13:36:38.000",
    "request_status": "Pending",
    "responsible_agency": "Department of Public Works",
    "final_address": "SHALIMAR DR & DREUX AVE",
    "address_councildis": "D",
    "status": "Pending",
    "rowid": "1049130",
    "final_x": "3697191.7",
    "final_y": "553928.48",
    "longitude": "-90.01770943943961",
    "latitude": "30.016625066280792",
    "geocoded_column": {
      "latitude": "30.016625066280792",
      "longitude": "-90.01770943943961"
    }
  },
  {
    "service_request": "2023-1049129",
    "request_type": "Trash/Recycling",
    "request_reason": "MIssed Recycling Pick-Up",
    "date_created": "2023-11-09T13:32:12.000",
    "date_modified": "2023-11-09T16:00:13.000",
    "case_close_date": "2023-11-09T10:00:13.000",
    "request_status": "Closed",
    "responsible_agency": "Department of Sanitation",
    "final_address": "2222 Ap Tureaud Ave",
    "address_councildis": "D",
    "status": "Invalid Request",
    "contractor": "IV Waste",
    "contractor_action": "Invalid Pick-Up",
    "rowid": "1049129",
    "final_x": "3681574.8294",
    "final_y": "540287.543563",
    "longitude": "-90.0675282052853",
    "latitude": "29.979601140716955",
    "geocoded_column": {
      "latitude": "29.979601140716955",
      "longitude": "-90.0675282052853"
    }
  },
  {
    "service_request": "2023-1049128",
    "request_type": "Traffic Signals/Signs/Striping/Streetlights",
    "request_reason": "Street Light Outage/Malfunction",
    "date_created": "2023-11-09T13:26:37.000",
    "date_modified": "2023-11-09T13:26:38.000",
    "request_status": "Pending",
    "responsible_agency": "Department of Public Works",
    "final_address": "1901 Congress St",
    "address_councildis": "D",
    "status": "Assigned to Contractor",
    "contractor": "Legacy Professional Services",
    "rowid": "1049128",
    "final_x": "3691511.62748",
    "final_y": "538599.865481",
    "longitude": "-90.03620425387365",
    "latitude": "29.97465505192304",
    "geocoded_column": {
      "latitude": "29.97465505192304",
      "longitude": "-90.03620425387365"
    }
  },
  {
    "service_request": "2023-1049127",
    "request_type": "Trash/Recycling",
    "request_reason": "Order Trash Cart",
    "date_created": "2023-11-09T13:24:25.000",
    "date_modified": "2023-11-09T13:24:26.000",
    "request_status": "Pending",
    "responsible_agency": "Department of Sanitation",
    "final_address": "6902 Salem Dr",
    "address_councildis": "E",
    "status": "Assigned to Contractor",
    "contractor": "Waste Pro",
    "rowid": "1049127",
    "final_x": "3706870.26359",
    "final_y": "560283.184285",
    "longitude": "-89.98689362325152",
    "latitude": "30.033788917854462",
    "geocoded_column": {
      "latitude": "30.033788917854462",
      "longitude": "-89.98689362325152"
    }
  },
  {
    "service_request": "2023-1049126",
    "request_type": "Trash/Recycling",
    "request_reason": "Illegal Dumping",
    "date_created": "2023-11-09T13:21:33.000",
    "date_modified": "2023-11-09T13:21:33.000",
    "request_status": "Pending",
    "responsible_agency": "Department of Sanitation",
    "final_address": "1801 Opelousas Ave",
    "address_councildis": "C",
    "status": "Pending",
    "rowid": "1049126",
    "final_x": "3690917.26044",
    "final_y": "528912.36928",
    "longitude": "-90.038427161804",
    "latitude": "29.94803630905356",
    "geocoded_column": {
      "latitude": "29.94803630905356",
      "longitude": "-90.038427161804"
    }
  },
  {
    "service_request": "2023-1049125",
    "request_type": "Trash/Recycling",
    "request_reason": "Missed Trash Pick-Up",
    "date_created": "2023-11-09T13:16:37.000",
    "date_modified": "2023-11-09T13:16:37.000",
    "request_status": "Pending",
    "responsible_agency": "Department of Sanitation",
    "final_address": "5800 BLK N Derbigny St",
    "address_councildis": "E",
    "status": "Assigned to Contractor",
    "contractor": "Waste Pro",
    "rowid": "1049125",
    "final_x": "3699595.5742",
    "final_y": "535739.254753",
    "longitude": "-90.01077759888219",
    "latitude": "29.96653529842471",
    "geocoded_column": {
      "latitude": "29.96653529842471",
      "longitude": "-90.01077759888219"
    }
  },
  {
    "service_request": "2023-1049124",
    "request_type": "Trash/Recycling",
    "request_reason": "Missed Trash Pick-Up",
    "date_created": "2023-11-09T13:13:37.000",
    "date_modified": "2023-11-09T13:13:37.000",
    "request_status": "Pending",
    "responsible_agency": "Department of Sanitation",
    "final_address": "2314 Delery St",
    "address_councildis": "E",
    "status": "Assigned to Contractor",
    "contractor": "Waste Pro",
    "rowid": "1049124",
    "final_x": "3702208.70065",
    "final_y": "537434.866696",
    "longitude": "-90.00246323893724",
    "latitude": "29.971114425544155",
    "geocoded_column": {
      "latitude": "29.971114425544155",
      "longitude": "-90.00246323893724"
    }
  },
  {
    "service_request": "2023-1049123",
    "request_type": "Roads/Drainage",
    "request_reason": "Street Subsidence (Sinking)",
    "date_created": "2023-11-09T13:06:56.000",
    "date_modified": "2023-11-09T13:06:56.000",
    "request_status": "Pending",
    "responsible_agency": "Department of Public Works",
    "final_address": "3633 Octavia St",
    "address_councildis": "A",
    "status": "Pending",
    "rowid": "1049123",
    "final_x": "3668716.73735",
    "final_y": "528904.409088",
    "longitude": "-90.10852367237463",
    "latitude": "29.948685603470977",
    "geocoded_column": {
      "latitude": "29.948685603470977",
      "longitude": "-90.10852367237463"
    }
  },
  {
    "service_request": "2023-1049122",
    "request_type": "Roads/Drainage",
    "request_reason": "Debris in Roadway",
    "date_created": "2023-11-09T13:05:14.000",
    "date_modified": "2023-11-09T13:05:14.000",
    "request_status": "Pending",
    "responsible_agency": "Department of Public Works",
    "final_address": "3633 Octavia St",
    "address_councildis": "A",
    "status": "Pending",
    "rowid": "1049122",
    "final_x": "3668716.73735",
    "final_y": "528904.409088",
    "longitude": "-90.10852367237463",
    "latitude": "29.948685603470977",
    "geocoded_column": {
      "latitude": "29.948685603470977",
      "longitude": "-90.10852367237463"
    }
  },
  {
    "service_request": "2023-1049121",
    "request_type": "Roads/Drainage",
    "request_reason": "Accessibility Ramps, Curbs and Sidewalk Repair",
    "date_created": "2023-11-09T13:04:10.000",
    "date_modified": "2023-11-09T13:04:10.000",
    "request_status": "Pending",
    "responsible_agency": "Department of Public Works",
    "final_address": "3633 Octavia St",
    "address_councildis": "A",
    "status": "Pending",
    "rowid": "1049121",
    "final_x": "3668716.73735",
    "final_y": "528904.409088",
    "longitude": "-90.10852367237463",
    "latitude": "29.948685603470977",
    "geocoded_column": {
      "latitude": "29.948685603470977",
      "longitude": "-90.10852367237463"
    }
  },
  {
    "service_request": "2023-1049120",
    "request_type": "Roads/Drainage",
    "request_reason": "Street Subsidence (Sinking)",
    "date_created": "2023-11-09T12:59:14.000",
    "date_modified": "2023-11-09T12:59:14.000",
    "request_status": "Pending",
    "responsible_agency": "Department of Public Works",
    "final_address": "3633 Octavia St",
    "address_councildis": "A",
    "status": "Pending",
    "rowid": "1049120",
    "final_x": "3668716.73735",
    "final_y": "528904.409088",
    "longitude": "-90.10852367237463",
    "latitude": "29.948685603470977",
    "geocoded_column": {
      "latitude": "29.948685603470977",
      "longitude": "-90.10852367237463"
    }
  },
  {
    "service_request": "2023-1049119",
    "request_type": "Traffic Signals/Signs/Striping/Streetlights",
    "request_reason": "Request for Stop Sign",
    "date_created": "2023-11-09T12:58:13.000",
    "date_modified": "2023-11-09T12:58:13.000",
    "request_status": "Pending",
    "responsible_agency": "Department of Public Works",
    "final_address": "3633 Octavia St",
    "address_councildis": "A",
    "status": "Pending",
    "rowid": "1049119",
    "final_x": "3668716.73735",
    "final_y": "528904.409088",
    "longitude": "-90.10852367237463",
    "latitude": "29.948685603470977",
    "geocoded_column": {
      "latitude": "29.948685603470977",
      "longitude": "-90.10852367237463"
    }
  },
  {
    "service_request": "2023-1049118",
    "request_type": "Roads/Drainage",
    "request_reason": "Catch Basin - Clogged",
    "date_created": "2023-11-09T12:56:57.000",
    "date_modified": "2023-11-09T12:56:57.000",
    "request_status": "Pending",
    "responsible_agency": "Department of Public Works",
    "final_address": "3633 Octavia St",
    "address_councildis": "A",
    "status": "Pending",
    "rowid": "1049118",
    "final_x": "3668716.73735",
    "final_y": "528904.409088",
    "longitude": "-90.10852367237463",
    "latitude": "29.948685603470977",
    "geocoded_column": {
      "latitude": "29.948685603470977",
      "longitude": "-90.10852367237463"
    }
  },
  {
    "service_request": "2023-1049117",
    "request_type": "Trash/Recycling",
    "request_reason": "Request a Large Item Pick Up",
    "date_created": "2023-11-09T12:55:09.000",
    "date_modified": "2023-11-09T12:55:10.000",
    "request_status": "Pending",
    "responsible_agency": "Department of Sanitation",
    "final_address": "2503 Delery St",
    "address_councildis": "E",
    "status": "Assigned to Contractor",
    "contractor": "Waste Pro",
    "rowid": "1049117",
    "final_x": "3702567.93866",
    "final_y": "537956.309321",
    "longitude": "-90.00130958174988",
    "latitude": "29.972536725455473",
    "geocoded_column": {
      "latitude": "29.972536725455473",
      "longitude": "-90.00130958174988"
    }
  },
  {
    "service_request": "2023-1049116",
    "request_type": "Parks & Parkways",
    "request_reason": "Request Tree Service (Right of Way/Public Property)",
    "date_created": "2023-11-09T12:54:23.000",
    "date_modified": "2023-11-09T12:54:23.000",
    "request_status": "Pending",
    "responsible_agency": "Department of Parks & Parkway",
    "final_address": "3633 Octavia St",
    "address_councildis": "A",
    "status": "Pending",
    "rowid": "1049116",
    "final_x": "3668716.73735",
    "final_y": "528904.409088",
    "longitude": "-90.10852367237463",
    "latitude": "29.948685603470977",
    "geocoded_column": {
      "latitude": "29.948685603470977",
      "longitude": "-90.10852367237463"
    }
  },
  {
    "service_request": "2023-1049115",
    "request_type": "Abandoned Vehicles",
    "request_reason": "Abandoned/Junk Vehicles",
    "date_created": "2023-11-09T12:52:47.000",
    "date_modified": "2023-11-09T12:52:47.000",
    "request_status": "Pending",
    "responsible_agency": "Department of Public Works",
    "final_address": "2639 Tupelo St",
    "address_councildis": "E",
    "status": "Pending",
    "rowid": "1049115",
    "final_x": "3701804.81335",
    "final_y": "538950.742218",
    "longitude": "-90.00368320739446",
    "latitude": "29.975295424928532",
    "geocoded_column": {
      "latitude": "29.975295424928532",
      "longitude": "-90.00368320739446"
    }
  },
  {
    "service_request": "2023-1049114",
    "request_type": "Trash/Recycling",
    "request_reason": "Missed Trash Pick-Up",
    "date_created": "2023-11-09T12:52:26.000",
    "date_modified": "2023-11-09T14:10:50.000",
    "case_close_date": "2023-11-09T08:10:50.000",
    "request_status": "Closed",
    "responsible_agency": "Department of Sanitation",
    "final_address": "1217 Elysian Fields Ave",
    "address_councildis": "C",
    "status": "Invalid Request",
    "contractor": "IV Waste",
    "contractor_action": "Invalid Pick-Up",
    "rowid": "1049114",
    "final_x": "3685083.14127",
    "final_y": "536823.7666",
    "longitude": "-90.0565694629023",
    "latitude": "29.96996993266262",
    "geocoded_column": {
      "latitude": "29.96996993266262",
      "longitude": "-90.0565694629023"
    }
  },
  {
    "service_request": "2023-1049113",
    "request_type": "Trash/Recycling",
    "request_reason": "Request a Large Item Pick Up",
    "date_created": "2023-11-09T12:50:42.000",
    "date_modified": "2023-11-09T12:50:42.000",
    "request_status": "Pending",
    "responsible_agency": "Department of Sanitation",
    "final_address": "8324 Nelson St",
    "address_councildis": "A",
    "status": "Assigned to Contractor",
    "contractor": "Richards Disposal",
    "rowid": "1049113",
    "final_x": "3664400.46784",
    "final_y": "532449.336644",
    "longitude": "-90.12203370420484",
    "latitude": "29.958559161054875",
    "geocoded_column": {
      "latitude": "29.958559161054875",
      "longitude": "-90.12203370420484"
    }
  },
  {
    "service_request": "2023-1049112",
    "request_type": "Trash/Recycling",
    "request_reason": "MIssed Recycling Pick-Up",
    "date_created": "2023-11-09T12:49:37.000",
    "date_modified": "2023-11-09T12:49:37.000",
    "request_status": "Pending",
    "responsible_agency": "Department of Sanitation",
    "final_address": "3234 Jackson Ave",
    "address_councildis": "B",
    "status": "Assigned to Contractor",
    "contractor": "Richards Disposal",
    "rowid": "1049112",
    "final_x": "3673723.64718",
    "final_y": "528705.350528",
    "longitude": "-90.09272151178472",
    "latitude": "29.947990146798244",
    "geocoded_column": {
      "latitude": "29.947990146798244",
      "longitude": "-90.09272151178472"
    }
  },
  {
    "service_request": "2023-1049111",
    "request_type": "Trash/Recycling",
    "request_reason": "Order Trash Cart",
    "date_created": "2023-11-09T12:44:04.000",
    "date_modified": "2023-11-09T12:44:05.000",
    "request_status": "Pending",
    "responsible_agency": "Department of Sanitation",
    "final_address": "1216 Bordeaux St",
    "address_councildis": "B",
    "status": "Assigned to Contractor",
    "contractor": "Richards Disposal",
    "rowid": "1049111",
    "final_x": "3669441.98791",
    "final_y": "519829.994808",
    "longitude": "-90.10654050202348",
    "latitude": "29.923712549219815",
    "geocoded_column": {
      "latitude": "29.923712549219815",
      "longitude": "-90.10654050202348"
    }
  },
  {
    "service_request": "2023-1049110",
    "request_type": "Trash/Recycling",
    "request_reason": "Damaged Caused By Contractor",
    "date_created": "2023-11-09T12:42:38.000",
    "date_modified": "2023-11-09T12:42:39.000",
    "request_status": "Pending",
    "responsible_agency": "Department of Sanitation",
    "final_address": "1436 Toledano St",
    "address_councildis": "B",
    "status": "Assigned to Contractor",
    "contractor": "Richards Disposal",
    "rowid": "1049110",
    "final_x": "3674808.71105",
    "final_y": "521014.225401",
    "longitude": "-90.08955911900198",
    "latitude": "29.926809717799667",
    "geocoded_column": {
      "latitude": "29.926809717799667",
      "longitude": "-90.08955911900198"
    }
  },
  {
    "service_request": "2023-1049109",
    "request_type": "Trash/Recycling",
    "request_reason": "Replace Trash Cart",
    "date_created": "2023-11-09T12:41:29.000",
    "date_modified": "2023-11-09T12:41:30.000",
    "request_status": "Pending",
    "responsible_agency": "Department of Sanitation",
    "final_address": "1517 Lowerline St",
    "address_councildis": "A",
    "status": "Assigned to Contractor",
    "contractor": "Richards Disposal",
    "rowid": "1049109",
    "final_x": "3664411.24576",
    "final_y": "527756.786943",
    "longitude": "-90.12215629804727",
    "latitude": "29.945655855532827",
    "geocoded_column": {
      "latitude": "29.945655855532827",
      "longitude": "-90.12215629804727"
    }
  },
  {
    "service_request": "2023-1049108",
    "request_type": "Trash/Recycling",
    "request_reason": "Dead Animal Pick Up",
    "date_created": "2023-11-09T12:36:53.000",
    "date_modified": "2023-11-09T12:36:54.000",
    "request_status": "Pending",
    "responsible_agency": "Department of Sanitation",
    "final_address": "BARTHOLOMEW ST & N ROBERTSON ST",
    "address_councildis": "D",
    "status": "Assigned to Contractor",
    "contractor": "IV Waste",
    "rowid": "1049108",
    "final_x": "3692169.4",
    "final_y": "536800.48",
    "longitude": "-90.03419128662951",
    "latitude": "29.969686889120496",
    "geocoded_column": {
      "latitude": "29.969686889120496",
      "longitude": "-90.03419128662951"
    }
  },
  {
    "service_request": "2023-1049107",
    "request_type": "Trash/Recycling",
    "request_reason": "MIssed Recycling Pick-Up",
    "date_created": "2023-11-09T12:29:36.000",
    "date_modified": "2023-11-09T15:59:44.000",
    "case_close_date": "2023-11-09T09:59:44.000",
    "request_status": "Closed",
    "responsible_agency": "Department of Sanitation",
    "final_address": "6141 Vicksburg St",
    "address_councildis": "A",
    "status": "Assigned to Contractor",
    "contractor": "IV Waste",
    "contractor_action": "Completed",
    "rowid": "1049107",
    "final_x": "3669050.33754",
    "final_y": "548242.775762",
    "longitude": "-90.1068167662959",
    "latitude": "30.001849792062426",
    "geocoded_column": {
      "latitude": "30.001849792062426",
      "longitude": "-90.1068167662959"
    }
  },
  {
    "service_request": "2023-1049106",
    "request_type": "Trash/Recycling",
    "request_reason": "Request a Large Item Pick Up",
    "date_created": "2023-11-09T12:28:57.000",
    "date_modified": "2023-11-09T12:28:58.000",
    "request_status": "Pending",
    "responsible_agency": "Department of Sanitation",
    "final_address": "8702 Marks St",
    "address_councildis": "A",
    "status": "Assigned to Contractor",
    "contractor": "Richards Disposal",
    "rowid": "1049106",
    "final_x": "3667259.50305",
    "final_y": "537423.732296",
    "longitude": "-90.11283827879478",
    "latitude": "29.972153687026356",
    "geocoded_column": {
      "latitude": "29.972153687026356",
      "longitude": "-90.11283827879478"
    }
  },
  {
    "service_request": "2023-1049105",
    "request_type": "Trash/Recycling",
    "request_reason": "Request a Large Item Pick Up",
    "date_created": "2023-11-09T12:27:07.000",
    "date_modified": "2023-11-09T12:27:07.000",
    "request_status": "Pending",
    "responsible_agency": "Department of Sanitation",
    "final_address": "4616 Lafon Dr",
    "address_councildis": "E",
    "status": "Assigned to Contractor",
    "contractor": "Waste Pro",
    "rowid": "1049105",
    "final_x": "3701141.85271",
    "final_y": "553490.648279",
    "longitude": "-90.00524475354818",
    "latitude": "30.01529589565715",
    "geocoded_column": {
      "latitude": "30.01529589565715",
      "longitude": "-90.00524475354818"
    }
  },
  {
    "service_request": "2023-1049104",
    "request_type": "Traffic Signals/Signs/Striping/Streetlights",
    "request_reason": "Request for Stop Sign",
    "date_created": "2023-11-09T12:25:12.000",
    "date_modified": "2023-11-09T12:25:12.000",
    "request_status": "Pending",
    "responsible_agency": "Department of Public Works",
    "final_address": "5318 N Roman St",
    "address_councildis": "E",
    "status": "Pending",
    "rowid": "1049104",
    "final_x": "3697667.97392",
    "final_y": "536524.026247",
    "longitude": "-90.01683643100368",
    "latitude": "29.96875417510839",
    "geocoded_column": {
      "latitude": "29.96875417510839",
      "longitude": "-90.01683643100368"
    }
  },
  {
    "service_request": "2023-1049102",
    "request_type": "Abandoned Vehicles",
    "request_reason": "Abandoned/Junk Vehicles",
    "date_created": "2023-11-09T12:18:00.000",
    "date_modified": "2023-11-09T12:18:50.000",
    "request_status": "Pending",
    "responsible_agency": "Department of Public Works",
    "final_address": "3450 Clematis St",
    "address_councildis": "D",
    "status": "Pending",
    "rowid": "1049102",
    "final_x": "3686573.16284",
    "final_y": "545638.299088",
    "longitude": "-90.05155244273803",
    "latitude": "29.994161042154584",
    "geocoded_column": {
      "latitude": "29.994161042154584",
      "longitude": "-90.05155244273803"
    }
  },
  {
    "service_request": "2023-1049101",
    "request_type": "Trash/Recycling",
    "request_reason": "Missed Trash Pick-Up",
    "date_created": "2023-11-09T12:16:26.000",
    "date_modified": "2023-11-09T12:45:06.000",
    "case_close_date": "2023-11-09T06:45:06.000",
    "request_status": "Closed",
    "responsible_agency": "Department of Sanitation",
    "final_address": "1421 Columbus St",
    "address_councildis": "C",
    "status": "Invalid Request",
    "contractor": "IV Waste",
    "contractor_action": "Invalid Pick-Up",
    "rowid": "1049101",
    "final_x": "3682162.55791",
    "final_y": "536898.662152",
    "longitude": "-90.0657903264476",
    "latitude": "29.97026502808754",
    "geocoded_column": {
      "latitude": "29.97026502808754",
      "longitude": "-90.0657903264476"
    }
  },
  {
    "service_request": "2023-1049100",
    "request_type": "Trash/Recycling",
    "request_reason": "Request a Large Item Pick Up",
    "date_created": "2023-11-09T12:14:23.000",
    "date_modified": "2023-11-09T12:14:24.000",
    "request_status": "Pending",
    "responsible_agency": "Department of Sanitation",
    "final_address": "5657 Hempstead Rd",
    "address_councildis": "E",
    "status": "Assigned to Contractor",
    "contractor": "Waste Pro",
    "rowid": "1049100",
    "final_x": "3708038.02532",
    "final_y": "558025.373083",
    "longitude": "-89.98328745522707",
    "latitude": "30.02754304291878",
    "geocoded_column": {
      "latitude": "30.02754304291878",
      "longitude": "-89.98328745522707"
    }
  },
  {
    "service_request": "2023-1049099",
    "request_type": "Trash/Recycling",
    "request_reason": "Order Trash Cart",
    "date_created": "2023-11-09T12:13:45.000",
    "date_modified": "2023-11-09T12:13:45.000",
    "request_status": "Pending",
    "responsible_agency": "Department of Sanitation",
    "final_address": "7732 Dorsett Dr",
    "address_councildis": "E",
    "status": "Assigned to Contractor",
    "contractor": "Waste Pro",
    "rowid": "1049099",
    "final_x": "3712512.48901",
    "final_y": "567792.842148",
    "longitude": "-89.96878109623366",
    "latitude": "30.054253941663593",
    "geocoded_column": {
      "latitude": "30.054253941663593",
      "longitude": "-89.96878109623366"
    }
  },
  {
    "service_request": "2023-1049098",
    "request_type": "Trash/Recycling",
    "request_reason": "MIssed Recycling Pick-Up",
    "date_created": "2023-11-09T12:08:07.000",
    "date_modified": "2023-11-09T12:08:07.000",
    "request_status": "Pending",
    "responsible_agency": "Department of Sanitation",
    "final_address": "1200 BLK N Prieur St",
    "address_councildis": "D",
    "status": "Assigned to Contractor",
    "contractor": "Richards Disposal",
    "rowid": "1049098",
    "final_x": "3680143.14755",
    "final_y": "536870.768238",
    "longitude": "-90.07216880879743",
    "latitude": "29.970249599378707",
    "geocoded_column": {
      "latitude": "29.970249599378707",
      "longitude": "-90.07216880879743"
    }
  },
  {
    "service_request": "2023-1049097",
    "request_type": "Trash/Recycling",
    "request_reason": "Missed Trash Pick-Up",
    "date_created": "2023-11-09T12:06:10.000",
    "date_modified": "2023-11-09T12:06:11.000",
    "request_status": "Pending",
    "responsible_agency": "Department of Sanitation",
    "final_address": "516 Thayer St",
    "address_councildis": "C",
    "status": "Assigned to Contractor",
    "contractor": "Richards Disposal",
    "rowid": "1049097",
    "final_x": "3689576.19913",
    "final_y": "529682.759553",
    "longitude": "-90.04263402111904",
    "latitude": "29.950196221345085",
    "geocoded_column": {
      "latitude": "29.950196221345085",
      "longitude": "-90.04263402111904"
    }
  },
  {
    "service_request": "2023-1049096",
    "request_type": "Trash/Recycling",
    "request_reason": "Repair Recycling Cart",
    "date_created": "2023-11-09T12:04:14.000",
    "date_modified": "2023-11-09T12:04:14.000",
    "request_status": "Pending",
    "responsible_agency": "Department of Sanitation",
    "final_address": "4751 Lennox Blvd",
    "address_councildis": "C",
    "status": "Pending",
    "rowid": "1049096",
    "final_x": "3700648.75697",
    "final_y": "513113.321713",
    "longitude": "-90.00827795867319",
    "latitude": "29.904288391246283",
    "geocoded_column": {
      "latitude": "29.904288391246283",
      "longitude": "-90.00827795867319"
    }
  },
  {
    "service_request": "2023-1049095",
    "request_type": "Trash/Recycling",
    "request_reason": "Repair Trash Cart",
    "date_created": "2023-11-09T12:02:56.000",
    "date_modified": "2023-11-09T12:02:56.000",
    "request_status": "Pending",
    "responsible_agency": "Department of Sanitation",
    "final_address": "631 St Mary St",
    "address_councildis": "B",
    "status": "Assigned to Contractor",
    "contractor": "Richards Disposal",
    "rowid": "1049095",
    "final_x": "3680918.67157",
    "final_y": "521593.743801",
    "longitude": "-90.0702514523113",
    "latitude": "29.928219426142093",
    "geocoded_column": {
      "latitude": "29.928219426142093",
      "longitude": "-90.0702514523113"
    }
  },
  {
    "service_request": "2023-1049094",
    "request_type": "Trash/Recycling",
    "request_reason": "Repair Recycling Cart",
    "date_created": "2023-11-09T11:58:33.000",
    "date_modified": "2023-11-09T11:58:34.000",
    "request_status": "Pending",
    "responsible_agency": "Department of Sanitation",
    "final_address": "2914 Grand-Route St John St",
    "address_councildis": "A",
    "status": "Pending",
    "rowid": "1049094",
    "final_x": "3677567.41506",
    "final_y": "540245.776331",
    "longitude": "-90.08018668300417",
    "latitude": "29.979607413096005",
    "geocoded_column": {
      "latitude": "29.979607413096005",
      "longitude": "-90.08018668300417"
    }
  },
  {
    "service_request": "2023-1049093",
    "request_type": "Traffic Signals/Signs/Striping/Streetlights",
    "request_reason": "Street Light Outage/Malfunction",
    "date_created": "2023-11-09T11:52:30.000",
    "date_modified": "2023-11-09T11:52:31.000",
    "request_status": "Pending",
    "responsible_agency": "Department of Public Works",
    "final_address": "725 Eleonore St",
    "address_councildis": "A",
    "status": "Assigned to Contractor",
    "contractor": "Legacy Professional Services",
    "rowid": "1049093",
    "final_x": "3665239.10535",
    "final_y": "518935.786359",
    "longitude": "-90.11983741508884",
    "latitude": "29.921376817700562",
    "geocoded_column": {
      "latitude": "29.921376817700562",
      "longitude": "-90.11983741508884"
    }
  },
  {
    "service_request": "2023-1049092",
    "request_type": "Traffic Signals/Signs/Striping/Streetlights",
    "request_reason": "Additional signage",
    "date_created": "2023-11-09T11:51:25.000",
    "date_modified": "2023-11-09T11:51:26.000",
    "request_status": "Pending",
    "responsible_agency": "Department of Public Works",
    "final_address": "7900 Oneida St",
    "address_councildis": "E",
    "status": "Pending",
    "rowid": "1049092",
    "final_x": "3713284.42642",
    "final_y": "568861.427941",
    "longitude": "-89.96630091222254",
    "latitude": "30.05716681585658",
    "geocoded_column": {
      "latitude": "30.05716681585658",
      "longitude": "-89.96630091222254"
    }
  },
  {
    "service_request": "2023-1049091",
    "request_type": "Property Maintenance",
    "request_reason": "Property Maintenance",
    "date_created": "2023-11-09T11:51:12.000",
    "date_modified": "2023-11-09T11:51:12.000",
    "request_status": "Pending",
    "responsible_agency": "Department of Code Enforcement",
    "final_address": "4215 Rayne Dr",
    "address_councildis": "D",
    "status": "Pending",
    "rowid": "1049091",
    "final_x": "3679862.08059",
    "final_y": "547812.410002",
    "longitude": "-90.07267627435881",
    "latitude": "30.00034379289078",
    "geocoded_column": {
      "latitude": "30.00034379289078",
      "longitude": "-90.07267627435881"
    }
  },
  {
    "service_request": "2023-1049090",
    "request_type": "Traffic Signals/Signs/Striping/Streetlights",
    "request_reason": "Street Light Outage/Malfunction",
    "date_created": "2023-11-09T11:50:49.000",
    "date_modified": "2023-11-09T11:50:50.000",
    "request_status": "Pending",
    "responsible_agency": "Department of Public Works",
    "final_address": "7900 Oneida St",
    "address_councildis": "E",
    "status": "Assigned to Contractor",
    "contractor": "Legacy Professional Services",
    "rowid": "1049090",
    "final_x": "3713284.42642",
    "final_y": "568861.427941",
    "longitude": "-89.96630091222254",
    "latitude": "30.05716681585658",
    "geocoded_column": {
      "latitude": "30.05716681585658",
      "longitude": "-89.96630091222254"
    }
  },
  {
    "service_request": "2023-1049089",
    "request_type": "Trash/Recycling",
    "request_reason": "Request a Large Item Pick Up",
    "date_created": "2023-11-09T11:44:03.000",
    "date_modified": "2023-11-09T11:44:04.000",
    "request_status": "Pending",
    "responsible_agency": "Department of Sanitation",
    "final_address": "8240 Curran Rd",
    "address_councildis": "E",
    "status": "Assigned to Contractor",
    "contractor": "Waste Pro",
    "rowid": "1049089",
    "final_x": "3702958.69207",
    "final_y": "561906.285599",
    "longitude": "-89.99919484292683",
    "latitude": "30.038377613964986",
    "geocoded_column": {
      "latitude": "30.038377613964986",
      "longitude": "-89.99919484292683"
    }
  },
  {
    "service_request": "2023-1049088",
    "request_type": "Trash/Recycling",
    "request_reason": "Dead Animal Pick Up",
    "date_created": "2023-11-09T11:43:32.000",
    "date_modified": "2023-11-09T11:43:49.000",
    "case_close_date": "2023-11-09T05:43:49.000",
    "request_status": "Closed",
    "responsible_agency": "Department of Sanitation",
    "final_address": "941 Dumaine St",
    "address_councildis": "C",
    "status": "Assigned to Contractor",
    "contractor": "Empire Services",
    "contractor_action": "Completed",
    "rowid": "1049088",
    "final_x": "3682191.39272",
    "final_y": "533698.256773",
    "longitude": "-90.0658110686103",
    "latitude": "29.96146413611608",
    "geocoded_column": {
      "latitude": "29.96146413611608",
      "longitude": "-90.0658110686103"
    }
  },
  {
    "service_request": "2023-1049087",
    "request_type": "Trash/Recycling",
    "request_reason": "MIssed Recycling Pick-Up",
    "date_created": "2023-11-09T11:43:28.000",
    "date_modified": "2023-11-09T11:43:29.000",
    "request_status": "Pending",
    "responsible_agency": "Department of Sanitation",
    "final_address": "5001 Hauck Dr",
    "address_councildis": "E",
    "status": "Assigned to Contractor",
    "contractor": "Waste Pro",
    "rowid": "1049087",
    "final_x": "3714522.35499",
    "final_y": "557804.972827",
    "longitude": "-89.96280604327599",
    "latitude": "30.026725366310885",
    "geocoded_column": {
      "latitude": "30.026725366310885",
      "longitude": "-89.96280604327599"
    }
  },
  {
    "service_request": "2023-1049086",
    "request_type": "Abandoned Vehicles",
    "request_reason": "Abandoned/Junk Vehicles",
    "date_created": "2023-11-09T11:42:34.000",
    "date_modified": "2023-11-09T11:42:35.000",
    "request_status": "Pending",
    "responsible_agency": "Department of Public Works",
    "final_address": "3580 Plymouth Pl",
    "address_councildis": "C",
    "status": "Pending",
    "rowid": "1049086",
    "final_x": "3702825.47671",
    "final_y": "517630.956214",
    "longitude": "-90.00124248492416",
    "latitude": "29.916640952347716",
    "geocoded_column": {
      "latitude": "29.916640952347716",
      "longitude": "-90.00124248492416"
    }
  },
  {
    "service_request": "2023-1049085",
    "request_type": "Trash/Recycling",
    "request_reason": "Dead Animal Pick Up",
    "date_created": "2023-11-09T11:42:28.000",
    "date_modified": "2023-11-09T11:42:43.000",
    "case_close_date": "2023-11-09T05:42:43.000",
    "request_status": "Closed",
    "responsible_agency": "Department of Sanitation",
    "final_address": "921 St Peter St",
    "address_councildis": "C",
    "status": "Assigned to Contractor",
    "contractor": "Empire Services",
    "contractor_action": "Completed",
    "rowid": "1049085",
    "final_x": "3681843.92911",
    "final_y": "532998.201604",
    "longitude": "-90.06693273080218",
    "latitude": "29.959549787412623",
    "geocoded_column": {
      "latitude": "29.959549787412623",
      "longitude": "-90.06693273080218"
    }
  },
  {
    "service_request": "2023-1049084",
    "request_type": "Trash/Recycling",
    "request_reason": "Dead Animal Pick Up",
    "date_created": "2023-11-09T11:41:09.000",
    "date_modified": "2023-11-09T11:41:26.000",
    "case_close_date": "2023-11-09T05:41:26.000",
    "request_status": "Closed",
    "responsible_agency": "Department of Sanitation",
    "final_address": "923 St Peter St",
    "address_councildis": "C",
    "status": "Assigned to Contractor",
    "contractor": "Empire Services",
    "contractor_action": "Completed",
    "rowid": "1049084",
    "final_x": "3681818.67778",
    "final_y": "533019.01274",
    "longitude": "-90.06701174231925",
    "latitude": "29.95960777829722",
    "geocoded_column": {
      "latitude": "29.95960777829722",
      "longitude": "-90.06701174231925"
    }
  },