[
  {
    "service_request": "2026-1261198",
    "request_type": "General Services",
    "request_reason": "General Service Request",
    "date_created": "2026-02-26T23:50:08.000",
    "date_modified": "2026-02-26T23:50:10.000",
    "request_status": "Pending",
    "responsible_agency": "Orleans Parish Communication District",
    "final_address": "405 Esplanade Ave",
    "address_councildis": "C",
    "status": "Pending",
    "rowid": "1261198",
    "final_x": "3684951.26537",
    "final_y": "533814.223941",
    "longitude": "-90.05709179983954",
    "latitude": "29.96169877142504",
    "geocoded_column": {
      "latitude": "29.96169877142504",
      "longitude": "-90.05709179983954"
    }
  },
  {
    "service_request": "2026-1261197",
    "request_type": "General Services",
    "request_reason": "General Service Request",
    "date_created": "2026-02-26T23:10:13.000",
    "date_modified": "2026-02-26T23:10:16.000",
    "request_status": "Pending",
    "responsible_agency": "Orleans Parish Communication District",
    "final_address": "4700 Music St",
    "address_councildis": "D",
    "status": "Pending",
    "rowid": "1261197",
    "final_x": "3685568.96022",
    "final_y": "550244.547924",
    "longitude": "-90.05456219053077",
    "latitude": "30.006857414968323",
    "geocoded_column": {
      "latitude": "30.006857414968323",
      "longitude": "-90.05456219053077"
    }
  },
  {
    "service_request": "2026-1261196",
    "request_type": "Trash/Recycling",
    "request_reason": "Request a Large Item Pick Up",
    "date_created": "2026-02-26T23:00:19.000",
    "date_modified": "2026-02-26T23:00:35.000",
    "request_status": "Pending",
    "responsible_agency": "Department of Sanitation",
    "final_address": "1715 France St",
    "address_councildis": "D",
    "status": "Assigned to Contractor",
    "contractor": "IV Waste",
    "rowid": "1261196",
    "final_x": "3693020.20886",
    "final_y": "537521.33044",
    "longitude": "-90.03147850327866",
    "latitude": "29.97164242045645",
    "geocoded_column": {
      "latitude": "29.97164242045645",
      "longitude": "-90.03147850327866"
    }
  },
  {
    "service_request": "2026-1261195",
    "request_type": "Health Related Request",
    "request_reason": "Noise Ordinance Complaint",
    "date_created": "2026-02-26T22:59:30.000",
    "date_modified": "2026-02-26T22:59:32.000",
    "request_status": "Pending",
    "responsible_agency": "Health Department",
    "final_address": "801 Bourbon St",
    "address_councildis": "C",
    "status": "Pending",
    "rowid": "1261195",
    "final_x": "3682490.98735",
    "final_y": "533018.672772",
    "longitude": "-90.06488875731978",
    "latitude": "29.959586396383013",
    "geocoded_column": {
      "latitude": "29.959586396383013",
      "longitude": "-90.06488875731978"
    }
  },
  {
    "service_request": "2026-1261194",
    "request_type": "Trash/Recycling",
    "request_reason": "Request a Large Item Pick Up",
    "date_created": "2026-02-26T22:55:39.000",
    "date_modified": "2026-02-26T22:55:41.000",
    "request_status": "Pending",
    "responsible_agency": "Department of Sanitation",
    "final_address": "1708 France St",
    "address_councildis": "D",
    "status": "Assigned to Contractor",
    "contractor": "IV Waste",
    "rowid": "1261194",
    "final_x": "3692933.74608",
    "final_y": "537504.946312",
    "longitude": "-90.03175215239331",
    "latitude": "29.971600070768535",
    "geocoded_column": {
      "latitude": "29.971600070768535",
      "longitude": "-90.03175215239331"
    }
  },
  {
    "service_request": "2026-1261193",
    "request_type": "Health Related Request",
    "request_reason": "Noise Ordinance Complaint",
    "date_created": "2026-02-26T22:53:04.000",
    "date_modified": "2026-02-26T22:53:07.000",
    "request_status": "Pending",
    "responsible_agency": "Health Department",
    "final_address": "800 Bourbon St",
    "address_councildis": "C",
    "status": "Pending",
    "rowid": "1261193",
    "final_x": "3682553.51528",
    "final_y": "533013.631428",
    "longitude": "-90.06469148499534",
    "latitude": "29.95957063099051",
    "geocoded_column": {
      "latitude": "29.95957063099051",
      "longitude": "-90.06469148499534"
    }
  },
  {
    "service_request": "2026-1261192",
    "request_type": "Health Related Request",
    "request_reason": "Noise Ordinance Complaint",
    "date_created": "2026-02-26T22:49:59.000",
    "date_modified": "2026-02-26T22:50:01.000",
    "request_status": "Pending",
    "responsible_agency": "Health Department",
    "final_address": "801 Bourbon St",
    "address_councildis": "C",
    "status": "Pending",
    "rowid": "1261192",
    "final_x": "3682490.98735",
    "final_y": "533018.672772",
    "longitude": "-90.06488875731978",
    "latitude": "29.959586396383013",
    "geocoded_column": {
      "latitude": "29.959586396383013",
      "longitude": "-90.06488875731978"
    }
  },
  {
    "service_request": "2026-1261191",
    "request_type": "Health Related Request",
    "request_reason": "Noise Ordinance Complaint",
    "date_created": "2026-02-26T22:45:12.000",
    "date_modified": "2026-02-26T22:45:14.000",
    "request_status": "Pending",
    "responsible_agency": "Health Department",
    "final_address": "801 Bourbon St",
    "address_councildis": "C",
    "status": "Pending",
    "rowid": "1261191",
    "final_x": "3682490.98735",
    "final_y": "533018.672772",
    "longitude": "-90.06488875731978",
    "latitude": "29.959586396383013",
    "geocoded_column": {
      "latitude": "29.959586396383013",
      "longitude": "-90.06488875731978"
    }
  },
  {
    "service_request": "2026-1261190",
    "request_type": "Trash/Recycling",
    "request_reason": "Request a Large Item Pick Up",
    "date_created": "2026-02-26T22:40:56.000",
    "date_modified": "2026-02-26T22:40:58.000",
    "request_status": "Pending",
    "responsible_agency": "Department of Sanitation",
    "final_address": "2527 Palmyra St",
    "address_councildis": "B",
    "status": "Assigned to Contractor",
    "contractor": "IV Waste",
    "rowid": "1261190",
    "final_x": "3675517.05077",
    "final_y": "534073.292101",
    "longitude": "-90.08687463815394",
    "latitude": "29.962696679884495",
    "geocoded_column": {
      "latitude": "29.962696679884495",
      "longitude": "-90.08687463815394"
    }
  },
  {
    "service_request": "2026-1261189",
    "request_type": "Health Related Request",
    "request_reason": "Noise Ordinance Complaint",
    "date_created": "2026-02-26T22:40:53.000",
    "date_modified": "2026-02-26T22:40:55.000",
    "request_status": "Pending",
    "responsible_agency": "Health Department",
    "final_address": "800 Bourbon St",
    "address_councildis": "C",
    "status": "Pending",
    "rowid": "1261189",
    "final_x": "3682553.51528",
    "final_y": "533013.631428",
    "longitude": "-90.06469148499534",
    "latitude": "29.95957063099051",
    "geocoded_column": {
      "latitude": "29.95957063099051",
      "longitude": "-90.06469148499534"
    }
  },
  {
    "service_request": "2026-1261188",
    "request_type": "Health Related Request",
    "request_reason": "Noise Ordinance Complaint",
    "date_created": "2026-02-26T22:20:15.000",
    "date_modified": "2026-02-26T22:20:17.000",
    "request_status": "Pending",
    "responsible_agency": "Health Department",
    "final_address": "801 Bourbon St",
    "address_councildis": "C",
    "status": "Pending",
    "rowid": "1261188",
    "final_x": "3682490.98735",
    "final_y": "533018.672772",
    "longitude": "-90.06488875731978",
    "latitude": "29.959586396383013",
    "geocoded_column": {
      "latitude": "29.959586396383013",
      "longitude": "-90.06488875731978"
    }
  },
  {
    "service_request": "2026-1261187",
    "request_type": "Health Related Request",
    "request_reason": "Noise Ordinance Complaint",
    "date_created": "2026-02-26T22:16:25.000",
    "date_modified": "2026-02-26T22:16:27.000",
    "request_status": "Pending",
    "responsible_agency": "Health Department",
    "final_address": "800 Bourbon St",
    "address_councildis": "C",
    "status": "Pending",
    "rowid": "1261187",
    "final_x": "3682553.51528",
    "final_y": "533013.631428",
    "longitude": "-90.06469148499534",
    "latitude": "29.95957063099051",
    "geocoded_column": {
      "latitude": "29.95957063099051",
      "longitude": "-90.06469148499534"
    }
  },
  {
    "service_request": "2026-1261186",
    "request_type": "Streetlights",
    "request_reason": "Streetlight Outage/Malfunction",
    "date_created": "2026-02-26T21:37:35.000",
    "date_modified": "2026-02-26T21:37:37.000",
    "request_status": "Pending",
    "responsible_agency": "Department of Public Works",
    "final_address": "1640 State St",
    "address_councildis": "A",
    "status": "Pending",
    "rowid": "1261186",
    "final_x": "3665851.37965",
    "final_y": "523008.764923",
    "longitude": "-90.11776833696281",
    "latitude": "29.93255837925056",
    "geocoded_column": {
      "latitude": "29.93255837925056",
      "longitude": "-90.11776833696281"
    }
  },
  {
    "service_request": "2026-1261185",
    "request_type": "Trash/Recycling",
    "request_reason": "Request a Large Item Pick Up",
    "date_created": "2026-02-26T21:20:49.000",
    "date_modified": "2026-02-26T21:20:52.000",
    "request_status": "Pending",
    "responsible_agency": "Department of Sanitation",
    "final_address": "5121 Dryades St",
    "address_councildis": "B",
    "status": "Assigned to Contractor",
    "contractor": "IV Waste",
    "rowid": "1261185",
    "final_x": "3668267.50817",
    "final_y": "521902.393722",
    "longitude": "-90.11017808527009",
    "latitude": "29.929445512020898",
    "geocoded_column": {
      "latitude": "29.929445512020898",
      "longitude": "-90.11017808527009"
    }
  },
  {
    "service_request": "2026-1261184",
    "request_type": "Trash/Recycling",
    "request_reason": "Damaged Caused By Contractor",
    "date_created": "2026-02-26T21:19:00.000",
    "date_modified": "2026-02-26T21:19:02.000",
    "request_status": "Pending",
    "responsible_agency": "Department of Sanitation",
    "final_address": "4028 Danneel St",
    "address_councildis": "B",
    "status": "Assigned to Contractor",
    "contractor": "IV Waste",
    "rowid": "1261184",
    "final_x": "3671943.78651",
    "final_y": "522363.036666",
    "longitude": "-90.09855705590999",
    "latitude": "29.930603713635673",
    "geocoded_column": {
      "latitude": "29.930603713635673",
      "longitude": "-90.09855705590999"
    }
  },
  {
    "service_request": "2026-1261183",
    "request_type": "Abandoned Vehicles",
    "request_reason": "Abandoned/Junk Vehicles",
    "date_created": "2026-02-26T20:55:55.000",
    "date_modified": "2026-02-26T20:55:56.000",
    "request_status": "Pending",
    "responsible_agency": "Department of Public Works",
    "final_address": "7020 Green St",
    "address_councildis": "A",
    "status": "Pending",
    "rowid": "1261183",
    "final_x": "3665482.6466",
    "final_y": "527610.247743",
    "longitude": "-90.11877842393042",
    "latitude": "29.94522173663158",
    "geocoded_column": {
      "latitude": "29.94522173663158",
      "longitude": "-90.11877842393042"
    }
  },
  {
    "service_request": "2026-1261182",
    "request_type": "Trash/Recycling",
    "request_reason": "Request a Large Item Pick Up",
    "date_created": "2026-02-26T20:54:28.000",
    "date_modified": "2026-02-26T20:54:29.000",
    "request_status": "Pending",
    "responsible_agency": "Department of Sanitation",
    "final_address": "2331 Terpsichore St",
    "address_councildis": "B",
    "status": "Assigned to Contractor",
    "contractor": "IV Waste",
    "rowid": "1261182",
    "final_x": "3676297.80705",
    "final_y": "527084.981374",
    "longitude": "-90.08464959949258",
    "latitude": "29.94345778196578",
    "geocoded_column": {
      "latitude": "29.94345778196578",
      "longitude": "-90.08464959949258"
    }
  },
  {
    "service_request": "2026-1261181",
    "request_type": "Streetlights",
    "request_reason": "Streetlight Outage/Malfunction",
    "date_created": "2026-02-26T20:52:09.000",
    "date_modified": "2026-02-26T20:52:11.000",
    "request_status": "Pending",
    "responsible_agency": "Department of Public Works",
    "final_address": "4156 Vendome Pl",
    "address_councildis": "B",
    "status": "Pending",
    "rowid": "1261181",
    "final_x": "3668848.32762",
    "final_y": "530935.98829",
    "longitude": "-90.10803959121654",
    "latitude": "29.954267913368636",
    "geocoded_column": {
      "latitude": "29.954267913368636",
      "longitude": "-90.10803959121654"
    }
  },
  {
    "service_request": "2026-1261180",
    "request_type": "Trash/Recycling",
    "request_reason": "Request a Large Item Pick Up",
    "date_created": "2026-02-26T20:49:04.000",
    "date_modified": "2026-02-26T20:49:06.000",
    "request_status": "Pending",
    "responsible_agency": "Department of Sanitation",
    "final_address": "7842 Shubert St",
    "address_councildis": "E",
    "status": "Assigned to Contractor",
    "contractor": "Waste Pro",
    "rowid": "1261180",
    "final_x": "3695457.19645",
    "final_y": "559508.013597",
    "longitude": "-90.02298810778659",
    "latitude": "30.032021312160797",
    "geocoded_column": {
      "latitude": "30.032021312160797",
      "longitude": "-90.02298810778659"
    }
  },
  {
    "service_request": "2026-1261179",
    "request_type": "General Services",
    "request_reason": "General Service Request",
    "date_created": "2026-02-26T20:36:14.000",
    "date_modified": "2026-02-26T20:36:16.000",
    "request_status": "Pending",
    "responsible_agency": "Orleans Parish Communication District",
    "final_address": "5610 Lacour Monique St",
    "address_councildis": "C",
    "status": "Pending",
    "rowid": "1261179",
    "final_x": "3704358.02615",
    "final_y": "517921.54047",
    "longitude": "-89.9963944653247",
    "latitude": "29.917390880266453",
    "geocoded_column": {
      "latitude": "29.917390880266453",
      "longitude": "-89.9963944653247"
    }
  },
  {
    "service_request": "2026-1261178",
    "request_type": "Streetlights",
    "request_reason": "Streetlight Outage/Malfunction",
    "date_created": "2026-02-26T19:46:05.000",
    "date_modified": "2026-02-26T19:46:06.000",
    "request_status": "Pending",
    "responsible_agency": "Department of Public Works",
    "final_address": "4430 St Bernard Ave",
    "address_councildis": "D",
    "status": "Pending",
    "rowid": "1261178",
    "final_x": "3676730.23771",
    "final_y": "548592.985875",
    "longitude": "-90.08254304259707",
    "latitude": "30.002584472224402",
    "geocoded_column": {
      "latitude": "30.002584472224402",
      "longitude": "-90.08254304259707"
    }
  },
  {
    "service_request": "2026-1261177",
    "request_type": "Streetlights",
    "request_reason": "Streetlight Outage/Malfunction",
    "date_created": "2026-02-26T19:41:38.000",
    "date_modified": "2026-02-26T19:41:40.000",
    "request_status": "Pending",
    "responsible_agency": "Department of Public Works",
    "final_address": "4430 St Bernard Ave",
    "address_councildis": "D",
    "status": "Pending",
    "rowid": "1261177",
    "final_x": "3676730.23771",
    "final_y": "548592.985875",
    "longitude": "-90.08254304259707",
    "latitude": "30.002584472224402",
    "geocoded_column": {
      "latitude": "30.002584472224402",
      "longitude": "-90.08254304259707"
    }
  },
  {
    "service_request": "2026-1261176",
    "request_type": "Trash/Recycling",
    "request_reason": "Repair Trash Cart",
    "date_created": "2026-02-26T19:33:39.000",
    "date_modified": "2026-02-26T19:33:42.000",
    "request_status": "Pending",
    "responsible_agency": "Department of Sanitation",
    "final_address": "3580 Gentilly Blvd",
    "address_councildis": "D",
    "status": "Assigned to Contractor",
    "contractor": "IV Waste",
    "rowid": "1261176",
    "final_x": "3686111.52329",
    "final_y": "548755.090195",
    "longitude": "-90.05290067629741",
    "latitude": "30.002745286298538",
    "geocoded_column": {
      "latitude": "30.002745286298538",
      "longitude": "-90.05290067629741"
    }
  },
  {
    "service_request": "2026-1261175",
    "request_type": "Trash/Recycling",
    "request_reason": "Request a Large Item Pick Up",
    "date_created": "2026-02-26T18:59:04.000",
    "date_modified": "2026-02-26T18:59:06.000",
    "request_status": "Pending",
    "responsible_agency": "Department of Sanitation",
    "final_address": "6700 Coventry St",
    "address_councildis": "E",
    "status": "Assigned to Contractor",
    "contractor": "Waste Pro",
    "rowid": "1261175",
    "final_x": "3697987.38883",
    "final_y": "559369.087965",
    "longitude": "-90.01499763772816",
    "latitude": "30.031559518508384",
    "geocoded_column": {
      "latitude": "30.031559518508384",
      "longitude": "-90.01499763772816"
    }
  },
  {
    "service_request": "2026-1261174",
    "request_type": "Trash/Recycling",
    "request_reason": "Return Trash Cart",
    "date_created": "2026-02-26T18:56:42.000",
    "date_modified": "2026-02-26T18:56:43.000",
    "request_status": "Pending",
    "responsible_agency": "Department of Sanitation",
    "final_address": "2432 Valmont St",
    "address_councildis": "B",
    "status": "Assigned to Contractor",
    "contractor": "IV Waste",
    "rowid": "1261174",
    "final_x": "3668227.96634",
    "final_y": "524573.387388",
    "longitude": "-90.11021290674718",
    "latitude": "29.936791050990962",
    "geocoded_column": {
      "latitude": "29.936791050990962",
      "longitude": "-90.11021290674718"
    }
  },
  {
    "service_request": "2026-1261173",
    "request_type": "Road Striping",
    "request_reason": "Lane Striping or other Pavement Markings",
    "date_created": "2026-02-26T18:52:18.000",
    "date_modified": "2026-02-26T18:52:20.000",
    "request_status": "Pending",
    "responsible_agency": "Department of Public Works",
    "final_address": "LOYOLA AVE & JULIA ST",
    "address_councildis": "B",
    "status": "Pending",
    "rowid": "1261173",
    "final_x": "3678813.7",
    "final_y": "528423.28",
    "longitude": "-90.07665993219607",
    "latitude": "29.947062030083995",
    "geocoded_column": {
      "latitude": "29.947062030083995",
      "longitude": "-90.07665993219607"
    }
  },
  {
    "service_request": "2026-1261172",
    "request_type": "Road Striping",
    "request_reason": "Lane Striping or other Pavement Markings",
    "date_created": "2026-02-26T18:42:58.000",
    "date_modified": "2026-02-26T18:43:00.000",
    "request_status": "Pending",
    "responsible_agency": "Department of Public Works",
    "final_address": "LOYOLA AVE & JULIA ST",
    "address_councildis": "B",
    "status": "Pending",
    "rowid": "1261172",
    "final_x": "3678813.7",
    "final_y": "528423.28",
    "longitude": "-90.07665993219607",
    "latitude": "29.947062030083995",
    "geocoded_column": {
      "latitude": "29.947062030083995",
      "longitude": "-90.07665993219607"
    }
  },
  {
    "service_request": "2026-1261171",
    "request_type": "Trash/Recycling",
    "request_reason": "Return Trash Cart",
    "date_created": "2026-02-26T18:35:40.000",
    "date_modified": "2026-02-26T18:35:42.000",
    "request_status": "Pending",
    "responsible_agency": "Department of Sanitation",
    "final_address": "6122 Argonne Blvd",
    "address_councildis": "A",
    "status": "Assigned to Contractor",
    "contractor": "IV Waste",
    "rowid": "1261171",
    "final_x": "3670171.64769",
    "final_y": "548013.923602",
    "longitude": "-90.1032821786694",
    "latitude": "30.001187477773907",
    "geocoded_column": {
      "latitude": "30.001187477773907",
      "longitude": "-90.1032821786694"
    }
  },
  {
    "service_request": "2026-1261170",
    "request_type": "Trash/Recycling",
    "request_reason": "Request a Large Item Pick Up",
    "date_created": "2026-02-26T18:21:34.000",
    "date_modified": "2026-02-26T18:21:37.000",
    "request_status": "Pending",
    "responsible_agency": "Department of Sanitation",
    "final_address": "6042 Wales St",
    "address_councildis": "E",
    "status": "Assigned to Contractor",
    "contractor": "Waste Pro",
    "rowid": "1261170",
    "final_x": "3695324.84086",
    "final_y": "559466.157277",
    "longitude": "-90.0234078698152",
    "latitude": "30.031910384397612",
    "geocoded_column": {
      "latitude": "30.031910384397612",
      "longitude": "-90.0234078698152"
    }
  },
  {
    "service_request": "2026-1261169",
    "request_type": "Roads and Streets",
    "request_reason": "Street Subsidence (Sinking)",
    "date_created": "2026-02-26T18:14:45.000",
    "date_modified": "2026-02-26T18:14:47.000",
    "request_status": "Pending",
    "responsible_agency": "Sewerage & Water Board",
    "final_address": "6153 General Haig St",
    "address_councildis": "A",
    "status": "Pending",
    "rowid": "1261169",
    "final_x": "3670677.66932",
    "final_y": "548147.300818",
    "longitude": "-90.10167907952194",
    "latitude": "30.001539272547998",
    "geocoded_column": {
      "latitude": "30.001539272547998",
      "longitude": "-90.10167907952194"
    }
  },
  {
    "service_request": "2026-1261168",
    "request_type": "Abandoned Vehicles",
    "request_reason": "Abandoned/Junk Vehicles",
    "date_created": "2026-02-26T18:09:38.000",
    "date_modified": "2026-02-26T18:09:40.000",
    "request_status": "Pending",
    "responsible_agency": "Department of Public Works",
    "final_address": "2430 Ursulines Ave",
    "address_councildis": "D",
    "status": "Pending",
    "rowid": "1261168",
    "final_x": "3678470.3403",
    "final_y": "537423.316872",
    "longitude": "-90.07743258772416",
    "latitude": "29.971819438588273",
    "geocoded_column": {
      "latitude": "29.971819438588273",
      "longitude": "-90.07743258772416"
    }
  },
  {
    "service_request": "2026-1261167",
    "request_type": "General Services",
    "request_reason": "General Service Request",
    "date_created": "2026-02-26T17:41:39.000",
    "date_modified": "2026-02-26T17:41:42.000",
    "request_status": "Pending",
    "responsible_agency": "Orleans Parish Communication District",
    "final_address": "1403 Tennessee St",
    "address_councildis": "E",
    "status": "Pending",
    "rowid": "1261167",
    "final_x": "3696085.44835",
    "final_y": "535438.43335",
    "longitude": "-90.02187335376989",
    "latitude": "29.96581908105865",
    "geocoded_column": {
      "latitude": "29.96581908105865",
      "longitude": "-90.02187335376989"
    }
  },
  {
    "service_request": "2026-1261166",
    "request_type": "Trash/Recycling",
    "request_reason": "Replace Trash Cart",
    "date_created": "2026-02-26T17:33:22.000",
    "date_modified": "2026-02-26T17:33:24.000",
    "request_status": "Pending",
    "responsible_agency": "Department of Sanitation",
    "final_address": "3307 Grand-Route St John St",
    "address_councildis": "A",
    "status": "Assigned to Contractor",
    "contractor": "IV Waste",
    "rowid": "1261166",
    "final_x": "3675601.82382",
    "final_y": "540371.526347",
    "longitude": "-90.08639049689934",
    "latitude": "29.980012144374054",
    "geocoded_column": {
      "latitude": "29.980012144374054",
      "longitude": "-90.08639049689934"
    }
  },
  {
    "service_request": "2026-1261165",
    "request_type": "Abandoned Vehicles",
    "request_reason": "Abandoned/Junk Vehicles",
    "date_created": "2026-02-26T17:31:24.000",
    "date_modified": "2026-02-26T17:31:26.000",
    "request_status": "Pending",
    "responsible_agency": "Department of Public Works",
    "final_address": "1600 BLK Conery St",
    "address_councildis": "B",
    "status": "Pending",
    "rowid": "1261165",
    "final_x": "3675590.7646",
    "final_y": "522562.402826",
    "longitude": "-90.08703722604177",
    "latitude": "29.93104333865513",
    "geocoded_column": {
      "latitude": "29.93104333865513",
      "longitude": "-90.08703722604177"
    }
  },
  {
    "service_request": "2026-1261164",
    "request_type": "Trash/Recycling",
    "request_reason": "Request a Large Item Pick Up",
    "date_created": "2026-02-26T17:20:50.000",
    "date_modified": "2026-02-26T17:20:52.000",
    "request_status": "Pending",
    "responsible_agency": "Department of Sanitation",
    "final_address": "5869 Louisville St",
    "address_councildis": "A",
    "status": "Assigned to Contractor",
    "contractor": "IV Waste",
    "rowid": "1261164",
    "final_x": "3667724.0498",
    "final_y": "546545.766673",
    "longitude": "-90.11106385222007",
    "latitude": "29.99722257249839",
    "geocoded_column": {
      "latitude": "29.99722257249839",
      "longitude": "-90.11106385222007"
    }
  },
  {
    "service_request": "2026-1261163",
    "request_type": "Street and Traffic Signs",
    "request_reason": "Stop Sign Missing or Damaged",
    "date_created": "2026-02-26T17:12:26.000",
    "date_modified": "2026-02-26T17:12:29.000",
    "request_status": "Pending",
    "responsible_agency": "Department of Public Works",
    "final_address": "BELLAIRE DR & 30TH ST",
    "address_councildis": "A",
    "status": "Pending",
    "rowid": "1261163",
    "final_x": "3664449.6",
    "final_y": "550571.08",
    "longitude": "-90.12127324894273",
    "latitude": "30.008386433646056",
    "geocoded_column": {
      "latitude": "30.008386433646056",
      "longitude": "-90.12127324894273"
    }
  },
  {
    "service_request": "2026-1261162",
    "request_type": "Roads and Streets",
    "request_reason": "Sidewalk Damaged or Missing",
    "date_created": "2026-02-26T16:51:05.000",
    "date_modified": "2026-02-26T16:51:06.000",
    "request_status": "Pending",
    "responsible_agency": "Department of Public Works",
    "final_address": "2738 State St",
    "address_councildis": "A",
    "status": "Pending",
    "rowid": "1261162",
    "final_x": "3667063.38049",
    "final_y": "526717.340158",
    "longitude": "-90.11381753589285",
    "latitude": "29.942720362888387",
    "geocoded_column": {
      "latitude": "29.942720362888387",
      "longitude": "-90.11381753589285"
    }
  },
  {
    "service_request": "2026-1261161",
    "request_type": "Trash/Recycling",
    "request_reason": "Request a Large Item Pick Up",
    "date_created": "2026-02-26T16:44:33.000",
    "date_modified": "2026-02-26T16:44:36.000",
    "request_status": "Pending",
    "responsible_agency": "Department of Sanitation",
    "final_address": "429 S Solomon St",
    "address_councildis": "A",
    "status": "Assigned to Contractor",
    "contractor": "IV Waste",
    "rowid": "1261161",
    "final_x": "3669671.64417",
    "final_y": "537583.674312",
    "longitude": "-90.10521489847594",
    "latitude": "29.972522606411072",
    "geocoded_column": {
      "latitude": "29.972522606411072",
      "longitude": "-90.10521489847594"
    }
  },
  {
    "service_request": "2026-1261160",
    "request_type": "Abandoned Vehicles",
    "request_reason": "Abandoned/Junk Vehicles",
    "date_created": "2026-02-26T16:44:25.000",
    "date_modified": "2026-02-26T16:44:27.000",
    "request_status": "Pending",
    "responsible_agency": "Department of Public Works",
    "final_address": "2052 St Nick Dr",
    "address_councildis": "C",
    "status": "Pending",
    "rowid": "1261160",
    "final_x": "3700038.95959",
    "final_y": "523464.811451",
    "longitude": "-90.0098251293271",
    "latitude": "29.932770830095212",
    "geocoded_column": {
      "latitude": "29.932770830095212",
      "longitude": "-90.0098251293271"
    }
  },
  {
    "service_request": "2026-1261159",
    "request_type": "Trash/Recycling",
    "request_reason": "Request a Large Item Pick Up",
    "date_created": "2026-02-26T16:43:24.000",
    "date_modified": "2026-02-26T16:43:26.000",
    "request_status": "Pending",
    "responsible_agency": "Department of Sanitation",
    "final_address": "7825 Bass St",
    "address_councildis": "E",
    "status": "Assigned to Contractor",
    "contractor": "Waste Pro",
    "rowid": "1261159",
    "final_x": "3719950.86694",
    "final_y": "573882.428778",
    "longitude": "-89.9450372118941",
    "latitude": "30.07075209190991",
    "geocoded_column": {
      "latitude": "30.07075209190991",
      "longitude": "-89.9450372118941"
    }
  },
  {
    "service_request": "2026-1261158",
    "request_type": "Trash/Recycling",
    "request_reason": "Illegal Dumping",
    "date_created": "2026-02-26T16:42:09.000",
    "date_modified": "2026-02-26T16:42:11.000",
    "request_status": "Pending",
    "responsible_agency": "Department of Sanitation",
    "final_address": "1242 Gordon St",
    "address_councildis": "E",
    "status": "Pending",
    "rowid": "1261158",
    "final_x": "3699388.66282",
    "final_y": "534110.772997",
    "longitude": "-90.0114903451558",
    "latitude": "29.962064121411135",
    "geocoded_column": {
      "latitude": "29.962064121411135",
      "longitude": "-90.0114903451558"
    }
  },
  {
    "service_request": "2026-1261157",
    "request_type": "Trash/Recycling",
    "request_reason": "Request a Large Item Pick Up",
    "date_created": "2026-02-26T16:40:57.000",
    "date_modified": "2026-02-26T16:40:58.000",
    "request_status": "Pending",
    "responsible_agency": "Department of Sanitation",
    "final_address": "3708 Preston Pl",
    "address_councildis": "C",
    "status": "Assigned to Contractor",
    "contractor": "Richards Disposal",
    "rowid": "1261157",
    "final_x": "3708492.66558",
    "final_y": "517395.232437",
    "longitude": "-89.98336343777682",
    "latitude": "29.915810419512944",
    "geocoded_column": {
      "latitude": "29.915810419512944",
      "longitude": "-89.98336343777682"
    }
  },
  {
    "service_request": "2026-1261156",
    "request_type": "General Services",
    "request_reason": "General Service Request",
    "date_created": "2026-02-26T16:38:52.000",
    "date_modified": "2026-02-26T16:38:53.000",
    "request_status": "Pending",
    "responsible_agency": "Orleans Parish Communication District",
    "final_address": "4501 Pitt St",
    "address_councildis": "B",
    "status": "Pending",
    "rowid": "1261156",
    "final_x": "3670397.2587",
    "final_y": "520564.730744",
    "longitude": "-90.10350016024441",
    "latitude": "29.925704681866517",
    "geocoded_column": {
      "latitude": "29.925704681866517",
      "longitude": "-90.10350016024441"
    }
  },
  {
    "service_request": "2026-1261155",
    "request_type": "Abandoned Vehicles",
    "request_reason": "Abandoned/Junk Vehicles",
    "date_created": "2026-02-26T16:34:07.000",
    "date_modified": "2026-02-26T16:34:10.000",
    "request_status": "Pending",
    "responsible_agency": "Department of Public Works",
    "final_address": "7710 Swift St",
    "address_councildis": "E",
    "status": "Pending",
    "rowid": "1261155",
    "final_x": "3695314.91888",
    "final_y": "558994.663644",
    "longitude": "-90.02345625614468",
    "latitude": "30.030614269045564",
    "geocoded_column": {
      "latitude": "30.030614269045564",
      "longitude": "-90.02345625614468"
    }
  },
  {
    "service_request": "2026-1261154",
    "request_type": "Trash/Recycling",
    "request_reason": "Repair Trash Cart",
    "date_created": "2026-02-26T16:31:00.000",
    "date_modified": "2026-02-26T16:31:02.000",
    "request_status": "Pending",
    "responsible_agency": "Department of Sanitation",
    "final_address": "12 S Park Pl",
    "address_councildis": "A",
    "status": "Assigned to Contractor",
    "contractor": "IV Waste",
    "rowid": "1261154",
    "final_x": "3670321.49236",
    "final_y": "543801.60603",
    "longitude": "-90.10295169412132",
    "latitude": "29.989600637278926",
    "geocoded_column": {
      "latitude": "29.989600637278926",
      "longitude": "-90.10295169412132"
    }
  },
  {
    "service_request": "2026-1261153",
    "request_type": "Trash/Recycling",
    "request_reason": "Replace Trash Cart",
    "date_created": "2026-02-26T16:23:10.000",
    "date_modified": "2026-02-26T16:23:12.000",
    "request_status": "Pending",
    "responsible_agency": "Department of Sanitation",
    "final_address": "4801 Wilson Ave",
    "address_councildis": "E",
    "status": "Assigned to Contractor",
    "contractor": "Waste Pro",
    "rowid": "1261153",
    "final_x": "3703075.23057",
    "final_y": "555191.603289",
    "longitude": "-89.99907364823461",
    "latitude": "30.019911112571325",
    "geocoded_column": {
      "latitude": "30.019911112571325",
      "longitude": "-89.99907364823461"
    }
  },
  {
    "service_request": "2026-1261152",
    "request_type": "Trash/Recycling",
    "request_reason": "Request a Large Item Pick Up",
    "date_created": "2026-02-26T16:21:15.000",
    "date_modified": "2026-02-26T16:21:17.000",
    "request_status": "Pending",
    "responsible_agency": "Department of Sanitation",
    "final_address": "6021 Curran Rd",
    "address_councildis": "E",
    "status": "Assigned to Contractor",
    "contractor": "Waste Pro",
    "rowid": "1261152",
    "final_x": "3695310.27114",
    "final_y": "558921.629852",
    "longitude": "-90.02347358125083",
    "latitude": "30.030413600104165",
    "geocoded_column": {
      "latitude": "30.030413600104165",
      "longitude": "-90.02347358125083"
    }
  },
  {
    "service_request": "2026-1261151",
    "request_type": "Trash/Recycling",
    "request_reason": "Request a Large Item Pick Up",
    "date_created": "2026-02-26T16:20:23.000",
    "date_modified": "2026-02-26T16:20:25.000",
    "request_status": "Pending",
    "responsible_agency": "Department of Sanitation",
    "final_address": "6601 Dorchester St",
    "address_councildis": "E",
    "status": "Assigned to Contractor",
    "contractor": "Waste Pro",
    "rowid": "1261151",
    "final_x": "3697666.19856",
    "final_y": "558935.165404",
    "longitude": "-90.01602837278277",
    "latitude": "30.030376555312035",
    "geocoded_column": {
      "latitude": "30.030376555312035",
      "longitude": "-90.01602837278277"
    }
  },
  {
    "service_request": "2026-1261150",
    "request_type": "Property Maintenance",
    "request_reason": "Property Maintenance",
    "date_created": "2026-02-26T16:17:40.000",
    "date_modified": "2026-02-26T16:17:41.000",
    "request_status": "Pending",
    "responsible_agency": "Department of Code Enforcement",
    "final_address": "3354 Adrian St",
    "address_councildis": "C",
    "status": "Pending",
    "rowid": "1261150",
    "final_x": "3710725.30385",
    "final_y": "518434.192438",
    "longitude": "-89.97627760394164",
    "latitude": "29.91859468005363",
    "geocoded_column": {
      "latitude": "29.91859468005363",
      "longitude": "-89.97627760394164"
    }
  },
  {
    "service_request": "2026-1261149",
    "request_type": "Abandoned Vehicles",
    "request_reason": "Abandoned/Junk Vehicles",
    "date_created": "2026-02-26T16:17:21.000",
    "date_modified": "2026-02-26T16:17:22.000",
    "request_status": "Pending",
    "responsible_agency": "Department of Public Works",
    "final_address": "4438 Lancelot Dr",
    "address_councildis": "E",
    "status": "Pending",
    "rowid": "1261149",
    "final_x": "3707537.87627",
    "final_y": "553819.649431",
    "longitude": "-89.98502425273327",
    "latitude": "30.015995131908348",
    "geocoded_column": {
      "latitude": "30.015995131908348",
      "longitude": "-89.98502425273327"
    }
  },
  {
    "service_request": "2026-1261148",
    "request_type": "Streetlights",
    "request_reason": "Streetlight Outage/Malfunction",
    "date_created": "2026-02-26T16:15:42.000",
    "date_modified": "2026-02-26T16:15:43.000",
    "request_status": "Pending",
    "responsible_agency": "Department of Public Works",
    "final_address": "1 S Park Pl",
    "address_councildis": "A",
    "status": "Pending",
    "rowid": "1261148",
    "final_x": "3670553.88686",
    "final_y": "544071.085838",
    "longitude": "-90.10220847753465",
    "latitude": "29.990334750567765",
    "geocoded_column": {
      "latitude": "29.990334750567765",
      "longitude": "-90.10220847753465"
    }
  },
  {
    "service_request": "2026-1261147",
    "request_type": "Road Striping",
    "request_reason": "Crosswalks",
    "date_created": "2026-02-26T16:13:10.000",
    "date_modified": "2026-02-26T16:13:12.000",
    "request_status": "Pending",
    "responsible_agency": "Department of Public Works",
    "final_address": "1812 Valence St",
    "address_councildis": "B",
    "status": "Pending",
    "rowid": "1261147",
    "final_x": "3669578.27988",
    "final_y": "521596.414649",
    "longitude": "-90.10605055418628",
    "latitude": "29.92856562834871",
    "geocoded_column": {
      "latitude": "29.92856562834871",
      "longitude": "-90.10605055418628"
    }
  },
  {
    "service_request": "2026-1261146",
    "request_type": "Trash/Recycling",
    "request_reason": "Request a Large Item Pick Up",
    "date_created": "2026-02-26T16:12:42.000",
    "date_modified": "2026-02-26T16:12:43.000",
    "request_status": "Pending",
    "responsible_agency": "Department of Sanitation",
    "final_address": "6301 Law St",
    "address_councildis": "E",
    "status": "Assigned to Contractor",
    "contractor": "Waste Pro",
    "rowid": "1261146",
    "final_x": "3702356.95882",
    "final_y": "538430.534729",
    "longitude": "-90.00195848718154",
    "latitude": "29.97384741488785",
    "geocoded_column": {
      "latitude": "29.97384741488785",
      "longitude": "-90.00195848718154"
    }
  },
  {
    "service_request": "2026-1261145",
    "request_type": "Trash/Recycling",
    "request_reason": "Missed Trash Pick-Up",
    "date_created": "2026-02-26T16:12:08.000",
    "date_modified": "2026-02-26T16:12:09.000",
    "request_status": "Pending",
    "responsible_agency": "Department of Sanitation",
    "final_address": "4810 Constance St",
    "address_councildis": "B",
    "status": "Assigned to Contractor",
    "contractor": "IV Waste",
    "rowid": "1261145",
    "final_x": "3669532.48212",
    "final_y": "518220.951542",
    "longitude": "-90.10630923433489",
    "latitude": "29.919285525387373",
    "geocoded_column": {
      "latitude": "29.919285525387373",
      "longitude": "-90.10630923433489"
    }
  },
  {
    "service_request": "2026-1261144",
    "request_type": "Trash/Recycling",
    "request_reason": "Replace Trash Cart",
    "date_created": "2026-02-26T16:07:24.000",
    "date_modified": "2026-02-26T16:07:28.000",
    "request_status": "Pending",
    "responsible_agency": "Department of Sanitation",
    "final_address": "1720 Constantinople St",
    "address_councildis": "B",
    "status": "Assigned to Contractor",
    "contractor": "IV Waste",
    "rowid": "1261144",
    "final_x": "3672213.37025",
    "final_y": "521570.988729",
    "longitude": "-90.09773298050845",
    "latitude": "29.92841784586303",
    "geocoded_column": {
      "latitude": "29.92841784586303",
      "longitude": "-90.09773298050845"
    }
  },
  {
    "service_request": "2026-1261143",
    "request_type": "Trash/Recycling",
    "request_reason": "Replace Trash Cart",
    "date_created": "2026-02-26T16:04:14.000",
    "date_modified": "2026-02-26T16:04:15.000",
    "request_status": "Pending",
    "responsible_agency": "Department of Sanitation",
    "final_address": "509 Hendee St",
    "address_councildis": "C",
    "status": "Assigned to Contractor",
    "contractor": "Richards Disposal",
    "rowid": "1261143",
    "final_x": "3690849.4422",
    "final_y": "529682.409345",
    "longitude": "-90.03861381834751",
    "latitude": "29.950155761099225",
    "geocoded_column": {
      "latitude": "29.950155761099225",
      "longitude": "-90.03861381834751"
    }
  },
  {
    "service_request": "2026-1261142",
    "request_type": "Abandoned Vehicles",
    "request_reason": "Abandoned/Junk Vehicles",
    "date_created": "2026-02-26T15:59:53.000",
    "date_modified": "2026-02-26T15:59:55.000",
    "request_status": "Pending",
    "responsible_agency": "Department of Public Works",
    "final_address": "ANNETTE ST & PLEASURE ST",
    "address_councildis": "D",
    "status": "Pending",
    "rowid": "1261142",
    "final_x": "3682436.5",
    "final_y": "544994.98",
    "longitude": "-90.06464208476393",
    "latitude": "29.99251873238943",
    "geocoded_column": {
      "latitude": "29.99251873238943",
      "longitude": "-90.06464208476393"
    }
  },
  {
    "service_request": "2026-1261141",
    "request_type": "Healthy Homes",
    "request_reason": "Healthy Homes",
    "date_created": "2026-02-26T15:56:55.000",
    "date_modified": "2026-02-26T15:56:57.000",
    "request_status": "Pending",
    "responsible_agency": "Department of Code Enforcement",
    "final_address": "705 N Tonti St",
    "address_councildis": "D",
    "status": "Pending",
    "rowid": "1261141",
    "final_x": "3677712.20469",
    "final_y": "536058.600263",
    "longitude": "-90.07987404760149",
    "latitude": "29.96808976070626",
    "geocoded_column": {
      "latitude": "29.96808976070626",
      "longitude": "-90.07987404760149"
    }
  },
  {
    "service_request": "2026-1261140",
    "request_type": "Streetlights",
    "request_reason": "Streetlight Outage/Malfunction",
    "date_created": "2026-02-26T15:55:47.000",
    "date_modified": "2026-02-26T15:55:49.000",
    "request_status": "Pending",
    "responsible_agency": "Department of Public Works",
    "final_address": "8004 Bass St",
    "address_councildis": "E",
    "status": "Pending",
    "rowid": "1261140",
    "final_x": "3719417.09637",
    "final_y": "574323.491243",
    "longitude": "-89.94670772115381",
    "latitude": "30.071982598626075",
    "geocoded_column": {
      "latitude": "30.071982598626075",
      "longitude": "-89.94670772115381"
    }
  },
  {
    "service_request": "2026-1261139",
    "request_type": "Trash/Recycling",
    "request_reason": "Request a Large Item Pick Up",
    "date_created": "2026-02-26T15:54:03.000",
    "date_modified": "2026-02-26T15:54:41.000",
    "request_status": "Pending",
    "responsible_agency": "Department of Sanitation",
    "final_address": "6526 Lamb Rd",
    "address_councildis": "D",
    "status": "Assigned to Contractor",
    "contractor": "Waste Pro",
    "rowid": "1261139",
    "final_x": "3698122.73226",
    "final_y": "555553.224153",
    "longitude": "-90.01470871434871",
    "latitude": "30.021063070433634",
    "geocoded_column": {
      "latitude": "30.021063070433634",
      "longitude": "-90.01470871434871"
    }
  },
  {
    "service_request": "2026-1261138",
    "request_type": "Property Maintenance",
    "request_reason": "Property Maintenance",
    "date_created": "2026-02-26T15:51:05.000",
    "date_modified": "2026-02-26T15:52:04.000",
    "request_status": "Pending",
    "responsible_agency": "Department of Code Enforcement",
    "final_address": "3900 Almonaster Ave",
    "address_councildis": "D",
    "status": "Pending",
    "rowid": "1261138",
    "final_x": "3690050.05948",
    "final_y": "547393.929745",
    "longitude": "-90.04050686448787",
    "latitude": "29.998880987070567",
    "geocoded_column": {
      "latitude": "29.998880987070567",
      "longitude": "-90.04050686448787"
    }
  },
  {
    "service_request": "2026-1261137",
    "request_type": "Street and Traffic Signs",
    "request_reason": "Traffic or Parking Sign Damaged or Missing",
    "date_created": "2026-02-26T15:49:55.000",
    "date_modified": "2026-02-26T15:49:58.000",
    "request_status": "Pending",
    "responsible_agency": "Department of Public Works",
    "final_address": "FELICITY ST & ST CHARLES AVE",
    "address_councildis": "B",
    "status": "Pending",
    "rowid": "1261137",
    "final_x": "3678532.0",
    "final_y": "524520.58",
    "longitude": "-90.07768439590886",
    "latitude": "29.9363393904912",
    "geocoded_column": {
      "latitude": "29.9363393904912",
      "longitude": "-90.07768439590886"
    }
  },
  {
    "service_request": "2026-1261136",
    "request_type": "Trash/Recycling",
    "request_reason": "Request a Large Item Pick Up",
    "date_created": "2026-02-26T15:49:19.000",
    "date_modified": "2026-02-26T15:49:20.000",
    "request_status": "Pending",
    "responsible_agency": "Department of Sanitation",
    "final_address": "1218 St Mary St",
    "address_councildis": "B",
    "status": "Assigned to Contractor",
    "contractor": "IV Waste",
    "rowid": "1261136",
    "final_x": "3679346.67362",
    "final_y": "523214.533499",
    "longitude": "-90.07515771841543",
    "latitude": "29.932723620166904",
    "geocoded_column": {
      "latitude": "29.932723620166904",
      "longitude": "-90.07515771841543"
    }
  },
  {
    "service_request": "2026-1261135",
    "request_type": "Trash/Recycling",
    "request_reason": "Repair Trash Cart",
    "date_created": "2026-02-26T15:45:50.000",
    "date_modified": "2026-02-26T15:45:52.000",
    "request_status": "Pending",
    "responsible_agency": "Department of Sanitation",
    "final_address": "2514 State St",
    "address_councildis": "A",
    "status": "Assigned to Contractor",
    "contractor": "IV Waste",
    "rowid": "1261135",
    "final_x": "3666794.22292",
    "final_y": "525917.112957",
    "longitude": "-90.11469420318856",
    "latitude": "29.940527869645752",
    "geocoded_column": {
      "latitude": "29.940527869645752",
      "longitude": "-90.11469420318856"
    }
  },
  {
    "service_request": "2026-1261134",
    "request_type": "Trash/Recycling",
    "request_reason": "Request a Large Item Pick Up",
    "date_created": "2026-02-26T15:45:07.000",
    "date_modified": "2026-02-26T15:45:09.000",
    "request_status": "Pending",
    "responsible_agency": "Department of Sanitation",
    "final_address": "918 Lyons St",
    "address_councildis": "B",
    "status": "Assigned to Contractor",
    "contractor": "IV Waste",
    "rowid": "1261134",
    "final_x": "3669157.11969",
    "final_y": "518760.842423",
    "longitude": "-90.10747583566132",
    "latitude": "29.920781101973933",
    "geocoded_column": {
      "latitude": "29.920781101973933",
      "longitude": "-90.10747583566132"
    }
  },
  {
    "service_request": "2026-1261133",
    "request_type": "Trash/Recycling",
    "request_reason": "Request a Large Item Pick Up",
    "date_created": "2026-02-26T15:43:19.000",
    "date_modified": "2026-02-26T15:43:21.000",
    "request_status": "Pending",
    "responsible_agency": "Department of Sanitation",
    "final_address": "335 Delaronde St",
    "address_councildis": "C",
    "status": "Assigned to Contractor",
    "contractor": "Richards Disposal",
    "rowid": "1261133",
    "final_x": "3686531.54767",
    "final_y": "530928.588354",
    "longitude": "-90.0522034208651",
    "latitude": "29.953715774647492",
    "geocoded_column": {
      "latitude": "29.953715774647492",
      "longitude": "-90.0522034208651"
    }
  },
  {
    "service_request": "2026-1261132",
    "request_type": "Parks & Parkways",
    "request_reason": "Request Tree Service (Right of Way/Public Property)",
    "date_created": "2026-02-26T15:38:04.000",
    "date_modified": "2026-02-26T15:40:39.000",
    "request_status": "Pending",
    "responsible_agency": "Department of Parks & Parkway",
    "final_address": "2000 BLK Orleans Ave",
    "address_councildis": "D",
    "status": "Pending",
    "rowid": "1261132",
    "final_x": "3678833.0337",
    "final_y": "535439.035209",
    "longitude": "-90.07635588994626",
    "latitude": "29.96635240720243",
    "geocoded_column": {
      "latitude": "29.96635240720243",
      "longitude": "-90.07635588994626"
    }
  },
  {
    "service_request": "2026-1261131",
    "request_type": "Health Related Request",
    "request_reason": "Noise Ordinance Complaint",
    "date_created": "2026-02-26T15:33:52.000",
    "date_modified": "2026-02-26T15:39:07.000",
    "request_status": "Pending",
    "responsible_agency": "Health Department",
    "final_address": "5130 Arts St",
    "address_councildis": "D",
    "status": "Pending",
    "rowid": "1261131",
    "final_x": "3685736.10473",
    "final_y": "551777.650581",
    "longitude": "-90.05398005928335",
    "latitude": "30.011067758595686",
    "geocoded_column": {
      "latitude": "30.011067758595686",
      "longitude": "-90.05398005928335"
    }
  },
  {
    "service_request": "2026-1261130",
    "request_type": "Trash/Recycling",
    "request_reason": "Repair Recycling Cart",
    "date_created": "2026-02-26T15:30:07.000",
    "date_modified": "2026-02-26T15:30:09.000",
    "request_status": "Pending",
    "responsible_agency": "Department of Sanitation",
    "final_address": "925 Lesseps St",
    "address_councildis": "C",
    "status": "Pending",
    "rowid": "1261130",
    "final_x": "3692587.14173",
    "final_y": "534501.990981",
    "longitude": "-90.03295440463141",
    "latitude": "29.963353825312055",
    "geocoded_column": {
      "latitude": "29.963353825312055",
      "longitude": "-90.03295440463141"
    }
  },
  {
    "service_request": "2026-1261129",
    "request_type": "Trash/Recycling",
    "request_reason": "Replace Trash Cart",
    "date_created": "2026-02-26T15:29:52.000",
    "date_modified": "2026-02-26T15:29:54.000",
    "request_status": "Pending",
    "responsible_agency": "Department of Sanitation",
    "final_address": "2741 Palmyra St Apt A",
    "address_councildis": "B",
    "status": "Assigned to Contractor",
    "contractor": "IV Waste",
    "rowid": "1261129",
    "final_x": "3674601.91969",
    "final_y": "534730.137734",
    "longitude": "-90.08974199324923",
    "latitude": "29.964530125225135",
    "geocoded_column": {
      "latitude": "29.964530125225135",
      "longitude": "-90.08974199324923"
    }
  },
  {
    "service_request": "2026-1261128",
    "request_type": "Trash/Recycling",
    "request_reason": "Request a Large Item Pick Up",
    "date_created": "2026-02-26T15:23:50.000",
    "date_modified": "2026-02-26T15:23:52.000",
    "request_status": "Pending",
    "responsible_agency": "Department of Sanitation",
    "final_address": "1023 Sixth St",
    "address_councildis": "B",
    "status": "Assigned to Contractor",
    "contractor": "IV Waste",
    "rowid": "1261128",
    "final_x": "3676753.48635",
    "final_y": "520416.238712",
    "longitude": "-90.0834405700652",
    "latitude": "29.925107259565195",
    "geocoded_column": {
      "latitude": "29.925107259565195",
      "longitude": "-90.0834405700652"
    }
  },
  {
    "service_request": "2026-1261127",
    "request_type": "Roads and Streets",
    "request_reason": "Pothole",
    "date_created": "2026-02-26T15:23:08.000",
    "date_modified": "2026-02-26T15:23:10.000",
    "request_status": "Pending",
    "responsible_agency": "Department of Public Works",
    "final_address": "8209 Oleander St",
    "address_councildis": "A",
    "status": "Pending",
    "rowid": "1261127",
    "final_x": "3666448.46407",
    "final_y": "534019.819845",
    "longitude": "-90.11551393950737",
    "latitude": "29.962817784631046",
    "geocoded_column": {
      "latitude": "29.962817784631046",
      "longitude": "-90.11551393950737"
    }
  },
  {
    "service_request": "2026-1261126",
    "request_type": "Abandoned Vehicles",
    "request_reason": "Abandoned/Junk Vehicles",
    "date_created": "2026-02-26T15:21:45.000",
    "date_modified": "2026-02-26T15:21:47.000",
    "request_status": "Pending",
    "responsible_agency": "Department of Public Works",
    "final_address": "2305 Decatur St",
    "address_councildis": "C",
    "status": "Pending",
    "rowid": "1261126",
    "final_x": "3685642.68156",
    "final_y": "534222.718469",
    "longitude": "-90.05489403272219",
    "latitude": "29.962800797086427",
    "geocoded_column": {
      "latitude": "29.962800797086427",
      "longitude": "-90.05489403272219"
    }
  },
  {
    "service_request": "2026-1261125",
    "request_type": "Traffic Signals",
    "request_reason": "Traffic Signal Malfunctioning or Damaged",
    "date_created": "2026-02-26T15:19:48.000",
    "date_modified": "2026-02-26T15:19:49.000",
    "request_status": "Pending",
    "responsible_agency": "Department of Public Works",
    "final_address": "6828 Chef Menteur Hwy",
    "address_councildis": "E",
    "status": "Pending",
    "rowid": "1261125",
    "final_x": "3700251.7352",
    "final_y": "551932.89999",
    "longitude": "-90.00811401333279",
    "latitude": "30.01104101544341",
    "geocoded_column": {
      "latitude": "30.01104101544341",
      "longitude": "-90.00811401333279"
    }
  },
  {
    "service_request": "2026-1261124",
    "request_type": "Trash/Recycling",
    "request_reason": "Request a Large Item Pick Up",
    "date_created": "2026-02-26T15:16:12.000",
    "date_modified": "2026-02-26T15:16:15.000",
    "request_status": "Pending",
    "responsible_agency": "Department of Sanitation",
    "final_address": "3700 Huntlee Dr",
    "address_councildis": "C",
    "status": "Assigned to Contractor",
    "contractor": "Richards Disposal",
    "rowid": "1261124",
    "final_x": "3701756.4762",
    "final_y": "517518.791926",
    "longitude": "-90.0046207715978",
    "latitude": "29.916366667484276",
    "geocoded_column": {
      "latitude": "29.916366667484276",
      "longitude": "-90.0046207715978"
    }
  },
  {
    "service_request": "2026-1261123",
    "request_type": "Trash/Recycling",
    "request_reason": "Request a Large Item Pick Up",
    "date_created": "2026-02-26T15:15:47.000",
    "date_modified": "2026-02-26T15:15:48.000",
    "request_status": "Pending",
    "responsible_agency": "Department of Sanitation",
    "final_address": "2835 OReilly St",
    "address_councildis": "D",
    "status": "Assigned to Contractor",
    "contractor": "IV Waste",
    "rowid": "1261123",
    "final_x": "3679229.60322",
    "final_y": "541977.005836",
    "longitude": "-90.07487676976892",
    "latitude": "29.98431760316828",
    "geocoded_column": {
      "latitude": "29.98431760316828",
      "longitude": "-90.07487676976892"
    }
  },
  {
    "service_request": "2026-1261122",
    "request_type": "Trash/Recycling",
    "request_reason": "Request a Large Item Pick Up",
    "date_created": "2026-02-26T15:15:25.000",
    "date_modified": "2026-02-26T15:16:30.000",
    "request_status": "Pending",
    "responsible_agency": "Department of Sanitation",
    "final_address": "2739 Palmyra St",
    "address_councildis": "B",
    "status": "Assigned to Contractor",
    "contractor": "IV Waste",
    "rowid": "1261122",
    "final_x": "3674613.37806",
    "final_y": "534706.179398",
    "longitude": "-90.08970662967121",
    "latitude": "29.96446390592218",
    "geocoded_column": {
      "latitude": "29.96446390592218",
      "longitude": "-90.08970662967121"
    }
  },
  {
    "service_request": "2026-1261121",
    "request_type": "Traffic Signals",
    "request_reason": "Traffic Signal Malfunctioning or Damaged",
    "date_created": "2026-02-26T15:11:19.000",
    "date_modified": "2026-02-26T15:11:21.000",
    "request_status": "Pending",
    "responsible_agency": "Department of Public Works",
    "final_address": "6828 Chef Menteur Hwy",
    "address_councildis": "E",
    "status": "Pending",
    "rowid": "1261121",
    "final_x": "3700251.7352",
    "final_y": "551932.89999",
    "longitude": "-90.00811401333279",
    "latitude": "30.01104101544341",
    "geocoded_column": {
      "latitude": "30.01104101544341",
      "longitude": "-90.00811401333279"
    }
  },
  {
    "service_request": "2026-1261120",
    "request_type": "Trash/Recycling",
    "request_reason": "Repair Recycling Cart",
    "date_created": "2026-02-26T15:11:07.000",
    "date_modified": "2026-02-26T15:11:08.000",
    "request_status": "Pending",
    "responsible_agency": "Department of Sanitation",
    "final_address": "1622 N Johnson St",
    "address_councildis": "D",
    "status": "Pending",
    "rowid": "1261120",
    "final_x": "3681256.49506",
    "final_y": "538771.744841",
    "longitude": "-90.06858647585531",
    "latitude": "29.975442886670617",
    "geocoded_column": {
      "latitude": "29.975442886670617",
      "longitude": "-90.06858647585531"
    }
  },
  {
    "service_request": "2026-1261119",
    "request_type": "Trash/Recycling",
    "request_reason": "Request a Large Item Pick Up",
    "date_created": "2026-02-26T15:09:58.000",
    "date_modified": "2026-02-26T15:10:00.000",
    "request_status": "Pending",
    "responsible_agency": "Department of Sanitation",
    "final_address": "7700 Henley St",
    "address_councildis": "E",
    "status": "Assigned to Contractor",
    "contractor": "Waste Pro",
    "rowid": "1261119",
    "final_x": "3696728.18992",
    "final_y": "559441.318429",
    "longitude": "-90.01897412755082",
    "latitude": "30.031797899911837",
    "geocoded_column": {
      "latitude": "30.031797899911837",
      "longitude": "-90.01897412755082"
    }
  },
  {
    "service_request": "2026-1261118",
    "request_type": "Trash/Recycling",
    "request_reason": "Order Second Trash Cart",
    "date_created": "2026-02-26T15:09:47.000",
    "date_modified": "2026-02-26T15:09:48.000",
    "request_status": "Pending",
    "responsible_agency": "Department of Sanitation",
    "final_address": "7700 Henley St",
    "address_councildis": "E",
    "status": "Assigned to Contractor",
    "contractor": "Waste Pro",
    "rowid": "1261118",
    "final_x": "3696728.18992",
    "final_y": "559441.318429",
    "longitude": "-90.01897412755082",
    "latitude": "30.031797899911837",
    "geocoded_column": {
      "latitude": "30.031797899911837",
      "longitude": "-90.01897412755082"
    }
  },
  {
    "service_request": "2026-1261117",
    "request_type": "Trash/Recycling",
    "request_reason": "Request a Large Item Pick Up",
    "date_created": "2026-02-26T15:08:59.000",
    "date_modified": "2026-02-26T15:09:01.000",
    "request_status": "Pending",
    "responsible_agency": "Department of Sanitation",
    "final_address": "7738 Dorsett Dr",
    "address_councildis": "E",
    "status": "Assigned to Contractor",
    "contractor": "Waste Pro",
    "rowid": "1261117",
    "final_x": "3712486.81899",
    "final_y": "567832.856804",
    "longitude": "-89.96886072626467",
    "latitude": "30.054364806164806",
    "geocoded_column": {
      "latitude": "30.054364806164806",
      "longitude": "-89.96886072626467"
    }
  },
  {
    "service_request": "2026-1261116",
    "request_type": "Trash/Recycling",
    "request_reason": "Request a Large Item Pick Up",
    "date_created": "2026-02-26T15:08:16.000",
    "date_modified": "2026-02-26T15:08:18.000",
    "request_status": "Pending",
    "responsible_agency": "Department of Sanitation",
    "final_address": "2827 Sullen Pl",
    "address_councildis": "C",
    "status": "Assigned to Contractor",
    "contractor": "Richards Disposal",
    "rowid": "1261116",
    "final_x": "3707794.77656",
    "final_y": "520110.729016",
    "longitude": "-89.98546540093162",
    "latitude": "29.92329967836897",
    "geocoded_column": {
      "latitude": "29.92329967836897",
      "longitude": "-89.98546540093162"
    }
  },
  {
    "service_request": "2026-1261115",
    "request_type": "Utility Poles",
    "request_reason": "Utility Pole Leaning",
    "date_created": "2026-02-26T15:07:52.000",
    "date_modified": "2026-02-26T15:10:36.000",
    "request_status": "Pending",
    "responsible_agency": "Utility Company Collective",
    "final_address": "2727 S Carrollton Ave",
    "address_councildis": "A",
    "status": "Pending",
    "rowid": "1261115",
    "final_x": "3665911.41626",
    "final_y": "532367.526595",
    "longitude": "-90.11726524952698",
    "latitude": "29.95829020425427",
    "geocoded_column": {
      "latitude": "29.95829020425427",
      "longitude": "-90.11726524952698"
    }
  },
  {
    "service_request": "2026-1261114",
    "request_type": "Safety & Permits",
    "request_reason": "Licenses & Permits",
    "date_created": "2026-02-26T15:06:26.000",
    "date_modified": "2026-02-26T15:06:29.000",
    "request_status": "Pending",
    "responsible_agency": "Safety and Permits",
    "final_address": "4747 Earhart Blvd Ste A",
    "address_councildis": "B",
    "status": "Pending",
    "rowid": "1261114",
    "final_x": "3669324.44404",
    "final_y": "532013.336131",
    "longitude": "-90.10649977812317",
    "latitude": "29.957216257352854",
    "geocoded_column": {
      "latitude": "29.957216257352854",
      "longitude": "-90.10649977812317"
    }
  },
  {
    "service_request": "2026-1261113",
    "request_type": "Drainage",
    "request_reason": "Catch Basin Not Draining",
    "date_created": "2026-02-26T15:06:14.000",
    "date_modified": "2026-02-26T15:06:38.000",
    "request_status": "Pending",
    "responsible_agency": "Sewerage & Water Board",
    "final_address": "4749 Werner Dr",
    "address_councildis": "E",
    "status": "Pending",
    "rowid": "1261113",
    "final_x": "3704801.86372",
    "final_y": "555357.967833",
    "longitude": "-89.99361193869565",
    "latitude": "30.020313155028372",
    "geocoded_column": {
      "latitude": "30.020313155028372",
      "longitude": "-89.99361193869565"
    }
  },
  {
    "service_request": "2026-1261112",
    "request_type": "Traffic Safety",
    "request_reason": "Request for Traffic Calming due to Speeding",
    "date_created": "2026-02-26T15:05:08.000",
    "date_modified": "2026-02-26T15:05:11.000",
    "request_status": "Pending",
    "responsible_agency": "Department of Public Works",
    "final_address": "6828 Chef Menteur Hwy",
    "address_councildis": "E",
    "status": "Pending",
    "rowid": "1261112",
    "final_x": "3700251.7352",
    "final_y": "551932.89999",
    "longitude": "-90.00811401333279",
    "latitude": "30.01104101544341",
    "geocoded_column": {
      "latitude": "30.01104101544341",
      "longitude": "-90.00811401333279"
    }
  },
  {
    "service_request": "2026-1261111",
    "request_type": "Trash/Recycling",
    "request_reason": "Request a Large Item Pick Up",
    "date_created": "2026-02-26T15:05:03.000",
    "date_modified": "2026-02-26T15:05:05.000",
    "request_status": "Pending",
    "responsible_agency": "Department of Sanitation",
    "final_address": "1028 Tricou St",
    "address_councildis": "E",
    "status": "Assigned to Contractor",
    "contractor": "Waste Pro",
    "rowid": "1261111",
    "final_x": "3700009.99684",
    "final_y": "532851.333828",
    "longitude": "-90.00957422606744",
    "latitude": "29.95858138967396",
    "geocoded_column": {
      "latitude": "29.95858138967396",
      "longitude": "-90.00957422606744"
    }
  },
  {
    "service_request": "2026-1261110",
    "request_type": "Trash/Recycling",
    "request_reason": "Illegal Dumping",
    "date_created": "2026-02-26T15:02:40.000",
    "date_modified": "2026-02-26T15:02:43.000",
    "request_status": "Pending",
    "responsible_agency": "Department of Sanitation",
    "final_address": "4700 BLK Earhart Blvd",
    "address_councildis": "B",
    "status": "Pending",
    "rowid": "1261110",
    "final_x": "3669106.26871",
    "final_y": "531950.735427",
    "longitude": "-90.10719082648073",
    "latitude": "29.957050547373164",
    "geocoded_column": {
      "latitude": "29.957050547373164",
      "longitude": "-90.10719082648073"
    }
  },
  {
    "service_request": "2026-1261109",
    "request_type": "Trash/Recycling",
    "request_reason": "Dead Animal Pick Up",
    "date_created": "2026-02-26T15:02:29.000",
    "date_modified": "2026-02-26T15:02:31.000",
    "request_status": "Pending",
    "responsible_agency": "Department of Sanitation",
    "final_address": "1119 N Johnson St",
    "address_councildis": "D",
    "status": "Assigned to Contractor",
    "contractor": "IV Waste",
    "rowid": "1261109",
    "final_x": "3679633.69282",
    "final_y": "536842.09524",
    "longitude": "-90.07377871642537",
    "latitude": "29.970186166771573",
    "geocoded_column": {
      "latitude": "29.970186166771573",
      "longitude": "-90.07377871642537"
    }
  },
  {
    "service_request": "2026-1261108",
    "request_type": "Roads and Streets",
    "request_reason": "Sidewalk Damaged or Missing",
    "date_created": "2026-02-26T14:57:08.000",
    "date_modified": "2026-02-26T14:57:10.000",
    "request_status": "Pending",
    "responsible_agency": "Department of Public Works",
    "final_address": "3901 Tulane Ave",
    "address_councildis": "B",
    "status": "Pending",
    "rowid": "1261108",
    "final_x": "3670228.07636",
    "final_y": "535970.072263",
    "longitude": "-90.10351227689367",
    "latitude": "29.968069331859475",
    "geocoded_column": {
      "latitude": "29.968069331859475",
      "longitude": "-90.10351227689367"
    }
  },
  {
    "service_request": "2026-1261107",
    "request_type": "Trash/Recycling",
    "request_reason": "Request a Large Item Pick Up",
    "date_created": "2026-02-26T14:55:00.000",
    "date_modified": "2026-02-26T14:55:02.000",
    "request_status": "Pending",
    "responsible_agency": "Department of Sanitation",
    "final_address": "7712 Cohn St",
    "address_councildis": "A",
    "status": "Assigned to Contractor",
    "contractor": "IV Waste",
    "rowid": "1261107",
    "final_x": "3664600.56519",
    "final_y": "529251.304897",
    "longitude": "-90.12150864759924",
    "latitude": "29.94975979440289",
    "geocoded_column": {
      "latitude": "29.94975979440289",
      "longitude": "-90.12150864759924"
    }
  },
  {
    "service_request": "2026-1261106",
    "request_type": "Trash/Recycling",
    "request_reason": "Order Trash Cart",
    "date_created": "2026-02-26T14:54:01.000",
    "date_modified": "2026-02-26T14:54:03.000",
    "request_status": "Pending",
    "responsible_agency": "Department of Sanitation",
    "final_address": "3024 Hollygrove St",
    "address_councildis": "A",
    "status": "Assigned to Contractor",
    "contractor": "IV Waste",
    "rowid": "1261106",
    "final_x": "3664052.7762",
    "final_y": "535449.843654",
    "longitude": "-90.12303154934179",
    "latitude": "29.966819674362117",
    "geocoded_column": {
      "latitude": "29.966819674362117",
      "longitude": "-90.12303154934179"
    }
  },
  {
    "service_request": "2026-1261105",
    "request_type": "Abandoned Vehicles",
    "request_reason": "Abandoned/Junk Vehicles",
    "date_created": "2026-02-26T14:50:20.000",
    "date_modified": "2026-02-26T14:50:23.000",
    "request_status": "Pending",
    "responsible_agency": "Department of Public Works",
    "final_address": "7651 Pineridge St",
    "address_councildis": "E",
    "status": "Pending",
    "rowid": "1261105",
    "final_x": "3718901.22476",
    "final_y": "572184.744489",
    "longitude": "-89.9484202604737",
    "latitude": "30.06611910018317",
    "geocoded_column": {
      "latitude": "30.06611910018317",
      "longitude": "-89.9484202604737"
    }
  },
  {
    "service_request": "2026-1261104",
    "request_type": "Roads and Streets",
    "request_reason": "Pothole",
    "date_created": "2026-02-26T14:47:45.000",
    "date_modified": "2026-02-26T14:47:47.000",
    "request_status": "Pending",
    "responsible_agency": "Department of Public Works",
    "final_address": "5500 Rickert Dr",
    "address_councildis": "E",
    "status": "Pending",
    "rowid": "1261104",
    "final_x": "3703225.9763",
    "final_y": "556136.312282",
    "longitude": "-89.99856257220046",
    "latitude": "30.02250387140223",
    "geocoded_column": {
      "latitude": "30.02250387140223",
      "longitude": "-89.99856257220046"
    }
  },
  {
    "service_request": "2026-1261103",
    "request_type": "Trash/Recycling",
    "request_reason": "Request a Large Item Pick Up",
    "date_created": "2026-02-26T14:46:42.000",
    "date_modified": "2026-02-26T14:46:43.000",
    "request_status": "Pending",
    "responsible_agency": "Department of Sanitation",
    "final_address": "10915 Zenith St",
    "address_councildis": "E",
    "status": "Assigned to Contractor",
    "contractor": "Waste Pro",
    "rowid": "1261103",
    "final_x": "3710521.25368",
    "final_y": "565430.106402",
    "longitude": "-89.9751633857473",
    "latitude": "30.047822426212523",
    "geocoded_column": {
      "latitude": "30.047822426212523",
      "longitude": "-89.9751633857473"
    }
  },
  {
    "service_request": "2026-1261102",
    "request_type": "Trash/Recycling",
    "request_reason": "Request a Large Item Pick Up",
    "date_created": "2026-02-26T14:44:59.000",
    "date_modified": "2026-02-26T14:45:11.000",
    "request_status": "Pending",
    "responsible_agency": "Department of Sanitation",
    "final_address": "4133 Willow St",
    "address_councildis": "B",
    "status": "Assigned to Contractor",
    "contractor": "IV Waste",
    "rowid": "1261102",
    "final_x": "3671288.00615",
    "final_y": "525574.596285",
    "longitude": "-90.10051818283742",
    "latitude": "29.939453880390737",
    "geocoded_column": {
      "latitude": "29.939453880390737",
      "longitude": "-90.10051818283742"
    }
  },
  {
    "service_request": "2026-1261101",
    "request_type": "Trash/Recycling",
    "request_reason": "Replace Trash Cart",
    "date_created": "2026-02-26T14:44:58.000",
    "date_modified": "2026-02-26T14:45:01.000",
    "request_status": "Pending",
    "responsible_agency": "Department of Sanitation",
    "final_address": "3737 Herald St",
    "address_councildis": "C",
    "status": "Assigned to Contractor",
    "contractor": "Richards Disposal",
    "rowid": "1261101",
    "final_x": "3702106.30698",
    "final_y": "517268.170293",
    "longitude": "-90.00352575345472",
    "latitude": "29.91566638475728",
    "geocoded_column": {
      "latitude": "29.91566638475728",
      "longitude": "-90.00352575345472"
    }
  },
  {
    "service_request": "2026-1261100",
    "request_type": "Roads and Streets",
    "request_reason": "Street Subsidence (Sinking)",
    "date_created": "2026-02-26T14:43:24.000",
    "date_modified": "2026-02-26T14:43:26.000",
    "request_status": "Pending",
    "responsible_agency": "Sewerage & Water Board",
    "final_address": "1700 Moss St",
    "address_councildis": "A",
    "status": "Pending",
    "rowid": "1261100",
    "final_x": "3675246.92693",
    "final_y": "542599.746637",
    "longitude": "-90.08743488821789",
    "latitude": "29.9861495966134",
    "geocoded_column": {
      "latitude": "29.9861495966134",
      "longitude": "-90.08743488821789"
    }
  },
  {
    "service_request": "2026-1261099",
    "request_type": "Trash/Recycling",
    "request_reason": "Request a Large Item Pick Up",
    "date_created": "2026-02-26T14:42:46.000",
    "date_modified": "2026-02-26T14:42:48.000",
    "request_status": "Pending",
    "responsible_agency": "Department of Sanitation",
    "final_address": "3 Neron Pl",
    "address_councildis": "A",
    "status": "Assigned to Contractor",
    "contractor": "IV Waste",
    "rowid": "1261099",
    "final_x": "3664770.83828",
    "final_y": "531111.829442",
    "longitude": "-90.12090885606904",
    "latitude": "29.954870681133077",
    "geocoded_column": {
      "latitude": "29.954870681133077",
      "longitude": "-90.12090885606904"
    }
  },
  {
    "service_request": "2026-1261098",
    "request_type": "Roads and Streets",
    "request_reason": "Pothole",
    "date_created": "2026-02-26T14:41:04.000",
    "date_modified": "2026-02-26T14:41:07.000",
    "request_status": "Pending",
    "responsible_agency": "Department of Public Works",
    "final_address": "6526 Virgilian St",
    "address_councildis": "D",
    "status": "Pending",
    "rowid": "1261098",
    "final_x": "3697252.08355",
    "final_y": "555262.389337",
    "longitude": "-90.01747025464518",
    "latitude": "30.02029090581026",
    "geocoded_column": {
      "latitude": "30.02029090581026",
      "longitude": "-90.01747025464518"
    }
  },
  {
    "service_request": "2026-1261097",
    "request_type": "Trash/Recycling",
    "request_reason": "Request a Large Item Pick Up",
    "date_created": "2026-02-26T14:38:13.000",
    "date_modified": "2026-02-26T14:38:15.000",
    "request_status": "Pending",
    "responsible_agency": "Department of Sanitation",
    "final_address": "13017 Cherbourg St",
    "address_councildis": "E",
    "status": "Assigned to Contractor",
    "contractor": "Waste Pro",
    "rowid": "1261097",
    "final_x": "3723897.65484",
    "final_y": "561014.163038",
    "longitude": "-89.93305757696689",
    "latitude": "30.03523766425411",
    "geocoded_column": {
      "latitude": "30.03523766425411",
      "longitude": "-89.93305757696689"
    }
  },
  {
    "service_request": "2026-1261096",
    "request_type": "Abandoned Vehicles",
    "request_reason": "Abandoned/Junk Vehicles",
    "date_created": "2026-02-26T14:34:31.000",
    "date_modified": "2026-02-26T14:34:32.000",
    "request_status": "Pending",
    "responsible_agency": "Department of Public Works",
    "final_address": "5222 St Claude Ave",
    "address_councildis": "E",
    "status": "Pending",
    "rowid": "1261096",
    "final_x": "3696684.40138",
    "final_y": "534036.116613",
    "longitude": "-90.02003264697623",
    "latitude": "29.961944345059862",
    "geocoded_column": {
      "latitude": "29.961944345059862",
      "longitude": "-90.02003264697623"
    }
  },
  {
    "service_request": "2026-1261095",
    "request_type": "Trash/Recycling",
    "request_reason": "Replace Recycling Cart",
    "date_created": "2026-02-26T14:34:11.000",
    "date_modified": "2026-02-26T14:34:14.000",
    "request_status": "Pending",
    "responsible_agency": "Department of Sanitation",
    "final_address": "2728 Bay St",
    "address_councildis": "D",
    "status": "Pending",
    "rowid": "1261095",
    "final_x": "3688197.46748",
    "final_y": "545239.951311",
    "longitude": "-90.0464356320381",
    "latitude": "29.993015667845004",
    "geocoded_column": {
      "latitude": "29.993015667845004",
      "longitude": "-90.0464356320381"
    }
  },
  {
    "service_request": "2026-1261094",
    "request_type": "Trash/Recycling",
    "request_reason": "Repair Recycling Cart",
    "date_created": "2026-02-26T14:28:22.000",
    "date_modified": "2026-02-26T14:28:24.000",
    "request_status": "Pending",
    "responsible_agency": "Department of Sanitation",
    "final_address": "1233 Nashville Ave",
    "address_councildis": "A",
    "status": "Pending",
    "rowid": "1261094",
    "final_x": "3665948.0722",
    "final_y": "520574.524856",
    "longitude": "-90.11754462378595",
    "latitude": "29.92586216874422",
    "geocoded_column": {
      "latitude": "29.92586216874422",
      "longitude": "-90.11754462378595"
    }
  },
  {
    "service_request": "2026-1261093",
    "request_type": "Trash/Recycling",
    "request_reason": "Missed Trash Pick-Up",
    "date_created": "2026-02-26T14:24:12.000",
    "date_modified": "2026-02-26T14:24:14.000",
    "request_status": "Pending",
    "responsible_agency": "Department of Sanitation",
    "final_address": "5714 Tchoupitoulas St",
    "address_councildis": "A",
    "status": "Assigned to Contractor",
    "contractor": "IV Waste",
    "rowid": "1261093",
    "final_x": "3665309.029",
    "final_y": "517187.691061",
    "longitude": "-90.11967514156362",
    "latitude": "29.91656806531834",
    "geocoded_column": {
      "latitude": "29.91656806531834",
      "longitude": "-90.11967514156362"
    }
  },
  {
    "service_request": "2026-1261092",
    "request_type": "Trash/Recycling",
    "request_reason": "Request a Large Item Pick Up",
    "date_created": "2026-02-26T14:21:42.000",
    "date_modified": "2026-02-26T14:21:44.000",
    "request_status": "Pending",
    "responsible_agency": "Department of Sanitation",
    "final_address": "13953 Linden St",
    "address_councildis": "E",
    "status": "Assigned to Contractor",
    "contractor": "Waste Pro",
    "rowid": "1261092",
    "final_x": "3718211.49285",
    "final_y": "572362.326249",
    "longitude": "-89.9505938011654",
    "latitude": "30.066630279387706",
    "geocoded_column": {
      "latitude": "30.066630279387706",
      "longitude": "-89.9505938011654"
    }
  },
  {
    "service_request": "2026-1261091",
    "request_type": "Trash/Recycling",
    "request_reason": "Order Recycling Cart",
    "date_created": "2026-02-26T14:16:31.000",
    "date_modified": "2026-02-26T14:16:32.000",
    "request_status": "Pending",
    "responsible_agency": "Department of Sanitation",
    "final_address": "3769 Herald St",
    "address_councildis": "C",
    "status": "Pending",
    "rowid": "1261091",
    "final_x": "3702104.20189",
    "final_y": "517010.147957",
    "longitude": "-90.00354184946345",
    "latitude": "29.914956978760987",
    "geocoded_column": {
      "latitude": "29.914956978760987",
      "longitude": "-90.00354184946345"
    }
  },
  {
    "service_request": "2026-1261090",
    "request_type": "Parks & Parkways",
    "request_reason": "Request Tree Service (Right of Way/Public Property)",
    "date_created": "2026-02-26T14:11:01.000",
    "date_modified": "2026-02-26T14:11:03.000",
    "request_status": "Pending",
    "responsible_agency": "Department of Parks & Parkway",
    "final_address": "8120 Lomond Rd",
    "address_councildis": "E",
    "status": "Pending",
    "rowid": "1261090",
    "final_x": "3702677.39095",
    "final_y": "561481.336479",
    "longitude": "-90.00009944815555",
    "latitude": "30.037218173111096",
    "geocoded_column": {
      "latitude": "30.037218173111096",
      "longitude": "-90.00009944815555"
    }
  },
  {
    "service_request": "2026-1261089",
    "request_type": "Abandoned Vehicles",
    "request_reason": "Abandoned/Junk Vehicles",
    "date_created": "2026-02-26T14:10:47.000",
    "date_modified": "2026-02-26T14:10:49.000",
    "request_status": "Pending",
    "responsible_agency": "Department of Public Works",
    "final_address": "1516 Marengo St",
    "address_councildis": "B",
    "status": "Pending",
    "rowid": "1261089",
    "final_x": "3671914.12974",
    "final_y": "520828.174905",
    "longitude": "-90.09870288611906",
    "latitude": "29.92638421539168",
    "geocoded_column": {
      "latitude": "29.92638421539168",
      "longitude": "-90.09870288611906"
    }
  },
  {
    "service_request": "2026-1261088",
    "request_type": "Utility Poles",
    "request_reason": "Wires Sagging/Hanging Low",
    "date_created": "2026-02-26T14:09:40.000",
    "date_modified": "2026-02-26T14:09:42.000",
    "request_status": "Pending",
    "responsible_agency": "Utility Company Collective",
    "final_address": "2020 Ellen Park Pl",
    "address_councildis": "C",
    "status": "Pending",
    "rowid": "1261088",
    "final_x": "3703008.51646",
    "final_y": "523382.393659",
    "longitude": "-90.00045356886365",
    "latitude": "29.932449562403463",
    "geocoded_column": {
      "latitude": "29.932449562403463",
      "longitude": "-90.00045356886365"
    }
  },
  {
    "service_request": "2026-1261087",
    "request_type": "Abandoned Vehicles",
    "request_reason": "Abandoned/Junk Vehicles",
    "date_created": "2026-02-26T14:06:31.000",
    "date_modified": "2026-02-26T14:07:11.000",
    "request_status": "Pending",
    "responsible_agency": "Department of Public Works",
    "final_address": "2861 Tchoupitoulas St",
    "address_councildis": "B",
    "status": "Pending",
    "rowid": "1261087",
    "final_x": "3677922.06318",
    "final_y": "518663.530039",
    "longitude": "-90.07981227384694",
    "latitude": "29.920252776894422",
    "geocoded_column": {
      "latitude": "29.920252776894422",
      "longitude": "-90.07981227384694"
    }
  },
  {
    "service_request": "2026-1261086",
    "request_type": "Abandoned Vehicles",
    "request_reason": "Abandoned/Junk Vehicles",
    "date_created": "2026-02-26T14:06:00.000",
    "date_modified": "2026-02-26T14:06:03.000",
    "request_status": "Pending",
    "responsible_agency": "Department of Public Works",
    "final_address": "6830 Tara Ln",
    "address_councildis": "E",
    "status": "Pending",
    "rowid": "1261086",
    "final_x": "3707161.83448",
    "final_y": "559405.579485",
    "longitude": "-89.98600484255756",
    "latitude": "30.031366425976454",
    "geocoded_column": {
      "latitude": "30.031366425976454",
      "longitude": "-89.98600484255756"
    }
  },
  {
    "service_request": "2026-1261085",
    "request_type": "Trash/Recycling",
    "request_reason": "Request a Large Item Pick Up",
    "date_created": "2026-02-26T14:04:53.000",
    "date_modified": "2026-02-26T14:04:55.000",
    "request_status": "Pending",
    "responsible_agency": "Department of Sanitation",
    "final_address": "2700 BLK Edna St",
    "address_councildis": "D",
    "status": "Assigned to Contractor",
    "contractor": "IV Waste",
    "rowid": "1261085",
    "final_x": "3689686.30038",
    "final_y": "545289.876728",
    "longitude": "-90.04173090314175",
    "latitude": "29.993106883511192",
    "geocoded_column": {
      "latitude": "29.993106883511192",
      "longitude": "-90.04173090314175"
    }
  },
  {
    "service_request": "2026-1261084",
    "request_type": "Street and Traffic Signs",
    "request_reason": "Stop Sign Missing or Damaged",
    "date_created": "2026-02-26T14:03:02.000",
    "date_modified": "2026-02-26T14:04:19.000",
    "request_status": "Pending",
    "responsible_agency": "Department of Public Works",
    "final_address": "2901 Ap Tureaud Ave",
    "address_councildis": "D",
    "status": "Pending",
    "rowid": "1261084",
    "final_x": "3681642.45384",
    "final_y": "543178.546765",
    "longitude": "-90.06721372593908",
    "latitude": "29.987548332532047",
    "geocoded_column": {
      "latitude": "29.987548332532047",
      "longitude": "-90.06721372593908"
    }
  },
  {
    "service_request": "2026-1261083",
    "request_type": "Trash/Recycling",
    "request_reason": "Return Trash Cart",
    "date_created": "2026-02-26T14:01:51.000",
    "date_modified": "2026-02-26T14:01:53.000",
    "request_status": "Pending",
    "responsible_agency": "Department of Sanitation",
    "final_address": "17 S Park Pl",
    "address_councildis": "A",
    "status": "Assigned to Contractor",
    "contractor": "IV Waste",
    "rowid": "1261083",
    "final_x": "3670184.76116",
    "final_y": "543890.941838",
    "longitude": "-90.10338056176622",
    "latitude": "29.98985031638973",
    "geocoded_column": {
      "latitude": "29.98985031638973",
      "longitude": "-90.10338056176622"
    }
  },
  {
    "service_request": "2026-1261082",
    "request_type": "Abandoned Vehicles",
    "request_reason": "Abandoned/Junk Vehicles",
    "date_created": "2026-02-26T14:01:29.000",
    "date_modified": "2026-02-26T14:01:31.000",
    "request_status": "Pending",
    "responsible_agency": "Department of Public Works",
    "final_address": "4730 Freret St",
    "address_councildis": "B",
    "status": "Pending",
    "rowid": "1261082",
    "final_x": "3669235.8617",
    "final_y": "523857.789691",
    "longitude": "-90.10705510078016",
    "latitude": "29.934793766018775",
    "geocoded_column": {
      "latitude": "29.934793766018775",
      "longitude": "-90.10705510078016"
    }
  },
  {
    "service_request": "2026-1261081",
    "request_type": "Streetlights",
    "request_reason": "Streetlight Outage/Malfunction",
    "date_created": "2026-02-26T14:01:26.000",
    "date_modified": "2026-02-26T14:01:28.000",
    "request_status": "Pending",
    "responsible_agency": "Department of Public Works",
    "final_address": "15060 Curran Rd",
    "address_councildis": "E",
    "status": "Pending",
    "rowid": "1261081",
    "final_x": "3721243.79455",
    "final_y": "574285.546026",
    "longitude": "-89.94093446056164",
    "latitude": "30.071817357306283",
    "geocoded_column": {
      "latitude": "30.071817357306283",
      "longitude": "-89.94093446056164"
    }
  },
  {
    "service_request": "2026-1261080",
    "request_type": "Trash/Recycling",
    "request_reason": "Request a Large Item Pick Up",
    "date_created": "2026-02-26T13:58:19.000",
    "date_modified": "2026-02-26T13:58:21.000",
    "request_status": "Pending",
    "responsible_agency": "Department of Sanitation",
    "final_address": "2619 Erato St",
    "address_councildis": "B",
    "status": "Assigned to Contractor",
    "contractor": "IV Waste",
    "rowid": "1261080",
    "final_x": "3676341.06081",
    "final_y": "528093.724095",
    "longitude": "-90.08447832413147",
    "latitude": "29.946230194645313",
    "geocoded_column": {
      "latitude": "29.946230194645313",
      "longitude": "-90.08447832413147"
    }
  },
  {
    "service_request": "2026-1261079",
    "request_type": "Abandoned Vehicles",
    "request_reason": "Abandoned/Junk Vehicles",
    "date_created": "2026-02-26T13:55:28.000",
    "date_modified": "2026-02-26T13:56:20.000",
    "request_status": "Pending",
    "responsible_agency": "Department of Public Works",
    "final_address": "3000 BLK Urquhart St",
    "address_councildis": "C",
    "status": "Pending",
    "rowid": "1261079",
    "final_x": "3688765.82355",
    "final_y": "536831.691872",
    "longitude": "-90.04493894415542",
    "latitude": "29.96987837936203",
    "geocoded_column": {
      "latitude": "29.96987837936203",
      "longitude": "-90.04493894415542"
    }
  },
  {
    "service_request": "2026-1261078",
    "request_type": "Property Maintenance",
    "request_reason": "Property Maintenance",
    "date_created": "2026-02-26T13:50:29.000",
    "date_modified": "2026-02-26T14:32:22.000",
    "case_close_date": "2026-02-26T08:32:20.000",
    "request_status": "Closed",
    "responsible_agency": "Department of Code Enforcement",
    "final_address": "1906 Allen St",
    "address_councildis": "D",
    "status": "Resolved",
    "rowid": "1261078",
    "final_x": "3682463.03176",
    "final_y": "539049.043978",
    "longitude": "-90.06476621366683",
    "latitude": "29.976168689385794",
    "geocoded_column": {
      "latitude": "29.976168689385794",
      "longitude": "-90.06476621366683"
    }
  },
  {
    "service_request": "2026-1261077",
    "request_type": "Roads and Streets",
    "request_reason": "Pothole",
    "date_created": "2026-02-26T13:50:08.000",
    "date_modified": "2026-02-26T14:28:07.000",
    "request_status": "Pending",
    "responsible_agency": "Department of Public Works",
    "final_address": "5500 Rickert Dr",
    "address_councildis": "E",
    "status": "Pending",
    "rowid": "1261077",
    "final_x": "3703225.9763",
    "final_y": "556136.312282",
    "longitude": "-89.99856257220046",
    "latitude": "30.02250387140223",
    "geocoded_column": {
      "latitude": "30.02250387140223",
      "longitude": "-89.99856257220046"
    }
  },
  {
    "service_request": "2026-1261076",
    "request_type": "Roads and Streets",
    "request_reason": "Pothole",
    "date_created": "2026-02-26T13:48:51.000",
    "date_modified": "2026-02-26T13:48:54.000",
    "request_status": "Pending",
    "responsible_agency": "Department of Public Works",
    "final_address": "800 BLK Pacific Ave",
    "address_councildis": "C",
    "status": "Pending",
    "rowid": "1261076",
    "final_x": "3688446.24348",
    "final_y": "528511.434235",
    "longitude": "-90.04624335796865",
    "latitude": "29.947010427200365",
    "geocoded_column": {
      "latitude": "29.947010427200365",
      "longitude": "-90.04624335796865"
    }
  },
  {
    "service_request": "2026-1261075",
    "request_type": "Trash/Recycling",
    "request_reason": "Request a Large Item Pick Up",
    "date_created": "2026-02-26T13:48:23.000",
    "date_modified": "2026-02-26T13:48:24.000",
    "request_status": "Pending",
    "responsible_agency": "Department of Sanitation",
    "final_address": "4957 Chantilly Dr",
    "address_councildis": "E",
    "status": "Assigned to Contractor",
    "contractor": "Waste Pro",
    "rowid": "1261075",
    "final_x": "3700838.95633",
    "final_y": "555471.063897",
    "longitude": "-90.00612928265917",
    "latitude": "30.020750933229035",
    "geocoded_column": {
      "latitude": "30.020750933229035",
      "longitude": "-90.00612928265917"
    }
  },
  {
    "service_request": "2026-1261074",
    "request_type": "Roads and Streets",
    "request_reason": "Pothole",
    "date_created": "2026-02-26T13:47:39.000",
    "date_modified": "2026-02-26T13:47:41.000",
    "request_status": "Pending",
    "responsible_agency": "Department of Public Works",
    "final_address": "700 BLK Pacific Ave",
    "address_councildis": "C",
    "status": "Pending",
    "rowid": "1261074",
    "final_x": "3688462.45473",
    "final_y": "528886.433485",
    "longitude": "-90.04617887285347",
    "latitude": "29.948041046201002",
    "geocoded_column": {
      "latitude": "29.948041046201002",
      "longitude": "-90.04617887285347"
    }
  },
  {
    "service_request": "2026-1261073",
    "request_type": "Safety & Permits",
    "request_reason": "Licenses & Permits",
    "date_created": "2026-02-26T13:43:27.000",
    "date_modified": "2026-02-26T14:31:47.000",
    "case_close_date": "2026-02-26T08:31:46.000",
    "request_status": "Closed",
    "responsible_agency": "Safety and Permits",
    "final_address": "3017 N Galvez St",
    "address_councildis": "D",
    "status": "Resolved",
    "rowid": "1261073",
    "final_x": "3689543.92233",
    "final_y": "539921.220042",
    "longitude": "-90.04237171463383",
    "latitude": "29.97834941100511",
    "geocoded_column": {
      "latitude": "29.97834941100511",
      "longitude": "-90.04237171463383"
    }
  },
  {
    "service_request": "2026-1261072",
    "request_type": "Trash/Recycling",
    "request_reason": "Order Second Trash Cart",
    "date_created": "2026-02-26T13:37:58.000",
    "date_modified": "2026-02-26T13:38:00.000",
    "request_status": "Pending",
    "responsible_agency": "Department of Sanitation",
    "final_address": "7341 Lake Barrington Dr",
    "address_councildis": "E",
    "status": "Assigned to Contractor",
    "contractor": "Waste Pro",
    "rowid": "1261072",
    "final_x": "3712388.86398",
    "final_y": "564953.202658",
    "longitude": "-89.96927868906454",
    "latitude": "30.046450133747005",
    "geocoded_column": {
      "latitude": "30.046450133747005",
      "longitude": "-89.96927868906454"
    }
  },
  {
    "service_request": "2026-1261071",
    "request_type": "Trash/Recycling",
    "request_reason": "Order Recycling Cart",
    "date_created": "2026-02-26T13:37:27.000",
    "date_modified": "2026-02-26T13:37:30.000",
    "request_status": "Pending",
    "responsible_agency": "Department of Sanitation",
    "final_address": "3623 Timber Ct",
    "address_councildis": "C",
    "status": "Pending",
    "rowid": "1261071",
    "final_x": "3703697.59518",
    "final_y": "511593.487984",
    "longitude": "-89.99871170492128",
    "latitude": "29.90001206651772",
    "geocoded_column": {
      "latitude": "29.90001206651772",
      "longitude": "-89.99871170492128"
    }
  },
  {
    "service_request": "2026-1261070",
    "request_type": "Trash/Recycling",
    "request_reason": "Damaged Caused By Contractor",
    "date_created": "2026-02-26T13:31:36.000",
    "date_modified": "2026-02-26T13:31:38.000",
    "request_status": "Pending",
    "responsible_agency": "Department of Sanitation",
    "final_address": "4913 S Robertson St",
    "address_councildis": "B",
    "status": "Assigned to Contractor",
    "contractor": "IV Waste",
    "rowid": "1261070",
    "final_x": "3669064.87655",
    "final_y": "524293.93094",
    "longitude": "-90.10758017077487",
    "latitude": "29.93599804478946",
    "geocoded_column": {
      "latitude": "29.93599804478946",
      "longitude": "-90.10758017077487"
    }
  },
  {
    "service_request": "2026-1261069",
    "request_type": "Trash/Recycling",
    "request_reason": "Request a Large Item Pick Up",
    "date_created": "2026-02-26T13:30:15.000",
    "date_modified": "2026-02-26T13:30:18.000",
    "request_status": "Pending",
    "responsible_agency": "Department of Sanitation",
    "final_address": "4484 Painters St",
    "address_councildis": "D",
    "status": "Assigned to Contractor",
    "contractor": "IV Waste",
    "rowid": "1261069",
    "final_x": "3686206.55369",
    "final_y": "549511.675795",
    "longitude": "-90.05257374713486",
    "latitude": "30.004822702146402",
    "geocoded_column": {
      "latitude": "30.004822702146402",
      "longitude": "-90.05257374713486"
    }
  },
  {
    "service_request": "2026-1261068",
    "request_type": "Trash/Recycling",
    "request_reason": "Replace Trash Cart",
    "date_created": "2026-02-26T13:26:14.000",
    "date_modified": "2026-02-26T13:26:15.000",
    "request_status": "Pending",
    "responsible_agency": "Department of Sanitation",
    "final_address": "1816 Mardi Gras Blvd",
    "address_councildis": "C",
    "status": "Assigned to Contractor",
    "contractor": "Richards Disposal",
    "rowid": "1261068",
    "final_x": "3690842.61846",
    "final_y": "525358.286589",
    "longitude": "-90.0387896155421",
    "latitude": "29.938266117499712",
    "geocoded_column": {
      "latitude": "29.938266117499712",
      "longitude": "-90.0387896155421"
    }
  },
  {
    "service_request": "2026-1261067",
    "request_type": "Safety & Permits",
    "request_reason": "Zoning Enforcement",
    "date_created": "2026-02-26T13:25:49.000",
    "date_modified": "2026-02-26T14:39:22.000",
    "case_close_date": "2026-02-26T08:39:21.000",
    "request_status": "Closed",
    "responsible_agency": "Department of Public Works",
    "final_address": "141 Allen Toussaint Blvd",
    "address_councildis": "D",
    "status": "Resolved",
    "rowid": "1261067",
    "final_x": "3667515.27693",
    "final_y": "554989.387544",
    "longitude": "-90.1114389248339",
    "latitude": "30.020445702895913",
    "geocoded_column": {
      "latitude": "30.020445702895913",
      "longitude": "-90.1114389248339"
    }
  },
  {
    "service_request": "2026-1261066",
    "request_type": "Trash/Recycling",
    "request_reason": "Request a Large Item Pick Up",
    "date_created": "2026-02-26T13:24:27.000",
    "date_modified": "2026-02-26T13:24:30.000",
    "request_status": "Pending",
    "responsible_agency": "Department of Sanitation",
    "final_address": "7965 Edgelake Ct",
    "address_councildis": "E",
    "status": "Assigned to Contractor",
    "contractor": "Waste Pro",
    "rowid": "1261066",
    "final_x": "3702715.00586",
    "final_y": "562288.538207",
    "longitude": "-89.9999508928236",
    "latitude": "30.039436457999617",
    "geocoded_column": {
      "latitude": "30.039436457999617",
      "longitude": "-89.9999508928236"
    }
  },
  {
    "service_request": "2026-1261065",
    "request_type": "Trash/Recycling",
    "request_reason": "Illegal Dumping",
    "date_created": "2026-02-26T13:18:18.000",
    "date_modified": "2026-02-26T13:18:20.000",
    "request_status": "Pending",
    "responsible_agency": "Department of Sanitation",
    "final_address": "3435 Freret St",
    "address_councildis": "B",
    "status": "Pending",
    "rowid": "1261065",
    "final_x": "3672625.61051",
    "final_y": "524384.722236",
    "longitude": "-90.09633573489135",
    "latitude": "29.93614247431707",
    "geocoded_column": {
      "latitude": "29.93614247431707",
      "longitude": "-90.09633573489135"
    }
  },
  {
    "service_request": "2026-1261064",
    "request_type": "Trash/Recycling",
    "request_reason": "Request a Large Item Pick Up",
    "date_created": "2026-02-26T13:15:30.000",
    "date_modified": "2026-02-26T13:15:31.000",
    "request_status": "Pending",
    "responsible_agency": "Department of Sanitation",
    "final_address": "2423 Prytania St",
    "address_councildis": "B",
    "status": "Assigned to Contractor",
    "contractor": "IV Waste",
    "rowid": "1261064",
    "final_x": "3677047.11374",
    "final_y": "522711.647738",
    "longitude": "-90.08243457995229",
    "latitude": "29.931410077566742",
    "geocoded_column": {
      "latitude": "29.931410077566742",
      "longitude": "-90.08243457995229"
    }
  },
  {
    "service_request": "2026-1261063",
    "request_type": "Trash/Recycling",
    "request_reason": "Request a Large Item Pick Up",
    "date_created": "2026-02-26T13:11:59.000",
    "date_modified": "2026-02-26T13:12:01.000",
    "request_status": "Pending",
    "responsible_agency": "Department of Sanitation",
    "final_address": "4612 Haydel St",
    "address_councildis": "E",
    "status": "Assigned to Contractor",
    "contractor": "Waste Pro",
    "rowid": "1261063",
    "final_x": "3699022.70992",
    "final_y": "553760.903639",
    "longitude": "-90.01193036724595",
    "latitude": "30.016106361691634",
    "geocoded_column": {
      "latitude": "30.016106361691634",
      "longitude": "-90.01193036724595"
    }
  },
  {
    "service_request": "2026-1261062",
    "request_type": "Trash/Recycling",
    "request_reason": "MIssed Recycling Pick-Up",
    "date_created": "2026-02-26T13:11:19.000",
    "date_modified": "2026-02-26T13:11:21.000",
    "request_status": "Pending",
    "responsible_agency": "Department of Sanitation",
    "final_address": "1334 Webster St",
    "address_councildis": "A",
    "status": "Assigned to Contractor",
    "contractor": "IV Waste",
    "rowid": "1261062",
    "final_x": "3664767.56442",
    "final_y": "521309.891897",
    "longitude": "-90.12124659621084",
    "latitude": "29.927918585551943",
    "geocoded_column": {
      "latitude": "29.927918585551943",
      "longitude": "-90.12124659621084"
    }
  },
  {
    "service_request": "2026-1261061",
    "request_type": "Trash/Recycling",
    "request_reason": "Repair Trash Cart",
    "date_created": "2026-02-26T13:10:50.000",
    "date_modified": "2026-02-26T13:10:52.000",
    "request_status": "Pending",
    "responsible_agency": "Department of Sanitation",
    "final_address": "5735 Paris Ave",
    "address_councildis": "D",
    "status": "Assigned to Contractor",
    "contractor": "IV Waste",
    "rowid": "1261061",
    "final_x": "3679139.54882",
    "final_y": "553793.242455",
    "longitude": "-90.07475126720247",
    "latitude": "30.016810775101238",
    "geocoded_column": {
      "latitude": "30.016810775101238",
      "longitude": "-90.07475126720247"
    }
  },
  {
    "service_request": "2026-1261060",
    "request_type": "Trash/Recycling",
    "request_reason": "Request a Large Item Pick Up",
    "date_created": "2026-02-26T13:10:32.000",
    "date_modified": "2026-02-26T13:10:34.000",
    "request_status": "Pending",
    "responsible_agency": "Department of Sanitation",
    "final_address": "529 Patterson St Apt C",
    "address_councildis": "C",
    "status": "Assigned to Contractor",
    "contractor": "Richards Disposal",
    "rowid": "1261060",
    "final_x": "3687032.15471",
    "final_y": "531364.435714",
    "longitude": "-90.05060730976443",
    "latitude": "29.95489880554071",
    "geocoded_column": {
      "latitude": "29.95489880554071",
      "longitude": "-90.05060730976443"
    }
  },