[
  {
    "service_request": "2023-1016635",
    "request_type": "Roads/Drainage",
    "request_reason": "Pothole",
    "date_created": "2023-07-13T01:48:02.000",
    "date_modified": "2023-07-13T01:48:02.000",
    "request_status": "Pending",
    "responsible_agency": "Department of Public Works",
    "final_address": "3613 Chestnut St",
    "address_councildis": "B",
    "status": "Pending",
    "rowid": "1016635",
    "final_x": "3673794.47873",
    "final_y": "520014.364792",
    "longitude": "-90.09279495580917",
    "latitude": "29.924090655343278",
    "geocoded_column": {
      "latitude": "29.924090655343278",
      "longitude": "-90.09279495580917"
    }
  },
  {
    "service_request": "2023-1016634",
    "request_type": "Roads/Drainage",
    "request_reason": "Pothole",
    "date_created": "2023-07-13T01:18:38.000",
    "date_modified": "2023-07-13T01:18:38.000",
    "request_status": "Pending",
    "responsible_agency": "Department of Public Works",
    "final_address": "3819 Camp St",
    "address_councildis": "B",
    "status": "Pending",
    "rowid": "1016634",
    "final_x": "3673106.79764",
    "final_y": "519431.159671",
    "longitude": "-90.09498562191914",
    "latitude": "29.92250748184775",
    "geocoded_column": {
      "latitude": "29.92250748184775",
      "longitude": "-90.09498562191914"
    }
  },
  {
    "service_request": "2023-1016633",
    "request_type": "Roads/Drainage",
    "request_reason": "Road Shoulder Repair",
    "date_created": "2023-07-13T01:03:48.000",
    "date_modified": "2023-07-13T01:03:48.000",
    "request_status": "Pending",
    "responsible_agency": "Department of Public Works",
    "final_address": "5065 Perrier St",
    "address_councildis": "A",
    "status": "Pending",
    "rowid": "1016633",
    "final_x": "3664706.06445",
    "final_y": "520724.100345",
    "longitude": "-90.12146029592604",
    "latitude": "29.926309631861734",
    "geocoded_column": {
      "latitude": "29.926309631861734",
      "longitude": "-90.12146029592604"
    }
  },
  {
    "service_request": "2023-1016632",
    "request_type": "Roads/Drainage",
    "request_reason": "Pothole",
    "date_created": "2023-07-13T00:43:56.000",
    "date_modified": "2023-07-13T00:43:56.000",
    "request_status": "Pending",
    "responsible_agency": "Department of Public Works",
    "final_address": "1311 Henry Clay Ave",
    "address_councildis": "A",
    "status": "Pending",
    "rowid": "1016632",
    "final_x": "3664521.69255",
    "final_y": "521230.050553",
    "longitude": "-90.12202542435303",
    "latitude": "29.927706196256135",
    "geocoded_column": {
      "latitude": "29.927706196256135",
      "longitude": "-90.12202542435303"
    }
  },
  {
    "service_request": "2023-1016631",
    "request_type": "Roads/Drainage",
    "request_reason": "Street Subsidence (Sinking)",
    "date_created": "2023-07-12T23:08:57.000",
    "date_modified": "2023-07-12T23:08:57.000",
    "request_status": "Pending",
    "responsible_agency": "Department of Public Works",
    "final_address": "3219 Baudin St",
    "address_councildis": "B",
    "status": "Pending",
    "rowid": "1016631",
    "final_x": "3672776.03297",
    "final_y": "535100.964934",
    "longitude": "-90.09549536846323",
    "latitude": "29.965604137969184",
    "geocoded_column": {
      "latitude": "29.965604137969184",
      "longitude": "-90.09549536846323"
    }
  },
  {
    "service_request": "2023-1016628",
    "request_type": "Parks & Parkways",
    "request_reason": "Request Tree Service (Right of Way/Public Property)",
    "date_created": "2023-07-12T22:17:25.000",
    "date_modified": "2023-07-12T22:17:25.000",
    "request_status": "Pending",
    "responsible_agency": "Department of Parks & Parkway",
    "final_address": "137 Lavergne St",
    "address_councildis": "C",
    "status": "Pending",
    "rowid": "1016628",
    "final_x": "3686510.16732",
    "final_y": "531043.37773",
    "longitude": "-90.05226687863671",
    "latitude": "29.954032063377305",
    "geocoded_column": {
      "latitude": "29.954032063377305",
      "longitude": "-90.05226687863671"
    }
  },
  {
    "service_request": "2023-1016627",
    "request_type": "Traffic Signals/Signs/Striping/Streetlights",
    "request_reason": "Street Light Outage/Malfunction",
    "date_created": "2023-07-12T21:44:50.000",
    "date_modified": "2023-07-12T21:44:50.000",
    "request_status": "Pending",
    "responsible_agency": "Department of Public Works",
    "final_address": "NAPOLEON AVE & MAGAZINE ST",
    "address_councildis": "B",
    "status": "Assigned to Contractor",
    "contractor": "Legacy Professional Services",
    "rowid": "1016627",
    "final_x": "3671097.2",
    "final_y": "518798.38",
    "longitude": "-90.10135060208529",
    "latitude": "29.920827104580972",
    "geocoded_column": {
      "latitude": "29.920827104580972",
      "longitude": "-90.10135060208529"
    }
  },
  {
    "service_request": "2023-1016626",
    "request_type": "Traffic Signals/Signs/Striping/Streetlights",
    "request_reason": "Traffic Signal Malfunctioning/Damaged",
    "date_created": "2023-07-12T21:43:00.000",
    "date_modified": "2023-07-12T21:43:01.000",
    "request_status": "Pending",
    "responsible_agency": "Department of Public Works",
    "final_address": "NAPOLEON AVE & MAGAZINE ST",
    "address_councildis": "B",
    "status": "Pending",
    "rowid": "1016626",
    "final_x": "3671097.2",
    "final_y": "518798.38",
    "longitude": "-90.10135060208529",
    "latitude": "29.920827104580972",
    "geocoded_column": {
      "latitude": "29.920827104580972",
      "longitude": "-90.10135060208529"
    }
  },
  {
    "service_request": "2023-1016625",
    "request_type": "Trash/Recycling",
    "request_reason": "MIssed Recycling Pick-Up",
    "date_created": "2023-07-12T21:40:49.000",
    "date_modified": "2023-07-12T21:40:49.000",
    "request_status": "Pending",
    "responsible_agency": "Department of Sanitation",
    "final_address": "3600 Second St",
    "address_councildis": "B",
    "status": "Assigned to Contractor",
    "contractor": "Richards Disposal",
    "rowid": "1016625",
    "final_x": "3672761.56865",
    "final_y": "528938.756352",
    "longitude": "-90.09575122714078",
    "latitude": "29.948660542868282",
    "geocoded_column": {
      "latitude": "29.948660542868282",
      "longitude": "-90.09575122714078"
    }
  },
  {
    "service_request": "2023-1016624",
    "request_type": "Traffic Signals/Signs/Striping/Streetlights",
    "request_reason": "Street Light Outage/Malfunction",
    "date_created": "2023-07-12T21:34:41.000",
    "date_modified": "2023-07-12T21:34:41.000",
    "request_status": "Pending",
    "responsible_agency": "Department of Public Works",
    "final_address": "215 River Oaks Dr",
    "address_councildis": "C",
    "status": "Assigned to Contractor",
    "contractor": "Legacy Professional Services",
    "rowid": "1016624",
    "final_x": "3701533.81181",
    "final_y": "522996.860859",
    "longitude": "-90.00512315567958",
    "latitude": "29.931436567242155",
    "geocoded_column": {
      "latitude": "29.931436567242155",
      "longitude": "-90.00512315567958"
    }
  },
  {
    "service_request": "2023-1016623",
    "request_type": "Abandoned Vehicles",
    "request_reason": "Abandoned/Junk Vehicles",
    "date_created": "2023-07-12T21:10:44.000",
    "date_modified": "2023-07-12T21:10:44.000",
    "request_status": "Pending",
    "responsible_agency": "Department of Public Works",
    "final_address": " & SHADE TREE LN",
    "address_councildis": "C",
    "status": "Pending",
    "rowid": "1016623",
    "final_x": "3695620.33",
    "final_y": "522834.78",
    "longitude": "-90.02379705437441",
    "latitude": "29.93117805604866",
    "geocoded_column": {
      "latitude": "29.93117805604866",
      "longitude": "-90.02379705437441"
    }
  },
  {
    "service_request": "2023-1016622",
    "request_type": "Traffic Signals/Signs/Striping/Streetlights",
    "request_reason": "Street Light Outage/Malfunction",
    "date_created": "2023-07-12T21:09:27.000",
    "date_modified": "2023-07-12T21:09:27.000",
    "request_status": "Pending",
    "responsible_agency": "Department of Public Works",
    "final_address": "FRENCHMEN ST & LAW ST",
    "address_councildis": "D",
    "status": "Assigned to Contractor",
    "contractor": "Legacy Professional Services",
    "rowid": "1016622",
    "final_x": "3684142.2",
    "final_y": "541797.98",
    "longitude": "-90.05936638696443",
    "latitude": "29.983676075438787",
    "geocoded_column": {
      "latitude": "29.983676075438787",
      "longitude": "-90.05936638696443"
    }
  },
  {
    "service_request": "2023-1016621",
    "request_type": "Trash/Recycling",
    "request_reason": "Replace Trash Cart",
    "date_created": "2023-07-12T21:06:23.000",
    "date_modified": "2023-07-12T21:06:24.000",
    "request_status": "Pending",
    "responsible_agency": "Department of Sanitation",
    "final_address": "4226 Cleveland Ave",
    "address_councildis": "A",
    "status": "Assigned to Contractor",
    "contractor": "Richards Disposal",
    "rowid": "1016621",
    "final_x": "3670129.76538",
    "final_y": "538500.467465",
    "longitude": "-90.10373699548123",
    "latitude": "29.97502996952307",
    "geocoded_column": {
      "latitude": "29.97502996952307",
      "longitude": "-90.10373699548123"
    }
  },
  {
    "service_request": "2023-1016620",
    "request_type": "Trash/Recycling",
    "request_reason": "Replace Trash Cart",
    "date_created": "2023-07-12T21:04:38.000",
    "date_modified": "2023-07-12T21:04:39.000",
    "request_status": "Pending",
    "responsible_agency": "Department of Sanitation",
    "final_address": "2003 Broadway St",
    "address_councildis": "A",
    "status": "Assigned to Contractor",
    "contractor": "Richards Disposal",
    "rowid": "1016620",
    "final_x": "3665832.52532",
    "final_y": "528845.403968",
    "longitude": "-90.11763236678837",
    "latitude": "29.9486078152536",
    "geocoded_column": {
      "latitude": "29.9486078152536",
      "longitude": "-90.11763236678837"
    }
  },
  {
    "service_request": "2023-1016619",
    "request_type": "Traffic Signals/Signs/Striping/Streetlights",
    "request_reason": "Street Light Outage/Malfunction",
    "date_created": "2023-07-12T21:03:46.000",
    "date_modified": "2023-07-12T21:03:47.000",
    "request_status": "Pending",
    "responsible_agency": "Department of Public Works",
    "final_address": "343 Morgan St",
    "address_councildis": "C",
    "status": "Assigned to Contractor",
    "contractor": "Legacy Professional Services",
    "rowid": "1016619",
    "final_x": "3686347.09718",
    "final_y": "531263.000386",
    "longitude": "-90.05277403661977",
    "latitude": "29.954640962444863",
    "geocoded_column": {
      "latitude": "29.954640962444863",
      "longitude": "-90.05277403661977"
    }
  },
  {
    "service_request": "2023-1016618",
    "request_type": "Traffic Signals/Signs/Striping/Streetlights",
    "request_reason": "Traffic Sign Missing/Damaged",
    "date_created": "2023-07-12T20:52:01.000",
    "date_modified": "2023-07-12T20:52:02.000",
    "request_status": "Pending",
    "responsible_agency": "Department of Public Works",
    "final_address": "ODIN ST & PROVIDENCE PL",
    "address_councildis": "D",
    "status": "Pending",
    "rowid": "1016618",
    "final_x": "3688303.4",
    "final_y": "553924.78",
    "longitude": "-90.04579274589766",
    "latitude": "30.01689250647447",
    "geocoded_column": {
      "latitude": "30.01689250647447",
      "longitude": "-90.04579274589766"
    }
  },
  {
    "service_request": "2023-1016617",
    "request_type": "Traffic Signals/Signs/Striping/Streetlights",
    "request_reason": "Street Light Outage/Malfunction",
    "date_created": "2023-07-12T20:50:26.000",
    "date_modified": "2023-07-12T20:50:27.000",
    "request_status": "Pending",
    "responsible_agency": "Department of Public Works",
    "final_address": "NAPOLEON AVE & MAGAZINE ST",
    "address_councildis": "B",
    "status": "Assigned to Contractor",
    "contractor": "Legacy Professional Services",
    "rowid": "1016617",
    "final_x": "3671097.2",
    "final_y": "518798.38",
    "longitude": "-90.10135060208529",
    "latitude": "29.920827104580972",
    "geocoded_column": {
      "latitude": "29.920827104580972",
      "longitude": "-90.10135060208529"
    }
  },
  {
    "service_request": "2023-1016615",
    "request_type": "Trash/Recycling",
    "request_reason": "Repair Trash Cart",
    "date_created": "2023-07-12T20:41:21.000",
    "date_modified": "2023-07-12T20:41:21.000",
    "request_status": "Pending",
    "responsible_agency": "Department of Sanitation",
    "final_address": "3301 Banks St",
    "address_councildis": "B",
    "status": "Assigned to Contractor",
    "contractor": "Richards Disposal",
    "rowid": "1016615",
    "final_x": "3672848.04545",
    "final_y": "535552.778886",
    "longitude": "-90.09525253881712",
    "latitude": "29.966844335218525",
    "geocoded_column": {
      "latitude": "29.966844335218525",
      "longitude": "-90.09525253881712"
    }
  },
  {
    "service_request": "2023-1016614",
    "request_type": "Roads/Drainage",
    "request_reason": "Catch Basin - Broken/Damage",
    "date_created": "2023-07-12T20:36:57.000",
    "date_modified": "2023-07-12T20:36:57.000",
    "request_status": "Pending",
    "responsible_agency": "Department of Public Works",
    "final_address": "2035 Robert St",
    "address_councildis": "B",
    "status": "Pending",
    "rowid": "1016614",
    "final_x": "3668850.05991",
    "final_y": "523136.689979",
    "longitude": "-90.1082974134661",
    "latitude": "29.93282232031431",
    "geocoded_column": {
      "latitude": "29.93282232031431",
      "longitude": "-90.1082974134661"
    }
  },
  {
    "service_request": "2023-1016613",
    "request_type": "Abandoned Vehicles",
    "request_reason": "Abandoned/Junk Vehicles",
    "date_created": "2023-07-12T20:32:20.000",
    "date_modified": "2023-07-12T20:32:20.000",
    "request_status": "Pending",
    "responsible_agency": "Department of Public Works",
    "final_address": "318 N Prieur St",
    "address_councildis": "B",
    "status": "Pending",
    "rowid": "1016613",
    "final_x": "3678156.75528",
    "final_y": "534198.217029",
    "longitude": "-90.07853447763287",
    "latitude": "29.962960960507623",
    "geocoded_column": {
      "latitude": "29.962960960507623",
      "longitude": "-90.07853447763287"
    }
  },
  {
    "service_request": "2023-1016612",
    "request_type": "Roads/Drainage",
    "request_reason": "Accessibility Ramps, Curbs and Sidewalk Repair",
    "date_created": "2023-07-12T20:31:52.000",
    "date_modified": "2023-07-12T20:31:52.000",
    "request_status": "Pending",
    "responsible_agency": "Department of Public Works",
    "final_address": "3031 Annunciation St",
    "address_councildis": "B",
    "status": "Pending",
    "rowid": "1016612",
    "final_x": "3676729.6964",
    "final_y": "519339.869751",
    "longitude": "-90.08355272699501",
    "latitude": "29.922148306472362",
    "geocoded_column": {
      "latitude": "29.922148306472362",
      "longitude": "-90.08355272699501"
    }
  },
  {
    "service_request": "2023-1016610",
    "request_type": "Trash/Recycling",
    "request_reason": "Request a Large Item Pick Up",
    "date_created": "2023-07-12T20:24:05.000",
    "date_modified": "2023-07-12T20:24:06.000",
    "request_status": "Pending",
    "responsible_agency": "Department of Sanitation",
    "final_address": "7540 Morel St",
    "address_councildis": "E",
    "status": "Assigned to Contractor",
    "contractor": "Waste Pro",
    "rowid": "1016610",
    "final_x": "3719062.40946",
    "final_y": "571490.912488",
    "longitude": "-89.94793725723844",
    "latitude": "30.064205995375133",
    "geocoded_column": {
      "latitude": "30.064205995375133",
      "longitude": "-89.94793725723844"
    }
  },
  {
    "service_request": "2023-1016609",
    "request_type": "Trash/Recycling",
    "request_reason": "Request a Large Item Pick Up",
    "date_created": "2023-07-12T20:23:06.000",
    "date_modified": "2023-07-12T20:23:07.000",
    "request_status": "Pending",
    "responsible_agency": "Department of Sanitation",
    "final_address": "2119 Joseph St",
    "address_councildis": "A",
    "status": "Assigned to Contractor",
    "contractor": "Richards Disposal",
    "rowid": "1016609",
    "final_x": "3667316.93921",
    "final_y": "523946.11174",
    "longitude": "-90.11311016244554",
    "latitude": "29.9350929520648",
    "geocoded_column": {
      "latitude": "29.9350929520648",
      "longitude": "-90.11311016244554"
    }
  },
  {
    "service_request": "2023-1016608",
    "request_type": "Trash/Recycling",
    "request_reason": "Replace Trash Cart",
    "date_created": "2023-07-12T20:13:42.000",
    "date_modified": "2023-07-12T20:13:43.000",
    "request_status": "Pending",
    "responsible_agency": "Department of Sanitation",
    "final_address": "7740 Shubrick Ave",
    "address_councildis": "E",
    "status": "Assigned to Contractor",
    "contractor": "Waste Pro",
    "rowid": "1016608",
    "final_x": "3706520.37047",
    "final_y": "564039.152033",
    "longitude": "-89.98785994587051",
    "latitude": "30.044127643556447",
    "geocoded_column": {
      "latitude": "30.044127643556447",
      "longitude": "-89.98785994587051"
    }
  },
  {
    "service_request": "2023-1016607",
    "request_type": "Trash/Recycling",
    "request_reason": "Order Recycling Cart",
    "date_created": "2023-07-12T20:11:50.000",
    "date_modified": "2023-07-12T20:11:50.000",
    "request_status": "Pending",
    "responsible_agency": "Department of Sanitation",
    "final_address": "1224 Lesseps St",
    "address_councildis": "D",
    "status": "Pending",
    "rowid": "1016607",
    "final_x": "3692799.06768",
    "final_y": "535633.41159",
    "longitude": "-90.03224459908456",
    "latitude": "29.96645821852134",
    "geocoded_column": {
      "latitude": "29.96645821852134",
      "longitude": "-90.03224459908456"
    }
  },
  {
    "service_request": "2023-1016606",
    "request_type": "Trash/Recycling",
    "request_reason": "Order Recycling Cart",
    "date_created": "2023-07-12T20:10:08.000",
    "date_modified": "2023-07-12T20:10:08.000",
    "request_status": "Pending",
    "responsible_agency": "Department of Sanitation",
    "final_address": "1222 Lesseps St",
    "address_councildis": "D",
    "status": "Pending",
    "rowid": "1016606",
    "final_x": "3692796.56765",
    "final_y": "535617.161606",
    "longitude": "-90.03225307681001",
    "latitude": "29.96641361485591",
    "geocoded_column": {
      "latitude": "29.96641361485591",
      "longitude": "-90.03225307681001"
    }
  },
  {
    "service_request": "2023-1016605",
    "request_type": "Property Maintenance",
    "request_reason": "Property Maintenance",
    "date_created": "2023-07-12T20:07:05.000",
    "date_modified": "2023-07-12T20:07:05.000",
    "request_status": "Pending",
    "responsible_agency": "Department of Code Enforcement",
    "final_address": "2805 Carondelet St",
    "address_councildis": "B",
    "status": "Pending",
    "rowid": "1016605",
    "final_x": "3675614.71253",
    "final_y": "522855.212091",
    "longitude": "-90.08695157086846",
    "latitude": "29.931847752664915",
    "geocoded_column": {
      "latitude": "29.931847752664915",
      "longitude": "-90.08695157086846"
    }
  },
  {
    "service_request": "2023-1016604",
    "request_type": "Property Maintenance",
    "request_reason": "Property Maintenance",
    "date_created": "2023-07-12T19:56:15.000",
    "date_modified": "2023-07-12T19:56:15.000",
    "request_status": "Pending",
    "responsible_agency": "Department of Code Enforcement",
    "final_address": "1721 Alvar St",
    "address_councildis": "D",
    "status": "Pending",
    "rowid": "1016604",
    "final_x": "3692139.18441",
    "final_y": "537790.452936",
    "longitude": "-90.03425126439916",
    "latitude": "29.972409906023305",
    "geocoded_column": {
      "latitude": "29.972409906023305",
      "longitude": "-90.03425126439916"
    }
  },
  {
    "service_request": "2023-1016603",
    "request_type": "Trash/Recycling",
    "request_reason": "Request a Large Item Pick Up",
    "date_created": "2023-07-12T19:55:52.000",
    "date_modified": "2023-07-12T19:55:53.000",
    "request_status": "Pending",
    "responsible_agency": "Department of Sanitation",
    "final_address": "6368 Argonne Blvd",
    "address_councildis": "A",
    "status": "Assigned to Contractor",
    "contractor": "IV Waste",
    "rowid": "1016603",
    "final_x": "3670302.6411",
    "final_y": "549692.325012",
    "longitude": "-90.10281141736444",
    "latitude": "30.005798628341264",
    "geocoded_column": {
      "latitude": "30.005798628341264",
      "longitude": "-90.10281141736444"
    }
  },
  {
    "service_request": "2023-1016602",
    "request_type": "Trash/Recycling",
    "request_reason": "Return Recycling Cart",
    "date_created": "2023-07-12T19:54:28.000",
    "date_modified": "2023-07-12T19:54:28.000",
    "request_status": "Pending",
    "responsible_agency": "Department of Sanitation",
    "final_address": "3920 Mimosa Dr",
    "address_councildis": "C",
    "status": "Pending",
    "rowid": "1016602",
    "final_x": "3704535.54711",
    "final_y": "512925.771249",
    "longitude": "-89.9960181744796",
    "latitude": "29.903648529520822",
    "geocoded_column": {
      "latitude": "29.903648529520822",
      "longitude": "-89.9960181744796"
    }
  },
  {
    "service_request": "2023-1016601",
    "request_type": "Trash/Recycling",
    "request_reason": "Request a Large Item Pick Up",
    "date_created": "2023-07-12T19:44:33.000",
    "date_modified": "2023-07-12T19:44:33.000",
    "request_status": "Pending",
    "responsible_agency": "Department of Sanitation",
    "final_address": "320 Alix St",
    "address_councildis": "C",
    "status": "Assigned to Contractor",
    "contractor": "Richards Disposal",
    "rowid": "1016601",
    "final_x": "3686532.61436",
    "final_y": "530078.590081",
    "longitude": "-90.05223006039935",
    "latitude": "29.95137853746635",
    "geocoded_column": {
      "latitude": "29.95137853746635",
      "longitude": "-90.05223006039935"
    }
  },
  {
    "service_request": "2023-1016600",
    "request_type": "Abandoned Vehicles",
    "request_reason": "Abandoned/Junk Vehicles",
    "date_created": "2023-07-12T19:31:29.000",
    "date_modified": "2023-07-12T19:31:29.000",
    "request_status": "Pending",
    "responsible_agency": "Department of Public Works",
    "final_address": "800 BLK Upperline St",
    "address_councildis": "B",
    "status": "Pending",
    "rowid": "1016600",
    "final_x": "3668987.01763",
    "final_y": "518391.732033",
    "longitude": "-90.10802523075382",
    "latitude": "29.91977116775778",
    "geocoded_column": {
      "latitude": "29.91977116775778",
      "longitude": "-90.10802523075382"
    }
  },
  {
    "service_request": "2023-1016599",
    "request_type": "Property Maintenance",
    "request_reason": "Property Maintenance",
    "date_created": "2023-07-12T19:29:42.000",
    "date_modified": "2023-07-12T19:29:42.000",
    "request_status": "Pending",
    "responsible_agency": "Department of Code Enforcement",
    "final_address": "4321 Annunciation St, New Orleans, Louisiana, 70115",
    "address_councildis": "B",
    "status": "Pending",
    "rowid": "1016599",
    "final_x": "3671372.42651",
    "final_y": "517815.226678",
    "longitude": "-90.10051522500693",
    "latitude": "29.91811560540811",
    "geocoded_column": {
      "latitude": "29.91811560540811",
      "longitude": "-90.10051522500693"
    }
  },
  {
    "service_request": "2023-1016598",
    "request_type": "Traffic Signals/Signs/Striping/Streetlights",
    "request_reason": "Street Light Outage/Malfunction",
    "date_created": "2023-07-12T19:27:47.000",
    "date_modified": "2023-07-12T19:27:47.000",
    "request_status": "Pending",
    "responsible_agency": "Department of Public Works",
    "final_address": "5551 Milne St",
    "address_councildis": "A",
    "status": "Assigned to Contractor",
    "contractor": "Legacy Professional Services",
    "rowid": "1016598",
    "final_x": "3666775.40154",
    "final_y": "544017.854798",
    "longitude": "-90.11414557352033",
    "latitude": "29.990299470321233",
    "geocoded_column": {
      "latitude": "29.990299470321233",
      "longitude": "-90.11414557352033"
    }
  },
  {
    "service_request": "2023-1016597",
    "request_type": "Trash/Recycling",
    "request_reason": "Missed Trash Pick-Up",
    "date_created": "2023-07-12T19:17:05.000",
    "date_modified": "2023-07-12T19:17:05.000",
    "request_status": "Pending",
    "responsible_agency": "Department of Sanitation",
    "final_address": "1614 S Carrollton Ave",
    "address_councildis": "A",
    "status": "Assigned to Contractor",
    "contractor": "Richards Disposal",
    "rowid": "1016597",
    "final_x": "3663019.54131",
    "final_y": "529568.014849",
    "longitude": "-90.12649015632432",
    "latitude": "29.950676526452746",
    "geocoded_column": {
      "latitude": "29.950676526452746",
      "longitude": "-90.12649015632432"
    }
  },
  {
    "service_request": "2023-1016596",
    "request_type": "Property Maintenance",
    "request_reason": "Property Maintenance",
    "date_created": "2023-07-12T19:09:33.000",
    "date_modified": "2023-07-12T19:09:33.000",
    "request_status": "Pending",
    "responsible_agency": "Department of Code Enforcement",
    "final_address": "4314 N Derbigny St",
    "address_councildis": "D",
    "status": "Pending",
    "rowid": "1016596",
    "final_x": "3693395.84131",
    "final_y": "537207.219592",
    "longitude": "-90.03030348545148",
    "latitude": "29.970766986985588",
    "geocoded_column": {
      "latitude": "29.970766986985588",
      "longitude": "-90.03030348545148"
    }
  },
  {
    "service_request": "2023-1016594",
    "request_type": "Parks & Parkways",
    "request_reason": "Request Tree Service (Right of Way/Public Property)",
    "date_created": "2023-07-12T19:02:12.000",
    "date_modified": "2023-07-12T19:02:12.000",
    "request_status": "Pending",
    "responsible_agency": "Department of Parks & Parkway",
    "final_address": "127 Country Club Dr",
    "address_councildis": "A",
    "status": "Pending",
    "rowid": "1016594",
    "final_x": "3665593.68276",
    "final_y": "544415.725071",
    "longitude": "-90.1178650014143",
    "latitude": "29.991427998431163",
    "geocoded_column": {
      "latitude": "29.991427998431163",
      "longitude": "-90.1178650014143"
    }
  },
  {
    "service_request": "2023-1016593",
    "request_type": "Trash/Recycling",
    "request_reason": "Request a Large Item Pick Up",
    "date_created": "2023-07-12T18:48:25.000",
    "date_modified": "2023-07-12T18:48:26.000",
    "request_status": "Pending",
    "responsible_agency": "Department of Sanitation",
    "final_address": "3523 S Miro St",
    "address_councildis": "B",
    "status": "Assigned to Contractor",
    "contractor": "Richards Disposal",
    "rowid": "1016593",
    "final_x": "3671109.78516",
    "final_y": "527992.597695",
    "longitude": "-90.10099874937761",
    "latitude": "29.946107867984068",
    "geocoded_column": {
      "latitude": "29.946107867984068",
      "longitude": "-90.10099874937761"
    }
  },
  {
    "service_request": "2023-1016592",
    "request_type": "Trash/Recycling",
    "request_reason": "Order Trash Cart",
    "date_created": "2023-07-12T18:45:34.000",
    "date_modified": "2023-07-12T18:45:35.000",
    "request_status": "Pending",
    "responsible_agency": "Department of Sanitation",
    "final_address": "320 S Rendon St",
    "address_councildis": "B",
    "status": "Assigned to Contractor",
    "contractor": "Richards Disposal",
    "rowid": "1016592",
    "final_x": "3673039.68488",
    "final_y": "535635.948102",
    "longitude": "-90.09464450125256",
    "latitude": "29.967067327559523",
    "geocoded_column": {
      "latitude": "29.967067327559523",
      "longitude": "-90.09464450125256"
    }
  },
  {
    "service_request": "2023-1016591",
    "request_type": "Property Maintenance",
    "request_reason": "Property Maintenance",
    "date_created": "2023-07-12T18:42:24.000",
    "date_modified": "2023-07-12T18:42:24.000",
    "request_status": "Pending",
    "responsible_agency": "Department of Code Enforcement",
    "final_address": "6226 Baccich St",
    "address_councildis": "D",
    "status": "Pending",
    "rowid": "1016591",
    "final_x": "3687369.6621",
    "final_y": "556288.015706",
    "longitude": "-90.04865924621151",
    "latitude": "30.023419345244527",
    "geocoded_column": {
      "latitude": "30.023419345244527",
      "longitude": "-90.04865924621151"
    }
  },
  {
    "service_request": "2023-1016590",
    "request_type": "Trash/Recycling",
    "request_reason": "Missed Trash Pick-Up",
    "date_created": "2023-07-12T18:42:03.000",
    "date_modified": "2023-07-12T18:42:04.000",
    "request_status": "Pending",
    "responsible_agency": "Department of Sanitation",
    "final_address": "5226 Perrier St",
    "address_councildis": "B",
    "status": "Assigned to Contractor",
    "contractor": "Richards Disposal",
    "rowid": "1016590",
    "final_x": "3667835.01114",
    "final_y": "519875.429048",
    "longitude": "-90.11161162846935",
    "latitude": "29.923884689625854",
    "geocoded_column": {
      "latitude": "29.923884689625854",
      "longitude": "-90.11161162846935"
    }
  },
  {
    "service_request": "2023-1016589",
    "request_type": "Abandoned Vehicles",
    "request_reason": "Abandoned/Junk Vehicles",
    "date_created": "2023-07-12T18:38:16.000",
    "date_modified": "2023-07-12T18:38:16.000",
    "request_status": "Pending",
    "responsible_agency": "Department of Public Works",
    "final_address": "2747 Jasmine St",
    "address_councildis": "D",
    "status": "Pending",
    "rowid": "1016589",
    "final_x": "3688065.23343",
    "final_y": "548211.822098",
    "longitude": "-90.04674792834456",
    "latitude": "30.00119132167203",
    "geocoded_column": {
      "latitude": "30.00119132167203",
      "longitude": "-90.04674792834456"
    }
  },
  {
    "service_request": "2023-1016588",
    "request_type": "Roads/Drainage",
    "request_reason": "Street Flooding / Drainage",
    "date_created": "2023-07-12T18:35:16.000",
    "date_modified": "2023-07-12T18:35:16.000",
    "request_status": "Pending",
    "responsible_agency": "Department of Public Works",
    "final_address": "7035 Walmsley Avenue ",
    "address_councildis": "B",
    "status": "Pending",
    "rowid": "1016588",
    "final_x": "3667654.24045",
    "final_y": "531034.71757",
    "longitude": "-90.11180673170965",
    "latitude": "29.95457444265618",
    "geocoded_column": {
      "latitude": "29.95457444265618",
      "longitude": "-90.11180673170965"
    }
  },
  {
    "service_request": "2023-1016587",
    "request_type": "Trash/Recycling",
    "request_reason": "MIssed Recycling Pick-Up",
    "date_created": "2023-07-12T18:33:48.000",
    "date_modified": "2023-07-12T18:33:49.000",
    "request_status": "Pending",
    "responsible_agency": "Department of Sanitation",
    "final_address": "5101 Spain St",
    "address_councildis": "D",
    "status": "Assigned to Contractor",
    "contractor": "IV Waste",
    "rowid": "1016587",
    "final_x": "3684956.18709",
    "final_y": "551484.380181",
    "longitude": "-90.05645445135976",
    "latitude": "30.010285292480752",
    "geocoded_column": {
      "latitude": "30.010285292480752",
      "longitude": "-90.05645445135976"
    }
  },
  {
    "service_request": "2023-1016586",
    "request_type": "Property Maintenance",
    "request_reason": "Property Maintenance",
    "date_created": "2023-07-12T18:33:26.000",
    "date_modified": "2023-07-12T18:33:27.000",
    "request_status": "Pending",
    "responsible_agency": "Department of Code Enforcement",
    "final_address": "3318 S Roman St",
    "address_councildis": "B",
    "status": "Pending",
    "rowid": "1016586",
    "final_x": "3672142.74747",
    "final_y": "526940.621566",
    "longitude": "-90.09777314148151",
    "latitude": "29.943184690395363",
    "geocoded_column": {
      "latitude": "29.943184690395363",
      "longitude": "-90.09777314148151"
    }
  },
  {
    "service_request": "2023-1016585",
    "request_type": "Property Maintenance",
    "request_reason": "Property Maintenance",
    "date_created": "2023-07-12T18:24:37.000",
    "date_modified": "2023-07-12T18:24:38.000",
    "request_status": "Pending",
    "responsible_agency": "Department of Code Enforcement",
    "final_address": "521 Josephine St Apt A",
    "address_councildis": "B",
    "status": "Pending",
    "rowid": "1016585",
    "final_x": "3680412.30127",
    "final_y": "520756.390393",
    "longitude": "-90.07187905036227",
    "latitude": "29.925932317063204",
    "geocoded_column": {
      "latitude": "29.925932317063204",
      "longitude": "-90.07187905036227"
    }
  },
  {
    "service_request": "2023-1016584",
    "request_type": "Trash/Recycling",
    "request_reason": "Request a Large Item Pick Up",
    "date_created": "2023-07-12T18:22:52.000",
    "date_modified": "2023-07-12T18:22:53.000",
    "request_status": "Pending",
    "responsible_agency": "Department of Sanitation",
    "final_address": "3450 Magnolia St",
    "address_councildis": "B",
    "status": "Assigned to Contractor",
    "contractor": "Richards Disposal",
    "rowid": "1016584",
    "final_x": "3672249.00571",
    "final_y": "524930.023036",
    "longitude": "-90.09750612185543",
    "latitude": "29.937653048438285",
    "geocoded_column": {
      "latitude": "29.937653048438285",
      "longitude": "-90.09750612185543"
    }
  },
  {
    "service_request": "2023-1016583",
    "request_type": "Property Maintenance",
    "request_reason": "Property Maintenance",
    "date_created": "2023-07-12T18:17:27.000",
    "date_modified": "2023-07-12T18:17:28.000",
    "request_status": "Pending",
    "responsible_agency": "Department of Code Enforcement",
    "final_address": "2028 Socrates St",
    "address_councildis": "C",
    "status": "Pending",
    "rowid": "1016583",
    "final_x": "3691604.45705",
    "final_y": "526324.355006",
    "longitude": "-90.03634990529733",
    "latitude": "29.94089878703166",
    "geocoded_column": {
      "latitude": "29.94089878703166",
      "longitude": "-90.03634990529733"
    }
  },
  {
    "service_request": "2023-1016582",
    "request_type": "Trash/Recycling",
    "request_reason": "Missed Trash Pick-Up",
    "date_created": "2023-07-12T18:16:49.000",
    "date_modified": "2023-07-12T18:16:50.000",
    "request_status": "Pending",
    "responsible_agency": "Department of Sanitation",
    "final_address": "1608 S Norman C Francis Prkwy",
    "address_councildis": "B",
    "status": "Assigned to Contractor",
    "contractor": "Richards Disposal",
    "rowid": "1016582",
    "final_x": "3669525.36366",
    "final_y": "531169.341826",
    "longitude": "-90.10589388221253",
    "latitude": "29.954889634395727",
    "geocoded_column": {
      "latitude": "29.954889634395727",
      "longitude": "-90.10589388221253"
    }
  },
  {
    "service_request": "2023-1016581",
    "request_type": "Trash/Recycling",
    "request_reason": "Repair Trash Cart",
    "date_created": "2023-07-12T18:15:13.000",
    "date_modified": "2023-07-12T18:15:13.000",
    "request_status": "Pending",
    "responsible_agency": "Department of Sanitation",
    "final_address": "4901 Marque Dr",
    "address_councildis": "E",
    "status": "Assigned to Contractor",
    "contractor": "Waste Pro",
    "rowid": "1016581",
    "final_x": "3710034.04497",
    "final_y": "556706.338202",
    "longitude": "-89.97702958754824",
    "latitude": "30.023851400068654",
    "geocoded_column": {
      "latitude": "30.023851400068654",
      "longitude": "-89.97702958754824"
    }
  },
  {
    "service_request": "2023-1016580",
    "request_type": "Trash/Recycling",
    "request_reason": "Missed Trash Pick-Up",
    "date_created": "2023-07-12T17:52:32.000",
    "date_modified": "2023-07-12T17:52:33.000",
    "request_status": "Pending",
    "responsible_agency": "Department of Sanitation",
    "final_address": "7725 Leake Ave",
    "address_councildis": "A",
    "status": "Assigned to Contractor",
    "contractor": "Richards Disposal",
    "rowid": "1016580",
    "final_x": "3660685.68851",
    "final_y": "525026.986621",
    "longitude": "-90.13400938284265",
    "latitude": "29.93825752606452",
    "geocoded_column": {
      "latitude": "29.93825752606452",
      "longitude": "-90.13400938284265"
    }
  },
  {
    "service_request": "2023-1016579",
    "request_type": "Trash/Recycling",
    "request_reason": "Replace Recycling Cart",
    "date_created": "2023-07-12T17:51:24.000",
    "date_modified": "2023-07-12T17:51:24.000",
    "request_status": "Pending",
    "responsible_agency": "Department of Sanitation",
    "final_address": "3521 Hyman Ct",
    "address_councildis": "C",
    "status": "Pending",
    "rowid": "1016579",
    "final_x": "3700864.94135",
    "final_y": "518044.295734",
    "longitude": "-90.00741560157614",
    "latitude": "29.917840020019778",
    "geocoded_column": {
      "latitude": "29.917840020019778",
      "longitude": "-90.00741560157614"
    }
  },
  {
    "service_request": "2023-1016578",
    "request_type": "Trash/Recycling",
    "request_reason": "Replace Trash Cart",
    "date_created": "2023-07-12T17:43:17.000",
    "date_modified": "2023-07-12T17:43:18.000",
    "request_status": "Pending",
    "responsible_agency": "Department of Sanitation",
    "final_address": "3521 Hyman Ct",
    "address_councildis": "C",
    "status": "Assigned to Contractor",
    "contractor": "Richards Disposal",
    "rowid": "1016578",
    "final_x": "3700864.94135",
    "final_y": "518044.295734",
    "longitude": "-90.00741560157614",
    "latitude": "29.917840020019778",
    "geocoded_column": {
      "latitude": "29.917840020019778",
      "longitude": "-90.00741560157614"
    }
  },
  {
    "service_request": "2023-1016577",
    "request_type": "Trash/Recycling",
    "request_reason": "Request a Large Item Pick Up",
    "date_created": "2023-07-12T17:41:11.000",
    "date_modified": "2023-07-12T17:41:12.000",
    "request_status": "Pending",
    "responsible_agency": "Department of Sanitation",
    "final_address": "2509 Joseph St",
    "address_councildis": "A",
    "status": "Assigned to Contractor",
    "contractor": "Richards Disposal",
    "rowid": "1016577",
    "final_x": "3667607.26791",
    "final_y": "525216.626365",
    "longitude": "-90.11215084571305",
    "latitude": "29.938577955375134",
    "geocoded_column": {
      "latitude": "29.938577955375134",
      "longitude": "-90.11215084571305"
    }
  },
  {
    "service_request": "2023-1016576",
    "request_type": "Trash/Recycling",
    "request_reason": "Request a Large Item Pick Up",
    "date_created": "2023-07-12T17:29:39.000",
    "date_modified": "2023-07-12T17:29:40.000",
    "request_status": "Pending",
    "responsible_agency": "Department of Sanitation",
    "final_address": "2019 Egania St",
    "address_councildis": "E",
    "status": "Assigned to Contractor",
    "contractor": "Waste Pro",
    "rowid": "1016576",
    "final_x": "3697826.29207",
    "final_y": "537576.338376",
    "longitude": "-90.01629825805448",
    "latitude": "29.971642653451088",
    "geocoded_column": {
      "latitude": "29.971642653451088",
      "longitude": "-90.01629825805448"
    }
  },
  {
    "service_request": "2023-1016575",
    "request_type": "Traffic Signals/Signs/Striping/Streetlights",
    "request_reason": "Street Light Outage/Malfunction",
    "date_created": "2023-07-12T17:28:47.000",
    "date_modified": "2023-07-12T17:28:48.000",
    "request_status": "Pending",
    "responsible_agency": "Department of Public Works",
    "final_address": "700 Fulton St",
    "address_councildis": "B",
    "status": "Assigned to Contractor",
    "contractor": "Legacy Professional Services",
    "rowid": "1016575",
    "final_x": "3682366.08399",
    "final_y": "527998.300607",
    "longitude": "-90.06545858861404",
    "latitude": "29.945785874841356",
    "geocoded_column": {
      "latitude": "29.945785874841356",
      "longitude": "-90.06545858861404"
    }
  },
  {
    "service_request": "2023-1016574",
    "request_type": "Abandoned Vehicles",
    "request_reason": "Vehicle Blocking Your Driveway",
    "date_created": "2023-07-12T17:26:28.000",
    "date_modified": "2023-07-12T17:26:28.000",
    "request_status": "Pending",
    "responsible_agency": "Department of Public Works",
    "final_address": "1524 Sere St",
    "address_councildis": "D",
    "status": "Pending",
    "rowid": "1016574",
    "final_x": "3679086.07944",
    "final_y": "545427.99464",
    "longitude": "-90.07521041465439",
    "latitude": "29.993810946606537",
    "geocoded_column": {
      "latitude": "29.993810946606537",
      "longitude": "-90.07521041465439"
    }
  },
  {
    "service_request": "2023-1016573",
    "request_type": "Trash/Recycling",
    "request_reason": "Repair Trash Cart",
    "date_created": "2023-07-12T17:15:36.000",
    "date_modified": "2023-07-12T17:15:37.000",
    "request_status": "Pending",
    "responsible_agency": "Department of Sanitation",
    "final_address": "4650 Sierra Madre Dr",
    "address_councildis": "E",
    "status": "Assigned to Contractor",
    "contractor": "Waste Pro",
    "rowid": "1016573",
    "final_x": "3713881.82642",
    "final_y": "555960.698713",
    "longitude": "-89.96489962223403",
    "latitude": "30.021675392268886",
    "geocoded_column": {
      "latitude": "30.021675392268886",
      "longitude": "-89.96489962223403"
    }
  },
  {
    "service_request": "2023-1016572",
    "request_type": "Roads/Drainage",
    "request_reason": "Man hole cover issue",
    "date_created": "2023-07-12T17:10:14.000",
    "date_modified": "2023-07-12T17:10:14.000",
    "request_status": "Pending",
    "responsible_agency": "Department of Public Works",
    "final_address": "STATE ST & WILLOW ST",
    "address_councildis": "A",
    "status": "Pending",
    "rowid": "1016572",
    "final_x": "3666819.8",
    "final_y": "525764.68",
    "longitude": "-90.11461857043614",
    "latitude": "29.940107979999212",
    "geocoded_column": {
      "latitude": "29.940107979999212",
      "longitude": "-90.11461857043614"
    }
  },
  {
    "service_request": "2023-1016571",
    "request_type": "Trash/Recycling",
    "request_reason": "Request a Large Item Pick Up",
    "date_created": "2023-07-12T17:07:33.000",
    "date_modified": "2023-07-12T17:07:34.000",
    "request_status": "Pending",
    "responsible_agency": "Department of Sanitation",
    "final_address": "308 Pelican Ave",
    "address_councildis": "C",
    "status": "Assigned to Contractor",
    "contractor": "Richards Disposal",
    "rowid": "1016571",
    "final_x": "3686232.10767",
    "final_y": "530322.023362",
    "longitude": "-90.0531703236586",
    "latitude": "29.95205713073587",
    "geocoded_column": {
      "latitude": "29.95205713073587",
      "longitude": "-90.0531703236586"
    }
  },
  {
    "service_request": "2023-1016570",
    "request_type": "Trash/Recycling",
    "request_reason": "Replace Recycling Cart",
    "date_created": "2023-07-12T17:03:10.000",
    "date_modified": "2023-07-12T17:03:10.000",
    "request_status": "Pending",
    "responsible_agency": "Department of Sanitation",
    "final_address": "3818 Coliseum St, New Orleans, Louisiana, 70115",
    "address_councildis": "B",
    "status": "Pending",
    "rowid": "1016570",
    "final_x": "3672993.14792",
    "final_y": "519964.531768",
    "longitude": "-90.09532617822497",
    "latitude": "29.92397746117255",
    "geocoded_column": {
      "latitude": "29.92397746117255",
      "longitude": "-90.09532617822497"
    }
  },
  {
    "service_request": "2023-1016569",
    "request_type": "Trash/Recycling",
    "request_reason": "Request a Large Item Pick Up",
    "date_created": "2023-07-12T17:00:20.000",
    "date_modified": "2023-07-12T17:00:20.000",
    "request_status": "Pending",
    "responsible_agency": "Department of Sanitation",
    "final_address": "4747 Babylon St",
    "address_councildis": "D",
    "status": "Assigned to Contractor",
    "contractor": "Waste Pro",
    "rowid": "1016569",
    "final_x": "3696684.67581",
    "final_y": "554257.284696",
    "longitude": "-90.01929949812799",
    "latitude": "30.01754515244721",
    "geocoded_column": {
      "latitude": "30.01754515244721",
      "longitude": "-90.01929949812799"
    }
  },
  {
    "service_request": "2023-1016568",
    "request_type": "Trash/Recycling",
    "request_reason": "Missed Trash Pick-Up",
    "date_created": "2023-07-12T16:56:13.000",
    "date_modified": "2023-07-12T16:56:13.000",
    "request_status": "Pending",
    "responsible_agency": "Department of Sanitation",
    "final_address": "5300 Paris Ave",
    "address_councildis": "D",
    "status": "Assigned to Contractor",
    "contractor": "IV Waste",
    "rowid": "1016568",
    "final_x": "3679065.1732",
    "final_y": "551613.974741",
    "longitude": "-90.07506187495277",
    "latitude": "30.010820821304435",
    "geocoded_column": {
      "latitude": "30.010820821304435",
      "longitude": "-90.07506187495277"
    }
  },
  {
    "service_request": "2023-1016567",
    "request_type": "Abandoned Vehicles",
    "request_reason": "Abandoned/Junk Vehicles",
    "date_created": "2023-07-12T16:50:46.000",
    "date_modified": "2023-07-12T16:52:13.000",
    "request_status": "Pending",
    "responsible_agency": "Department of Public Works",
    "final_address": "1700 BLK Delachaise St",
    "address_councildis": "B",
    "status": "Pending",
    "rowid": "1016567",
    "final_x": "3673608.89914",
    "final_y": "521913.396906",
    "longitude": "-90.0933158932347",
    "latitude": "29.929317905683828",
    "geocoded_column": {
      "latitude": "29.929317905683828",
      "longitude": "-90.0933158932347"
    }
  },
  {
    "service_request": "2023-1016566",
    "request_type": "Trash/Recycling",
    "request_reason": "Request a Large Item Pick Up",
    "date_created": "2023-07-12T16:49:39.000",
    "date_modified": "2023-07-12T16:49:40.000",
    "request_status": "Pending",
    "responsible_agency": "Department of Sanitation",
    "final_address": "2216 Freret St",
    "address_councildis": "B",
    "status": "Assigned to Contractor",
    "contractor": "Richards Disposal",
    "rowid": "1016566",
    "final_x": "3675504.33672",
    "final_y": "526186.527614",
    "longitude": "-90.08718564341278",
    "latitude": "29.941011081983223",
    "geocoded_column": {
      "latitude": "29.941011081983223",
      "longitude": "-90.08718564341278"
    }
  },
  {
    "service_request": "2023-1016565",
    "request_type": "Trash/Recycling",
    "request_reason": "Request a Large Item Pick Up",
    "date_created": "2023-07-12T16:49:12.000",
    "date_modified": "2023-07-12T16:49:12.000",
    "request_status": "Pending",
    "responsible_agency": "Department of Sanitation",
    "final_address": "1120 N Gayoso St",
    "address_councildis": "A",
    "status": "Assigned to Contractor",
    "contractor": "Richards Disposal",
    "rowid": "1016565",
    "final_x": "3676664.67272",
    "final_y": "539135.784842",
    "longitude": "-90.08307616206028",
    "latitude": "29.97658243424772",
    "geocoded_column": {
      "latitude": "29.97658243424772",
      "longitude": "-90.08307616206028"
    }
  },
  {
    "service_request": "2023-1016564",
    "request_type": "Trash/Recycling",
    "request_reason": "Start Trash Service",
    "date_created": "2023-07-12T16:47:28.000",
    "date_modified": "2023-07-12T16:47:29.000",
    "request_status": "Pending",
    "responsible_agency": "Department of Sanitation",
    "final_address": "3016 Thalia St Apt C",
    "address_councildis": "B",
    "status": "Assigned to Contractor",
    "contractor": "Richards Disposal",
    "rowid": "1016564",
    "final_x": "3674999.06773",
    "final_y": "528452.980224",
    "longitude": "-90.08870314608016",
    "latitude": "29.94725817988372",
    "geocoded_column": {
      "latitude": "29.94725817988372",
      "longitude": "-90.08870314608016"
    }
  },
  {
    "service_request": "2023-1016563",
    "request_type": "Roads/Drainage",
    "request_reason": "Catch Basin - Clogged",
    "date_created": "2023-07-12T16:42:14.000",
    "date_modified": "2023-07-12T16:42:15.000",
    "request_status": "Pending",
    "responsible_agency": "Department of Public Works",
    "final_address": "3837 Paris Ave",
    "address_councildis": "D",
    "status": "Pending",
    "rowid": "1016563",
    "final_x": "3679671.62095",
    "final_y": "546538.386769",
    "longitude": "-90.07332220497607",
    "latitude": "29.996846441440418",
    "geocoded_column": {
      "latitude": "29.996846441440418",
      "longitude": "-90.07332220497607"
    }
  },
  {
    "service_request": "2023-1016562",
    "request_type": "Trash/Recycling",
    "request_reason": "Order Recycling Cart",
    "date_created": "2023-07-12T16:41:55.000",
    "date_modified": "2023-07-12T16:41:55.000",
    "request_status": "Pending",
    "responsible_agency": "Department of Sanitation",
    "final_address": "704 Marigny St",
    "address_councildis": "C",
    "status": "Pending",
    "rowid": "1016562",
    "final_x": "3685502.68207",
    "final_y": "534955.574214",
    "longitude": "-90.05531031988444",
    "latitude": "29.964820191300092",
    "geocoded_column": {
      "latitude": "29.964820191300092",
      "longitude": "-90.05531031988444"
    }
  },
  {
    "service_request": "2023-1016561",
    "request_type": "Trash/Recycling",
    "request_reason": "Request a Large Item Pick Up",
    "date_created": "2023-07-12T16:41:16.000",
    "date_modified": "2023-07-12T16:41:17.000",
    "request_status": "Pending",
    "responsible_agency": "Department of Sanitation",
    "final_address": "2311 Bienville Ave",
    "address_councildis": "B",
    "status": "Assigned to Contractor",
    "contractor": "Richards Disposal",
    "rowid": "1016561",
    "final_x": "3677129.64386",
    "final_y": "534815.585542",
    "longitude": "-90.08175667552327",
    "latitude": "29.964689402486623",
    "geocoded_column": {
      "latitude": "29.964689402486623",
      "longitude": "-90.08175667552327"
    }
  },
  {
    "service_request": "2023-1016560",
    "request_type": "Parks & Parkways",
    "request_reason": "Request Tree Service (Right of Way/Public Property)",
    "date_created": "2023-07-12T16:41:14.000",
    "date_modified": "2023-07-12T16:41:14.000",
    "request_status": "Pending",
    "responsible_agency": "Department of Parks & Parkway",
    "final_address": "1311 Burbank Dr",
    "address_councildis": "D",
    "status": "Pending",
    "rowid": "1016560",
    "final_x": "3676983.49845",
    "final_y": "554248.56508",
    "longitude": "-90.08154777148438",
    "latitude": "30.018127688477474",
    "geocoded_column": {
      "latitude": "30.018127688477474",
      "longitude": "-90.08154777148438"
    }
  },
  {
    "service_request": "2023-1016559",
    "request_type": "Abandoned Vehicles",
    "request_reason": "Abandoned/Junk Vehicles",
    "date_created": "2023-07-12T16:39:48.000",
    "date_modified": "2023-07-12T16:39:48.000",
    "request_status": "Pending",
    "responsible_agency": "Department of Public Works",
    "final_address": "2550 Ursulines Ave",
    "address_councildis": "D",
    "status": "Pending",
    "rowid": "1016559",
    "final_x": "3678076.69998",
    "final_y": "537716.914312",
    "longitude": "-90.07866561296773",
    "latitude": "29.97263858844416",
    "geocoded_column": {
      "latitude": "29.97263858844416",
      "longitude": "-90.07866561296773"
    }
  },
  {
    "service_request": "2023-1016558",
    "request_type": "Traffic Signals/Signs/Striping/Streetlights",
    "request_reason": "Street Light Outage/Malfunction",
    "date_created": "2023-07-12T16:39:35.000",
    "date_modified": "2023-07-12T16:39:36.000",
    "request_status": "Pending",
    "responsible_agency": "Department of Public Works",
    "final_address": "2428 Barracks St",
    "address_councildis": "D",
    "status": "Assigned to Contractor",
    "contractor": "Legacy Professional Services",
    "rowid": "1016558",
    "final_x": "3678914.3547",
    "final_y": "537993.608137",
    "longitude": "-90.07601055763882",
    "latitude": "29.97337415458735",
    "geocoded_column": {
      "latitude": "29.97337415458735",
      "longitude": "-90.07601055763882"
    }
  },
  {
    "service_request": "2023-1016557",
    "request_type": "Trash/Recycling",
    "request_reason": "Replace Trash Cart",
    "date_created": "2023-07-12T16:36:47.000",
    "date_modified": "2023-07-12T16:36:48.000",
    "request_status": "Pending",
    "responsible_agency": "Department of Sanitation",
    "final_address": "222 N Tonti St",
    "address_councildis": "B",
    "status": "Assigned to Contractor",
    "contractor": "Richards Disposal",
    "rowid": "1016557",
    "final_x": "3676831.96449",
    "final_y": "534776.733574",
    "longitude": "-90.08269806618439",
    "latitude": "29.964591509861442",
    "geocoded_column": {
      "latitude": "29.964591509861442",
      "longitude": "-90.08269806618439"
    }
  },
  {
    "service_request": "2023-1016556",
    "request_type": "Trash/Recycling",
    "request_reason": "Replace Trash Cart",
    "date_created": "2023-07-12T16:34:15.000",
    "date_modified": "2023-07-12T16:34:16.000",
    "request_status": "Pending",
    "responsible_agency": "Department of Sanitation",
    "final_address": "219 N Tonti St",
    "address_councildis": "B",
    "status": "Assigned to Contractor",
    "contractor": "Richards Disposal",
    "rowid": "1016556",
    "final_x": "3676708.91105",
    "final_y": "534839.579974",
    "longitude": "-90.08308449486326",
    "latitude": "29.96476800860436",
    "geocoded_column": {
      "latitude": "29.96476800860436",
      "longitude": "-90.08308449486326"
    }
  },
  {
    "service_request": "2023-1016555",
    "request_type": "Traffic Signals/Signs/Striping/Streetlights",
    "request_reason": "Traffic Signal Malfunctioning/Damaged",
    "date_created": "2023-07-12T16:33:30.000",
    "date_modified": "2023-07-12T16:33:31.000",
    "request_status": "Pending",
    "responsible_agency": "Department of Public Works",
    "final_address": "READ BLVD & I 10 W",
    "address_councildis": "E",
    "status": "Pending",
    "rowid": "1016555",
    "final_x": "3710206.0",
    "final_y": "561523.08",
    "longitude": "-89.97630599807947",
    "latitude": "30.0370899392177",
    "geocoded_column": {
      "latitude": "30.0370899392177",
      "longitude": "-89.97630599807947"
    }
  },
  {
    "service_request": "2023-1016554",
    "request_type": "Trash/Recycling",
    "request_reason": "Order Recycling Cart",
    "date_created": "2023-07-12T16:33:01.000",
    "date_modified": "2023-07-12T16:33:02.000",
    "request_status": "Pending",
    "responsible_agency": "Department of Sanitation",
    "final_address": "150 English Turn Dr",
    "address_councildis": "C",
    "status": "Pending",
    "rowid": "1016554",
    "final_x": "3720411.47583",
    "final_y": "512297.104945",
    "longitude": "-89.94593841715727",
    "latitude": "29.901400892652592",
    "geocoded_column": {
      "latitude": "29.901400892652592",
      "longitude": "-89.94593841715727"
    }
  },
  {
    "service_request": "2023-1016552",
    "request_type": "Trash/Recycling",
    "request_reason": "Order Recycling Cart",
    "date_created": "2023-07-12T16:20:58.000",
    "date_modified": "2023-07-12T16:20:59.000",
    "request_status": "Pending",
    "responsible_agency": "Department of Sanitation",
    "final_address": "1020 N Rendon St",
    "address_councildis": "A",
    "status": "Pending",
    "rowid": "1016552",
    "final_x": "3675834.05307",
    "final_y": "539319.179914",
    "longitude": "-90.08569321001306",
    "latitude": "29.97711160213015",
    "geocoded_column": {
      "latitude": "29.97711160213015",
      "longitude": "-90.08569321001306"
    }
  },
  {
    "service_request": "2023-1016551",
    "request_type": "Trash/Recycling",
    "request_reason": "Missed Trash Pick-Up",
    "date_created": "2023-07-12T16:18:45.000",
    "date_modified": "2023-07-12T16:18:46.000",
    "request_status": "Pending",
    "responsible_agency": "Department of Sanitation",
    "final_address": "2900 BLK Chippewa St",
    "address_councildis": "B",
    "status": "Assigned to Contractor",
    "contractor": "Richards Disposal",
    "rowid": "1016551",
    "final_x": "3677326.248",
    "final_y": "519203.443664",
    "longitude": "-90.08167436413339",
    "latitude": "29.921755274165662",
    "geocoded_column": {
      "latitude": "29.921755274165662",
      "longitude": "-90.08167436413339"
    }
  },
  {
    "service_request": "2023-1016550",
    "request_type": "Trash/Recycling",
    "request_reason": "Repair Trash Cart",
    "date_created": "2023-07-12T16:18:15.000",
    "date_modified": "2023-07-12T16:18:16.000",
    "request_status": "Pending",
    "responsible_agency": "Department of Sanitation",
    "final_address": "4851 Citrus Dr",
    "address_councildis": "E",
    "status": "Assigned to Contractor",
    "contractor": "Waste Pro",
    "rowid": "1016550",
    "final_x": "3710759.29285",
    "final_y": "556655.55625",
    "longitude": "-89.9747398715333",
    "latitude": "30.02368814530255",
    "geocoded_column": {
      "latitude": "30.02368814530255",
      "longitude": "-89.9747398715333"
    }
  },
  {
    "service_request": "2023-1016549",
    "request_type": "Traffic Signals/Signs/Striping/Streetlights",
    "request_reason": "Street Light Outage/Malfunction",
    "date_created": "2023-07-12T16:13:06.000",
    "date_modified": "2023-07-12T16:13:07.000",
    "request_status": "Pending",
    "responsible_agency": "Department of Public Works",
    "final_address": "10110 Deerfield Dr",
    "address_councildis": "E",
    "status": "Assigned to Contractor",
    "contractor": "Legacy Professional Services",
    "rowid": "1016549",
    "final_x": "3709678.49201",
    "final_y": "563203.705504",
    "longitude": "-89.97791019954936",
    "latitude": "30.041728156554154",
    "geocoded_column": {
      "latitude": "30.041728156554154",
      "longitude": "-89.97791019954936"
    }
  },
  {
    "service_request": "2023-1016548",
    "request_type": "Property Maintenance",
    "request_reason": "Property Maintenance",
    "date_created": "2023-07-12T16:12:57.000",
    "date_modified": "2023-07-12T16:12:57.000",
    "request_status": "Pending",
    "responsible_agency": "Department of Code Enforcement",
    "final_address": "2525 Memorial Park Dr",
    "address_councildis": "C",
    "status": "Pending",
    "rowid": "1016548",
    "final_x": "3692766.18371",
    "final_y": "521079.566969",
    "longitude": "-90.03287007438414",
    "latitude": "29.92644119738659",
    "geocoded_column": {
      "latitude": "29.92644119738659",
      "longitude": "-90.03287007438414"
    }
  },
  {
    "service_request": "2023-1016547",
    "request_type": "Property Maintenance",
    "request_reason": "Property Maintenance",
    "date_created": "2023-07-12T16:07:02.000",
    "date_modified": "2023-07-12T16:07:02.000",
    "request_status": "Pending",
    "responsible_agency": "Department of Code Enforcement",
    "final_address": "13031 Ashland Dr",
    "address_councildis": "E",
    "status": "Pending",
    "rowid": "1016547",
    "final_x": "3717704.36223",
    "final_y": "567487.081892",
    "longitude": "-89.95238263836079",
    "latitude": "30.05324219999625",
    "geocoded_column": {
      "latitude": "30.05324219999625",
      "longitude": "-89.95238263836079"
    }
  },
  {
    "service_request": "2023-1016546",
    "request_type": "Abandoned Vehicles",
    "request_reason": "Abandoned/Junk Vehicles",
    "date_created": "2023-07-12T16:03:54.000",
    "date_modified": "2023-07-12T16:03:54.000",
    "request_status": "Pending",
    "responsible_agency": "Department of Public Works",
    "final_address": "7909 Lafourche St",
    "address_councildis": "E",
    "status": "Pending",
    "rowid": "1016546",
    "final_x": "3709668.58654",
    "final_y": "566483.172963",
    "longitude": "-89.9778188958722",
    "latitude": "30.050745696653564",
    "geocoded_column": {
      "latitude": "30.050745696653564",
      "longitude": "-89.9778188958722"
    }
  },
  {
    "service_request": "2023-1016545",
    "request_type": "Property Maintenance",
    "request_reason": "Property Maintenance",
    "date_created": "2023-07-12T16:03:36.000",
    "date_modified": "2023-07-12T16:03:37.000",
    "request_status": "Pending",
    "responsible_agency": "Department of Code Enforcement",
    "final_address": "8431 Aberdeen Rd",
    "address_councildis": "E",
    "status": "Pending",
    "rowid": "1016545",
    "final_x": "3703754.28798",
    "final_y": "561888.936159",
    "longitude": "-89.99668120823118",
    "latitude": "30.03830441504282",
    "geocoded_column": {
      "latitude": "30.03830441504282",
      "longitude": "-89.99668120823118"
    }
  },
  {
    "service_request": "2023-1016542",
    "request_type": "Abandoned Vehicles",
    "request_reason": "Abandoned/Junk Vehicles",
    "date_created": "2023-07-12T15:59:06.000",
    "date_modified": "2023-07-12T15:59:06.000",
    "request_status": "Pending",
    "responsible_agency": "Department of Public Works",
    "final_address": "5200 BLK General Diaz St",
    "address_councildis": "A",
    "status": "Pending",
    "rowid": "1016542",
    "final_x": "3668952.8868",
    "final_y": "542415.704654",
    "longitude": "-90.1073215880313",
    "latitude": "29.98583021924275",
    "geocoded_column": {
      "latitude": "29.98583021924275",
      "longitude": "-90.1073215880313"
    }
  },
  {
    "service_request": "2023-1016541",
    "request_type": "Abandoned Vehicles",
    "request_reason": "Abandoned/Junk Vehicles",
    "date_created": "2023-07-12T15:58:08.000",
    "date_modified": "2023-07-12T15:58:08.000",
    "request_status": "Pending",
    "responsible_agency": "Department of Public Works",
    "final_address": "17 Christopher Ct",
    "address_councildis": "E",
    "status": "Pending",
    "rowid": "1016541",
    "final_x": "3716867.72511",
    "final_y": "570465.631143",
    "longitude": "-89.95491374287718",
    "latitude": "30.06145967680385",
    "geocoded_column": {
      "latitude": "30.06145967680385",
      "longitude": "-89.95491374287718"
    }
  },
  {
    "service_request": "2023-1016540",
    "request_type": "Trash/Recycling",
    "request_reason": "Start Trash Service",
    "date_created": "2023-07-12T15:58:03.000",
    "date_modified": "2023-07-12T15:58:03.000",
    "request_status": "Pending",
    "responsible_agency": "Department of Sanitation",
    "final_address": "3016 Thalia St Apt B",
    "address_councildis": "B",
    "status": "Assigned to Contractor",
    "contractor": "Richards Disposal",
    "rowid": "1016540",
    "final_x": "3675006.4843",
    "final_y": "528466.989248",
    "longitude": "-90.08867924866382",
    "latitude": "29.94729647855355",
    "geocoded_column": {
      "latitude": "29.94729647855355",
      "longitude": "-90.08867924866382"
    }
  },
  {
    "service_request": "2023-1016539",
    "request_type": "Property Maintenance",
    "request_reason": "Property Maintenance",
    "date_created": "2023-07-12T15:58:02.000",
    "date_modified": "2023-07-12T15:58:02.000",
    "request_status": "Pending",
    "responsible_agency": "Department of Code Enforcement",
    "final_address": "13041 Ashland Dr",
    "address_councildis": "E",
    "status": "Pending",
    "rowid": "1016539",
    "final_x": "3717744.95679",
    "final_y": "567516.510564",
    "longitude": "-89.95225321013554",
    "latitude": "30.053321771427967",
    "geocoded_column": {
      "latitude": "30.053321771427967",
      "longitude": "-89.95225321013554"
    }
  },
  {
    "service_request": "2023-1016538",
    "request_type": "Abandoned Vehicles",
    "request_reason": "Abandoned/Junk Vehicles",
    "date_created": "2023-07-12T15:56:49.000",
    "date_modified": "2023-07-12T15:59:00.000",
    "request_status": "Pending",
    "responsible_agency": "Department of Public Works",
    "final_address": "S LOPEZ ST & FONTAINEBLEAU DR",
    "address_councildis": "A",
    "status": "Pending",
    "rowid": "1016538",
    "final_x": "3669257.0",
    "final_y": "529475.18",
    "longitude": "-90.10679853798263",
    "latitude": "29.950239146714456",
    "geocoded_column": {
      "latitude": "29.950239146714456",
      "longitude": "-90.10679853798263"
    }
  },
  {
    "service_request": "2023-1016537",
    "request_type": "Traffic Signals/Signs/Striping/Streetlights",
    "request_reason": "Street Light Outage/Malfunction",
    "date_created": "2023-07-12T15:56:36.000",
    "date_modified": "2023-07-12T15:56:37.000",
    "request_status": "Pending",
    "responsible_agency": "Department of Public Works",
    "final_address": "3400 BLK Catalina Dr",
    "address_councildis": "C",
    "status": "Assigned to Contractor",
    "contractor": "Legacy Professional Services",
    "rowid": "1016537",
    "final_x": "3696873.5488",
    "final_y": "524380.009099",
    "longitude": "-90.0197849058846",
    "latitude": "29.93538746297972",
    "geocoded_column": {
      "latitude": "29.93538746297972",
      "longitude": "-90.0197849058846"
    }
  },
  {
    "service_request": "2023-1016536",
    "request_type": "Trash/Recycling",
    "request_reason": "Request a Large Item Pick Up",
    "date_created": "2023-07-12T15:53:48.000",
    "date_modified": "2023-07-12T15:53:49.000",
    "request_status": "Pending",
    "responsible_agency": "Department of Sanitation",
    "final_address": "1512 Euterpe St",
    "address_councildis": "B",
    "status": "Assigned to Contractor",
    "contractor": "Richards Disposal",
    "rowid": "1016536",
    "final_x": "3679202.21275",
    "final_y": "524772.787836",
    "longitude": "-90.0755597714477",
    "latitude": "29.937012667074665",
    "geocoded_column": {
      "latitude": "29.937012667074665",
      "longitude": "-90.0755597714477"
    }
  },
  {
    "service_request": "2023-1016535",
    "request_type": "Abandoned Vehicles",
    "request_reason": "Abandoned/Junk Vehicles",
    "date_created": "2023-07-12T15:52:11.000",
    "date_modified": "2023-07-12T15:52:11.000",
    "request_status": "Pending",
    "responsible_agency": "Department of Public Works",
    "final_address": "742 Franklin Ave",
    "address_councildis": "C",
    "status": "Pending",
    "rowid": "1016535",
    "final_x": "3686789.9142",
    "final_y": "535305.160134",
    "longitude": "-90.05123298146016",
    "latitude": "29.965741890850094",
    "geocoded_column": {
      "latitude": "29.965741890850094",
      "longitude": "-90.05123298146016"
    }
  },
  {
    "service_request": "2023-1016534",
    "request_type": "Traffic Signals/Signs/Striping/Streetlights",
    "request_reason": "Street Light Outage/Malfunction",
    "date_created": "2023-07-12T15:50:34.000",
    "date_modified": "2023-07-12T15:50:35.000",
    "request_status": "Pending",
    "responsible_agency": "Department of Public Works",
    "final_address": "LE BOEUF ST & SOCRATES ST",
    "address_councildis": "C",
    "status": "Assigned to Contractor",
    "contractor": "Legacy Professional Services",
    "rowid": "1016534",
    "final_x": "3689691.6",
    "final_y": "526350.38",
    "longitude": "-90.0423881905854",
    "latitude": "29.941029743325608",
    "geocoded_column": {
      "latitude": "29.941029743325608",
      "longitude": "-90.0423881905854"
    }
  },
  {
    "service_request": "2023-1016533",
    "request_type": "Traffic Signals/Signs/Striping/Streetlights",
    "request_reason": "Street Light Outage/Malfunction",
    "date_created": "2023-07-12T15:49:07.000",
    "date_modified": "2023-07-12T15:49:07.000",
    "request_status": "Pending",
    "responsible_agency": "Department of Public Works",
    "final_address": "5900 Bullard Ave",
    "address_councildis": "E",
    "status": "Assigned to Contractor",
    "contractor": "Legacy Professional Services",
    "rowid": "1016533",
    "final_x": "3715905.76741",
    "final_y": "563174.946656",
    "longitude": "-89.95823102003833",
    "latitude": "30.041445066162243",
    "geocoded_column": {
      "latitude": "30.041445066162243",
      "longitude": "-89.95823102003833"
    }
  },
  {
    "service_request": "2023-1016532",
    "request_type": "Trash/Recycling",
    "request_reason": "Order Trash Cart",
    "date_created": "2023-07-12T15:48:37.000",
    "date_modified": "2023-07-12T15:48:37.000",
    "request_status": "Pending",
    "responsible_agency": "Department of Sanitation",
    "final_address": "3016 Thalia St",
    "address_councildis": "B",
    "status": "Assigned to Contractor",
    "contractor": "Richards Disposal",
    "rowid": "1016532",
    "final_x": "3675024.38792",
    "final_y": "528497.956672",
    "longitude": "-90.08862165792438",
    "latitude": "29.947381093975817",
    "geocoded_column": {
      "latitude": "29.947381093975817",
      "longitude": "-90.08862165792438"
    }
  },
  {
    "service_request": "2023-1016531",
    "request_type": "Property Maintenance",
    "request_reason": "Property Maintenance",
    "date_created": "2023-07-12T15:46:33.000",
    "date_modified": "2023-07-12T15:46:33.000",
    "request_status": "Pending",
    "responsible_agency": "Department of Code Enforcement",
    "final_address": "8331 Aberdeen Rd",
    "address_councildis": "E",
    "status": "Pending",
    "rowid": "1016531",
    "final_x": "3703309.70596",
    "final_y": "561668.756511",
    "longitude": "-89.99809430181408",
    "latitude": "30.037713259887656",
    "geocoded_column": {
      "latitude": "30.037713259887656",
      "longitude": "-89.99809430181408"
    }
  },
  {
    "service_request": "2023-1016530",
    "request_type": "Property Maintenance",
    "request_reason": "Property Maintenance",
    "date_created": "2023-07-12T15:45:45.000",
    "date_modified": "2023-07-12T15:45:45.000",
    "request_status": "Pending",
    "responsible_agency": "Department of Code Enforcement",
    "final_address": "13041 Ashland Dr",
    "address_councildis": "E",
    "status": "Pending",
    "rowid": "1016530",
    "final_x": "3717744.95679",
    "final_y": "567516.510564",
    "longitude": "-89.95225321013554",
    "latitude": "30.053321771427967",
    "geocoded_column": {
      "latitude": "30.053321771427967",
      "longitude": "-89.95225321013554"
    }
  },
  {
    "service_request": "2023-1016529",
    "request_type": "Trash/Recycling",
    "request_reason": "Order Trash Cart",
    "date_created": "2023-07-12T15:45:38.000",
    "date_modified": "2023-07-12T15:45:39.000",
    "request_status": "Pending",
    "responsible_agency": "Department of Sanitation",
    "final_address": "1826 Clio St",
    "address_councildis": "B",
    "status": "Assigned to Contractor",
    "contractor": "Richards Disposal",
    "rowid": "1016529",
    "final_x": "3678724.74075",
    "final_y": "526948.751358",
    "longitude": "-90.07699185589135",
    "latitude": "29.943010249433833",
    "geocoded_column": {
      "latitude": "29.943010249433833",
      "longitude": "-90.07699185589135"
    }
  },
  {
    "service_request": "2023-1016528",
    "request_type": "Trash/Recycling",
    "request_reason": "Request a Large Item Pick Up",
    "date_created": "2023-07-12T15:43:54.000",
    "date_modified": "2023-07-12T15:43:54.000",
    "request_status": "Pending",
    "responsible_agency": "Department of Sanitation",
    "final_address": "6835 Vicksburg St",
    "address_councildis": "A",
    "status": "Assigned to Contractor",
    "contractor": "IV Waste",
    "rowid": "1016528",
    "final_x": "3669477.6386",
    "final_y": "552938.007127",
    "longitude": "-90.1053079062173",
    "latitude": "30.014747448855687",
    "geocoded_column": {
      "latitude": "30.014747448855687",
      "longitude": "-90.1053079062173"
    }
  },
  {
    "service_request": "2023-1016526",
    "request_type": "Trash/Recycling",
    "request_reason": "Request a Large Item Pick Up",
    "date_created": "2023-07-12T15:39:07.000",
    "date_modified": "2023-07-12T15:39:08.000",
    "request_status": "Pending",
    "responsible_agency": "Department of Sanitation",
    "final_address": "6619 Louis XIV St, New Orleans, Louisiana, 70124",
    "address_councildis": "A",
    "status": "Assigned to Contractor",
    "contractor": "IV Waste",
    "rowid": "1016526",
    "final_x": "3668531.3979",
    "final_y": "551638.767189",
    "longitude": "-90.10834146355982",
    "latitude": "30.01120284655456",
    "geocoded_column": {
      "latitude": "30.01120284655456",
      "longitude": "-90.10834146355982"
    }
  },
  {
    "service_request": "2023-1016525",
    "request_type": "Trash/Recycling",
    "request_reason": "Request a Large Item Pick Up",
    "date_created": "2023-07-12T15:36:27.000",
    "date_modified": "2023-07-12T15:36:28.000",
    "request_status": "Pending",
    "responsible_agency": "Department of Sanitation",
    "final_address": "517 Diana St",
    "address_councildis": "C",
    "status": "Assigned to Contractor",
    "contractor": "Richards Disposal",
    "rowid": "1016525",
    "final_x": "3687118.32022",
    "final_y": "527514.096319",
    "longitude": "-90.05047135004467",
    "latitude": "29.944309034804984",
    "geocoded_column": {
      "latitude": "29.944309034804984",
      "longitude": "-90.05047135004467"
    }
  },
  {
    "service_request": "2023-1016524",
    "request_type": "Trash/Recycling",
    "request_reason": "Missed Trash Pick-Up",
    "date_created": "2023-07-12T15:34:23.000",
    "date_modified": "2023-07-12T15:34:24.000",
    "request_status": "Pending",
    "responsible_agency": "Department of Sanitation",
    "final_address": "6809 Memphis St",
    "address_councildis": "A",
    "status": "Assigned to Contractor",
    "contractor": "IV Waste",
    "rowid": "1016524",
    "final_x": "3669783.43034",
    "final_y": "552761.293206",
    "longitude": "-90.10434773810219",
    "latitude": "30.014252533244456",
    "geocoded_column": {
      "latitude": "30.014252533244456",
      "longitude": "-90.10434773810219"
    }
  },
  {
    "service_request": "2023-1016523",
    "request_type": "Trash/Recycling",
    "request_reason": "Request a Large Item Pick Up",
    "date_created": "2023-07-12T15:34:10.000",
    "date_modified": "2023-07-12T15:34:11.000",
    "request_status": "Pending",
    "responsible_agency": "Department of Sanitation",
    "final_address": "5010 Good Dr",
    "address_councildis": "E",
    "status": "Assigned to Contractor",
    "contractor": "Waste Pro",
    "rowid": "1016523",
    "final_x": "3714609.91999",
    "final_y": "557875.019483",
    "longitude": "-89.96252670218895",
    "latitude": "30.026915086651456",
    "geocoded_column": {
      "latitude": "30.026915086651456",
      "longitude": "-89.96252670218895"
    }
  },
  {
    "service_request": "2023-1016522",
    "request_type": "Trash/Recycling",
    "request_reason": "Repair Trash Cart",
    "date_created": "2023-07-12T15:29:08.000",
    "date_modified": "2023-07-12T15:29:08.000",
    "request_status": "Pending",
    "responsible_agency": "Department of Sanitation",
    "final_address": "6250 Eastover Dr",
    "address_councildis": "E",
    "status": "Assigned to Contractor",
    "contractor": "Waste Pro",
    "rowid": "1016522",
    "final_x": "3717356.36709",
    "final_y": "564382.706977",
    "longitude": "-89.95360069510028",
    "latitude": "30.044717969004484",
    "geocoded_column": {
      "latitude": "30.044717969004484",
      "longitude": "-89.95360069510028"
    }
  },
  {
    "service_request": "2023-1016521",
    "request_type": "Parks & Parkways",
    "request_reason": "Request Tree Service (Right of Way/Public Property)",
    "date_created": "2023-07-12T15:26:24.000",
    "date_modified": "2023-07-12T15:26:24.000",
    "request_status": "Pending",
    "responsible_agency": "Department of Parks & Parkway",
    "final_address": "5239 Marcia Ave",
    "address_councildis": "A",
    "status": "Pending",
    "rowid": "1016521",
    "final_x": "3664326.85741",
    "final_y": "543295.526798",
    "longitude": "-90.12190404828306",
    "latitude": "29.988384721736953",
    "geocoded_column": {
      "latitude": "29.988384721736953",
      "longitude": "-90.12190404828306"
    }
  },
  {
    "service_request": "2023-1016520",
    "request_type": "Traffic Signals/Signs/Striping/Streetlights",
    "request_reason": "Street Light Outage/Malfunction",
    "date_created": "2023-07-12T15:25:01.000",
    "date_modified": "2023-07-12T15:25:02.000",
    "request_status": "Pending",
    "responsible_agency": "Department of Public Works",
    "final_address": "2641 Almonaster Ave",
    "address_councildis": "D",
    "status": "Assigned to Contractor",
    "contractor": "Legacy Professional Services",
    "rowid": "1016520",
    "final_x": "3688671.3199",
    "final_y": "542384.420941",
    "longitude": "-90.04504023344222",
    "latitude": "29.98514934127219",
    "geocoded_column": {
      "latitude": "29.98514934127219",
      "longitude": "-90.04504023344222"
    }
  },
  {
    "service_request": "2023-1016519",
    "request_type": "Traffic Signals/Signs/Striping/Streetlights",
    "request_reason": "Street Light Outage/Malfunction",
    "date_created": "2023-07-12T15:22:57.000",
    "date_modified": "2023-07-12T15:22:57.000",
    "request_status": "Pending",
    "responsible_agency": "Department of Public Works",
    "final_address": "2617 Almonaster Ave",
    "address_councildis": "D",
    "status": "Assigned to Contractor",
    "contractor": "Legacy Professional Services",
    "rowid": "1016519",
    "final_x": "3688641.25148",
    "final_y": "542236.964685",
    "longitude": "-90.04514044277083",
    "latitude": "29.984744818703206",
    "geocoded_column": {
      "latitude": "29.984744818703206",
      "longitude": "-90.04514044277083"
    }
  },
  {
    "service_request": "2023-1016518",
    "request_type": "Traffic Signals/Signs/Striping/Streetlights",
    "request_reason": "Street Light Outage/Malfunction",
    "date_created": "2023-07-12T15:19:45.000",
    "date_modified": "2023-07-12T15:19:45.000",
    "request_status": "Pending",
    "responsible_agency": "Department of Public Works",
    "final_address": "2535 Almonaster Ave",
    "address_councildis": "D",
    "status": "Assigned to Contractor",
    "contractor": "Legacy Professional Services",
    "rowid": "1016518",
    "final_x": "3688580.68047",
    "final_y": "542012.753996",
    "longitude": "-90.04533972014185",
    "latitude": "29.984130191502572",
    "geocoded_column": {
      "latitude": "29.984130191502572",
      "longitude": "-90.04533972014185"
    }
  },
  {
    "service_request": "2023-1016517",
    "request_type": "Trash/Recycling",
    "request_reason": "Repair Trash Cart",
    "date_created": "2023-07-12T15:19:07.000",
    "date_modified": "2023-07-12T15:19:08.000",
    "request_status": "Pending",
    "responsible_agency": "Department of Sanitation",
    "final_address": "6000 Winchester Park Dr",
    "address_councildis": "E",
    "status": "Assigned to Contractor",
    "contractor": "Waste Pro",
    "rowid": "1016517",
    "final_x": "3714257.85951",
    "final_y": "563206.978144",
    "longitude": "-89.9634377371933",
    "latitude": "30.04158741393543",
    "geocoded_column": {
      "latitude": "30.04158741393543",
      "longitude": "-89.9634377371933"
    }
  },
  {
    "service_request": "2023-1016516",
    "request_type": "Trash/Recycling",
    "request_reason": "Missed Trash Pick-Up",
    "date_created": "2023-07-12T15:17:08.000",
    "date_modified": "2023-07-12T15:17:08.000",
    "request_status": "Pending",
    "responsible_agency": "Department of Sanitation",
    "final_address": "5621 Eads St",
    "address_councildis": "D",
    "status": "Assigned to Contractor",
    "contractor": "IV Waste",
    "rowid": "1016516",
    "final_x": "3686938.37756",
    "final_y": "553851.690071",
    "longitude": "-90.05010822466613",
    "latitude": "30.016733640155074",
    "geocoded_column": {
      "latitude": "30.016733640155074",
      "longitude": "-90.05010822466613"
    }
  },
  {
    "service_request": "2023-1016515",
    "request_type": "Traffic Signals/Signs/Striping/Streetlights",
    "request_reason": "Street Light Outage/Malfunction",
    "date_created": "2023-07-12T15:13:25.000",
    "date_modified": "2023-07-12T15:14:21.000",
    "request_status": "Pending",
    "responsible_agency": "Department of Public Works",
    "final_address": "2511 Almonaster Ave",
    "address_councildis": "D",
    "status": "Assigned to Contractor",
    "contractor": "Legacy Professional Services",
    "rowid": "1016515",
    "final_x": "3688530.12009",
    "final_y": "541830.965196",
    "longitude": "-90.04550587036503",
    "latitude": "29.983631899671007",
    "geocoded_column": {
      "latitude": "29.983631899671007",
      "longitude": "-90.04550587036503"
    }
  },
  {
    "service_request": "2023-1016514",
    "request_type": "Abandoned Vehicles",
    "request_reason": "Vehicle Blocking Your Driveway",
    "date_created": "2023-07-12T15:10:59.000",
    "date_modified": "2023-07-12T15:10:59.000",
    "request_status": "Pending",
    "responsible_agency": "Department of Public Works",
    "final_address": "1042 Annunciation St",
    "address_councildis": "B",
    "status": "Pending",
    "rowid": "1016514",
    "final_x": "3681651.72968",
    "final_y": "526190.140222",
    "longitude": "-90.06777709544406",
    "latitude": "29.940835753777097",
    "geocoded_column": {
      "latitude": "29.940835753777097",
      "longitude": "-90.06777709544406"
    }
  },
  {
    "service_request": "2023-1016513",
    "request_type": "Property Maintenance",
    "request_reason": "Property Maintenance",
    "date_created": "2023-07-12T15:07:01.000",
    "date_modified": "2023-07-12T15:07:01.000",
    "request_status": "Pending",
    "responsible_agency": "Department of Code Enforcement",
    "final_address": "7928 Forshey St",
    "address_councildis": "B",
    "status": "Pending",
    "rowid": "1016513",
    "final_x": "3667392.80314",
    "final_y": "533521.207045",
    "longitude": "-90.11254860288972",
    "latitude": "29.961419132925258",
    "geocoded_column": {
      "latitude": "29.961419132925258",
      "longitude": "-90.11254860288972"
    }
  },
  {
    "service_request": "2023-1016512",
    "request_type": "Abandoned Vehicles",
    "request_reason": "Abandoned/Junk Vehicles",
    "date_created": "2023-07-12T15:05:56.000",
    "date_modified": "2023-07-12T15:05:56.000",
    "request_status": "Pending",
    "responsible_agency": "Department of Public Works",
    "final_address": "8410 Beechwood Ct",
    "address_councildis": "E",
    "status": "Pending",
    "rowid": "1016512",
    "final_x": "3704134.73905",
    "final_y": "560552.279454",
    "longitude": "-89.99552821102232",
    "latitude": "30.03461692510392",
    "geocoded_column": {
      "latitude": "30.03461692510392",
      "longitude": "-89.99552821102232"
    }
  },
  {
    "service_request": "2023-1016510",
    "request_type": "Roads/Drainage",
    "request_reason": "Alley Way",
    "date_created": "2023-07-12T15:00:47.000",
    "date_modified": "2023-07-12T15:00:47.000",
    "request_status": "Pending",
    "responsible_agency": "Department of Public Works",
    "final_address": "6362 General Haig St",
    "address_councildis": "A",
    "status": "Pending",
    "rowid": "1016510",
    "final_x": "3670690.85428",
    "final_y": "549625.913555",
    "longitude": "-90.1015872139896",
    "latitude": "30.005604551031176",
    "geocoded_column": {
      "latitude": "30.005604551031176",
      "longitude": "-90.1015872139896"
    }
  },
  {
    "service_request": "2023-1016509",
    "request_type": "Abandoned Vehicles",
    "request_reason": "Abandoned/Junk Vehicles",
    "date_created": "2023-07-12T14:56:40.000",
    "date_modified": "2023-07-12T14:56:40.000",
    "request_status": "Pending",
    "responsible_agency": "Department of Public Works",
    "final_address": "5614 Providence Pl",
    "address_councildis": "D",
    "status": "Pending",
    "rowid": "1016509",
    "final_x": "3688213.80771",
    "final_y": "554062.155928",
    "longitude": "-90.04607094324422",
    "latitude": "30.017273007254218",
    "geocoded_column": {
      "latitude": "30.017273007254218",
      "longitude": "-90.04607094324422"
    }
  },
  {
    "service_request": "2023-1016508",
    "request_type": "Roads/Drainage",
    "request_reason": "Pothole",
    "date_created": "2023-07-12T14:50:21.000",
    "date_modified": "2023-07-12T14:50:21.000",
    "request_status": "Pending",
    "responsible_agency": "Department of Public Works",
    "final_address": "2900 BLK Elysian Fields Ave",
    "address_councildis": "D",
    "status": "Pending",
    "rowid": "1016508",
    "final_x": "3684363.49935",
    "final_y": "543480.420373",
    "longitude": "-90.0586082893909",
    "latitude": "29.988295424388884",
    "geocoded_column": {
      "latitude": "29.988295424388884",
      "longitude": "-90.0586082893909"
    }
  },
  {
    "service_request": "2023-1016507",
    "request_type": "Trash/Recycling",
    "request_reason": "Replace Recycling Cart",
    "date_created": "2023-07-12T14:49:09.000",
    "date_modified": "2023-07-12T14:49:09.000",
    "request_status": "Pending",
    "responsible_agency": "Department of Sanitation",
    "final_address": "4217 Prytania St",
    "address_councildis": "B",
    "status": "Pending",
    "rowid": "1016507",
    "final_x": "3671473.00379",
    "final_y": "520410.861176",
    "longitude": "-90.10010957809108",
    "latitude": "29.9252497981609",
    "geocoded_column": {
      "latitude": "29.9252497981609",
      "longitude": "-90.10010957809108"
    }
  },
  {
    "service_request": "2023-1016506",
    "request_type": "Roads/Drainage",
    "request_reason": "Catch Basin - Clogged",
    "date_created": "2023-07-12T14:48:49.000",
    "date_modified": "2023-07-12T14:48:49.000",
    "request_status": "Pending",
    "responsible_agency": "Department of Public Works",
    "final_address": "2900 BLK Elysian Fields Ave",
    "address_councildis": "D",
    "status": "Pending",
    "rowid": "1016506",
    "final_x": "3684363.49935",
    "final_y": "543480.420373",
    "longitude": "-90.0586082893909",
    "latitude": "29.988295424388884",
    "geocoded_column": {
      "latitude": "29.988295424388884",
      "longitude": "-90.0586082893909"
    }
  },
  {
    "service_request": "2023-1016505",
    "request_type": "Parks & Parkways",
    "request_reason": "Request Tree Service (Right of Way/Public Property)",
    "date_created": "2023-07-12T14:45:42.000",
    "date_modified": "2023-07-12T14:47:22.000",
    "request_status": "Pending",
    "responsible_agency": "Department of Parks & Parkway",
    "final_address": "1920 Sixth St",
    "address_councildis": "B",
    "status": "Pending",
    "rowid": "1016505",
    "final_x": "3674767.05678",
    "final_y": "523298.163963",
    "longitude": "-90.08961235392695",
    "latitude": "29.93309105206992",
    "geocoded_column": {
      "latitude": "29.93309105206992",
      "longitude": "-90.08961235392695"
    }
  },
  {
    "service_request": "2023-1016504",
    "request_type": "Trash/Recycling",
    "request_reason": "Missed Trash Pick-Up",
    "date_created": "2023-07-12T14:45:24.000",
    "date_modified": "2023-07-12T14:45:25.000",
    "request_status": "Pending",
    "responsible_agency": "Department of Sanitation",
    "final_address": "3439 Audubon St",
    "address_councildis": "B",
    "status": "Assigned to Contractor",
    "contractor": "Richards Disposal",
    "rowid": "1016504",
    "final_x": "3668919.43636",
    "final_y": "532979.00794",
    "longitude": "-90.10774605729874",
    "latitude": "29.95988345356284",
    "geocoded_column": {
      "latitude": "29.95988345356284",
      "longitude": "-90.10774605729874"
    }
  },
  {
    "service_request": "2023-1016503",
    "request_type": "Roads/Drainage",
    "request_reason": "Debris in Roadway",
    "date_created": "2023-07-12T14:43:15.000",
    "date_modified": "2023-07-12T14:43:16.000",
    "request_status": "Pending",
    "responsible_agency": "Department of Public Works",
    "final_address": "2661 Prentiss Ave",
    "address_councildis": "D",
    "status": "Pending",
    "rowid": "1016503",
    "final_x": "3687081.82422",
    "final_y": "554172.770072",
    "longitude": "-90.04964362951772",
    "latitude": "30.017612073718542",
    "geocoded_column": {
      "latitude": "30.017612073718542",
      "longitude": "-90.04964362951772"
    }
  },
  {
    "service_request": "2023-1016502",
    "request_type": "Roads/Drainage",
    "request_reason": "Pothole",
    "date_created": "2023-07-12T14:40:36.000",
    "date_modified": "2023-07-12T14:40:36.000",
    "request_status": "Pending",
    "responsible_agency": "Department of Public Works",
    "final_address": "ALIX ST & ATLANTIC AVE",
    "address_councildis": "C",
    "status": "Pending",
    "rowid": "1016502",
    "final_x": "3688830.6",
    "final_y": "530300.58",
    "longitude": "-90.04496628877331",
    "latitude": "29.951918087521598",
    "geocoded_column": {
      "latitude": "29.951918087521598",
      "longitude": "-90.04496628877331"
    }
  },
  {
    "service_request": "2023-1016501",
    "request_type": "Roads/Drainage",
    "request_reason": "Pothole",
    "date_created": "2023-07-12T14:38:58.000",
    "date_modified": "2023-07-12T14:38:58.000",
    "request_status": "Pending",
    "responsible_agency": "Department of Public Works",
    "final_address": "LE BOEUF ST & ALIX ST",
    "address_councildis": "C",
    "status": "Pending",
    "rowid": "1016501",
    "final_x": "3689863.9",
    "final_y": "530252.88",
    "longitude": "-90.04170532485654",
    "latitude": "29.951754942177274",
    "geocoded_column": {
      "latitude": "29.951754942177274",
      "longitude": "-90.04170532485654"
    }
  },
  {
    "service_request": "2023-1016500",
    "request_type": "Roads/Drainage",
    "request_reason": "Accessibility Ramps, Curbs and Sidewalk Repair",
    "date_created": "2023-07-12T14:37:54.000",
    "date_modified": "2023-07-12T14:37:55.000",
    "request_status": "Pending",
    "responsible_agency": "Department of Public Works",
    "final_address": "4303 Cartier Ave",
    "address_councildis": "D",
    "status": "Pending",
    "rowid": "1016500",
    "final_x": "3678041.16232",
    "final_y": "548094.106834",
    "longitude": "-90.07841891962431",
    "latitude": "30.001173319489286",
    "geocoded_column": {
      "latitude": "30.001173319489286",
      "longitude": "-90.07841891962431"
    }
  },
  {
    "service_request": "2023-1016499",
    "request_type": "Abandoned Vehicles",
    "request_reason": "Abandoned/Junk Vehicles",
    "date_created": "2023-07-12T14:36:07.000",
    "date_modified": "2023-07-12T14:36:07.000",
    "request_status": "Pending",
    "responsible_agency": "Department of Public Works",
    "final_address": "4634 Good Dr",
    "address_councildis": "E",
    "status": "Inspected",
    "rowid": "1016499",
    "final_x": "3714768.95595",
    "final_y": "556264.093402",
    "longitude": "-89.96208508703612",
    "latitude": "30.02248044651512",
    "geocoded_column": {
      "latitude": "30.02248044651512",
      "longitude": "-89.96208508703612"
    }
  },
  {
    "service_request": "2023-1016498",
    "request_type": "Trash/Recycling",
    "request_reason": "Missed Trash Pick-Up",
    "date_created": "2023-07-12T14:35:37.000",
    "date_modified": "2023-07-12T14:35:37.000",
    "request_status": "Pending",
    "responsible_agency": "Department of Sanitation",
    "final_address": "3122 Audubon St",
    "address_councildis": "B",
    "status": "Assigned to Contractor",
    "contractor": "Richards Disposal",
    "rowid": "1016498",
    "final_x": "3668182.44929",
    "final_y": "532163.532163",
    "longitude": "-90.11010079727544",
    "latitude": "29.957662818228236",
    "geocoded_column": {
      "latitude": "29.957662818228236",
      "longitude": "-90.11010079727544"
    }
  },
  {
    "service_request": "2023-1016497",
    "request_type": "Traffic Signals/Signs/Striping/Streetlights",
    "request_reason": "Street Light Outage/Malfunction",
    "date_created": "2023-07-12T14:34:55.000",
    "date_modified": "2023-07-12T14:34:56.000",
    "request_status": "Pending",
    "responsible_agency": "Department of Public Works",
    "final_address": "2126 Franklin Ave",
    "address_councildis": "D",
    "status": "Assigned to Contractor",
    "contractor": "Legacy Professional Services",
    "rowid": "1016497",
    "final_x": "3687521.21878",
    "final_y": "540450.653195",
    "longitude": "-90.04874138457517",
    "latitude": "29.97986767124855",
    "geocoded_column": {
      "latitude": "29.97986767124855",
      "longitude": "-90.04874138457517"
    }
  },
  {
    "service_request": "2023-1016496",
    "request_type": "Property Maintenance",
    "request_reason": "Property Maintenance",
    "date_created": "2023-07-12T14:34:19.000",
    "date_modified": "2023-07-12T14:34:19.000",
    "request_status": "Pending",
    "responsible_agency": "Department of Code Enforcement",
    "final_address": "232 28Th St",
    "address_councildis": "A",
    "status": "Pending",
    "rowid": "1016496",
    "final_x": "3665528.8752",
    "final_y": "550170.05538",
    "longitude": "-90.11787690485842",
    "latitude": "30.007252319739372",
    "geocoded_column": {
      "latitude": "30.007252319739372",
      "longitude": "-90.11787690485842"
    }
  },
  {
    "service_request": "2023-1016495",
    "request_type": "Roads/Drainage",
    "request_reason": "Street Flooding / Drainage",
    "date_created": "2023-07-12T14:23:32.000",
    "date_modified": "2023-07-12T14:23:32.000",
    "request_status": "Pending",
    "responsible_agency": "Department of Public Works",
    "final_address": "1400 BLK Chartres St",
    "address_councildis": "C",
    "status": "Pending",
    "rowid": "1016495",
    "final_x": "3684444.63501",
    "final_y": "534331.641098",
    "longitude": "-90.05867347688232",
    "latitude": "29.963136996734338",
    "geocoded_column": {
      "latitude": "29.963136996734338",
      "longitude": "-90.05867347688232"
    }
  },
  {
    "service_request": "2023-1016494",
    "request_type": "Trash/Recycling",
    "request_reason": "Repair Trash Cart",
    "date_created": "2023-07-12T14:23:07.000",
    "date_modified": "2023-07-12T14:23:07.000",
    "request_status": "Pending",
    "responsible_agency": "Department of Sanitation",
    "final_address": "1525 Exposition Blvd",
    "address_councildis": "A",
    "status": "Assigned to Contractor",
    "contractor": "Richards Disposal",
    "rowid": "1016494",
    "final_x": "3664405.22426",
    "final_y": "522507.223162",
    "longitude": "-90.1223504790739",
    "latitude": "29.931221403074623",
    "geocoded_column": {
      "latitude": "29.931221403074623",
      "longitude": "-90.1223504790739"
    }
  },
  {
    "service_request": "2023-1016493",
    "request_type": "Roads/Drainage",
    "request_reason": "Catch Basin - Clogged",
    "date_created": "2023-07-12T14:22:20.000",
    "date_modified": "2023-07-12T14:22:20.000",
    "request_status": "Pending",
    "responsible_agency": "Department of Public Works",
    "final_address": "924 French St",
    "address_councildis": "A",
    "status": "Pending",
    "rowid": "1016493",
    "final_x": "3670156.80558",
    "final_y": "548356.207314",
    "longitude": "-90.10331745890977",
    "latitude": "30.00212907685323",
    "geocoded_column": {
      "latitude": "30.00212907685323",
      "longitude": "-90.10331745890977"
    }
  },
  {
    "service_request": "2023-1016492",
    "request_type": "Abandoned Vehicles",
    "request_reason": "Abandoned/Junk Vehicles",
    "date_created": "2023-07-12T14:21:30.000",
    "date_modified": "2023-07-12T14:21:30.000",
    "request_status": "Pending",
    "responsible_agency": "Department of Public Works",
    "final_address": "221 Jewel St",
    "address_councildis": "D",
    "status": "Pending",
    "rowid": "1016492",
    "final_x": "3667274.70957",
    "final_y": "555915.699225",
    "longitude": "-90.11216785461505",
    "latitude": "30.022999783133542",
    "geocoded_column": {
      "latitude": "30.022999783133542",
      "longitude": "-90.11216785461505"
    }
  },
  {
    "service_request": "2023-1016491",
    "request_type": "Trash/Recycling",
    "request_reason": "Order Trash Cart",
    "date_created": "2023-07-12T14:16:25.000",
    "date_modified": "2023-07-12T14:16:26.000",
    "request_status": "Pending",
    "responsible_agency": "Department of Sanitation",
    "final_address": "5309 Magazine St",
    "address_councildis": "B",
    "status": "Assigned to Contractor",
    "contractor": "Richards Disposal",
    "rowid": "1016491",
    "final_x": "3667401.13069",
    "final_y": "518714.763511",
    "longitude": "-90.11302025700492",
    "latitude": "29.920705938536344",
    "geocoded_column": {
      "latitude": "29.920705938536344",
      "longitude": "-90.11302025700492"
    }
  },
  {
    "service_request": "2023-1016490",
    "request_type": "Trash/Recycling",
    "request_reason": "Illegal Dumping",
    "date_created": "2023-07-12T14:15:47.000",
    "date_modified": "2023-07-12T14:15:48.000",
    "request_status": "Pending",
    "responsible_agency": "Department of Sanitation",
    "final_address": "708 Ursulines Ave",
    "address_councildis": "C",
    "status": "Pending",
    "rowid": "1016490",
    "final_x": "3683316.36706",
    "final_y": "533682.225413",
    "longitude": "-90.06225915829738",
    "latitude": "29.96138578955111",
    "geocoded_column": {
      "latitude": "29.96138578955111",
      "longitude": "-90.06225915829738"
    }
  },
  {
    "service_request": "2023-1016489",
    "request_type": "Trash/Recycling",
    "request_reason": "Request a Large Item Pick Up",
    "date_created": "2023-07-12T14:15:00.000",
    "date_modified": "2023-07-12T14:15:01.000",
    "request_status": "Pending",
    "responsible_agency": "Department of Sanitation",
    "final_address": "4204 Monroe St",
    "address_councildis": "A",
    "status": "Assigned to Contractor",
    "contractor": "Richards Disposal",
    "rowid": "1016489",
    "final_x": "3667564.30746",
    "final_y": "537782.989",
    "longitude": "-90.11186355739368",
    "latitude": "29.97313259220395",
    "geocoded_column": {
      "latitude": "29.97313259220395",
      "longitude": "-90.11186355739368"
    }
  },