[
  {
    "service_request": "2025-1211426",
    "request_type": "Streetlights",
    "request_reason": "Streetlight Outage/Malfunction",
    "date_created": "2025-07-21T23:52:14.000",
    "date_modified": "2025-07-21T23:52:16.000",
    "request_status": "Pending",
    "responsible_agency": "Department of Public Works",
    "final_address": "200 S Murat St",
    "address_councildis": "A",
    "status": "Pending",
    "contractor": "Legacy Professional Services",
    "rowid": "1211426",
    "final_x": "3669453.39367",
    "final_y": "539006.379402",
    "longitude": "-90.10585604175023",
    "latitude": "29.976440996812592",
    "geocoded_column": {
      "latitude": "29.976440996812592",
      "longitude": "-90.10585604175023"
    }
  },
  {
    "service_request": "2025-1211425",
    "request_type": "Trash/Recycling",
    "request_reason": "Replace Recycling Cart",
    "date_created": "2025-07-21T23:21:37.000",
    "date_modified": "2025-07-21T23:21:39.000",
    "request_status": "Pending",
    "responsible_agency": "Department of Sanitation",
    "final_address": "6038 Orleans Ave",
    "address_councildis": "A",
    "status": "Pending",
    "rowid": "1211425",
    "final_x": "3670817.81396",
    "final_y": "547399.079505",
    "longitude": "-90.10126176371953",
    "latitude": "29.999477781764828",
    "geocoded_column": {
      "latitude": "29.999477781764828",
      "longitude": "-90.10126176371953"
    }
  },
  {
    "service_request": "2025-1211424",
    "request_type": "Trash/Recycling",
    "request_reason": "Request a Large Item Pick Up",
    "date_created": "2025-07-21T23:01:17.000",
    "date_modified": "2025-07-21T23:01:19.000",
    "request_status": "Pending",
    "responsible_agency": "Department of Sanitation",
    "final_address": "1429 Dauphine St",
    "address_councildis": "C",
    "status": "Assigned to Contractor",
    "contractor": "IV Waste",
    "rowid": "1211424",
    "final_x": "3683611.21935",
    "final_y": "535087.94759",
    "longitude": "-90.06127878741916",
    "latitude": "29.965242045324032",
    "geocoded_column": {
      "latitude": "29.965242045324032",
      "longitude": "-90.06127878741916"
    }
  },
  {
    "service_request": "2025-1211423",
    "request_type": "Drainage",
    "request_reason": "Street Flooding",
    "date_created": "2025-07-21T22:36:32.000",
    "date_modified": "2025-07-21T22:36:34.000",
    "request_status": "Pending",
    "responsible_agency": "Sewerage & Water Board",
    "final_address": "3705 Clara St",
    "address_councildis": "B",
    "status": "Pending",
    "rowid": "1211423",
    "final_x": "3672017.88955",
    "final_y": "525367.335933",
    "longitude": "-90.09822089262764",
    "latitude": "29.938862368868048",
    "geocoded_column": {
      "latitude": "29.938862368868048",
      "longitude": "-90.09822089262764"
    }
  },
  {
    "service_request": "2025-1211422",
    "request_type": "Trash/Recycling",
    "request_reason": "Replace Trash Cart",
    "date_created": "2025-07-21T22:29:29.000",
    "date_modified": "2025-07-21T22:29:31.000",
    "request_status": "Pending",
    "responsible_agency": "Department of Sanitation",
    "final_address": "1303 Touro St",
    "address_councildis": "C",
    "status": "Assigned to Contractor",
    "contractor": "IV Waste",
    "rowid": "1211422",
    "final_x": "3684195.67471",
    "final_y": "537004.585928",
    "longitude": "-90.05936581597757",
    "latitude": "29.970494283682157",
    "geocoded_column": {
      "latitude": "29.970494283682157",
      "longitude": "-90.05936581597757"
    }
  },
  {
    "service_request": "2025-1211421",
    "request_type": "Trash/Recycling",
    "request_reason": "Replace Trash Cart",
    "date_created": "2025-07-21T22:23:20.000",
    "date_modified": "2025-07-21T22:23:22.000",
    "request_status": "Pending",
    "responsible_agency": "Department of Sanitation",
    "final_address": "1303 Touro St",
    "address_councildis": "C",
    "status": "Assigned to Contractor",
    "contractor": "IV Waste",
    "rowid": "1211421",
    "final_x": "3684195.67471",
    "final_y": "537004.585928",
    "longitude": "-90.05936581597757",
    "latitude": "29.970494283682157",
    "geocoded_column": {
      "latitude": "29.970494283682157",
      "longitude": "-90.05936581597757"
    }
  },
  {
    "service_request": "2025-1211420",
    "request_type": "Parks & Parkways",
    "request_reason": "Tree Stump (removal, grind)",
    "date_created": "2025-07-21T22:03:12.000",
    "date_modified": "2025-07-21T22:03:14.000",
    "request_status": "Pending",
    "responsible_agency": "Department of Parks & Parkway",
    "final_address": "1220 Gardena Dr",
    "address_councildis": "D",
    "status": "Pending",
    "rowid": "1211420",
    "final_x": "3676967.32635",
    "final_y": "551297.148373",
    "longitude": "-90.08170073276169",
    "latitude": "30.010012838461336",
    "geocoded_column": {
      "latitude": "30.010012838461336",
      "longitude": "-90.08170073276169"
    }
  },
  {
    "service_request": "2025-1211419",
    "request_type": "Drainage",
    "request_reason": "Ditch and Culvert Maintenance",
    "date_created": "2025-07-21T21:36:03.000",
    "date_modified": "2025-07-21T21:36:06.000",
    "request_status": "Pending",
    "responsible_agency": "Department of Public Works",
    "final_address": "523 Diana St",
    "address_councildis": "C",
    "status": "Pending",
    "rowid": "1211419",
    "final_x": "3687182.19599",
    "final_y": "527518.415167",
    "longitude": "-90.05026952377469",
    "latitude": "29.944318943616384",
    "geocoded_column": {
      "latitude": "29.944318943616384",
      "longitude": "-90.05026952377469"
    }
  },
  {
    "service_request": "2025-1211418",
    "request_type": "Trash/Recycling",
    "request_reason": "Replace Trash Cart",
    "date_created": "2025-07-21T21:16:34.000",
    "date_modified": "2025-07-21T21:16:36.000",
    "request_status": "Pending",
    "responsible_agency": "Department of Sanitation",
    "final_address": "1700 BLK Saint Andrew St",
    "address_councildis": "B",
    "status": "Assigned to Contractor",
    "contractor": "IV Waste",
    "rowid": "1211418",
    "final_x": "3677669.69777",
    "final_y": "524774.834096",
    "longitude": "-90.08039793741895",
    "latitude": "29.93706446017494",
    "geocoded_column": {
      "latitude": "29.93706446017494",
      "longitude": "-90.08039793741895"
    }
  },
  {
    "service_request": "2025-1211417",
    "request_type": "Abandoned Vehicles",
    "request_reason": "Abandoned/Junk Vehicles",
    "date_created": "2025-07-21T21:15:57.000",
    "date_modified": "2025-07-21T21:16:00.000",
    "request_status": "Pending",
    "responsible_agency": "Department of Public Works",
    "final_address": "4727 Lurline St",
    "address_councildis": "E",
    "status": "Pending",
    "rowid": "1211417",
    "final_x": "3712062.70398",
    "final_y": "556013.014489",
    "longitude": "-89.9706455421764",
    "latitude": "30.021878850506784",
    "geocoded_column": {
      "latitude": "30.021878850506784",
      "longitude": "-89.9706455421764"
    }
  },
  {
    "service_request": "2025-1211416",
    "request_type": "Abandoned Vehicles",
    "request_reason": "Abandoned/Junk Vehicles",
    "date_created": "2025-07-21T21:15:57.000",
    "date_modified": "2025-07-21T21:15:59.000",
    "request_status": "Pending",
    "responsible_agency": "Department of Public Works",
    "final_address": "4727 Lurline St",
    "address_councildis": "E",
    "status": "Pending",
    "rowid": "1211416",
    "final_x": "3712062.70398",
    "final_y": "556013.014489",
    "longitude": "-89.9706455421764",
    "latitude": "30.021878850506784",
    "geocoded_column": {
      "latitude": "30.021878850506784",
      "longitude": "-89.9706455421764"
    }
  },
  {
    "service_request": "2025-1211415",
    "request_type": "Abandoned Vehicles",
    "request_reason": "Abandoned/Junk Vehicles",
    "date_created": "2025-07-21T21:11:58.000",
    "date_modified": "2025-07-21T21:12:00.000",
    "request_status": "Pending",
    "responsible_agency": "Department of Public Works",
    "final_address": "4727 Lurline St",
    "address_councildis": "E",
    "status": "Pending",
    "rowid": "1211415",
    "final_x": "3712062.70398",
    "final_y": "556013.014489",
    "longitude": "-89.9706455421764",
    "latitude": "30.021878850506784",
    "geocoded_column": {
      "latitude": "30.021878850506784",
      "longitude": "-89.9706455421764"
    }
  },
  {
    "service_request": "2025-1211414",
    "request_type": "Abandoned Vehicles",
    "request_reason": "Abandoned/Junk Vehicles",
    "date_created": "2025-07-21T21:11:57.000",
    "date_modified": "2025-07-21T21:11:59.000",
    "request_status": "Pending",
    "responsible_agency": "Department of Public Works",
    "final_address": "4727 Lurline St",
    "address_councildis": "E",
    "status": "Pending",
    "rowid": "1211414",
    "final_x": "3712062.70398",
    "final_y": "556013.014489",
    "longitude": "-89.9706455421764",
    "latitude": "30.021878850506784",
    "geocoded_column": {
      "latitude": "30.021878850506784",
      "longitude": "-89.9706455421764"
    }
  },
  {
    "service_request": "2025-1211413",
    "request_type": "Trash/Recycling",
    "request_reason": "Replace Trash Cart",
    "date_created": "2025-07-21T21:10:52.000",
    "date_modified": "2025-07-21T21:10:54.000",
    "request_status": "Pending",
    "responsible_agency": "Department of Sanitation",
    "final_address": "9030 Bunker Hill Rd",
    "address_councildis": "E",
    "status": "Assigned to Contractor",
    "contractor": "Waste Pro",
    "rowid": "1211413",
    "final_x": "3706889.19979",
    "final_y": "560165.650397",
    "longitude": "-89.98683814773818",
    "latitude": "30.03346513407684",
    "geocoded_column": {
      "latitude": "30.03346513407684",
      "longitude": "-89.98683814773818"
    }
  },
  {
    "service_request": "2025-1211412",
    "request_type": "Abandoned Vehicles",
    "request_reason": "Abandoned/Junk Vehicles",
    "date_created": "2025-07-21T21:02:04.000",
    "date_modified": "2025-07-21T21:02:06.000",
    "request_status": "Pending",
    "responsible_agency": "Department of Public Works",
    "final_address": "4611 Lurline St",
    "address_councildis": "E",
    "status": "Pending",
    "rowid": "1211412",
    "final_x": "3712135.56472",
    "final_y": "555288.797593",
    "longitude": "-89.97044254141136",
    "latitude": "30.01988515562522",
    "geocoded_column": {
      "latitude": "30.01988515562522",
      "longitude": "-89.97044254141136"
    }
  },
  {
    "service_request": "2025-1211411",
    "request_type": "Abandoned Vehicles",
    "request_reason": "Abandoned/Junk Vehicles",
    "date_created": "2025-07-21T20:56:50.000",
    "date_modified": "2025-07-21T20:56:52.000",
    "request_status": "Pending",
    "responsible_agency": "Department of Public Works",
    "final_address": "4618 Perelli Dr",
    "address_councildis": "E",
    "status": "Pending",
    "rowid": "1211411",
    "final_x": "3711705.55614",
    "final_y": "555273.549529",
    "longitude": "-89.97180178886627",
    "latitude": "30.01985728573164",
    "geocoded_column": {
      "latitude": "30.01985728573164",
      "longitude": "-89.97180178886627"
    }
  },
  {
    "service_request": "2025-1211410",
    "request_type": "Trash/Recycling",
    "request_reason": "Request a Large Item Pick Up",
    "date_created": "2025-07-21T20:56:26.000",
    "date_modified": "2025-07-21T20:56:27.000",
    "request_status": "Pending",
    "responsible_agency": "Department of Sanitation",
    "final_address": "8007 Hickman St",
    "address_councildis": "E",
    "status": "Assigned to Contractor",
    "contractor": "Waste Pro",
    "rowid": "1211410",
    "final_x": "3705595.84599",
    "final_y": "564462.033441",
    "longitude": "-89.99076617268126",
    "latitude": "30.045320216767927",
    "geocoded_column": {
      "latitude": "30.045320216767927",
      "longitude": "-89.99076617268126"
    }
  },
  {
    "service_request": "2025-1211409",
    "request_type": "Streetlights",
    "request_reason": "Streetlight Outage/Malfunction",
    "date_created": "2025-07-21T20:55:47.000",
    "date_modified": "2025-07-21T20:55:48.000",
    "request_status": "Pending",
    "responsible_agency": "Department of Public Works",
    "final_address": "7900 Windward Ct",
    "address_councildis": "E",
    "status": "Pending",
    "contractor": "Legacy Professional Services",
    "rowid": "1211409",
    "final_x": "3715167.59781",
    "final_y": "570253.223015",
    "longitude": "-89.96029582323473",
    "latitude": "30.06093176805096",
    "geocoded_column": {
      "latitude": "30.06093176805096",
      "longitude": "-89.96029582323473"
    }
  },
  {
    "service_request": "2025-1211408",
    "request_type": "Abandoned Vehicles",
    "request_reason": "Abandoned/Junk Vehicles",
    "date_created": "2025-07-21T20:44:00.000",
    "date_modified": "2025-07-21T20:44:03.000",
    "request_status": "Pending",
    "responsible_agency": "Department of Public Works",
    "final_address": "4659 Perelli Dr",
    "address_councildis": "E",
    "status": "Pending",
    "rowid": "1211408",
    "final_x": "3711838.126",
    "final_y": "555607.961177",
    "longitude": "-89.9713703558933",
    "latitude": "30.02077245464532",
    "geocoded_column": {
      "latitude": "30.02077245464532",
      "longitude": "-89.9713703558933"
    }
  },
  {
    "service_request": "2025-1211407",
    "request_type": "Trash/Recycling",
    "request_reason": "Missed Trash Pick-Up",
    "date_created": "2025-07-21T20:31:45.000",
    "date_modified": "2025-07-21T20:31:47.000",
    "request_status": "Pending",
    "responsible_agency": "Department of Sanitation",
    "final_address": "4631 Annette St Apt A",
    "address_councildis": "D",
    "status": "Assigned to Contractor",
    "contractor": "IV Waste",
    "rowid": "1211407",
    "final_x": "3682109.38159",
    "final_y": "549679.12194",
    "longitude": "-90.065511674621",
    "latitude": "30.00540840513309",
    "geocoded_column": {
      "latitude": "30.00540840513309",
      "longitude": "-90.065511674621"
    }
  },
  {
    "service_request": "2025-1211406",
    "request_type": "Trash/Recycling",
    "request_reason": "Missed Trash Pick-Up",
    "date_created": "2025-07-21T20:01:00.000",
    "date_modified": "2025-07-21T20:01:03.000",
    "request_status": "Pending",
    "responsible_agency": "Department of Sanitation",
    "final_address": "425 S Gayoso St",
    "address_councildis": "B",
    "status": "Assigned to Contractor",
    "contractor": "IV Waste",
    "rowid": "1211406",
    "final_x": "3673442.33627",
    "final_y": "534742.489478",
    "longitude": "-90.0934034558858",
    "latitude": "29.964598642088262",
    "geocoded_column": {
      "latitude": "29.964598642088262",
      "longitude": "-90.0934034558858"
    }
  },
  {
    "service_request": "2025-1211405",
    "request_type": "Trash/Recycling",
    "request_reason": "Request a Large Item Pick Up",
    "date_created": "2025-07-21T19:47:29.000",
    "date_modified": "2025-07-21T19:47:32.000",
    "request_status": "Pending",
    "responsible_agency": "Department of Sanitation",
    "final_address": "5627 Albany Ct",
    "address_councildis": "C",
    "status": "Assigned to Contractor",
    "contractor": "Richards Disposal",
    "rowid": "1211405",
    "final_x": "3704447.14385",
    "final_y": "521474.261369",
    "longitude": "-89.99598229192155",
    "latitude": "29.92715677210804",
    "geocoded_column": {
      "latitude": "29.92715677210804",
      "longitude": "-89.99598229192155"
    }
  },
  {
    "service_request": "2025-1211404",
    "request_type": "Trash/Recycling",
    "request_reason": "Order Recycling Cart",
    "date_created": "2025-07-21T19:31:04.000",
    "date_modified": "2025-07-21T19:31:06.000",
    "request_status": "Pending",
    "responsible_agency": "Department of Sanitation",
    "final_address": "5836 Sylvia Dr",
    "address_councildis": "A",
    "status": "Pending",
    "rowid": "1211404",
    "final_x": "3664422.37396",
    "final_y": "546663.868177",
    "longitude": "-90.12148981673094",
    "latitude": "29.997643738039276",
    "geocoded_column": {
      "latitude": "29.997643738039276",
      "longitude": "-90.12148981673094"
    }
  },
  {
    "service_request": "2025-1211403",
    "request_type": "Trash/Recycling",
    "request_reason": "Request a Large Item Pick Up",
    "date_created": "2025-07-21T19:23:21.000",
    "date_modified": "2025-07-21T19:23:23.000",
    "request_status": "Pending",
    "responsible_agency": "Department of Sanitation",
    "final_address": "10 Avoyelles Pl",
    "address_councildis": "E",
    "status": "Assigned to Contractor",
    "contractor": "Waste Pro",
    "rowid": "1211403",
    "final_x": "3725616.91347",
    "final_y": "564466.947489",
    "longitude": "-89.92749064488848",
    "latitude": "30.044673511796",
    "geocoded_column": {
      "latitude": "30.044673511796",
      "longitude": "-89.92749064488848"
    }
  },
  {
    "service_request": "2025-1211402",
    "request_type": "Abandoned Vehicles",
    "request_reason": "Abandoned/Junk Vehicles",
    "date_created": "2025-07-21T19:11:17.000",
    "date_modified": "2025-07-21T19:11:19.000",
    "request_status": "Pending",
    "responsible_agency": "Department of Public Works",
    "final_address": "9413 Palm St",
    "address_councildis": "A",
    "status": "Pending",
    "rowid": "1211402",
    "final_x": "3664229.76026",
    "final_y": "537941.513481",
    "longitude": "-90.12238947373153",
    "latitude": "29.973665801015173",
    "geocoded_column": {
      "latitude": "29.973665801015173",
      "longitude": "-90.12238947373153"
    }
  },
  {
    "service_request": "2025-1211401",
    "request_type": "Trash/Recycling",
    "request_reason": "Replace Recycling Cart",
    "date_created": "2025-07-21T19:07:41.000",
    "date_modified": "2025-07-21T19:07:42.000",
    "request_status": "Pending",
    "responsible_agency": "Department of Sanitation",
    "final_address": "931 Dante St",
    "address_councildis": "A",
    "status": "Pending",
    "rowid": "1211401",
    "final_x": "3660914.58445",
    "final_y": "528250.647488",
    "longitude": "-90.13318013452516",
    "latitude": "29.94711498039936",
    "geocoded_column": {
      "latitude": "29.94711498039936",
      "longitude": "-90.13318013452516"
    }
  },
  {
    "service_request": "2025-1211400",
    "request_type": "Trash/Recycling",
    "request_reason": "Return Trash Cart",
    "date_created": "2025-07-21T19:06:47.000",
    "date_modified": "2025-07-21T19:06:49.000",
    "request_status": "Pending",
    "responsible_agency": "Department of Sanitation",
    "final_address": "136 S Alexander St",
    "address_councildis": "A",
    "status": "Assigned to Contractor",
    "contractor": "IV Waste",
    "rowid": "1211400",
    "final_x": "3669804.63028",
    "final_y": "538860.014409",
    "longitude": "-90.10475168352647",
    "latitude": "29.97602819192874",
    "geocoded_column": {
      "latitude": "29.97602819192874",
      "longitude": "-90.10475168352647"
    }
  },
  {
    "service_request": "2025-1211399",
    "request_type": "Trash/Recycling",
    "request_reason": "Repair Trash Cart",
    "date_created": "2025-07-21T19:03:12.000",
    "date_modified": "2025-07-21T19:03:15.000",
    "request_status": "Pending",
    "responsible_agency": "Department of Sanitation",
    "final_address": "2901 Castiglione St",
    "address_councildis": "D",
    "status": "Assigned to Contractor",
    "contractor": "IV Waste",
    "rowid": "1211399",
    "final_x": "3679352.78043",
    "final_y": "542348.066125",
    "longitude": "-90.07447483202033",
    "latitude": "29.98533416910737",
    "geocoded_column": {
      "latitude": "29.98533416910737",
      "longitude": "-90.07447483202033"
    }
  },
  {
    "service_request": "2025-1211398",
    "request_type": "Trash/Recycling",
    "request_reason": "Return Trash Cart",
    "date_created": "2025-07-21T18:54:22.000",
    "date_modified": "2025-07-21T18:54:23.000",
    "request_status": "Pending",
    "responsible_agency": "Department of Sanitation",
    "final_address": "4216 Orleans Ave",
    "address_councildis": "A",
    "status": "Assigned to Contractor",
    "contractor": "IV Waste",
    "rowid": "1211398",
    "final_x": "3671824.46343",
    "final_y": "540625.945931",
    "longitude": "-90.09831233709225",
    "latitude": "29.98082419953909",
    "geocoded_column": {
      "latitude": "29.98082419953909",
      "longitude": "-90.09831233709225"
    }
  },
  {
    "service_request": "2025-1211397",
    "request_type": "Trash/Recycling",
    "request_reason": "Dead Animal Pick Up",
    "date_created": "2025-07-21T18:53:55.000",
    "date_modified": "2025-07-21T18:53:57.000",
    "request_status": "Pending",
    "responsible_agency": "Department of Sanitation",
    "final_address": "3708 Clematis St",
    "address_councildis": "D",
    "status": "Assigned to Contractor",
    "contractor": "IV Waste",
    "rowid": "1211397",
    "final_x": "3686002.28553",
    "final_y": "546634.076497",
    "longitude": "-90.05332062417105",
    "latitude": "29.996916619672735",
    "geocoded_column": {
      "latitude": "29.996916619672735",
      "longitude": "-90.05332062417105"
    }
  },
  {
    "service_request": "2025-1211396",
    "request_type": "Trash/Recycling",
    "request_reason": "Request a Large Item Pick Up",
    "date_created": "2025-07-21T18:43:05.000",
    "date_modified": "2025-07-21T18:43:06.000",
    "request_status": "Pending",
    "responsible_agency": "Department of Sanitation",
    "final_address": "6963 Salem Dr",
    "address_councildis": "E",
    "status": "Assigned to Contractor",
    "contractor": "Waste Pro",
    "rowid": "1211396",
    "final_x": "3706804.06859",
    "final_y": "560618.045534",
    "longitude": "-89.98709037280047",
    "latitude": "30.034711793025984",
    "geocoded_column": {
      "latitude": "30.034711793025984",
      "longitude": "-89.98709037280047"
    }
  },
  {
    "service_request": "2025-1211395",
    "request_type": "Trash/Recycling",
    "request_reason": "Replace Trash Cart",
    "date_created": "2025-07-21T18:42:18.000",
    "date_modified": "2025-07-21T18:42:20.000",
    "request_status": "Pending",
    "responsible_agency": "Department of Sanitation",
    "final_address": "5525 Marigny St",
    "address_councildis": "D",
    "status": "Assigned to Contractor",
    "contractor": "IV Waste",
    "rowid": "1211395",
    "final_x": "3684104.60649",
    "final_y": "553274.852247",
    "longitude": "-90.05908200226766",
    "latitude": "30.015234503541524",
    "geocoded_column": {
      "latitude": "30.015234503541524",
      "longitude": "-90.05908200226766"
    }
  },
  {
    "service_request": "2025-1211394",
    "request_type": "Trash/Recycling",
    "request_reason": "Request a Large Item Pick Up",
    "date_created": "2025-07-21T18:41:32.000",
    "date_modified": "2025-07-21T18:41:40.000",
    "request_status": "Pending",
    "responsible_agency": "Department of Sanitation",
    "final_address": "11121 S Idlewood Ct",
    "address_councildis": "E",
    "status": "Assigned to Contractor",
    "contractor": "Waste Pro",
    "rowid": "1211394",
    "final_x": "3716156.87026",
    "final_y": "559366.633117",
    "longitude": "-89.95758195872506",
    "latitude": "30.03096545071214",
    "geocoded_column": {
      "latitude": "30.03096545071214",
      "longitude": "-89.95758195872506"
    }
  },
  {
    "service_request": "2025-1211393",
    "request_type": "Trash/Recycling",
    "request_reason": "Request a Large Item Pick Up",
    "date_created": "2025-07-21T18:40:24.000",
    "date_modified": "2025-07-21T18:40:53.000",
    "request_status": "Pending",
    "responsible_agency": "Department of Sanitation",
    "final_address": "7231 W Renaissance Ct",
    "address_councildis": "E",
    "status": "Assigned to Contractor",
    "contractor": "Waste Pro",
    "rowid": "1211393",
    "final_x": "3716460.56709",
    "final_y": "567929.624165",
    "longitude": "-89.9562970898601",
    "latitude": "30.054500167272174",
    "geocoded_column": {
      "latitude": "30.054500167272174",
      "longitude": "-89.9562970898601"
    }
  },
  {
    "service_request": "2025-1211392",
    "request_type": "Property Maintenance",
    "request_reason": "Property Maintenance",
    "date_created": "2025-07-21T18:38:43.000",
    "date_modified": "2025-07-21T18:38:47.000",
    "request_status": "Pending",
    "responsible_agency": "Department of Code Enforcement",
    "final_address": "6747 Tara Ln",
    "address_councildis": "E",
    "status": "Pending",
    "rowid": "1211392",
    "final_x": "3707561.93457",
    "final_y": "559029.750172",
    "longitude": "-89.98475449822814",
    "latitude": "30.030320101220116",
    "geocoded_column": {
      "latitude": "30.030320101220116",
      "longitude": "-89.98475449822814"
    }
  },
  {
    "service_request": "2025-1211391",
    "request_type": "Property Maintenance",
    "request_reason": "Property Maintenance",
    "date_created": "2025-07-21T18:36:29.000",
    "date_modified": "2025-07-21T18:36:32.000",
    "request_status": "Pending",
    "responsible_agency": "Department of Code Enforcement",
    "final_address": "6800 Tara Ln",
    "address_councildis": "E",
    "status": "Pending",
    "rowid": "1211391",
    "final_x": "3707263.52107",
    "final_y": "559205.585628",
    "longitude": "-89.98569094436137",
    "latitude": "30.030813233368477",
    "geocoded_column": {
      "latitude": "30.030813233368477",
      "longitude": "-89.98569094436137"
    }
  },
  {
    "service_request": "2025-1211390",
    "request_type": "Roads and Streets",
    "request_reason": "Sidewalk Damaged or Missing",
    "date_created": "2025-07-21T18:35:35.000",
    "date_modified": "2025-07-21T18:35:37.000",
    "request_status": "Pending",
    "responsible_agency": "Department of Public Works",
    "final_address": "519 Chartres St",
    "address_councildis": "C",
    "status": "Pending",
    "rowid": "1211390",
    "final_x": "3682464.82722",
    "final_y": "531800.029379",
    "longitude": "-90.06501396016421",
    "latitude": "29.956236338643397",
    "geocoded_column": {
      "latitude": "29.956236338643397",
      "longitude": "-90.06501396016421"
    }
  },
  {
    "service_request": "2025-1211389",
    "request_type": "Trash/Recycling",
    "request_reason": "Return Trash Cart",
    "date_created": "2025-07-21T18:34:15.000",
    "date_modified": "2025-07-21T18:34:17.000",
    "request_status": "Pending",
    "responsible_agency": "Department of Sanitation",
    "final_address": "4602 S Miro St",
    "address_councildis": "B",
    "status": "Assigned to Contractor",
    "contractor": "IV Waste",
    "rowid": "1211389",
    "final_x": "3669370.49697",
    "final_y": "527706.148863",
    "longitude": "-90.10649997818061",
    "latitude": "29.94537154702824",
    "geocoded_column": {
      "latitude": "29.94537154702824",
      "longitude": "-90.10649997818061"
    }
  },
  {
    "service_request": "2025-1211388",
    "request_type": "Property Maintenance",
    "request_reason": "Property Maintenance",
    "date_created": "2025-07-21T18:33:51.000",
    "date_modified": "2025-07-21T18:33:52.000",
    "request_status": "Pending",
    "responsible_agency": "Department of Code Enforcement",
    "final_address": "6817 Tara Ln",
    "address_councildis": "E",
    "status": "Pending",
    "rowid": "1211388",
    "final_x": "3707366.71147",
    "final_y": "559415.768093",
    "longitude": "-89.98535704954726",
    "latitude": "30.03138781512313",
    "geocoded_column": {
      "latitude": "30.03138781512313",
      "longitude": "-89.98535704954726"
    }
  },
  {
    "service_request": "2025-1211387",
    "request_type": "Roads and Streets",
    "request_reason": "Sidewalk Damaged or Missing",
    "date_created": "2025-07-21T18:30:43.000",
    "date_modified": "2025-07-21T18:30:45.000",
    "request_status": "Pending",
    "responsible_agency": "Department of Public Works",
    "final_address": "606 Bienville St A",
    "address_councildis": "C",
    "status": "Pending",
    "rowid": "1211387",
    "final_x": "3681883.94306",
    "final_y": "531104.067138",
    "longitude": "-90.06687248481528",
    "latitude": "29.954340345489197",
    "geocoded_column": {
      "latitude": "29.954340345489197",
      "longitude": "-90.06687248481528"
    }
  },
  {
    "service_request": "2025-1211386",
    "request_type": "Trash/Recycling",
    "request_reason": "Order Recycling Cart",
    "date_created": "2025-07-21T18:23:58.000",
    "date_modified": "2025-07-21T18:24:01.000",
    "request_status": "Pending",
    "responsible_agency": "Department of Sanitation",
    "final_address": "6368 Argonne Blvd",
    "address_councildis": "A",
    "status": "Pending",
    "rowid": "1211386",
    "final_x": "3670302.6411",
    "final_y": "549692.325012",
    "longitude": "-90.10281141736444",
    "latitude": "30.005798628341264",
    "geocoded_column": {
      "latitude": "30.005798628341264",
      "longitude": "-90.10281141736444"
    }
  },
  {
    "service_request": "2025-1211385",
    "request_type": "Street and Traffic Signs",
    "request_reason": "Stop Sign Missing or Damaged",
    "date_created": "2025-07-21T18:22:55.000",
    "date_modified": "2025-07-21T18:22:57.000",
    "request_status": "Pending",
    "responsible_agency": "Department of Public Works",
    "final_address": "1303 Mandeville St",
    "address_councildis": "C",
    "status": "Pending",
    "rowid": "1211385",
    "final_x": "3685743.52841",
    "final_y": "537153.36596",
    "longitude": "-90.05447228234105",
    "latitude": "29.97085596638414",
    "geocoded_column": {
      "latitude": "29.97085596638414",
      "longitude": "-90.05447228234105"
    }
  },
  {
    "service_request": "2025-1211384",
    "request_type": "Trash/Recycling",
    "request_reason": "Replace Recycling Cart",
    "date_created": "2025-07-21T18:09:15.000",
    "date_modified": "2025-07-21T18:09:17.000",
    "request_status": "Pending",
    "responsible_agency": "Department of Sanitation",
    "final_address": "308 S Clark St",
    "address_councildis": "B",
    "status": "Pending",
    "rowid": "1211384",
    "final_x": "3672353.80327",
    "final_y": "536265.963079",
    "longitude": "-90.09678905312762",
    "latitude": "29.968820026619852",
    "geocoded_column": {
      "latitude": "29.968820026619852",
      "longitude": "-90.09678905312762"
    }
  },
  {
    "service_request": "2025-1211383",
    "request_type": "Healthy Homes",
    "request_reason": "Healthy Homes",
    "date_created": "2025-07-21T17:58:18.000",
    "date_modified": "2025-07-21T17:58:20.000",
    "request_status": "Pending",
    "responsible_agency": "Department of Code Enforcement",
    "final_address": "13707 Chef Menteur Hwy",
    "address_councildis": "E",
    "status": "Pending",
    "rowid": "1211383",
    "final_x": "3727076.07494",
    "final_y": "560358.459357",
    "longitude": "-89.92303890282076",
    "latitude": "30.033327566017253",
    "geocoded_column": {
      "latitude": "30.033327566017253",
      "longitude": "-89.92303890282076"
    }
  },
  {
    "service_request": "2025-1211382",
    "request_type": "Trash/Recycling",
    "request_reason": "Request a Large Item Pick Up",
    "date_created": "2025-07-21T17:53:04.000",
    "date_modified": "2025-07-21T17:53:06.000",
    "request_status": "Pending",
    "responsible_agency": "Department of Sanitation",
    "final_address": "2032 lamanche st apt b ",
    "status": "Assigned to Contractor",
    "rowid": "1211382",
    "longitude": "0.0",
    "latitude": "0.0",
    "geocoded_column": {
      "latitude": "0.0",
      "longitude": "0.0"
    }
  },
  {
    "service_request": "2025-1211381",
    "request_type": "Trash/Recycling",
    "request_reason": "Request a Large Item Pick Up",
    "date_created": "2025-07-21T17:43:39.000",
    "date_modified": "2025-07-21T17:43:41.000",
    "request_status": "Pending",
    "responsible_agency": "Department of Sanitation",
    "final_address": "409 Saint Maurice Ave, New Orleans, Louisiana, 70117",
    "status": "Assigned to Contractor",
    "rowid": "1211381",
    "longitude": "0.0",
    "latitude": "0.0",
    "geocoded_column": {
      "latitude": "0.0",
      "longitude": "0.0"
    }
  },
  {
    "service_request": "2025-1211380",
    "request_type": "Trash/Recycling",
    "request_reason": "Damaged Caused By Contractor",
    "date_created": "2025-07-21T17:43:03.000",
    "date_modified": "2025-07-21T17:43:05.000",
    "request_status": "Pending",
    "responsible_agency": "Department of Sanitation",
    "final_address": "1200 BLK S Carrollton Ave",
    "address_councildis": "A",
    "status": "Assigned to Contractor",
    "contractor": "IV Waste",
    "rowid": "1211380",
    "final_x": "3662106.27418",
    "final_y": "528480.923797",
    "longitude": "-90.12940986516702",
    "latitude": "29.947713791998126",
    "geocoded_column": {
      "latitude": "29.947713791998126",
      "longitude": "-90.12940986516702"
    }
  },
  {
    "service_request": "2025-1211379",
    "request_type": "Trash/Recycling",
    "request_reason": "Order Recycling Cart",
    "date_created": "2025-07-21T17:30:45.000",
    "date_modified": "2025-07-21T17:30:47.000",
    "request_status": "Pending",
    "responsible_agency": "Department of Sanitation",
    "final_address": "231 S Telemachus St",
    "address_councildis": "A",
    "status": "Pending",
    "rowid": "1211379",
    "final_x": "3671857.32507",
    "final_y": "536890.338248",
    "longitude": "-90.09833571287017",
    "latitude": "29.970551570908352",
    "geocoded_column": {
      "latitude": "29.970551570908352",
      "longitude": "-90.09833571287017"
    }
  },
  {
    "service_request": "2025-1211378",
    "request_type": "Trash/Recycling",
    "request_reason": "Illegal Dumping",
    "date_created": "2025-07-21T17:30:02.000",
    "date_modified": "2025-07-21T17:30:04.000",
    "request_status": "Pending",
    "responsible_agency": "Department of Sanitation",
    "final_address": "2324 Ursulines Ave",
    "address_councildis": "D",
    "status": "Pending",
    "rowid": "1211378",
    "final_x": "3678771.74715",
    "final_y": "537171.885704",
    "longitude": "-90.07648940743557",
    "latitude": "29.97111900198369",
    "geocoded_column": {
      "latitude": "29.97111900198369",
      "longitude": "-90.07648940743557"
    }
  },
  {
    "service_request": "2025-1211377",
    "request_type": "Drainage",
    "request_reason": "Catch Basin Clogged",
    "date_created": "2025-07-21T17:23:28.000",
    "date_modified": "2025-07-21T17:23:29.000",
    "request_status": "Pending",
    "responsible_agency": "Sewerage & Water Board",
    "final_address": "4907 Camp St",
    "address_councildis": "B",
    "status": "Pending",
    "rowid": "1211377",
    "final_x": "3668908.3769",
    "final_y": "518996.806647",
    "longitude": "-90.10825304170682",
    "latitude": "29.921437243928448",
    "geocoded_column": {
      "latitude": "29.921437243928448",
      "longitude": "-90.10825304170682"
    }
  },
  {
    "service_request": "2025-1211376",
    "request_type": "Trash/Recycling",
    "request_reason": "Request a Large Item Pick Up",
    "date_created": "2025-07-21T17:11:11.000",
    "date_modified": "2025-07-21T17:11:13.000",
    "request_status": "Pending",
    "responsible_agency": "Department of Sanitation",
    "final_address": "4429 Chestnut St",
    "address_councildis": "B",
    "status": "Assigned to Contractor",
    "contractor": "IV Waste",
    "rowid": "1211376",
    "final_x": "3670682.73294",
    "final_y": "519528.900151",
    "longitude": "-90.10263412172787",
    "latitude": "29.92284804965455",
    "geocoded_column": {
      "latitude": "29.92284804965455",
      "longitude": "-90.10263412172787"
    }
  },
  {
    "service_request": "2025-1211375",
    "request_type": "Trash/Recycling",
    "request_reason": "Replace Trash Cart",
    "date_created": "2025-07-21T17:05:28.000",
    "date_modified": "2025-07-21T17:05:30.000",
    "request_status": "Pending",
    "responsible_agency": "Department of Sanitation",
    "final_address": "79 Thrasher St",
    "address_councildis": "D",
    "status": "Assigned to Contractor",
    "contractor": "IV Waste",
    "rowid": "1211375",
    "final_x": "3672756.48667",
    "final_y": "556561.65961",
    "longitude": "-90.09482456474362",
    "latitude": "30.024614164823383",
    "geocoded_column": {
      "latitude": "30.024614164823383",
      "longitude": "-90.09482456474362"
    }
  },
  {
    "service_request": "2025-1211374",
    "request_type": "Trash/Recycling",
    "request_reason": "Illegal Dumping",
    "date_created": "2025-07-21T17:04:45.000",
    "date_modified": "2025-07-21T17:04:47.000",
    "request_status": "Pending",
    "responsible_agency": "Department of Sanitation",
    "final_address": "1900 BLK Feliciana St",
    "address_councildis": "D",
    "status": "Pending",
    "rowid": "1211374",
    "final_x": "3689531.65207",
    "final_y": "539257.944566",
    "longitude": "-90.04243406908728",
    "latitude": "29.976526018680907",
    "geocoded_column": {
      "latitude": "29.976526018680907",
      "longitude": "-90.04243406908728"
    }
  },
  {
    "service_request": "2025-1211373",
    "request_type": "Roads and Streets",
    "request_reason": "Pothole",
    "date_created": "2025-07-21T17:02:57.000",
    "date_modified": "2025-07-21T17:02:59.000",
    "request_status": "Pending",
    "responsible_agency": "Department of Public Works",
    "final_address": "ACADEMY DR & CHERLYN DR",
    "address_councildis": "A",
    "status": "Pending",
    "rowid": "1211373",
    "final_x": "3665258.4",
    "final_y": "545386.78",
    "longitude": "-90.11889157943745",
    "latitude": "29.994107843773904",
    "geocoded_column": {
      "latitude": "29.994107843773904",
      "longitude": "-90.11889157943745"
    }
  },
  {
    "service_request": "2025-1211372",
    "request_type": "Trash/Recycling",
    "request_reason": "Request a Large Item Pick Up",
    "date_created": "2025-07-21T17:00:26.000",
    "date_modified": "2025-07-21T17:00:28.000",
    "request_status": "Pending",
    "responsible_agency": "Department of Sanitation",
    "final_address": "4429 Chestnut St",
    "address_councildis": "B",
    "status": "Assigned to Contractor",
    "contractor": "IV Waste",
    "rowid": "1211372",
    "final_x": "3670682.73294",
    "final_y": "519528.900151",
    "longitude": "-90.10263412172787",
    "latitude": "29.92284804965455",
    "geocoded_column": {
      "latitude": "29.92284804965455",
      "longitude": "-90.10263412172787"
    }
  },
  {
    "service_request": "2025-1211371",
    "request_type": "Trash/Recycling",
    "request_reason": "Request a Large Item Pick Up",
    "date_created": "2025-07-21T16:55:03.000",
    "date_modified": "2025-07-21T16:55:05.000",
    "request_status": "Pending",
    "responsible_agency": "Department of Sanitation",
    "final_address": "724 Soraparu St",
    "address_councildis": "B",
    "status": "Assigned to Contractor",
    "contractor": "IV Waste",
    "rowid": "1211371",
    "final_x": "3678992.22958",
    "final_y": "520605.51436",
    "longitude": "-90.07636702232854",
    "latitude": "29.92556036793463",
    "geocoded_column": {
      "latitude": "29.92556036793463",
      "longitude": "-90.07636702232854"
    }
  },
  {
    "service_request": "2025-1211370",
    "request_type": "Streetlights",
    "request_reason": "Streetlight Outage/Malfunction",
    "date_created": "2025-07-21T16:54:14.000",
    "date_modified": "2025-07-21T16:54:16.000",
    "request_status": "Pending",
    "responsible_agency": "Department of Public Works",
    "final_address": "3636 Herald St",
    "address_councildis": "C",
    "status": "Pending",
    "contractor": "Legacy Professional Services",
    "rowid": "1211370",
    "final_x": "3702257.9729",
    "final_y": "517580.18783",
    "longitude": "-90.00303560775113",
    "latitude": "29.916519485399828",
    "geocoded_column": {
      "latitude": "29.916519485399828",
      "longitude": "-90.00303560775113"
    }
  },
  {
    "service_request": "2025-1211369",
    "request_type": "Trash/Recycling",
    "request_reason": "Request a Large Item Pick Up",
    "date_created": "2025-07-21T16:52:14.000",
    "date_modified": "2025-07-21T16:52:16.000",
    "request_status": "Pending",
    "responsible_agency": "Department of Sanitation",
    "final_address": "320 Alix St",
    "address_councildis": "C",
    "status": "Assigned to Contractor",
    "contractor": "Richards Disposal",
    "rowid": "1211369",
    "final_x": "3686532.61436",
    "final_y": "530078.590081",
    "longitude": "-90.05223006039935",
    "latitude": "29.95137853746635",
    "geocoded_column": {
      "latitude": "29.95137853746635",
      "longitude": "-90.05223006039935"
    }
  },
  {
    "service_request": "2025-1211368",
    "request_type": "Streetlights",
    "request_reason": "Streetlight Outage/Malfunction",
    "date_created": "2025-07-21T16:50:42.000",
    "date_modified": "2025-07-21T16:50:43.000",
    "request_status": "Pending",
    "responsible_agency": "Department of Public Works",
    "final_address": "9843 E Wheaton Cir",
    "address_councildis": "E",
    "status": "Pending",
    "contractor": "Legacy Professional Services",
    "rowid": "1211368",
    "final_x": "3708838.673",
    "final_y": "562561.48592",
    "longitude": "-89.98058827567425",
    "latitude": "30.039989597400936",
    "geocoded_column": {
      "latitude": "30.039989597400936",
      "longitude": "-89.98058827567425"
    }
  },
  {
    "service_request": "2025-1211367",
    "request_type": "Trash/Recycling",
    "request_reason": "Order Trash Cart",
    "date_created": "2025-07-21T16:48:23.000",
    "date_modified": "2025-07-21T16:48:27.000",
    "request_status": "Pending",
    "responsible_agency": "Department of Sanitation",
    "final_address": "320 Alix St",
    "address_councildis": "C",
    "status": "Assigned to Contractor",
    "contractor": "Richards Disposal",
    "rowid": "1211367",
    "final_x": "3686532.61436",
    "final_y": "530078.590081",
    "longitude": "-90.05223006039935",
    "latitude": "29.95137853746635",
    "geocoded_column": {
      "latitude": "29.95137853746635",
      "longitude": "-90.05223006039935"
    }
  },
  {
    "service_request": "2025-1211366",
    "request_type": "Trash/Recycling",
    "request_reason": "Request a Large Item Pick Up",
    "date_created": "2025-07-21T16:47:38.000",
    "date_modified": "2025-07-21T16:47:41.000",
    "request_status": "Pending",
    "responsible_agency": "Department of Sanitation",
    "final_address": "1832 Hermosa St",
    "address_councildis": "C",
    "status": "Assigned to Contractor",
    "contractor": "Richards Disposal",
    "rowid": "1211366",
    "final_x": "3687704.00911",
    "final_y": "524644.125436",
    "longitude": "-90.04872375448409",
    "latitude": "29.936399543383306",
    "geocoded_column": {
      "latitude": "29.936399543383306",
      "longitude": "-90.04872375448409"
    }
  },
  {
    "service_request": "2025-1211365",
    "request_type": "Trash/Recycling",
    "request_reason": "Request a Large Item Pick Up",
    "date_created": "2025-07-21T16:45:49.000",
    "date_modified": "2025-07-21T16:45:51.000",
    "request_status": "Pending",
    "responsible_agency": "Department of Sanitation",
    "final_address": "6441 Memphis St",
    "address_councildis": "A",
    "status": "Assigned to Contractor",
    "contractor": "IV Waste",
    "rowid": "1211365",
    "final_x": "3669558.37914",
    "final_y": "550305.310996",
    "longitude": "-90.105141963138",
    "latitude": "30.00750608125498",
    "geocoded_column": {
      "latitude": "30.00750608125498",
      "longitude": "-90.105141963138"
    }
  },
  {
    "service_request": "2025-1211364",
    "request_type": "Trash/Recycling",
    "request_reason": "Request a Large Item Pick Up",
    "date_created": "2025-07-21T16:44:39.000",
    "date_modified": "2025-07-21T16:44:42.000",
    "request_status": "Pending",
    "responsible_agency": "Department of Sanitation",
    "final_address": "5347 Royal St",
    "address_councildis": "E",
    "status": "Assigned to Contractor",
    "contractor": "Waste Pro",
    "rowid": "1211364",
    "final_x": "3696718.73533",
    "final_y": "532543.065092",
    "longitude": "-90.01997826721907",
    "latitude": "29.957837899465613",
    "geocoded_column": {
      "latitude": "29.957837899465613",
      "longitude": "-90.01997826721907"
    }
  },
  {
    "service_request": "2025-1211363",
    "request_type": "Traffic Signals",
    "request_reason": "Traffic Signal Malfunctioning or Damaged",
    "date_created": "2025-07-21T16:44:15.000",
    "date_modified": "2025-07-21T16:44:17.000",
    "request_status": "Pending",
    "responsible_agency": "Department of Public Works",
    "final_address": "2000 Lakeshore Dr",
    "address_councildis": "D",
    "status": "Pending",
    "rowid": "1211363",
    "final_x": "3681906.20668",
    "final_y": "558097.894683",
    "longitude": "-90.06585934778606",
    "latitude": "30.02856314044381",
    "geocoded_column": {
      "latitude": "30.02856314044381",
      "longitude": "-90.06585934778606"
    }
  },
  {
    "service_request": "2025-1211362",
    "request_type": "Trash/Recycling",
    "request_reason": "Repair Trash Cart",
    "date_created": "2025-07-21T16:43:35.000",
    "date_modified": "2025-07-21T16:43:36.000",
    "request_status": "Pending",
    "responsible_agency": "Department of Sanitation",
    "final_address": "5347 Royal St",
    "address_councildis": "E",
    "status": "Assigned to Contractor",
    "contractor": "Waste Pro",
    "rowid": "1211362",
    "final_x": "3696718.73533",
    "final_y": "532543.065092",
    "longitude": "-90.01997826721907",
    "latitude": "29.957837899465613",
    "geocoded_column": {
      "latitude": "29.957837899465613",
      "longitude": "-90.01997826721907"
    }
  },
  {
    "service_request": "2025-1211361",
    "request_type": "Property Maintenance",
    "request_reason": "Property Maintenance",
    "date_created": "2025-07-21T16:43:24.000",
    "date_modified": "2025-07-21T16:43:26.000",
    "request_status": "Pending",
    "responsible_agency": "Department of Code Enforcement",
    "final_address": "2530 Behrman Hwy",
    "address_councildis": "C",
    "status": "Pending",
    "rowid": "1211361",
    "final_x": "3692694.80649",
    "final_y": "520914.069945",
    "longitude": "-90.03310131960312",
    "latitude": "29.925988363749667",
    "geocoded_column": {
      "latitude": "29.925988363749667",
      "longitude": "-90.03310131960312"
    }
  },
  {
    "service_request": "2025-1211360",
    "request_type": "Streetlights",
    "request_reason": "Streetlight Outage/Malfunction",
    "date_created": "2025-07-21T16:37:46.000",
    "date_modified": "2025-07-21T16:37:48.000",
    "request_status": "Pending",
    "responsible_agency": "Department of Public Works",
    "final_address": "4123 Vixen St",
    "address_councildis": "C",
    "status": "Pending",
    "contractor": "Legacy Professional Services",
    "rowid": "1211360",
    "final_x": "3699042.169",
    "final_y": "520670.049977",
    "longitude": "-90.01307355747367",
    "latitude": "29.925117818574183",
    "geocoded_column": {
      "latitude": "29.925117818574183",
      "longitude": "-90.01307355747367"
    }
  },
  {
    "service_request": "2025-1211359",
    "request_type": "Trash/Recycling",
    "request_reason": "Request a Large Item Pick Up",
    "date_created": "2025-07-21T16:37:44.000",
    "date_modified": "2025-07-21T16:37:46.000",
    "request_status": "Pending",
    "responsible_agency": "Department of Sanitation",
    "final_address": "8930 Apricot St",
    "address_councildis": "A",
    "status": "Assigned to Contractor",
    "contractor": "IV Waste",
    "rowid": "1211359",
    "final_x": "3663529.05511",
    "final_y": "534667.906246",
    "longitude": "-90.12471151390874",
    "latitude": "29.964684803543836",
    "geocoded_column": {
      "latitude": "29.964684803543836",
      "longitude": "-90.12471151390874"
    }
  },
  {
    "service_request": "2025-1211358",
    "request_type": "Trash/Recycling",
    "request_reason": "Order Recycling Cart",
    "date_created": "2025-07-21T16:37:00.000",
    "date_modified": "2025-07-21T16:37:02.000",
    "request_status": "Pending",
    "responsible_agency": "Department of Sanitation",
    "final_address": "320 Alix St",
    "address_councildis": "C",
    "status": "Pending",
    "rowid": "1211358",
    "final_x": "3686532.61436",
    "final_y": "530078.590081",
    "longitude": "-90.05223006039935",
    "latitude": "29.95137853746635",
    "geocoded_column": {
      "latitude": "29.95137853746635",
      "longitude": "-90.05223006039935"
    }
  },
  {
    "service_request": "2025-1211357",
    "request_type": "Trash/Recycling",
    "request_reason": "Request a Large Item Pick Up",
    "date_created": "2025-07-21T16:33:52.000",
    "date_modified": "2025-07-21T16:33:54.000",
    "request_status": "Pending",
    "responsible_agency": "Department of Sanitation",
    "final_address": "4700 W Adams Ct",
    "address_councildis": "E",
    "status": "Assigned to Contractor",
    "contractor": "Waste Pro",
    "rowid": "1211357",
    "final_x": "3718491.69497",
    "final_y": "556658.621786",
    "longitude": "-89.95030722255116",
    "latitude": "30.0234422189553",
    "geocoded_column": {
      "latitude": "30.0234422189553",
      "longitude": "-89.95030722255116"
    }
  },
  {
    "service_request": "2025-1211356",
    "request_type": "Streetlights",
    "request_reason": "Streetlight Outage/Malfunction",
    "date_created": "2025-07-21T16:24:58.000",
    "date_modified": "2025-07-21T16:24:59.000",
    "request_status": "Pending",
    "responsible_agency": "Department of Public Works",
    "final_address": "7812 Hickman St",
    "address_councildis": "E",
    "status": "Pending",
    "contractor": "Legacy Professional Services",
    "rowid": "1211356",
    "final_x": "3705788.56913",
    "final_y": "563807.772513",
    "longitude": "-89.99018131766108",
    "latitude": "30.043515048904457",
    "geocoded_column": {
      "latitude": "30.043515048904457",
      "longitude": "-89.99018131766108"
    }
  },
  {
    "service_request": "2025-1211355",
    "request_type": "Property Maintenance",
    "request_reason": "Property Maintenance",
    "date_created": "2025-07-21T16:24:35.000",
    "date_modified": "2025-07-21T16:24:37.000",
    "request_status": "Pending",
    "responsible_agency": "Department of Code Enforcement",
    "final_address": "2508 Palmyra St",
    "address_councildis": "B",
    "status": "Pending",
    "rowid": "1211355",
    "final_x": "3675531.02632",
    "final_y": "533882.365253",
    "longitude": "-90.08683706401973",
    "latitude": "29.962171277325137",
    "geocoded_column": {
      "latitude": "29.962171277325137",
      "longitude": "-90.08683706401973"
    }
  },
  {
    "service_request": "2025-1211354",
    "request_type": "Trash/Recycling",
    "request_reason": "Order Recycling Cart",
    "date_created": "2025-07-21T16:24:20.000",
    "date_modified": "2025-07-21T16:24:22.000",
    "request_status": "Pending",
    "responsible_agency": "Department of Sanitation",
    "final_address": "2231 S Liberty St",
    "address_councildis": "B",
    "status": "Pending",
    "rowid": "1211354",
    "final_x": "3675778.458",
    "final_y": "525671.231805",
    "longitude": "-90.08633789688537",
    "latitude": "29.939585987731288",
    "geocoded_column": {
      "latitude": "29.939585987731288",
      "longitude": "-90.08633789688537"
    }
  },
  {
    "service_request": "2025-1211353",
    "request_type": "Property Maintenance",
    "request_reason": "Property Maintenance",
    "date_created": "2025-07-21T16:24:02.000",
    "date_modified": "2025-07-21T16:24:04.000",
    "request_status": "Pending",
    "responsible_agency": "Department of Code Enforcement",
    "final_address": "9009 Green St",
    "address_councildis": "A",
    "status": "Pending",
    "rowid": "1211353",
    "final_x": "3660767.0343",
    "final_y": "531895.759171",
    "longitude": "-90.13352549756449",
    "latitude": "29.957142116434067",
    "geocoded_column": {
      "latitude": "29.957142116434067",
      "longitude": "-90.13352549756449"
    }
  },
  {
    "service_request": "2025-1211352",
    "request_type": "Trash/Recycling",
    "request_reason": "Request a Large Item Pick Up",
    "date_created": "2025-07-21T16:20:51.000",
    "date_modified": "2025-07-21T16:20:53.000",
    "request_status": "Pending",
    "responsible_agency": "Department of Sanitation",
    "final_address": "10330 Brookfield Dr",
    "address_councildis": "E",
    "status": "Assigned to Contractor",
    "contractor": "Waste Pro",
    "rowid": "1211352",
    "final_x": "3710578.56837",
    "final_y": "563195.200544",
    "longitude": "-89.97506597126291",
    "latitude": "30.041675465227694",
    "geocoded_column": {
      "latitude": "30.041675465227694",
      "longitude": "-89.97506597126291"
    }
  },
  {
    "service_request": "2025-1211351",
    "request_type": "Trash/Recycling",
    "request_reason": "Replace Trash Cart",
    "date_created": "2025-07-21T16:19:33.000",
    "date_modified": "2025-07-21T16:19:36.000",
    "request_status": "Pending",
    "responsible_agency": "Department of Sanitation",
    "final_address": "11215 Will Stutley Dr",
    "address_councildis": "E",
    "status": "Assigned to Contractor",
    "contractor": "Waste Pro",
    "rowid": "1211351",
    "final_x": "3716674.12972",
    "final_y": "558270.821596",
    "longitude": "-89.95598904689733",
    "latitude": "30.02793532132034",
    "geocoded_column": {
      "latitude": "30.02793532132034",
      "longitude": "-89.95598904689733"
    }
  },
  {
    "service_request": "2025-1211350",
    "request_type": "Abandoned Vehicles",
    "request_reason": "Abandoned/Junk Vehicles",
    "date_created": "2025-07-21T16:17:53.000",
    "date_modified": "2025-07-21T16:44:58.000",
    "request_status": "Pending",
    "responsible_agency": "Department of Public Works",
    "final_address": "7722 Plum St",
    "address_councildis": "A",
    "status": "Pending",
    "rowid": "1211350",
    "final_x": "3663119.05229",
    "final_y": "527745.924927",
    "longitude": "-90.12623655817082",
    "latitude": "29.94566348228203",
    "geocoded_column": {
      "latitude": "29.94566348228203",
      "longitude": "-90.12623655817082"
    }
  },
  {
    "service_request": "2025-1211349",
    "request_type": "Trash/Recycling",
    "request_reason": "Request a Large Item Pick Up",
    "date_created": "2025-07-21T16:16:30.000",
    "date_modified": "2025-07-21T16:16:32.000",
    "request_status": "Pending",
    "responsible_agency": "Department of Sanitation",
    "final_address": "1903 Mazant St",
    "address_councildis": "D",
    "status": "Assigned to Contractor",
    "contractor": "IV Waste",
    "rowid": "1211349",
    "final_x": "3692904.85705",
    "final_y": "538264.615497",
    "longitude": "-90.03181613689112",
    "latitude": "29.97368979327797",
    "geocoded_column": {
      "latitude": "29.97368979327797",
      "longitude": "-90.03181613689112"
    }
  },
  {
    "service_request": "2025-1211348",
    "request_type": "Trash/Recycling",
    "request_reason": "Replace Trash Cart",
    "date_created": "2025-07-21T16:16:20.000",
    "date_modified": "2025-07-21T16:16:22.000",
    "request_status": "Pending",
    "responsible_agency": "Department of Sanitation",
    "final_address": "4728 Prytania St",
    "address_councildis": "B",
    "status": "Assigned to Contractor",
    "contractor": "IV Waste",
    "rowid": "1211348",
    "final_x": "3669531.09447",
    "final_y": "520124.881272",
    "longitude": "-90.10624925586544",
    "latitude": "29.924520769793638",
    "geocoded_column": {
      "latitude": "29.924520769793638",
      "longitude": "-90.10624925586544"
    }
  },
  {
    "service_request": "2025-1211347",
    "request_type": "Trash/Recycling",
    "request_reason": "Request a Large Item Pick Up",
    "date_created": "2025-07-21T16:14:43.000",
    "date_modified": "2025-07-21T16:14:45.000",
    "request_status": "Pending",
    "responsible_agency": "Department of Sanitation",
    "final_address": "3601 Rue Michelle",
    "address_councildis": "C",
    "status": "Assigned to Contractor",
    "contractor": "Richards Disposal",
    "rowid": "1211347",
    "final_x": "3703546.86839",
    "final_y": "517391.416437",
    "longitude": "-89.99897429835707",
    "latitude": "29.915959220456212",
    "geocoded_column": {
      "latitude": "29.915959220456212",
      "longitude": "-89.99897429835707"
    }
  },
  {
    "service_request": "2025-1211346",
    "request_type": "Trash/Recycling",
    "request_reason": "Request a Large Item Pick Up",
    "date_created": "2025-07-21T16:13:36.000",
    "date_modified": "2025-07-21T16:13:38.000",
    "request_status": "Pending",
    "responsible_agency": "Department of Sanitation",
    "final_address": "5910 Milne Blvd",
    "address_councildis": "A",
    "status": "Assigned to Contractor",
    "contractor": "IV Waste",
    "rowid": "1211346",
    "final_x": "3666929.9202",
    "final_y": "547141.287249",
    "longitude": "-90.11355245939804",
    "latitude": "29.998883317468824",
    "geocoded_column": {
      "latitude": "29.998883317468824",
      "longitude": "-90.11355245939804"
    }
  },
  {
    "service_request": "2025-1211345",
    "request_type": "Trash/Recycling",
    "request_reason": "Missed Trash Pick-Up",
    "date_created": "2025-07-21T16:13:12.000",
    "date_modified": "2025-07-21T16:13:15.000",
    "request_status": "Pending",
    "responsible_agency": "Department of Sanitation",
    "final_address": "2122 Fats Domino Ave",
    "address_councildis": "E",
    "status": "Assigned to Contractor",
    "contractor": "Waste Pro",
    "rowid": "1211345",
    "final_x": "3699030.97111",
    "final_y": "537706.0338",
    "longitude": "-90.01248900172322",
    "latitude": "29.97196114068816",
    "geocoded_column": {
      "latitude": "29.97196114068816",
      "longitude": "-90.01248900172322"
    }
  },
  {
    "service_request": "2025-1211344",
    "request_type": "Streetlights",
    "request_reason": "Streetlight Outage/Malfunction",
    "date_created": "2025-07-21T16:03:50.000",
    "date_modified": "2025-07-21T16:03:52.000",
    "request_status": "Pending",
    "responsible_agency": "Department of Public Works",
    "final_address": "1000 BLK Iberville St",
    "address_councildis": "C",
    "status": "Pending",
    "contractor": "Legacy Professional Services",
    "rowid": "1211344",
    "final_x": "3680443.32805",
    "final_y": "531776.450342",
    "longitude": "-90.07139799156954",
    "latitude": "29.956232875258337",
    "geocoded_column": {
      "latitude": "29.956232875258337",
      "longitude": "-90.07139799156954"
    }
  },
  {
    "service_request": "2025-1211343",
    "request_type": "Trash/Recycling",
    "request_reason": "Return Trash Cart",
    "date_created": "2025-07-21T16:03:15.000",
    "date_modified": "2025-07-21T16:03:17.000",
    "request_status": "Pending",
    "responsible_agency": "Department of Sanitation",
    "final_address": "1498 Mandolin St",
    "address_councildis": "D",
    "status": "Assigned to Contractor",
    "contractor": "IV Waste",
    "rowid": "1211343",
    "final_x": "3678791.11464",
    "final_y": "547974.947474",
    "longitude": "-90.07605388600615",
    "latitude": "30.0008230682824",
    "geocoded_column": {
      "latitude": "30.0008230682824",
      "longitude": "-90.07605388600615"
    }
  },
  {
    "service_request": "2025-1211342",
    "request_type": "Trash/Recycling",
    "request_reason": "Return Trash Cart",
    "date_created": "2025-07-21T15:58:59.000",
    "date_modified": "2025-07-21T15:59:01.000",
    "request_status": "Pending",
    "responsible_agency": "Department of Sanitation",
    "final_address": "857 Bungalow Ct",
    "address_councildis": "A",
    "status": "Assigned to Contractor",
    "contractor": "IV Waste",
    "rowid": "1211342",
    "final_x": "3672636.86542",
    "final_y": "540780.142667",
    "longitude": "-90.09574114765643",
    "latitude": "29.981224086015747",
    "geocoded_column": {
      "latitude": "29.981224086015747",
      "longitude": "-90.09574114765643"
    }
  },
  {
    "service_request": "2025-1211341",
    "request_type": "Trash/Recycling",
    "request_reason": "Request a Large Item Pick Up",
    "date_created": "2025-07-21T15:57:56.000",
    "date_modified": "2025-07-21T15:59:39.000",
    "request_status": "Pending",
    "responsible_agency": "Department of Sanitation",
    "final_address": "3903 Kathleen St",
    "address_councildis": "C",
    "status": "Assigned to Contractor",
    "contractor": "Richards Disposal",
    "rowid": "1211341",
    "final_x": "3709801.86897",
    "final_y": "516470.919221",
    "longitude": "-89.97926560444236",
    "latitude": "29.91322640358003",
    "geocoded_column": {
      "latitude": "29.91322640358003",
      "longitude": "-89.97926560444236"
    }
  },
  {
    "service_request": "2025-1211340",
    "request_type": "Trash/Recycling",
    "request_reason": "Illegal Dumping",
    "date_created": "2025-07-21T15:56:43.000",
    "date_modified": "2025-07-21T15:56:44.000",
    "request_status": "Pending",
    "responsible_agency": "Department of Sanitation",
    "final_address": "2700 BLK Allen Toussaint Blvd",
    "address_councildis": "D",
    "status": "Pending",
    "rowid": "1211340",
    "final_x": "3687591.8738",
    "final_y": "556039.135741",
    "longitude": "-90.04796592725688",
    "latitude": "30.022728165750028",
    "geocoded_column": {
      "latitude": "30.022728165750028",
      "longitude": "-90.04796592725688"
    }
  },
  {
    "service_request": "2025-1211339",
    "request_type": "Property Maintenance",
    "request_reason": "Property Maintenance",
    "date_created": "2025-07-21T15:55:32.000",
    "date_modified": "2025-07-21T15:55:34.000",
    "request_status": "Pending",
    "responsible_agency": "Department of Code Enforcement",
    "final_address": "5700 Vicksburg St",
    "address_councildis": "A",
    "status": "Pending",
    "rowid": "1211339",
    "final_x": "3668658.16654",
    "final_y": "545461.582416",
    "longitude": "-90.10814962534776",
    "latitude": "29.994214008166267",
    "geocoded_column": {
      "latitude": "29.994214008166267",
      "longitude": "-90.10814962534776"
    }
  },
  {
    "service_request": "2025-1211338",
    "request_type": "Trash/Recycling",
    "request_reason": "Request a Large Item Pick Up",
    "date_created": "2025-07-21T15:53:46.000",
    "date_modified": "2025-07-21T15:53:47.000",
    "request_status": "Pending",
    "responsible_agency": "Department of Sanitation",
    "final_address": "23 Rail St",
    "address_councildis": "D",
    "status": "Assigned to Contractor",
    "contractor": "IV Waste",
    "rowid": "1211338",
    "final_x": "3674043.84712",
    "final_y": "557245.442715",
    "longitude": "-90.0907332893834",
    "latitude": "30.026455997672745",
    "geocoded_column": {
      "latitude": "30.026455997672745",
      "longitude": "-90.0907332893834"
    }
  },
  {
    "service_request": "2025-1211337",
    "request_type": "Parks & Parkways",
    "request_reason": "Tree Stump (removal, grind)",
    "date_created": "2025-07-21T15:53:35.000",
    "date_modified": "2025-07-21T15:54:09.000",
    "request_status": "Pending",
    "responsible_agency": "Department of Parks & Parkway",
    "final_address": "4783 Hickerson Dr",
    "address_councildis": "E",
    "status": "Pending",
    "rowid": "1211337",
    "final_x": "3710346.06206",
    "final_y": "556055.075161",
    "longitude": "-89.97606805991322",
    "latitude": "30.022050523122193",
    "geocoded_column": {
      "latitude": "30.022050523122193",
      "longitude": "-89.97606805991322"
    }
  },
  {
    "service_request": "2025-1211336",
    "request_type": "Trash/Recycling",
    "request_reason": "Request a Large Item Pick Up",
    "date_created": "2025-07-21T15:53:04.000",
    "date_modified": "2025-07-21T15:53:06.000",
    "request_status": "Pending",
    "responsible_agency": "Department of Sanitation",
    "final_address": "5761 E Louis Prima Dr",
    "address_councildis": "E",
    "status": "Assigned to Contractor",
    "contractor": "Waste Pro",
    "rowid": "1211336",
    "final_x": "3716080.08108",
    "final_y": "562488.682719",
    "longitude": "-89.95770616993272",
    "latitude": "30.039552365134035",
    "geocoded_column": {
      "latitude": "30.039552365134035",
      "longitude": "-89.95770616993272"
    }
  },
  {
    "service_request": "2025-1211335",
    "request_type": "Streetlights",
    "request_reason": "Streetlight Outage/Malfunction",
    "date_created": "2025-07-21T15:51:23.000",
    "date_modified": "2025-07-21T15:51:25.000",
    "request_status": "Pending",
    "responsible_agency": "Department of Public Works",
    "final_address": "PARC BRITTANY BLVD & N CORONET CT",
    "address_councildis": "E",
    "status": "Pending",
    "contractor": "Legacy Professional Services",
    "rowid": "1211335",
    "final_x": "3702793.6",
    "final_y": "557595.38",
    "longitude": "-89.99987511638795",
    "latitude": "30.026529586546896",
    "geocoded_column": {
      "latitude": "30.026529586546896",
      "longitude": "-89.99987511638795"
    }
  },
  {
    "service_request": "2025-1211334",
    "request_type": "Trash/Recycling",
    "request_reason": "Request a Large Item Pick Up",
    "date_created": "2025-07-21T15:42:50.000",
    "date_modified": "2025-07-21T15:42:52.000",
    "request_status": "Pending",
    "responsible_agency": "Department of Sanitation",
    "final_address": "501 S Hennessey St",
    "address_councildis": "A",
    "status": "Assigned to Contractor",
    "contractor": "IV Waste",
    "rowid": "1211334",
    "final_x": "3669268.48897",
    "final_y": "537663.23796",
    "longitude": "-90.10648544803126",
    "latitude": "29.972753254963035",
    "geocoded_column": {
      "latitude": "29.972753254963035",
      "longitude": "-90.10648544803126"
    }
  },
  {
    "service_request": "2025-1211333",
    "request_type": "Trash/Recycling",
    "request_reason": "Request a Large Item Pick Up",
    "date_created": "2025-07-21T15:42:30.000",
    "date_modified": "2025-07-21T15:42:33.000",
    "request_status": "Pending",
    "responsible_agency": "Department of Sanitation",
    "final_address": "7708 Primrose Dr",
    "address_councildis": "E",
    "status": "Assigned to Contractor",
    "contractor": "Waste Pro",
    "rowid": "1211333",
    "final_x": "3701580.47389",
    "final_y": "561470.385439",
    "longitude": "-90.00356633343308",
    "latitude": "30.037223110093375",
    "geocoded_column": {
      "latitude": "30.037223110093375",
      "longitude": "-90.00356633343308"
    }
  },
  {
    "service_request": "2025-1211332",
    "request_type": "Trash/Recycling",
    "request_reason": "Request a Large Item Pick Up",
    "date_created": "2025-07-21T15:40:07.000",
    "date_modified": "2025-07-21T15:40:09.000",
    "request_status": "Pending",
    "responsible_agency": "Department of Sanitation",
    "final_address": "2724 Mexico St",
    "address_councildis": "D",
    "status": "Assigned to Contractor",
    "contractor": "IV Waste",
    "rowid": "1211332",
    "final_x": "3687247.52969",
    "final_y": "556402.943258",
    "longitude": "-90.0490410878403",
    "latitude": "30.023739117778604",
    "geocoded_column": {
      "latitude": "30.023739117778604",
      "longitude": "-90.0490410878403"
    }
  },
  {
    "service_request": "2025-1211331",
    "request_type": "Trash/Recycling",
    "request_reason": "Request a Large Item Pick Up",
    "date_created": "2025-07-21T15:39:15.000",
    "date_modified": "2025-07-21T15:39:17.000",
    "request_status": "Pending",
    "responsible_agency": "Department of Sanitation",
    "final_address": "7430 Eastmore Rd",
    "address_councildis": "E",
    "status": "Assigned to Contractor",
    "contractor": "Waste Pro",
    "rowid": "1211331",
    "final_x": "3700324.05207",
    "final_y": "559965.407325",
    "longitude": "-90.00759191458707",
    "latitude": "30.033125037234008",
    "geocoded_column": {
      "latitude": "30.033125037234008",
      "longitude": "-90.00759191458707"
    }
  },
  {
    "service_request": "2025-1211330",
    "request_type": "Trash/Recycling",
    "request_reason": "Request a Large Item Pick Up",
    "date_created": "2025-07-21T15:38:18.000",
    "date_modified": "2025-07-21T15:38:21.000",
    "request_status": "Pending",
    "responsible_agency": "Department of Sanitation",
    "final_address": "201 Downs St",
    "address_councildis": "A",
    "status": "Assigned to Contractor",
    "contractor": "IV Waste",
    "rowid": "1211330",
    "final_x": "3667134.19828",
    "final_y": "553258.695383",
    "longitude": "-90.1127012760711",
    "latitude": "30.01569807847328",
    "geocoded_column": {
      "latitude": "30.01569807847328",
      "longitude": "-90.1127012760711"
    }
  },
  {
    "service_request": "2025-1211329",
    "request_type": "Street and Traffic Signs",
    "request_reason": "Traffic or Parking Sign Damaged or Missing",
    "date_created": "2025-07-21T15:36:44.000",
    "date_modified": "2025-07-21T15:36:47.000",
    "request_status": "Pending",
    "responsible_agency": "Department of Public Works",
    "final_address": "S CARROLLTON AVE & TULANE AVE",
    "address_councildis": "A",
    "status": "Pending",
    "rowid": "1211329",
    "final_x": "3669337.8",
    "final_y": "536308.78",
    "longitude": "-90.10631235722039",
    "latitude": "29.96902690865695",
    "geocoded_column": {
      "latitude": "29.96902690865695",
      "longitude": "-90.10631235722039"
    }
  },
  {
    "service_request": "2025-1211328",
    "request_type": "Trash/Recycling",
    "request_reason": "Replace Recycling Cart",
    "date_created": "2025-07-21T15:34:52.000",
    "date_modified": "2025-07-21T15:34:55.000",
    "request_status": "Pending",
    "responsible_agency": "Department of Sanitation",
    "final_address": "3145 Burgundy St",
    "address_councildis": "C",
    "status": "Pending",
    "rowid": "1211328",
    "final_x": "3689163.48835",
    "final_y": "535147.662214",
    "longitude": "-90.04374293997674",
    "latitude": "29.96523558686584",
    "geocoded_column": {
      "latitude": "29.96523558686584",
      "longitude": "-90.04374293997674"
    }
  },
  {
    "service_request": "2025-1211327",
    "request_type": "Trash/Recycling",
    "request_reason": "Order Trash Cart",
    "date_created": "2025-07-21T15:31:25.000",
    "date_modified": "2025-07-21T15:31:28.000",
    "request_status": "Pending",
    "responsible_agency": "Department of Sanitation",
    "final_address": "3145 Burgundy St",
    "address_councildis": "C",
    "status": "Assigned to Contractor",
    "contractor": "IV Waste",
    "rowid": "1211327",
    "final_x": "3689163.48835",
    "final_y": "535147.662214",
    "longitude": "-90.04374293997674",
    "latitude": "29.96523558686584",
    "geocoded_column": {
      "latitude": "29.96523558686584",
      "longitude": "-90.04374293997674"
    }
  },
  {
    "service_request": "2025-1211326",
    "request_type": "Roads and Streets",
    "request_reason": "Curb Damage",
    "date_created": "2025-07-21T15:29:21.000",
    "date_modified": "2025-07-21T15:29:24.000",
    "request_status": "Pending",
    "responsible_agency": "Department of Public Works",
    "final_address": "5230 Macarthur Blvd",
    "address_councildis": "C",
    "status": "Pending",
    "rowid": "1211326",
    "final_x": "3703475.4762",
    "final_y": "519914.351032",
    "longitude": "-89.99910691235067",
    "latitude": "29.922898706793884",
    "geocoded_column": {
      "latitude": "29.922898706793884",
      "longitude": "-89.99910691235067"
    }
  },
  {
    "service_request": "2025-1211325",
    "request_type": "Healthy Homes",
    "request_reason": "Healthy Homes",
    "date_created": "2025-07-21T15:26:25.000",
    "date_modified": "2025-07-21T15:26:27.000",
    "request_status": "Pending",
    "responsible_agency": "Department of Code Enforcement",
    "final_address": "6319 Chartres St",
    "address_councildis": "E",
    "status": "Pending",
    "rowid": "1211325",
    "final_x": "3699577.05514",
    "final_y": "531264.237314",
    "longitude": "-90.01099916932696",
    "latitude": "29.9542311832677",
    "geocoded_column": {
      "latitude": "29.9542311832677",
      "longitude": "-90.01099916932696"
    }
  },
  {
    "service_request": "2025-1211324",
    "request_type": "Trash/Recycling",
    "request_reason": "Request a Large Item Pick Up",
    "date_created": "2025-07-21T15:25:27.000",
    "date_modified": "2025-07-21T15:25:28.000",
    "request_status": "Pending",
    "responsible_agency": "Department of Sanitation",
    "final_address": "3605 Timber Wolf Ln",
    "address_councildis": "C",
    "status": "Assigned to Contractor",
    "contractor": "Richards Disposal",
    "rowid": "1211324",
    "final_x": "3704342.61892",
    "final_y": "511060.337008",
    "longitude": "-89.99669572718392",
    "latitude": "29.898525407912008",
    "geocoded_column": {
      "latitude": "29.898525407912008",
      "longitude": "-89.99669572718392"
    }
  },
  {
    "service_request": "2025-1211323",
    "request_type": "Parks & Parkways",
    "request_reason": "Request Tree Service (Right of Way/Public Property)",
    "date_created": "2025-07-21T15:25:13.000",
    "date_modified": "2025-07-21T15:25:15.000",
    "request_status": "Pending",
    "responsible_agency": "Department of Parks & Parkway",
    "final_address": "4641 Knight Dr",
    "address_councildis": "E",
    "status": "Pending",
    "rowid": "1211323",
    "final_x": "3708272.1628",
    "final_y": "554913.891864",
    "longitude": "-89.98266350164488",
    "latitude": "30.018980096257366",
    "geocoded_column": {
      "latitude": "30.018980096257366",
      "longitude": "-89.98266350164488"
    }
  },
  {
    "service_request": "2025-1211322",
    "request_type": "Parks & Parkways",
    "request_reason": "Request Tree Service (Right of Way/Public Property)",
    "date_created": "2025-07-21T15:25:06.000",
    "date_modified": "2025-07-21T15:25:08.000",
    "request_status": "Pending",
    "responsible_agency": "Department of Parks & Parkway",
    "final_address": "5220 Macarthur Blvd",
    "address_councildis": "C",
    "status": "Pending",
    "rowid": "1211322",
    "final_x": "3703408.2138",
    "final_y": "519940.064568",
    "longitude": "-89.99931828686567",
    "latitude": "29.922971563517944",
    "geocoded_column": {
      "latitude": "29.922971563517944",
      "longitude": "-89.99931828686567"
    }
  },
  {
    "service_request": "2025-1211321",
    "request_type": "Parks & Parkways",
    "request_reason": "Request Tree Service (Right of Way/Public Property)",
    "date_created": "2025-07-21T15:20:32.000",
    "date_modified": "2025-07-21T15:22:16.000",
    "request_status": "Pending",
    "responsible_agency": "Department of Parks & Parkway",
    "final_address": "5600 Holley Ln",
    "address_councildis": "E",
    "status": "Pending",
    "rowid": "1211321",
    "final_x": "3703347.83114",
    "final_y": "556520.58025",
    "longitude": "-89.99816339470951",
    "latitude": "30.02355655653691",
    "geocoded_column": {
      "latitude": "30.02355655653691",
      "longitude": "-89.99816339470951"
    }
  },
  {
    "service_request": "2025-1211320",
    "request_type": "Trash/Recycling",
    "request_reason": "Request a Large Item Pick Up",
    "date_created": "2025-07-21T15:19:07.000",
    "date_modified": "2025-07-21T15:19:09.000",
    "request_status": "Pending",
    "responsible_agency": "Department of Sanitation",
    "final_address": "7701 Unity Dr",
    "address_councildis": "E",
    "status": "Assigned to Contractor",
    "contractor": "Waste Pro",
    "rowid": "1211320",
    "final_x": "3712012.9173",
    "final_y": "567190.301412",
    "longitude": "-89.97038276348528",
    "latitude": "30.05261354872498",
    "geocoded_column": {
      "latitude": "30.05261354872498",
      "longitude": "-89.97038276348528"
    }
  },
  {
    "service_request": "2025-1211319",
    "request_type": "Trash/Recycling",
    "request_reason": "Request a Large Item Pick Up",
    "date_created": "2025-07-21T15:18:25.000",
    "date_modified": "2025-07-21T15:18:27.000",
    "request_status": "Pending",
    "responsible_agency": "Department of Sanitation",
    "final_address": "11511 Curran Rd",
    "address_councildis": "E",
    "status": "Assigned to Contractor",
    "contractor": "Waste Pro",
    "rowid": "1211319",
    "final_x": "3711862.33381",
    "final_y": "567076.805732",
    "longitude": "-89.97086297566489",
    "latitude": "30.052306405878277",
    "geocoded_column": {
      "latitude": "30.052306405878277",
      "longitude": "-89.97086297566489"
    }
  },
  {
    "service_request": "2025-1211318",
    "request_type": "Streetlights",
    "request_reason": "Streetlight Outage/Malfunction",
    "date_created": "2025-07-21T15:18:05.000",
    "date_modified": "2025-07-21T15:18:07.000",
    "request_status": "Pending",
    "responsible_agency": "Department of Public Works",
    "final_address": "HAYNE BLVD & SHEEPHEAD ST",
    "address_councildis": "E",
    "status": "Pending",
    "contractor": "Legacy Professional Services",
    "rowid": "1211318",
    "final_x": "3699136.4",
    "final_y": "561658.98",
    "longitude": "-90.01128323976138",
    "latitude": "30.03781943536229",
    "geocoded_column": {
      "latitude": "30.03781943536229",
      "longitude": "-90.01128323976138"
    }
  },
  {
    "service_request": "2025-1211317",
    "request_type": "Trash/Recycling",
    "request_reason": "Illegal Dumping",
    "date_created": "2025-07-21T15:14:53.000",
    "date_modified": "2025-07-21T15:14:55.000",
    "request_status": "Pending",
    "responsible_agency": "Department of Sanitation",
    "final_address": "2038 St Ferdinand St",
    "address_councildis": "D",
    "status": "Pending",
    "rowid": "1211317",
    "final_x": "3688630.93391",
    "final_y": "540019.830987",
    "longitude": "-90.04525175421071",
    "latitude": "29.978648808020875",
    "geocoded_column": {
      "latitude": "29.978648808020875",
      "longitude": "-90.04525175421071"
    }
  },
  {
    "service_request": "2025-1211316",
    "request_type": "Parks & Parkways",
    "request_reason": "Request Tree Service (Right of Way/Public Property)",
    "date_created": "2025-07-21T15:14:03.000",
    "date_modified": "2025-07-21T15:14:05.000",
    "request_status": "Pending",
    "responsible_agency": "Department of Parks & Parkway",
    "final_address": "4641 Knight Dr",
    "address_councildis": "E",
    "status": "Pending",
    "rowid": "1211316",
    "final_x": "3708272.1628",
    "final_y": "554913.891864",
    "longitude": "-89.98266350164488",
    "latitude": "30.018980096257366",
    "geocoded_column": {
      "latitude": "30.018980096257366",
      "longitude": "-89.98266350164488"
    }
  },
  {
    "service_request": "2025-1211315",
    "request_type": "Roads and Streets",
    "request_reason": "Debris in Driving Lanes",
    "date_created": "2025-07-21T15:13:56.000",
    "date_modified": "2025-07-21T15:13:57.000",
    "request_status": "Pending",
    "responsible_agency": "Department of Public Works",
    "final_address": "600 BLK Fulton St",
    "address_councildis": "B",
    "status": "Pending",
    "rowid": "1211315",
    "final_x": "3682404.72341",
    "final_y": "528285.084294",
    "longitude": "-90.06532657112825",
    "latitude": "29.946573257868845",
    "geocoded_column": {
      "latitude": "29.946573257868845",
      "longitude": "-90.06532657112825"
    }
  },
  {
    "service_request": "2025-1211314",
    "request_type": "Trash/Recycling",
    "request_reason": "Request a Large Item Pick Up",
    "date_created": "2025-07-21T15:12:57.000",
    "date_modified": "2025-07-21T15:12:59.000",
    "request_status": "Pending",
    "responsible_agency": "Department of Sanitation",
    "final_address": "4018 Virgil Blvd",
    "address_councildis": "D",
    "status": "Assigned to Contractor",
    "contractor": "IV Waste",
    "rowid": "1211314",
    "final_x": "3679742.51637",
    "final_y": "547188.369681",
    "longitude": "-90.07307566710881",
    "latitude": "29.99863152019749",
    "geocoded_column": {
      "latitude": "29.99863152019749",
      "longitude": "-90.07307566710881"
    }
  },
  {
    "service_request": "2025-1211313",
    "request_type": "Trash/Recycling",
    "request_reason": "Repair Trash Cart",
    "date_created": "2025-07-21T15:07:52.000",
    "date_modified": "2025-07-21T15:07:54.000",
    "request_status": "Pending",
    "responsible_agency": "Department of Sanitation",
    "final_address": "845 Roosevelt Pl",
    "address_councildis": "A",
    "status": "Assigned to Contractor",
    "contractor": "IV Waste",
    "rowid": "1211313",
    "final_x": "3673551.08219",
    "final_y": "539991.907019",
    "longitude": "-90.09288058270576",
    "latitude": "29.979029525350914",
    "geocoded_column": {
      "latitude": "29.979029525350914",
      "longitude": "-90.09288058270576"
    }
  },
  {
    "service_request": "2025-1211312",
    "request_type": "Trash/Recycling",
    "request_reason": "Missed Trash Pick-Up",
    "date_created": "2025-07-21T15:06:13.000",
    "date_modified": "2025-07-21T15:06:15.000",
    "request_status": "Pending",
    "responsible_agency": "Department of Sanitation",
    "final_address": "6201 Pines Blvd",
    "address_councildis": "D",
    "status": "Assigned to Contractor",
    "contractor": "Waste Pro",
    "rowid": "1211312",
    "final_x": "3696752.08458",
    "final_y": "556368.26761",
    "longitude": "-90.01901000837296",
    "latitude": "30.023347430147776",
    "geocoded_column": {
      "latitude": "30.023347430147776",
      "longitude": "-90.01901000837296"
    }
  },
  {
    "service_request": "2025-1211311",
    "request_type": "Trash/Recycling",
    "request_reason": "Request a Large Item Pick Up",
    "date_created": "2025-07-21T15:05:25.000",
    "date_modified": "2025-07-21T15:05:26.000",
    "request_status": "Pending",
    "responsible_agency": "Department of Sanitation",
    "final_address": "3000 Burgundy St",
    "address_councildis": "C",
    "status": "Assigned to Contractor",
    "contractor": "IV Waste",
    "rowid": "1211311",
    "final_x": "3688291.36003",
    "final_y": "535300.28071",
    "longitude": "-90.04649165561362",
    "latitude": "29.96568219467396",
    "geocoded_column": {
      "latitude": "29.96568219467396",
      "longitude": "-90.04649165561362"
    }
  },
  {
    "service_request": "2025-1211310",
    "request_type": "Parks & Parkways",
    "request_reason": "Request Tree Service (Right of Way/Public Property)",
    "date_created": "2025-07-21T15:05:16.000",
    "date_modified": "2025-07-21T15:05:17.000",
    "request_status": "Pending",
    "responsible_agency": "Department of Parks & Parkway",
    "final_address": "961 Harding Dr",
    "address_councildis": "A",
    "status": "Pending",
    "rowid": "1211310",
    "final_x": "3674342.14088",
    "final_y": "540185.099915",
    "longitude": "-90.09037549243301",
    "latitude": "29.979537168531873",
    "geocoded_column": {
      "latitude": "29.979537168531873",
      "longitude": "-90.09037549243301"
    }
  },
  {
    "service_request": "2025-1211309",
    "request_type": "Property Maintenance",
    "request_reason": "Property Maintenance",
    "date_created": "2025-07-21T15:05:12.000",
    "date_modified": "2025-07-21T15:05:15.000",
    "request_status": "Pending",
    "responsible_agency": "Department of Code Enforcement",
    "final_address": "4821 Dauphine St",
    "address_councildis": "E",
    "status": "Pending",
    "rowid": "1211309",
    "final_x": "3694913.31613",
    "final_y": "533352.691908",
    "longitude": "-90.02565006043292",
    "latitude": "29.96012086515784",
    "geocoded_column": {
      "latitude": "29.96012086515784",
      "longitude": "-90.02565006043292"
    }
  },
  {
    "service_request": "2025-1211308",
    "request_type": "Trash/Recycling",
    "request_reason": "Replace Trash Cart",
    "date_created": "2025-07-21T15:04:43.000",
    "date_modified": "2025-07-21T15:04:44.000",
    "request_status": "Pending",
    "responsible_agency": "Department of Sanitation",
    "final_address": "325 Wallace Dr",
    "address_councildis": "D",
    "status": "Assigned to Contractor",
    "contractor": "IV Waste",
    "rowid": "1211308",
    "final_x": "3682096.37896",
    "final_y": "548139.553362",
    "longitude": "-90.06560656489853",
    "latitude": "30.001175539614376",
    "geocoded_column": {
      "latitude": "30.001175539614376",
      "longitude": "-90.06560656489853"
    }
  },
  {
    "service_request": "2025-1211307",
    "request_type": "Trash/Recycling",
    "request_reason": "Request a Large Item Pick Up",
    "date_created": "2025-07-21T15:03:16.000",
    "date_modified": "2025-07-21T15:03:18.000",
    "request_status": "Pending",
    "responsible_agency": "Department of Sanitation",
    "final_address": "7321 Restgate Rd",
    "address_councildis": "E",
    "status": "Assigned to Contractor",
    "contractor": "Waste Pro",
    "rowid": "1211307",
    "final_x": "3710516.1068",
    "final_y": "563707.988449",
    "longitude": "-89.97524416310091",
    "latitude": "30.04308746216619",
    "geocoded_column": {
      "latitude": "30.04308746216619",
      "longitude": "-89.97524416310091"
    }
  },
  {
    "service_request": "2025-1211306",
    "request_type": "Trash/Recycling",
    "request_reason": "Missed Trash Pick-Up",
    "date_created": "2025-07-21T15:02:24.000",
    "date_modified": "2025-07-21T16:05:06.000",
    "case_close_date": "2025-07-21T11:05:05.000",
    "request_status": "Closed",
    "responsible_agency": "Department of Sanitation",
    "final_address": "904 Pleasant St",
    "address_councildis": "B",
    "status": "Invalid Request",
    "contractor": "IV Waste",
    "contractor_action": "Invalid",
    "rowid": "1211306",
    "final_x": "3675833.65621",
    "final_y": "519246.303735",
    "longitude": "-90.08638437109394",
    "latitude": "29.92191787280286",
    "geocoded_column": {
      "latitude": "29.92191787280286",
      "longitude": "-90.08638437109394"
    }
  },
  {
    "service_request": "2025-1211305",
    "request_type": "Abandoned Vehicles",
    "request_reason": "Abandoned/Junk Vehicles",
    "date_created": "2025-07-21T15:00:28.000",
    "date_modified": "2025-07-21T15:00:29.000",
    "request_status": "Pending",
    "responsible_agency": "Department of Public Works",
    "final_address": "5520 Canal Blvd",
    "address_councildis": "A",
    "status": "Pending",
    "rowid": "1211305",
    "final_x": "3668050.26202",
    "final_y": "544059.898638",
    "longitude": "-90.11011718764189",
    "latitude": "29.990377716796083",
    "geocoded_column": {
      "latitude": "29.990377716796083",
      "longitude": "-90.11011718764189"
    }
  },
  {
    "service_request": "2025-1211304",
    "request_type": "Trash/Recycling",
    "request_reason": "Request a Large Item Pick Up",
    "date_created": "2025-07-21T15:00:20.000",
    "date_modified": "2025-07-21T15:00:23.000",
    "request_status": "Pending",
    "responsible_agency": "Department of Sanitation",
    "final_address": "7461 Lake Barrington Dr",
    "address_councildis": "E",
    "status": "Assigned to Contractor",
    "contractor": "Waste Pro",
    "rowid": "1211304",
    "final_x": "3712801.7621",
    "final_y": "565200.106914",
    "longitude": "-89.96796443149506",
    "latitude": "30.04711549883253",
    "geocoded_column": {
      "latitude": "30.04711549883253",
      "longitude": "-89.96796443149506"
    }
  },
  {
    "service_request": "2025-1211303",
    "request_type": "Streetlights",
    "request_reason": "Streetlight Outage/Malfunction",
    "date_created": "2025-07-21T14:58:39.000",
    "date_modified": "2025-07-21T14:58:40.000",
    "request_status": "Pending",
    "responsible_agency": "Department of Public Works",
    "final_address": "7007 Read Blvd",
    "address_councildis": "E",
    "status": "Pending",
    "contractor": "Legacy Professional Services",
    "rowid": "1211303",
    "final_x": "3710055.93099",
    "final_y": "562089.160031",
    "longitude": "-89.97675906572114",
    "latitude": "30.038651319822367",
    "geocoded_column": {
      "latitude": "30.038651319822367",
      "longitude": "-89.97675906572114"
    }
  },
  {
    "service_request": "2025-1211302",
    "request_type": "Streetlights",
    "request_reason": "Streetlight Outage/Malfunction",
    "date_created": "2025-07-21T14:54:34.000",
    "date_modified": "2025-07-21T14:54:51.000",
    "request_status": "Pending",
    "responsible_agency": "Department of Public Works",
    "final_address": "7327 Weaver Ave",
    "address_councildis": "E",
    "status": "Pending",
    "contractor": "Legacy Professional Services",
    "rowid": "1211302",
    "final_x": "3707982.08446",
    "final_y": "563439.370976",
    "longitude": "-89.98326265256676",
    "latitude": "30.042431209997275",
    "geocoded_column": {
      "latitude": "30.042431209997275",
      "longitude": "-89.98326265256676"
    }
  },
  {
    "service_request": "2025-1211301",
    "request_type": "Drainage",
    "request_reason": "Street Flooding",
    "date_created": "2025-07-21T14:49:27.000",
    "date_modified": "2025-07-21T14:49:29.000",
    "request_status": "Pending",
    "responsible_agency": "Sewerage & Water Board",
    "final_address": "5300 Bancroft Dr",
    "address_councildis": "D",
    "status": "Pending",
    "rowid": "1211301",
    "final_x": "3676328.37723",
    "final_y": "551412.278933",
    "longitude": "-90.08371544170195",
    "latitude": "30.010348581811787",
    "geocoded_column": {
      "latitude": "30.010348581811787",
      "longitude": "-90.08371544170195"
    }
  },
  {
    "service_request": "2025-1211300",
    "request_type": "Trash/Recycling",
    "request_reason": "Request a Large Item Pick Up",
    "date_created": "2025-07-21T14:46:53.000",
    "date_modified": "2025-07-21T14:46:55.000",
    "request_status": "Pending",
    "responsible_agency": "Department of Sanitation",
    "final_address": "5535 S Claiborne Ave",
    "address_councildis": "A",
    "status": "Assigned to Contractor",
    "contractor": "IV Waste",
    "rowid": "1211300",
    "final_x": "3667920.75892",
    "final_y": "526803.48755",
    "longitude": "-90.11110767977765",
    "latitude": "29.942932121616217",
    "geocoded_column": {
      "latitude": "29.942932121616217",
      "longitude": "-90.11110767977765"
    }
  },
  {
    "service_request": "2025-1211299",
    "request_type": "Healthy Homes",
    "request_reason": "Healthy Homes",
    "date_created": "2025-07-21T14:46:45.000",
    "date_modified": "2025-07-21T14:46:47.000",
    "request_status": "Pending",
    "responsible_agency": "Department of Code Enforcement",
    "final_address": "3631 Fairmont Dr",
    "address_councildis": "D",
    "status": "Pending",
    "rowid": "1211299",
    "final_x": "3685571.86089",
    "final_y": "545754.384464",
    "longitude": "-90.05471132115625",
    "latitude": "29.99451099600688",
    "geocoded_column": {
      "latitude": "29.99451099600688",
      "longitude": "-90.05471132115625"
    }
  },
  {
    "service_request": "2025-1211298",
    "request_type": "Property Maintenance",
    "request_reason": "Property Maintenance",
    "date_created": "2025-07-21T14:46:14.000",
    "date_modified": "2025-07-21T14:46:16.000",
    "request_status": "Pending",
    "responsible_agency": "Department of Code Enforcement",
    "final_address": "2710 Mandeville St",
    "address_councildis": "D",
    "status": "Pending",
    "rowid": "1211298",
    "final_x": "3685225.59938",
    "final_y": "542738.723149",
    "longitude": "-90.05591131605547",
    "latitude": "29.986229620981703",
    "geocoded_column": {
      "latitude": "29.986229620981703",
      "longitude": "-90.05591131605547"
    }
  },
  {
    "service_request": "2025-1211297",
    "request_type": "Streetlights",
    "request_reason": "Streetlight Outage/Malfunction",
    "date_created": "2025-07-21T14:42:23.000",
    "date_modified": "2025-07-21T14:42:24.000",
    "request_status": "Pending",
    "responsible_agency": "Department of Public Works",
    "final_address": "14031 Explorers Ave",
    "address_councildis": "E",
    "status": "Pending",
    "contractor": "Legacy Professional Services",
    "rowid": "1211297",
    "final_x": "3726521.13427",
    "final_y": "570675.564711",
    "longitude": "-89.92439165591679",
    "latitude": "30.061714063868894",
    "geocoded_column": {
      "latitude": "30.061714063868894",
      "longitude": "-89.92439165591679"
    }
  },
  {
    "service_request": "2025-1211296",
    "request_type": "Trash/Recycling",
    "request_reason": "Order Trash Cart",
    "date_created": "2025-07-21T14:40:57.000",
    "date_modified": "2025-07-21T14:41:01.000",
    "request_status": "Pending",
    "responsible_agency": "Department of Sanitation",
    "final_address": "1335 Mandolin St",
    "address_councildis": "D",
    "status": "Assigned to Contractor",
    "contractor": "IV Waste",
    "rowid": "1211296",
    "final_x": "3677559.21774",
    "final_y": "548098.12341",
    "longitude": "-90.07994128589225",
    "latitude": "30.001198868062996",
    "geocoded_column": {
      "latitude": "30.001198868062996",
      "longitude": "-90.07994128589225"
    }
  },
  {
    "service_request": "2025-1211295",
    "request_type": "Parks & Parkways",
    "request_reason": "Request Tree Service (Right of Way/Public Property)",
    "date_created": "2025-07-21T14:39:15.000",
    "date_modified": "2025-07-21T14:39:17.000",
    "request_status": "Pending",
    "responsible_agency": "Department of Parks & Parkway",
    "final_address": "4641 Knight Dr",
    "address_councildis": "E",
    "status": "Pending",
    "rowid": "1211295",
    "final_x": "3708272.1628",
    "final_y": "554913.891864",
    "longitude": "-89.98266350164488",
    "latitude": "30.018980096257366",
    "geocoded_column": {
      "latitude": "30.018980096257366",
      "longitude": "-89.98266350164488"
    }
  },
  {
    "service_request": "2025-1211294",
    "request_type": "Abandoned Vehicles",
    "request_reason": "Abandoned/Junk Vehicles",
    "date_created": "2025-07-21T14:38:41.000",
    "date_modified": "2025-07-21T14:40:18.000",
    "request_status": "Pending",
    "responsible_agency": "Department of Public Works",
    "final_address": "3119 N Robertson St",
    "address_councildis": "D",
    "status": "Pending",
    "rowid": "1211294",
    "final_x": "3689551.46019",
    "final_y": "537485.103944",
    "longitude": "-90.04243458914979",
    "latitude": "29.9716507194474",
    "geocoded_column": {
      "latitude": "29.9716507194474",
      "longitude": "-90.04243458914979"
    }
  },
  {
    "service_request": "2025-1211293",
    "request_type": "Streetlights",
    "request_reason": "Streetlight Outage/Malfunction",
    "date_created": "2025-07-21T14:38:14.000",
    "date_modified": "2025-07-21T14:38:16.000",
    "request_status": "Pending",
    "responsible_agency": "Department of Public Works",
    "final_address": "7000 BLK Crowder Blvd",
    "address_councildis": "E",
    "status": "Pending",
    "contractor": "Legacy Professional Services",
    "rowid": "1211293",
    "final_x": "3704471.68649",
    "final_y": "559519.45588",
    "longitude": "-89.99450155242732",
    "latitude": "30.031766243081947",
    "geocoded_column": {
      "latitude": "30.031766243081947",
      "longitude": "-89.99450155242732"
    }
  },
  {
    "service_request": "2025-1211292",
    "request_type": "Trash/Recycling",
    "request_reason": "Order Trash Cart",
    "date_created": "2025-07-21T14:35:22.000",
    "date_modified": "2025-07-21T14:35:24.000",
    "request_status": "Pending",
    "responsible_agency": "Department of Sanitation",
    "final_address": "3311 Fern St",
    "address_councildis": "B",
    "status": "Assigned to Contractor",
    "contractor": "IV Waste",
    "rowid": "1211292",
    "final_x": "3667675.66593",
    "final_y": "533434.827204",
    "longitude": "-90.1116582762245",
    "latitude": "29.961173327346874",
    "geocoded_column": {
      "latitude": "29.961173327346874",
      "longitude": "-90.1116582762245"
    }
  },
  {
    "service_request": "2025-1211291",
    "request_type": "Trash/Recycling",
    "request_reason": "Replace Trash Cart",
    "date_created": "2025-07-21T14:35:13.000",
    "date_modified": "2025-07-21T14:35:15.000",
    "request_status": "Pending",
    "responsible_agency": "Department of Sanitation",
    "final_address": "645 S Dupre St",
    "address_councildis": "B",
    "status": "Assigned to Contractor",
    "contractor": "IV Waste",
    "rowid": "1211291",
    "final_x": "3673191.79214",
    "final_y": "533932.400453",
    "longitude": "-90.09422232203133",
    "latitude": "29.962378621313338",
    "geocoded_column": {
      "latitude": "29.962378621313338",
      "longitude": "-90.09422232203133"
    }
  },
  {
    "service_request": "2025-1211290",
    "request_type": "Trash/Recycling",
    "request_reason": "Repair Trash Cart",
    "date_created": "2025-07-21T14:33:34.000",
    "date_modified": "2025-07-21T14:33:36.000",
    "request_status": "Pending",
    "responsible_agency": "Department of Sanitation",
    "final_address": "5401 Carlisle Ct",
    "address_councildis": "C",
    "status": "Assigned to Contractor",
    "contractor": "Richards Disposal",
    "rowid": "1211290",
    "final_x": "3703857.1331",
    "final_y": "516524.521461",
    "longitude": "-89.99802687656172",
    "latitude": "29.913565618447137",
    "geocoded_column": {
      "latitude": "29.913565618447137",
      "longitude": "-89.99802687656172"
    }
  },
  {
    "service_request": "2025-1211289",
    "request_type": "Roads and Streets",
    "request_reason": "Curb Damage",
    "date_created": "2025-07-21T14:30:50.000",
    "date_modified": "2025-07-21T14:30:52.000",
    "request_status": "Pending",
    "responsible_agency": "Department of Public Works",
    "final_address": "ST ANTHONY ST & DUELS ST",
    "address_councildis": "D",
    "status": "Pending",
    "rowid": "1211289",
    "final_x": "3683011.8",
    "final_y": "542455.28",
    "longitude": "-90.06291376896465",
    "latitude": "29.985517928338393",
    "geocoded_column": {
      "latitude": "29.985517928338393",
      "longitude": "-90.06291376896465"
    }
  },
  {
    "service_request": "2025-1211288",
    "request_type": "Trash/Recycling",
    "request_reason": "Request a Large Item Pick Up",
    "date_created": "2025-07-21T14:30:15.000",
    "date_modified": "2025-07-21T14:30:19.000",
    "request_status": "Pending",
    "responsible_agency": "Department of Sanitation",
    "final_address": "3007 Audubon St",
    "address_councildis": "B",
    "status": "Assigned to Contractor",
    "contractor": "IV Waste",
    "rowid": "1211288",
    "final_x": "3667990.9314",
    "final_y": "531698.041283",
    "longitude": "-90.11072124065271",
    "latitude": "29.956388491640435",
    "geocoded_column": {
      "latitude": "29.956388491640435",
      "longitude": "-90.11072124065271"
    }
  },