[
  {
    "service_request": "2024-1121170",
    "request_type": "Trash/Recycling",
    "request_reason": "Request a Large Item Pick Up",
    "date_created": "2024-08-12T23:38:48.000",
    "date_modified": "2024-08-12T23:38:49.000",
    "request_status": "Pending",
    "responsible_agency": "Department of Sanitation",
    "final_address": "131 S Rendon St",
    "address_councildis": "B",
    "status": "Assigned to Contractor",
    "contractor": "IV Waste",
    "rowid": "1121170",
    "final_x": "3673384.83054",
    "final_y": "536244.110535",
    "longitude": "-90.09353374655623",
    "latitude": "29.968729305338623",
    "geocoded_column": {
      "latitude": "29.968729305338623",
      "longitude": "-90.09353374655623"
    }
  },
  {
    "service_request": "2024-1121169",
    "request_type": "Traffic Signals/Signs/Striping/Streetlights",
    "request_reason": "Street Light Outage/Malfunction",
    "date_created": "2024-08-12T22:49:33.000",
    "date_modified": "2024-08-12T22:49:34.000",
    "request_status": "Pending",
    "responsible_agency": "Department of Public Works",
    "final_address": "8 Versailles Blvd",
    "address_councildis": "A",
    "status": "Assigned to Contractor",
    "contractor": "Legacy Professional Services",
    "rowid": "1121169",
    "final_x": "3666905.26682",
    "final_y": "529000.388864",
    "longitude": "-90.11424005041931",
    "latitude": "29.949002634595903",
    "geocoded_column": {
      "latitude": "29.949002634595903",
      "longitude": "-90.11424005041931"
    }
  },
  {
    "service_request": "2024-1121168",
    "request_type": "Trash/Recycling",
    "request_reason": "Request a Large Item Pick Up",
    "date_created": "2024-08-12T22:10:10.000",
    "date_modified": "2024-08-12T22:10:11.000",
    "request_status": "Pending",
    "responsible_agency": "Department of Sanitation",
    "final_address": "7061 W Renaissance Ct",
    "address_councildis": "E",
    "status": "Assigned to Contractor",
    "contractor": "Waste Pro",
    "rowid": "1121168",
    "final_x": "3716899.56229",
    "final_y": "567320.623908",
    "longitude": "-89.95493269697825",
    "latitude": "30.052811153860855",
    "geocoded_column": {
      "latitude": "30.052811153860855",
      "longitude": "-89.95493269697825"
    }
  },
  {
    "service_request": "2024-1121167",
    "request_type": "Trash/Recycling",
    "request_reason": "Request a Large Item Pick Up",
    "date_created": "2024-08-12T22:02:24.000",
    "date_modified": "2024-08-12T22:02:25.000",
    "request_status": "Pending",
    "responsible_agency": "Department of Sanitation",
    "final_address": "7061 W Renaissance Ct",
    "address_councildis": "E",
    "status": "Assigned to Contractor",
    "contractor": "Waste Pro",
    "rowid": "1121167",
    "final_x": "3716899.56229",
    "final_y": "567320.623908",
    "longitude": "-89.95493269697825",
    "latitude": "30.052811153860855",
    "geocoded_column": {
      "latitude": "30.052811153860855",
      "longitude": "-89.95493269697825"
    }
  },
  {
    "service_request": "2024-1121166",
    "request_type": "Trash/Recycling",
    "request_reason": "Request a Large Item Pick Up",
    "date_created": "2024-08-12T21:55:29.000",
    "date_modified": "2024-08-12T21:55:30.000",
    "request_status": "Pending",
    "responsible_agency": "Department of Sanitation",
    "final_address": "1516 Dante St",
    "address_councildis": "A",
    "status": "Assigned to Contractor",
    "contractor": "IV Waste",
    "rowid": "1121166",
    "final_x": "3662199.86573",
    "final_y": "529779.468673",
    "longitude": "-90.12907126763795",
    "latitude": "29.951281669283546",
    "geocoded_column": {
      "latitude": "29.951281669283546",
      "longitude": "-90.12907126763795"
    }
  },
  {
    "service_request": "2024-1121165",
    "request_type": "Roads/Drainage",
    "request_reason": "Street Flooding / Drainage",
    "date_created": "2024-08-12T21:49:45.000",
    "date_modified": "2024-08-12T21:49:45.000",
    "request_status": "Pending",
    "responsible_agency": "Department of Public Works",
    "final_address": "633 Philip St",
    "address_councildis": "B",
    "status": "Pending",
    "rowid": "1121165",
    "final_x": "3679515.68667",
    "final_y": "520634.614904",
    "longitude": "-90.07471362012242",
    "latitude": "29.925624585296724",
    "geocoded_column": {
      "latitude": "29.925624585296724",
      "longitude": "-90.07471362012242"
    }
  },
  {
    "service_request": "2024-1121164",
    "request_type": "Trash/Recycling",
    "request_reason": "Order Trash Cart",
    "date_created": "2024-08-12T21:27:52.000",
    "date_modified": "2024-08-12T21:27:53.000",
    "request_status": "Pending",
    "responsible_agency": "Department of Sanitation",
    "final_address": "930 Aline St",
    "address_councildis": "B",
    "status": "Assigned to Contractor",
    "contractor": "IV Waste",
    "rowid": "1121164",
    "final_x": "3674581.16033",
    "final_y": "518920.554231",
    "longitude": "-90.09034913160036",
    "latitude": "29.92105958527034",
    "geocoded_column": {
      "latitude": "29.92105958527034",
      "longitude": "-90.09034913160036"
    }
  },
  {
    "service_request": "2024-1121163",
    "request_type": "Healthy Homes",
    "request_reason": "Healthy Homes",
    "date_created": "2024-08-12T21:00:48.000",
    "date_modified": "2024-08-12T21:00:48.000",
    "request_status": "Pending",
    "responsible_agency": "Department of Code Enforcement",
    "final_address": "319 S Lopez St Apt C",
    "address_councildis": "B",
    "status": "Pending",
    "rowid": "1121163",
    "final_x": "3673230.47457",
    "final_y": "535512.398662",
    "longitude": "-90.09404620506564",
    "latitude": "29.966721935652718",
    "geocoded_column": {
      "latitude": "29.966721935652718",
      "longitude": "-90.09404620506564"
    }
  },
  {
    "service_request": "2024-1121162",
    "request_type": "Traffic Signals/Signs/Striping/Streetlights",
    "request_reason": "Street Light Outage/Malfunction",
    "date_created": "2024-08-12T20:58:59.000",
    "date_modified": "2024-08-12T20:59:00.000",
    "request_status": "Pending",
    "responsible_agency": "Department of Public Works",
    "final_address": "8728 Hayne Blvd",
    "address_councildis": "E",
    "status": "Assigned to Contractor",
    "contractor": "Legacy Professional Services",
    "rowid": "1121162",
    "final_x": "3703951.26282",
    "final_y": "563818.003105",
    "longitude": "-89.99598756860773",
    "latitude": "30.043602269161127",
    "geocoded_column": {
      "latitude": "30.043602269161127",
      "longitude": "-89.99598756860773"
    }
  },
  {
    "service_request": "2024-1121160",
    "request_type": "Trash/Recycling",
    "request_reason": "Request a Large Item Pick Up",
    "date_created": "2024-08-12T20:22:41.000",
    "date_modified": "2024-08-12T20:22:42.000",
    "request_status": "Pending",
    "responsible_agency": "Department of Sanitation",
    "final_address": "7200 Thornley Dr",
    "address_councildis": "E",
    "status": "Assigned to Contractor",
    "contractor": "Waste Pro",
    "rowid": "1121160",
    "final_x": "3702890.17514",
    "final_y": "559749.937757",
    "longitude": "-89.99949070006933",
    "latitude": "30.0324506934833",
    "geocoded_column": {
      "latitude": "30.0324506934833",
      "longitude": "-89.99949070006933"
    }
  },
  {
    "service_request": "2024-1121159",
    "request_type": "Trash/Recycling",
    "request_reason": "Request a Large Item Pick Up",
    "date_created": "2024-08-12T19:52:41.000",
    "date_modified": "2024-08-12T19:52:42.000",
    "request_status": "Pending",
    "responsible_agency": "Department of Sanitation",
    "final_address": "4516 Mark Twain Dr",
    "address_councildis": "D",
    "status": "Assigned to Contractor",
    "contractor": "IV Waste",
    "rowid": "1121159",
    "final_x": "3691458.21065",
    "final_y": "550759.554261",
    "longitude": "-90.03593813020397",
    "latitude": "30.0080914586232",
    "geocoded_column": {
      "latitude": "30.0080914586232",
      "longitude": "-90.03593813020397"
    }
  },
  {
    "service_request": "2024-1121158",
    "request_type": "Trash/Recycling",
    "request_reason": "Request a Large Item Pick Up",
    "date_created": "2024-08-12T19:19:28.000",
    "date_modified": "2024-08-12T19:19:29.000",
    "request_status": "Pending",
    "responsible_agency": "Department of Sanitation",
    "final_address": "6121 West End Blvd",
    "address_councildis": "A",
    "status": "Assigned to Contractor",
    "contractor": "IV Waste",
    "rowid": "1121158",
    "final_x": "3666599.12525",
    "final_y": "548308.863634",
    "longitude": "-90.11455821731381",
    "latitude": "30.00210342828423",
    "geocoded_column": {
      "latitude": "30.00210342828423",
      "longitude": "-90.11455821731381"
    }
  },
  {
    "service_request": "2024-1121157",
    "request_type": "Trash/Recycling",
    "request_reason": "Request a Large Item Pick Up",
    "date_created": "2024-08-12T19:19:27.000",
    "date_modified": "2024-08-12T19:19:28.000",
    "request_status": "Pending",
    "responsible_agency": "Department of Sanitation",
    "final_address": "1614 Painters St",
    "address_councildis": "D",
    "status": "Assigned to Contractor",
    "contractor": "IV Waste",
    "rowid": "1121157",
    "final_x": "3687362.49878",
    "final_y": "538498.587209",
    "longitude": "-90.04931177569073",
    "latitude": "29.974505069728085",
    "geocoded_column": {
      "latitude": "29.974505069728085",
      "longitude": "-90.04931177569073"
    }
  },
  {
    "service_request": "2024-1121156",
    "request_type": "Trash/Recycling",
    "request_reason": "Replace Trash Cart",
    "date_created": "2024-08-12T19:18:24.000",
    "date_modified": "2024-08-12T19:18:24.000",
    "request_status": "Pending",
    "responsible_agency": "Department of Sanitation",
    "final_address": "4223 DHemecourt St",
    "address_councildis": "A",
    "status": "Assigned to Contractor",
    "contractor": "IV Waste",
    "rowid": "1121156",
    "final_x": "3669275.36622",
    "final_y": "537345.936072",
    "longitude": "-90.10647445787552",
    "latitude": "29.971880578776602",
    "geocoded_column": {
      "latitude": "29.971880578776602",
      "longitude": "-90.10647445787552"
    }
  },
  {
    "service_request": "2024-1121155",
    "request_type": "Trash/Recycling",
    "request_reason": "Replace Trash Cart",
    "date_created": "2024-08-12T19:11:32.000",
    "date_modified": "2024-08-12T19:11:33.000",
    "request_status": "Pending",
    "responsible_agency": "Department of Sanitation",
    "final_address": "2556 Wisteria St",
    "address_councildis": "D",
    "status": "Assigned to Contractor",
    "contractor": "IV Waste",
    "rowid": "1121155",
    "final_x": "3686691.02121",
    "final_y": "548313.042642",
    "longitude": "-90.05108559527719",
    "latitude": "30.001511997162794",
    "geocoded_column": {
      "latitude": "30.001511997162794",
      "longitude": "-90.05108559527719"
    }
  },
  {
    "service_request": "2024-1121154",
    "request_type": "Abandoned Vehicles",
    "request_reason": "Abandoned/Junk Vehicles",
    "date_created": "2024-08-12T19:08:55.000",
    "date_modified": "2024-08-12T19:08:55.000",
    "request_status": "Pending",
    "responsible_agency": "Department of Public Works",
    "final_address": "4820 Press Dr",
    "address_councildis": "D",
    "status": "Pending",
    "rowid": "1121154",
    "final_x": "3689436.46108",
    "final_y": "551197.177237",
    "longitude": "-90.04230985599757",
    "latitude": "30.00935754961142",
    "geocoded_column": {
      "latitude": "30.00935754961142",
      "longitude": "-90.04230985599757"
    }
  },
  {
    "service_request": "2024-1121152",
    "request_type": "Trash/Recycling",
    "request_reason": "Order Recycling Cart",
    "date_created": "2024-08-12T19:00:52.000",
    "date_modified": "2024-08-12T19:00:52.000",
    "request_status": "Pending",
    "responsible_agency": "Department of Sanitation",
    "final_address": "8228 Nelson St",
    "address_councildis": "A",
    "status": "Pending",
    "rowid": "1121152",
    "final_x": "3664642.29312",
    "final_y": "532227.221315",
    "longitude": "-90.12127749944614",
    "latitude": "29.957941384916627",
    "geocoded_column": {
      "latitude": "29.957941384916627",
      "longitude": "-90.12127749944614"
    }
  },
  {
    "service_request": "2024-1121151",
    "request_type": "Trash/Recycling",
    "request_reason": "Order Trash Cart",
    "date_created": "2024-08-12T19:00:07.000",
    "date_modified": "2024-08-12T19:00:08.000",
    "request_status": "Pending",
    "responsible_agency": "Department of Sanitation",
    "final_address": "8229 Nelson St Apt 102",
    "address_councildis": "A",
    "status": "Assigned to Contractor",
    "contractor": "IV Waste",
    "rowid": "1121151",
    "final_x": "3664740.75642",
    "final_y": "532261.703939",
    "longitude": "-90.12096542676059",
    "latitude": "29.958033336646817",
    "geocoded_column": {
      "latitude": "29.958033336646817",
      "longitude": "-90.12096542676059"
    }
  },
  {
    "service_request": "2024-1121150",
    "request_type": "Trash/Recycling",
    "request_reason": "Order Trash Cart",
    "date_created": "2024-08-12T18:59:23.000",
    "date_modified": "2024-08-12T18:59:24.000",
    "request_status": "Pending",
    "responsible_agency": "Department of Sanitation",
    "final_address": "8229 Nelson St Apt 101",
    "address_councildis": "A",
    "status": "Assigned to Contractor",
    "contractor": "IV Waste",
    "rowid": "1121150",
    "final_x": "3664729.55898",
    "final_y": "532253.641731",
    "longitude": "-90.12100105465056",
    "latitude": "29.95801149396924",
    "geocoded_column": {
      "latitude": "29.95801149396924",
      "longitude": "-90.12100105465056"
    }
  },
  {
    "service_request": "2024-1121149",
    "request_type": "Trash/Recycling",
    "request_reason": "Order Trash Cart",
    "date_created": "2024-08-12T18:58:09.000",
    "date_modified": "2024-08-12T18:58:10.000",
    "request_status": "Pending",
    "responsible_agency": "Department of Sanitation",
    "final_address": "8228 Nelson St",
    "address_councildis": "A",
    "status": "Assigned to Contractor",
    "contractor": "IV Waste",
    "rowid": "1121149",
    "final_x": "3664642.29312",
    "final_y": "532227.221315",
    "longitude": "-90.12127749944614",
    "latitude": "29.957941384916627",
    "geocoded_column": {
      "latitude": "29.957941384916627",
      "longitude": "-90.12127749944614"
    }
  },
  {
    "service_request": "2024-1121148",
    "request_type": "Trash/Recycling",
    "request_reason": "Order Recycling Cart",
    "date_created": "2024-08-12T18:54:44.000",
    "date_modified": "2024-08-12T18:54:44.000",
    "request_status": "Pending",
    "responsible_agency": "Department of Sanitation",
    "final_address": "2843 Law St",
    "address_councildis": "D",
    "status": "Pending",
    "rowid": "1121148",
    "final_x": "3688238.47849",
    "final_y": "542166.014541",
    "longitude": "-90.04641514110435",
    "latitude": "29.984562175654254",
    "geocoded_column": {
      "latitude": "29.984562175654254",
      "longitude": "-90.04641514110435"
    }
  },
  {
    "service_request": "2024-1121147",
    "request_type": "Trash/Recycling",
    "request_reason": "Order Trash Cart",
    "date_created": "2024-08-12T18:53:28.000",
    "date_modified": "2024-08-12T18:53:29.000",
    "request_status": "Pending",
    "responsible_agency": "Department of Sanitation",
    "final_address": "2843 Law St",
    "address_councildis": "D",
    "status": "Assigned to Contractor",
    "contractor": "IV Waste",
    "rowid": "1121147",
    "final_x": "3688238.47849",
    "final_y": "542166.014541",
    "longitude": "-90.04641514110435",
    "latitude": "29.984562175654254",
    "geocoded_column": {
      "latitude": "29.984562175654254",
      "longitude": "-90.04641514110435"
    }
  },
  {
    "service_request": "2024-1121146",
    "request_type": "Safety & Permits",
    "request_reason": "Construction permit",
    "date_created": "2024-08-12T18:36:57.000",
    "date_modified": "2024-08-12T18:36:57.000",
    "request_status": "Pending",
    "responsible_agency": "Safety and Permits",
    "final_address": "8326 Green St",
    "address_councildis": "A",
    "status": "Pending",
    "rowid": "1121146",
    "final_x": "3662414.10701",
    "final_y": "530279.004289",
    "longitude": "-90.12837820939558",
    "latitude": "29.95264903828684",
    "geocoded_column": {
      "latitude": "29.95264903828684",
      "longitude": "-90.12837820939558"
    }
  },
  {
    "service_request": "2024-1121144",
    "request_type": "Safety & Permits",
    "request_reason": "Construction permit",
    "date_created": "2024-08-12T18:30:10.000",
    "date_modified": "2024-08-12T18:30:10.000",
    "request_status": "Pending",
    "responsible_agency": "Safety and Permits",
    "final_address": "8326 Green St",
    "address_councildis": "A",
    "status": "Pending",
    "rowid": "1121144",
    "final_x": "3662414.10701",
    "final_y": "530279.004289",
    "longitude": "-90.12837820939558",
    "latitude": "29.95264903828684",
    "geocoded_column": {
      "latitude": "29.95264903828684",
      "longitude": "-90.12837820939558"
    }
  },
  {
    "service_request": "2024-1121143",
    "request_type": "Roads/Drainage",
    "request_reason": "Alley Way",
    "date_created": "2024-08-12T18:29:09.000",
    "date_modified": "2024-08-12T18:29:09.000",
    "request_status": "Pending",
    "responsible_agency": "Department of Public Works",
    "final_address": "5670 Woodlawn Pl",
    "address_councildis": "A",
    "status": "Pending",
    "rowid": "1121143",
    "final_x": "3667441.57517",
    "final_y": "545248.704911",
    "longitude": "-90.11199985487272",
    "latitude": "29.99366438030162",
    "geocoded_column": {
      "latitude": "29.99366438030162",
      "longitude": "-90.11199985487272"
    }
  },
  {
    "service_request": "2024-1121142",
    "request_type": "Trash/Recycling",
    "request_reason": "Replace Trash Cart",
    "date_created": "2024-08-12T18:26:59.000",
    "date_modified": "2024-08-12T18:27:00.000",
    "request_status": "Pending",
    "responsible_agency": "Department of Sanitation",
    "final_address": "931 Joliet St, New Orleans, Louisiana, 70118",
    "address_councildis": "A",
    "status": "Assigned to Contractor",
    "contractor": "IV Waste",
    "rowid": "1121142",
    "final_x": "3665210.11597",
    "final_y": "534008.073669",
    "longitude": "-90.11942489303696",
    "latitude": "29.96282161777409",
    "geocoded_column": {
      "latitude": "29.96282161777409",
      "longitude": "-90.11942489303696"
    }
  },
  {
    "service_request": "2024-1121140",
    "request_type": "Trash/Recycling",
    "request_reason": "Order Trash Cart",
    "date_created": "2024-08-12T18:26:05.000",
    "date_modified": "2024-08-12T18:26:06.000",
    "request_status": "Pending",
    "responsible_agency": "Department of Sanitation",
    "final_address": "2103 Allen St",
    "address_councildis": "D",
    "status": "Assigned to Contractor",
    "contractor": "IV Waste",
    "rowid": "1121140",
    "final_x": "3682516.29832",
    "final_y": "539857.346826",
    "longitude": "-90.06456971515104",
    "latitude": "29.978389618913354",
    "geocoded_column": {
      "latitude": "29.978389618913354",
      "longitude": "-90.06456971515104"
    }
  },
  {
    "service_request": "2024-1121139",
    "request_type": "Trash/Recycling",
    "request_reason": "Order Trash Cart",
    "date_created": "2024-08-12T18:24:47.000",
    "date_modified": "2024-08-12T18:24:48.000",
    "request_status": "Pending",
    "responsible_agency": "Department of Sanitation",
    "final_address": "2101 Allen St",
    "address_councildis": "D",
    "status": "Assigned to Contractor",
    "contractor": "IV Waste",
    "rowid": "1121139",
    "final_x": "3682517.88296",
    "final_y": "539839.915402",
    "longitude": "-90.06456531989676",
    "latitude": "29.978341640333007",
    "geocoded_column": {
      "latitude": "29.978341640333007",
      "longitude": "-90.06456531989676"
    }
  },
  {
    "service_request": "2024-1121138",
    "request_type": "Property Maintenance",
    "request_reason": "Property Maintenance",
    "date_created": "2024-08-12T18:24:24.000",
    "date_modified": "2024-08-12T18:24:24.000",
    "request_status": "Pending",
    "responsible_agency": "Department of Code Enforcement",
    "final_address": "5022 Mexico St",
    "address_councildis": "D",
    "status": "Pending",
    "rowid": "1121138",
    "final_x": "3691092.33046",
    "final_y": "556546.418522",
    "longitude": "-90.03688719871298",
    "latitude": "30.024014568707727",
    "geocoded_column": {
      "latitude": "30.024014568707727",
      "longitude": "-90.03688719871298"
    }
  },
  {
    "service_request": "2024-1121136",
    "request_type": "Trash/Recycling",
    "request_reason": "Illegal Dumping",
    "date_created": "2024-08-12T18:23:19.000",
    "date_modified": "2024-08-12T18:23:19.000",
    "request_status": "Pending",
    "responsible_agency": "Department of Sanitation",
    "final_address": "1036 Fats Domino Ave",
    "address_councildis": "E",
    "status": "Pending",
    "rowid": "1121136",
    "final_x": "3697916.684",
    "final_y": "533619.068101",
    "longitude": "-90.0161564522665",
    "latitude": "29.960758716844712",
    "geocoded_column": {
      "latitude": "29.960758716844712",
      "longitude": "-90.0161564522665"
    }
  },
  {
    "service_request": "2024-1121135",
    "request_type": "Roads/Drainage",
    "request_reason": "Street Subsidence (Sinking)",
    "date_created": "2024-08-12T18:19:36.000",
    "date_modified": "2024-08-12T18:19:36.000",
    "request_status": "Pending",
    "responsible_agency": "Department of Public Works",
    "final_address": "1112 Constantinople St",
    "address_councildis": "B",
    "status": "Pending",
    "rowid": "1121135",
    "final_x": "3672348.95259",
    "final_y": "519796.384952",
    "longitude": "-90.09736540233975",
    "latitude": "29.923534233550217",
    "geocoded_column": {
      "latitude": "29.923534233550217",
      "longitude": "-90.09736540233975"
    }
  },
  {
    "service_request": "2024-1121134",
    "request_type": "Property Maintenance",
    "request_reason": "Property Maintenance",
    "date_created": "2024-08-12T18:16:10.000",
    "date_modified": "2024-08-12T18:16:10.000",
    "request_status": "Pending",
    "responsible_agency": "Department of Code Enforcement",
    "final_address": "5600 Debore Dr",
    "address_councildis": "D",
    "status": "Pending",
    "rowid": "1121134",
    "final_x": "3691665.01225",
    "final_y": "554524.38108",
    "longitude": "-90.03515002746548",
    "latitude": "30.01843689466417",
    "geocoded_column": {
      "latitude": "30.01843689466417",
      "longitude": "-90.03515002746548"
    }
  },
  {
    "service_request": "2024-1121133",
    "request_type": "Trash/Recycling",
    "request_reason": "Illegal Dumping",
    "date_created": "2024-08-12T18:09:05.000",
    "date_modified": "2024-08-12T18:09:05.000",
    "request_status": "Pending",
    "responsible_agency": "Department of Sanitation",
    "final_address": "3022 Danneel St",
    "address_councildis": "B",
    "status": "Pending",
    "rowid": "1121133",
    "final_x": "3674260.24596",
    "final_y": "523118.717179",
    "longitude": "-90.09121846416569",
    "latitude": "29.93261274799068",
    "geocoded_column": {
      "latitude": "29.93261274799068",
      "longitude": "-90.09121846416569"
    }
  },
  {
    "service_request": "2024-1121132",
    "request_type": "Roads/Drainage",
    "request_reason": "Debris in Roadway",
    "date_created": "2024-08-12T18:08:41.000",
    "date_modified": "2024-08-12T18:08:41.000",
    "request_status": "Pending",
    "responsible_agency": "Department of Public Works",
    "final_address": "10626 Old Gentilly Rd",
    "address_councildis": "E",
    "status": "Pending",
    "rowid": "1121132",
    "final_x": "3716018.64997",
    "final_y": "554708.546968",
    "longitude": "-89.95819538608315",
    "latitude": "30.018162128869907",
    "geocoded_column": {
      "latitude": "30.018162128869907",
      "longitude": "-89.95819538608315"
    }
  },
  {
    "service_request": "2024-1121131",
    "request_type": "Trash/Recycling",
    "request_reason": "Illegal Dumping",
    "date_created": "2024-08-12T18:06:51.000",
    "date_modified": "2024-08-12T18:06:51.000",
    "request_status": "Pending",
    "responsible_agency": "Department of Sanitation",
    "final_address": "1821 Tupelo St",
    "address_councildis": "E",
    "status": "Pending",
    "rowid": "1121131",
    "final_x": "3700592.61585",
    "final_y": "535932.357127",
    "longitude": "-90.00762191759488",
    "latitude": "29.967034579564157",
    "geocoded_column": {
      "latitude": "29.967034579564157",
      "longitude": "-90.00762191759488"
    }
  },
  {
    "service_request": "2024-1121130",
    "request_type": "Traffic Signals/Signs/Striping/Streetlights",
    "request_reason": "Street Name Sign Damaged or Missing",
    "date_created": "2024-08-12T18:06:06.000",
    "date_modified": "2024-08-12T18:06:06.000",
    "request_status": "Pending",
    "responsible_agency": "Department of Public Works",
    "final_address": "CANAL ST & TREME ST & S LIBERTY ST",
    "address_councildis": "B",
    "status": "Pending",
    "rowid": "1121130",
    "final_x": "3679416.3",
    "final_y": "531972.28",
    "longitude": "-90.07463420737338",
    "latitude": "29.956802401734432",
    "geocoded_column": {
      "latitude": "29.956802401734432",
      "longitude": "-90.07463420737338"
    }
  },
  {
    "service_request": "2024-1121129",
    "request_type": "Abandoned Vehicles",
    "request_reason": "Abandoned/Junk Vehicles",
    "date_created": "2024-08-12T17:59:27.000",
    "date_modified": "2024-08-12T17:59:27.000",
    "request_status": "Pending",
    "responsible_agency": "Department of Public Works",
    "final_address": "2480 N Claiborne Ave",
    "address_councildis": "C",
    "status": "Pending",
    "rowid": "1121129",
    "final_x": "3687029.70121",
    "final_y": "538286.220873",
    "longitude": "-90.05037033793906",
    "latitude": "29.973931386966882",
    "geocoded_column": {
      "latitude": "29.973931386966882",
      "longitude": "-90.05037033793906"
    }
  },
  {
    "service_request": "2024-1121128",
    "request_type": "Property Maintenance",
    "request_reason": "Property Maintenance",
    "date_created": "2024-08-12T17:46:51.000",
    "date_modified": "2024-08-12T17:46:51.000",
    "request_status": "Pending",
    "responsible_agency": "Department of Code Enforcement",
    "final_address": "2002 Foucher St",
    "address_councildis": "B",
    "status": "Pending",
    "rowid": "1121128",
    "final_x": "3672969.34171",
    "final_y": "522665.342778",
    "longitude": "-90.09530921223478",
    "latitude": "29.93140452983933",
    "geocoded_column": {
      "latitude": "29.93140452983933",
      "longitude": "-90.09530921223478"
    }
  },
  {
    "service_request": "2024-1121127",
    "request_type": "Trash/Recycling",
    "request_reason": "Request a Large Item Pick Up",
    "date_created": "2024-08-12T17:46:43.000",
    "date_modified": "2024-08-12T17:57:24.000",
    "case_close_date": "2024-08-12T12:57:24.000",
    "request_status": "Closed",
    "responsible_agency": "Department of Sanitation",
    "final_address": "7660 Tricia Ct",
    "address_councildis": "E",
    "status": "Duplicate Request",
    "contractor": "Waste Pro",
    "contractor_action": "Duplicate",
    "rowid": "1121127",
    "final_x": "3717465.76485",
    "final_y": "571219.496936",
    "longitude": "-89.95299465811708",
    "latitude": "30.06351269881231",
    "geocoded_column": {
      "latitude": "30.06351269881231",
      "longitude": "-89.95299465811708"
    }
  },
  {
    "service_request": "2024-1121126",
    "request_type": "Trash/Recycling",
    "request_reason": "Request a Large Item Pick Up",
    "date_created": "2024-08-12T17:43:37.000",
    "date_modified": "2024-08-12T17:43:38.000",
    "request_status": "Pending",
    "responsible_agency": "Department of Sanitation",
    "final_address": "7660 Tricia Ct",
    "address_councildis": "E",
    "status": "Assigned to Contractor",
    "contractor": "Waste Pro",
    "rowid": "1121126",
    "final_x": "3717465.76485",
    "final_y": "571219.496936",
    "longitude": "-89.95299465811708",
    "latitude": "30.06351269881231",
    "geocoded_column": {
      "latitude": "30.06351269881231",
      "longitude": "-89.95299465811708"
    }
  },
  {
    "service_request": "2024-1121125",
    "request_type": "Trash/Recycling",
    "request_reason": "Replace Trash Cart",
    "date_created": "2024-08-12T17:35:34.000",
    "date_modified": "2024-08-12T17:35:35.000",
    "request_status": "Pending",
    "responsible_agency": "Department of Sanitation",
    "final_address": "612 Valence St",
    "address_councildis": "B",
    "status": "Assigned to Contractor",
    "contractor": "IV Waste",
    "rowid": "1121125",
    "final_x": "3669986.64282",
    "final_y": "517771.004982",
    "longitude": "-90.1048909009834",
    "latitude": "29.91803493399769",
    "geocoded_column": {
      "latitude": "29.91803493399769",
      "longitude": "-90.1048909009834"
    }
  },
  {
    "service_request": "2024-1121124",
    "request_type": "Trash/Recycling",
    "request_reason": "Request a Large Item Pick Up",
    "date_created": "2024-08-12T17:34:36.000",
    "date_modified": "2024-08-12T17:34:37.000",
    "request_status": "Pending",
    "responsible_agency": "Department of Sanitation",
    "final_address": "13026 Laval St",
    "address_councildis": "E",
    "status": "Assigned to Contractor",
    "contractor": "Waste Pro",
    "rowid": "1121124",
    "final_x": "3723818.83411",
    "final_y": "562361.092319",
    "longitude": "-89.93325465065008",
    "latitude": "30.038943815142815",
    "geocoded_column": {
      "latitude": "30.038943815142815",
      "longitude": "-89.93325465065008"
    }
  },
  {
    "service_request": "2024-1121123",
    "request_type": "Roads/Drainage",
    "request_reason": "Catch Basin - Clogged",
    "date_created": "2024-08-12T17:26:45.000",
    "date_modified": "2024-08-12T17:26:45.000",
    "request_status": "Pending",
    "responsible_agency": "Department of Public Works",
    "final_address": "1319 Desire St",
    "address_councildis": "C",
    "status": "Pending",
    "rowid": "1121123",
    "final_x": "3690437.2559",
    "final_y": "536584.238919",
    "longitude": "-90.03966924308017",
    "latitude": "29.969146188688875",
    "geocoded_column": {
      "latitude": "29.969146188688875",
      "longitude": "-90.03966924308017"
    }
  },
  {
    "service_request": "2024-1121122",
    "request_type": "Roads/Drainage",
    "request_reason": "Road Shoulder Repair",
    "date_created": "2024-08-12T17:26:01.000",
    "date_modified": "2024-08-12T17:26:01.000",
    "request_status": "Pending",
    "responsible_agency": "Department of Public Works",
    "final_address": "4700 BLK Mandeville St",
    "address_councildis": "D",
    "status": "Pending",
    "rowid": "1121122",
    "final_x": "3684699.06331",
    "final_y": "550448.686948",
    "longitude": "-90.05730323950169",
    "latitude": "30.007445388480637",
    "geocoded_column": {
      "latitude": "30.007445388480637",
      "longitude": "-90.05730323950169"
    }
  },
  {
    "service_request": "2024-1121121",
    "request_type": "Parks & Parkways",
    "request_reason": "Request Tree Service (Right of Way/Public Property)",
    "date_created": "2024-08-12T17:25:00.000",
    "date_modified": "2024-08-12T17:25:00.000",
    "request_status": "Pending",
    "responsible_agency": "Department of Parks & Parkway",
    "final_address": "1102 Valence St, New Orleans, Louisiana, 70115",
    "address_councildis": "B",
    "status": "Pending",
    "rowid": "1121121",
    "final_x": "3669814.65114",
    "final_y": "519454.991735",
    "longitude": "-90.10537682290095",
    "latitude": "29.922670433598512",
    "geocoded_column": {
      "latitude": "29.922670433598512",
      "longitude": "-90.10537682290095"
    }
  },
  {
    "service_request": "2024-1121120",
    "request_type": "Roads/Drainage",
    "request_reason": "Road Shoulder Repair",
    "date_created": "2024-08-12T17:24:30.000",
    "date_modified": "2024-08-12T17:24:30.000",
    "request_status": "Pending",
    "responsible_agency": "Department of Public Works",
    "final_address": "4700 BLK Mandeville St",
    "address_councildis": "D",
    "status": "Pending",
    "rowid": "1121120",
    "final_x": "3684699.06331",
    "final_y": "550448.686948",
    "longitude": "-90.05730323950169",
    "latitude": "30.007445388480637",
    "geocoded_column": {
      "latitude": "30.007445388480637",
      "longitude": "-90.05730323950169"
    }
  },
  {
    "service_request": "2024-1121119",
    "request_type": "Roads/Drainage",
    "request_reason": "Catch Basin - Clogged",
    "date_created": "2024-08-12T17:21:16.000",
    "date_modified": "2024-08-12T17:21:16.000",
    "request_status": "Pending",
    "responsible_agency": "Department of Public Works",
    "final_address": "1319 Desire St",
    "address_councildis": "C",
    "status": "Pending",
    "rowid": "1121119",
    "final_x": "3690437.2559",
    "final_y": "536584.238919",
    "longitude": "-90.03966924308017",
    "latitude": "29.969146188688875",
    "geocoded_column": {
      "latitude": "29.969146188688875",
      "longitude": "-90.03966924308017"
    }
  },
  {
    "service_request": "2024-1121118",
    "request_type": "Trash/Recycling",
    "request_reason": "Request a Large Item Pick Up",
    "date_created": "2024-08-12T17:21:03.000",
    "date_modified": "2024-08-12T17:21:04.000",
    "request_status": "Pending",
    "responsible_agency": "Department of Sanitation",
    "final_address": "620 N Olympia St",
    "address_councildis": "A",
    "status": "Assigned to Contractor",
    "contractor": "IV Waste",
    "rowid": "1121118",
    "final_x": "3670640.71867",
    "final_y": "541174.500044",
    "longitude": "-90.10203251729877",
    "latitude": "29.98236756568651",
    "geocoded_column": {
      "latitude": "29.98236756568651",
      "longitude": "-90.10203251729877"
    }
  },
  {
    "service_request": "2024-1121117",
    "request_type": "Trash/Recycling",
    "request_reason": "Illegal Dumping",
    "date_created": "2024-08-12T17:14:03.000",
    "date_modified": "2024-08-12T17:14:03.000",
    "request_status": "Pending",
    "responsible_agency": "Department of Sanitation",
    "final_address": "3021 S Saratoga St",
    "address_councildis": "B",
    "status": "Pending",
    "rowid": "1121117",
    "final_x": "3674097.5986",
    "final_y": "523512.867899",
    "longitude": "-90.09171844595514",
    "latitude": "29.9337013815622",
    "geocoded_column": {
      "latitude": "29.9337013815622",
      "longitude": "-90.09171844595514"
    }
  },
  {
    "service_request": "2024-1121116",
    "request_type": "Abandoned Vehicles",
    "request_reason": "Abandoned/Junk Vehicles",
    "date_created": "2024-08-12T17:12:14.000",
    "date_modified": "2024-08-12T17:12:14.000",
    "request_status": "Pending",
    "responsible_agency": "Department of Public Works",
    "final_address": "906 Vallette St",
    "address_councildis": "C",
    "status": "Pending",
    "rowid": "1121116",
    "final_x": "3687516.05519",
    "final_y": "528275.400576",
    "longitude": "-90.04918865242422",
    "latitude": "29.94639011227468",
    "geocoded_column": {
      "latitude": "29.94639011227468",
      "longitude": "-90.04918865242422"
    }
  },
  {
    "service_request": "2024-1121115",
    "request_type": "Trash/Recycling",
    "request_reason": "Request a Large Item Pick Up",
    "date_created": "2024-08-12T17:10:18.000",
    "date_modified": "2024-08-12T17:10:19.000",
    "request_status": "Pending",
    "responsible_agency": "Department of Sanitation",
    "final_address": "7818 Lafourche St",
    "address_councildis": "E",
    "status": "Assigned to Contractor",
    "contractor": "Waste Pro",
    "rowid": "1121115",
    "final_x": "3709740.39723",
    "final_y": "566220.262243",
    "longitude": "-89.97760176093833",
    "latitude": "30.050020462299212",
    "geocoded_column": {
      "latitude": "30.050020462299212",
      "longitude": "-89.97760176093833"
    }
  },
  {
    "service_request": "2024-1121114",
    "request_type": "Traffic Signals/Signs/Striping/Streetlights",
    "request_reason": "Street Light Outage/Malfunction",
    "date_created": "2024-08-12T16:58:56.000",
    "date_modified": "2024-08-12T16:58:57.000",
    "request_status": "Pending",
    "responsible_agency": "Department of Public Works",
    "final_address": "4606 Pecan St",
    "address_councildis": "E",
    "status": "Assigned to Contractor",
    "contractor": "Legacy Professional Services",
    "rowid": "1121114",
    "final_x": "3701808.14609",
    "final_y": "553469.325783",
    "longitude": "-90.00314037440234",
    "latitude": "30.01521601553962",
    "geocoded_column": {
      "latitude": "30.01521601553962",
      "longitude": "-90.00314037440234"
    }
  },
  {
    "service_request": "2024-1121113",
    "request_type": "Abandoned Vehicles",
    "request_reason": "Abandoned/Junk Vehicles",
    "date_created": "2024-08-12T16:58:13.000",
    "date_modified": "2024-08-12T16:58:14.000",
    "request_status": "Pending",
    "responsible_agency": "Department of Public Works",
    "final_address": "1101 Dante St",
    "address_councildis": "A",
    "status": "Pending",
    "rowid": "1121113",
    "final_x": "3661250.9392",
    "final_y": "528609.11136",
    "longitude": "-90.13210626574336",
    "latitude": "29.948090950174095",
    "geocoded_column": {
      "latitude": "29.948090950174095",
      "longitude": "-90.13210626574336"
    }
  },
  {
    "service_request": "2024-1121112",
    "request_type": "Trash/Recycling",
    "request_reason": "Repair Recycling Cart",
    "date_created": "2024-08-12T16:56:59.000",
    "date_modified": "2024-08-12T16:57:00.000",
    "request_status": "Pending",
    "responsible_agency": "Department of Sanitation",
    "final_address": "3128 Annunciation St",
    "address_councildis": "B",
    "status": "Pending",
    "rowid": "1121112",
    "final_x": "3676539.40097",
    "final_y": "519119.961847",
    "longitude": "-90.08416097877206",
    "latitude": "29.92154933644663",
    "geocoded_column": {
      "latitude": "29.92154933644663",
      "longitude": "-90.08416097877206"
    }
  },
  {
    "service_request": "2024-1121111",
    "request_type": "Traffic Signals/Signs/Striping/Streetlights",
    "request_reason": "Street Light Outage/Malfunction",
    "date_created": "2024-08-12T16:52:32.000",
    "date_modified": "2024-08-12T16:52:33.000",
    "request_status": "Pending",
    "responsible_agency": "Department of Public Works",
    "final_address": "4612 Deanne St",
    "address_councildis": "D",
    "status": "Assigned to Contractor",
    "contractor": "Legacy Professional Services",
    "rowid": "1121111",
    "final_x": "3696314.68509",
    "final_y": "553592.559575",
    "longitude": "-90.02049257994021",
    "latitude": "30.015729070293464",
    "geocoded_column": {
      "latitude": "30.015729070293464",
      "longitude": "-90.02049257994021"
    }
  },
  {
    "service_request": "2024-1121110",
    "request_type": "Roads/Drainage",
    "request_reason": "Street Subsidence (Sinking)",
    "date_created": "2024-08-12T16:49:11.000",
    "date_modified": "2024-08-12T16:49:11.000",
    "request_status": "Pending",
    "responsible_agency": "Department of Public Works",
    "final_address": "3901 Tchoupitoulas St",
    "address_councildis": "B",
    "status": "Pending",
    "rowid": "1121110",
    "final_x": "3673369.02644",
    "final_y": "517727.904438",
    "longitude": "-90.09421601160591",
    "latitude": "29.917816278695543",
    "geocoded_column": {
      "latitude": "29.917816278695543",
      "longitude": "-90.09421601160591"
    }
  },
  {
    "service_request": "2024-1121109",
    "request_type": "Trash/Recycling",
    "request_reason": "Request a Large Item Pick Up",
    "date_created": "2024-08-12T16:48:09.000",
    "date_modified": "2024-08-12T16:48:09.000",
    "request_status": "Pending",
    "responsible_agency": "Department of Sanitation",
    "final_address": "7200 Yorktown Dr",
    "address_councildis": "E",
    "status": "Assigned to Contractor",
    "contractor": "Waste Pro",
    "rowid": "1121109",
    "final_x": "3705801.17041",
    "final_y": "561209.723678",
    "longitude": "-89.99023773679654",
    "latitude": "30.036371035809474",
    "geocoded_column": {
      "latitude": "30.036371035809474",
      "longitude": "-89.99023773679654"
    }
  },
  {
    "service_request": "2024-1121108",
    "request_type": "Trash/Recycling",
    "request_reason": "Request a Large Item Pick Up",
    "date_created": "2024-08-12T16:44:40.000",
    "date_modified": "2024-08-12T16:44:41.000",
    "request_status": "Pending",
    "responsible_agency": "Department of Sanitation",
    "final_address": "2233 Jefferson Ave",
    "address_councildis": "B",
    "status": "Assigned to Contractor",
    "contractor": "IV Waste",
    "rowid": "1121108",
    "final_x": "3667962.32218",
    "final_y": "523905.758332",
    "longitude": "-90.11107404406737",
    "latitude": "29.934963079430577",
    "geocoded_column": {
      "latitude": "29.934963079430577",
      "longitude": "-90.11107404406737"
    }
  },
  {
    "service_request": "2024-1121107",
    "request_type": "Trash/Recycling",
    "request_reason": "Request a Large Item Pick Up",
    "date_created": "2024-08-12T16:42:53.000",
    "date_modified": "2024-08-12T16:42:54.000",
    "request_status": "Pending",
    "responsible_agency": "Department of Sanitation",
    "final_address": "6821 Norwood Ct",
    "address_councildis": "E",
    "status": "Assigned to Contractor",
    "contractor": "Waste Pro",
    "rowid": "1121107",
    "final_x": "3701225.94129",
    "final_y": "557080.137114",
    "longitude": "-90.00484758635716",
    "latitude": "30.02516293650539",
    "geocoded_column": {
      "latitude": "30.02516293650539",
      "longitude": "-90.00484758635716"
    }
  },
  {
    "service_request": "2024-1121105",
    "request_type": "Utility Poles",
    "request_reason": "Utility Pole Leaning",
    "date_created": "2024-08-12T16:42:45.000",
    "date_modified": "2024-08-12T16:42:47.000",
    "request_status": "Pending",
    "responsible_agency": "Utility Company Collective",
    "final_address": "1444 N Derbigny St",
    "address_councildis": "D",
    "status": "Pending",
    "rowid": "1121105",
    "final_x": "3681264.65884",
    "final_y": "537134.414152",
    "longitude": "-90.06861776856023",
    "latitude": "29.970940545690013",
    "geocoded_column": {
      "latitude": "29.970940545690013",
      "longitude": "-90.06861776856023"
    }
  },
  {
    "service_request": "2024-1121106",
    "request_type": "Abandoned Vehicles",
    "request_reason": "Abandoned/Junk Vehicles",
    "date_created": "2024-08-12T16:42:45.000",
    "date_modified": "2024-08-12T16:42:46.000",
    "request_status": "Pending",
    "responsible_agency": "Department of Public Works",
    "final_address": "4911 Sierra Madre Dr",
    "address_councildis": "E",
    "status": "Pending",
    "rowid": "1121106",
    "final_x": "3713872.32389",
    "final_y": "557387.330523",
    "longitude": "-89.96487581195197",
    "latitude": "30.025598377734724",
    "geocoded_column": {
      "latitude": "30.025598377734724",
      "longitude": "-89.96487581195197"
    }
  },
  {
    "service_request": "2024-1121104",
    "request_type": "Utility Poles",
    "request_reason": "Utility Pole Leaning",
    "date_created": "2024-08-12T16:41:39.000",
    "date_modified": "2024-08-12T16:41:45.000",
    "request_status": "Pending",
    "responsible_agency": "Utility Company Collective",
    "final_address": "1468 N Derbigny St",
    "address_councildis": "D",
    "status": "Pending",
    "rowid": "1121104",
    "final_x": "3681374.69199",
    "final_y": "537274.749",
    "longitude": "-90.06826537683376",
    "latitude": "29.9713230782207",
    "geocoded_column": {
      "latitude": "29.9713230782207",
      "longitude": "-90.06826537683376"
    }
  },
  {
    "service_request": "2024-1121103",
    "request_type": "Traffic Signals/Signs/Striping/Streetlights",
    "request_reason": "Traffic Signal Malfunctioning/Damaged",
    "date_created": "2024-08-12T16:40:31.000",
    "date_modified": "2024-08-12T16:40:31.000",
    "request_status": "Pending",
    "responsible_agency": "Department of Public Works",
    "final_address": "1500 BLK Esplanade Ave",
    "address_councildis": "C",
    "status": "Pending",
    "rowid": "1121103",
    "final_x": "3681464.07503",
    "final_y": "536453.588954",
    "longitude": "-90.06801173036015",
    "latitude": "29.969062457447766",
    "geocoded_column": {
      "latitude": "29.969062457447766",
      "longitude": "-90.06801173036015"
    }
  },
  {
    "service_request": "2024-1121102",
    "request_type": "Trash/Recycling",
    "request_reason": "Request a Large Item Pick Up",
    "date_created": "2024-08-12T16:39:52.000",
    "date_modified": "2024-08-12T16:39:53.000",
    "request_status": "Pending",
    "responsible_agency": "Department of Sanitation",
    "final_address": "11296 Midpoint Dr",
    "address_councildis": "E",
    "status": "Assigned to Contractor",
    "contractor": "Waste Pro",
    "rowid": "1121102",
    "final_x": "3718572.16274",
    "final_y": "559520.196637",
    "longitude": "-89.94994379972407",
    "latitude": "30.031307730624725",
    "geocoded_column": {
      "latitude": "30.031307730624725",
      "longitude": "-89.94994379972407"
    }
  },
  {
    "service_request": "2024-1121101",
    "request_type": "Traffic Signals/Signs/Striping/Streetlights",
    "request_reason": "Street Light Outage/Malfunction",
    "date_created": "2024-08-12T16:37:07.000",
    "date_modified": "2024-08-12T16:37:08.000",
    "request_status": "Pending",
    "responsible_agency": "Department of Public Works",
    "final_address": "66 Flamingo St",
    "address_councildis": "D",
    "status": "Assigned to Contractor",
    "contractor": "Legacy Professional Services",
    "rowid": "1121101",
    "final_x": "3674644.09403",
    "final_y": "556002.793433",
    "longitude": "-90.08887922017769",
    "latitude": "30.023021249930736",
    "geocoded_column": {
      "latitude": "30.023021249930736",
      "longitude": "-90.08887922017769"
    }
  },
  {
    "service_request": "2024-1121100",
    "request_type": "Traffic Signals/Signs/Striping/Streetlights",
    "request_reason": "Street Light Outage/Malfunction",
    "date_created": "2024-08-12T16:35:12.000",
    "date_modified": "2024-08-12T16:35:13.000",
    "request_status": "Pending",
    "responsible_agency": "Department of Public Works",
    "final_address": "62 Flamingo St",
    "address_councildis": "D",
    "status": "Assigned to Contractor",
    "contractor": "Legacy Professional Services",
    "rowid": "1121100",
    "final_x": "3674654.56763",
    "final_y": "555850.429529",
    "longitude": "-90.08885135469771",
    "latitude": "30.022601991438517",
    "geocoded_column": {
      "latitude": "30.022601991438517",
      "longitude": "-90.08885135469771"
    }
  },
  {
    "service_request": "2024-1121099",
    "request_type": "Property Maintenance",
    "request_reason": "Property Maintenance",
    "date_created": "2024-08-12T16:34:58.000",
    "date_modified": "2024-08-12T16:34:59.000",
    "request_status": "Pending",
    "responsible_agency": "Department of Code Enforcement",
    "final_address": "4901 Friar Tuck Dr",
    "address_councildis": "E",
    "status": "Pending",
    "rowid": "1121099",
    "final_x": "3717721.33746",
    "final_y": "557692.186075",
    "longitude": "-89.95270201143508",
    "latitude": "30.026309651950086",
    "geocoded_column": {
      "latitude": "30.026309651950086",
      "longitude": "-89.95270201143508"
    }
  },
  {
    "service_request": "2024-1121098",
    "request_type": "Trash/Recycling",
    "request_reason": "Request a Large Item Pick Up",
    "date_created": "2024-08-12T16:34:26.000",
    "date_modified": "2024-08-12T16:34:27.000",
    "request_status": "Pending",
    "responsible_agency": "Department of Sanitation",
    "final_address": "2238 Cadiz St",
    "address_councildis": "B",
    "status": "Assigned to Contractor",
    "contractor": "IV Waste",
    "rowid": "1121098",
    "final_x": "3669822.41953",
    "final_y": "523226.763003",
    "longitude": "-90.10522469304873",
    "latitude": "29.93304137175815",
    "geocoded_column": {
      "latitude": "29.93304137175815",
      "longitude": "-90.10522469304873"
    }
  },
  {
    "service_request": "2024-1121097",
    "request_type": "Traffic Signals/Signs/Striping/Streetlights",
    "request_reason": "Traffic Signal Malfunctioning/Damaged",
    "date_created": "2024-08-12T16:29:16.000",
    "date_modified": "2024-08-12T16:29:17.000",
    "request_status": "Pending",
    "responsible_agency": "Department of Public Works",
    "final_address": "ESPLANADE AVE & N CLAIBORNE AVE",
    "address_councildis": "D",
    "status": "Pending",
    "rowid": "1121097",
    "final_x": "3681314.4",
    "final_y": "536499.88",
    "longitude": "-90.06848280042382",
    "latitude": "29.969194285734545",
    "geocoded_column": {
      "latitude": "29.969194285734545",
      "longitude": "-90.06848280042382"
    }
  },
  {
    "service_request": "2024-1121096",
    "request_type": "Trash/Recycling",
    "request_reason": "Repair Trash Cart",
    "date_created": "2024-08-12T16:26:38.000",
    "date_modified": "2024-08-12T16:26:39.000",
    "request_status": "Pending",
    "responsible_agency": "Department of Sanitation",
    "final_address": "5737 W Louis Prima Dr",
    "address_councildis": "E",
    "status": "Assigned to Contractor",
    "contractor": "Waste Pro",
    "rowid": "1121096",
    "final_x": "3715873.40498",
    "final_y": "561933.160927",
    "longitude": "-89.95838038765926",
    "latitude": "30.038031725431512",
    "geocoded_column": {
      "latitude": "30.038031725431512",
      "longitude": "-89.95838038765926"
    }
  },
  {
    "service_request": "2024-1121095",
    "request_type": "Traffic Signals/Signs/Striping/Streetlights",
    "request_reason": "Street Light Outage/Malfunction",
    "date_created": "2024-08-12T16:25:50.000",
    "date_modified": "2024-08-12T16:25:51.000",
    "request_status": "Pending",
    "responsible_agency": "Department of Public Works",
    "final_address": "2920 Hamilton St",
    "address_councildis": "A",
    "status": "Assigned to Contractor",
    "contractor": "Legacy Professional Services",
    "rowid": "1121095",
    "final_x": "3663558.88691",
    "final_y": "535425.76935",
    "longitude": "-90.12459206009612",
    "latitude": "29.966767812971693",
    "geocoded_column": {
      "latitude": "29.966767812971693",
      "longitude": "-90.12459206009612"
    }
  },
  {
    "service_request": "2024-1121094",
    "request_type": "Trash/Recycling",
    "request_reason": "Request a Large Item Pick Up",
    "date_created": "2024-08-12T16:24:10.000",
    "date_modified": "2024-08-12T16:24:11.000",
    "request_status": "Pending",
    "responsible_agency": "Department of Sanitation",
    "final_address": "6720 Coventry St",
    "address_councildis": "E",
    "status": "Assigned to Contractor",
    "contractor": "Waste Pro",
    "rowid": "1121094",
    "final_x": "3698122.01987",
    "final_y": "559422.597533",
    "longitude": "-90.01457025350142",
    "latitude": "30.031702389408427",
    "geocoded_column": {
      "latitude": "30.031702389408427",
      "longitude": "-90.01457025350142"
    }
  },
  {
    "service_request": "2024-1121093",
    "request_type": "Trash/Recycling",
    "request_reason": "Replace Trash Cart",
    "date_created": "2024-08-12T16:22:32.000",
    "date_modified": "2024-08-12T16:22:33.000",
    "request_status": "Pending",
    "responsible_agency": "Department of Sanitation",
    "final_address": "1516 Calhoun St",
    "address_councildis": "A",
    "status": "Assigned to Contractor",
    "contractor": "IV Waste",
    "rowid": "1121093",
    "final_x": "3664529.3369",
    "final_y": "522403.802938",
    "longitude": "-90.12196212121161",
    "latitude": "29.930933422853226",
    "geocoded_column": {
      "latitude": "29.930933422853226",
      "longitude": "-90.12196212121161"
    }
  },
  {
    "service_request": "2024-1121092",
    "request_type": "Abandoned Vehicles",
    "request_reason": "Abandoned/Junk Vehicles",
    "date_created": "2024-08-12T16:22:12.000",
    "date_modified": "2024-08-12T16:24:18.000",
    "request_status": "Pending",
    "responsible_agency": "Department of Public Works",
    "final_address": "1225 St Ferdinand St",
    "address_councildis": "C",
    "status": "Pending",
    "rowid": "1121092",
    "final_x": "3687893.47849",
    "final_y": "536861.439048",
    "longitude": "-90.04769283138789",
    "latitude": "29.969987115478734",
    "geocoded_column": {
      "latitude": "29.969987115478734",
      "longitude": "-90.04769283138789"
    }
  },
  {
    "service_request": "2024-1121091",
    "request_type": "Trash/Recycling",
    "request_reason": "Illegal Dumping",
    "date_created": "2024-08-12T16:21:54.000",
    "date_modified": "2024-08-12T16:21:55.000",
    "request_status": "Pending",
    "responsible_agency": "Department of Sanitation",
    "final_address": "723 Verret St",
    "address_councildis": "C",
    "status": "Pending",
    "rowid": "1121091",
    "final_x": "3687065.77769",
    "final_y": "528887.350656",
    "longitude": "-90.05058870358219",
    "latitude": "29.948086634393928",
    "geocoded_column": {
      "latitude": "29.948086634393928",
      "longitude": "-90.05058870358219"
    }
  },
  {
    "service_request": "2024-1121090",
    "request_type": "Abandoned Vehicles",
    "request_reason": "Abandoned/Junk Vehicles",
    "date_created": "2024-08-12T16:20:03.000",
    "date_modified": "2024-08-12T16:20:03.000",
    "request_status": "Pending",
    "responsible_agency": "Department of Public Works",
    "final_address": "4400 Reynes St",
    "address_councildis": "E",
    "status": "Pending",
    "rowid": "1121090",
    "final_x": "3699276.0362",
    "final_y": "553095.609431",
    "longitude": "-90.01115422817234",
    "latitude": "30.014269019336577",
    "geocoded_column": {
      "latitude": "30.014269019336577",
      "longitude": "-90.01115422817234"
    }
  },
  {
    "service_request": "2024-1121089",
    "request_type": "Roads/Drainage",
    "request_reason": "Pothole",
    "date_created": "2024-08-12T16:19:22.000",
    "date_modified": "2024-08-12T16:19:22.000",
    "request_status": "Pending",
    "responsible_agency": "Department of Public Works",
    "final_address": "COLBERT ST & HARRISON AVE",
    "address_councildis": "A",
    "status": "Pending",
    "rowid": "1121089",
    "final_x": "3667601.2",
    "final_y": "549418.58",
    "longitude": "-90.11135514995729",
    "latitude": "30.00512541774964",
    "geocoded_column": {
      "latitude": "30.00512541774964",
      "longitude": "-90.11135514995729"
    }
  },
  {
    "service_request": "2024-1121088",
    "request_type": "Roads/Drainage",
    "request_reason": "Street Flooding / Drainage",
    "date_created": "2024-08-12T16:18:10.000",
    "date_modified": "2024-08-12T16:18:10.000",
    "request_status": "Pending",
    "responsible_agency": "Department of Public Works",
    "final_address": "5914 Coliseum St",
    "address_councildis": "A",
    "status": "Pending",
    "rowid": "1121088",
    "final_x": "3665315.17159",
    "final_y": "520026.915192",
    "longitude": "-90.11956082227155",
    "latitude": "29.9243748643388",
    "geocoded_column": {
      "latitude": "29.9243748643388",
      "longitude": "-90.11956082227155"
    }
  },
  {
    "service_request": "2024-1121087",
    "request_type": "Roads/Drainage",
    "request_reason": "Pothole",
    "date_created": "2024-08-12T16:17:35.000",
    "date_modified": "2024-08-12T16:17:36.000",
    "request_status": "Pending",
    "responsible_agency": "Department of Public Works",
    "final_address": "FILMORE AVE & CANAL BLVD",
    "address_councildis": "A",
    "status": "Pending",
    "rowid": "1121087",
    "final_x": "3668851.3",
    "final_y": "552025.58",
    "longitude": "-90.10731768450728",
    "latitude": "30.012257038147645",
    "geocoded_column": {
      "latitude": "30.012257038147645",
      "longitude": "-90.10731768450728"
    }
  },
  {
    "service_request": "2024-1121086",
    "request_type": "Trash/Recycling",
    "request_reason": "Request a Large Item Pick Up",
    "date_created": "2024-08-12T16:17:13.000",
    "date_modified": "2024-08-12T16:17:14.000",
    "request_status": "Pending",
    "responsible_agency": "Department of Sanitation",
    "final_address": "818 Toledano St",
    "address_councildis": "B",
    "status": "Assigned to Contractor",
    "contractor": "IV Waste",
    "rowid": "1121086",
    "final_x": "3675744.71265",
    "final_y": "518889.313655",
    "longitude": "-90.08667738879039",
    "latitude": "29.920938926103634",
    "geocoded_column": {
      "latitude": "29.920938926103634",
      "longitude": "-90.08667738879039"
    }
  },
  {
    "service_request": "2024-1121085",
    "request_type": "Graffiti Removal",
    "request_reason": "Graffiti Removal",
    "date_created": "2024-08-12T16:14:54.000",
    "date_modified": "2024-08-12T16:14:54.000",
    "request_status": "Pending",
    "responsible_agency": "Department of Code Enforcement",
    "final_address": "1501 Philip St",
    "address_councildis": "B",
    "status": "Pending",
    "rowid": "1121085",
    "final_x": "3677663.6221",
    "final_y": "523219.030715",
    "longitude": "-90.0804708238745",
    "latitude": "29.932786694139413",
    "geocoded_column": {
      "latitude": "29.932786694139413",
      "longitude": "-90.0804708238745"
    }
  },
  {
    "service_request": "2024-1121084",
    "request_type": "Roads/Drainage",
    "request_reason": "Catch Basin - Broken/Damage",
    "date_created": "2024-08-12T16:12:37.000",
    "date_modified": "2024-08-12T16:13:19.000",
    "request_status": "Pending",
    "responsible_agency": "Department of Public Works",
    "final_address": "2036 Franklin Ave",
    "address_councildis": "D",
    "status": "Pending",
    "rowid": "1121084",
    "final_x": "3687549.86127",
    "final_y": "540164.435211",
    "longitude": "-90.04866105526925",
    "latitude": "29.979079790036273",
    "geocoded_column": {
      "latitude": "29.979079790036273",
      "longitude": "-90.04866105526925"
    }
  },
  {
    "service_request": "2024-1121083",
    "request_type": "Parks & Parkways",
    "request_reason": "Tree Stump (removal, grind)",
    "date_created": "2024-08-12T16:12:28.000",
    "date_modified": "2024-08-12T16:12:28.000",
    "request_status": "Pending",
    "responsible_agency": "Department of Parks & Parkway",
    "final_address": "4637 Palmyra St",
    "address_councildis": "A",
    "status": "Pending",
    "rowid": "1121083",
    "final_x": "3668700.38791",
    "final_y": "539224.987018",
    "longitude": "-90.10822688747504",
    "latitude": "29.977064252863165",
    "geocoded_column": {
      "latitude": "29.977064252863165",
      "longitude": "-90.10822688747504"
    }
  },
  {
    "service_request": "2024-1121082",
    "request_type": "Trash/Recycling",
    "request_reason": "Repair Trash Cart",
    "date_created": "2024-08-12T16:10:29.000",
    "date_modified": "2024-08-12T16:10:30.000",
    "request_status": "Pending",
    "responsible_agency": "Department of Sanitation",
    "final_address": "2273 N Claiborne Ave",
    "address_councildis": "D",
    "status": "Assigned to Contractor",
    "contractor": "IV Waste",
    "rowid": "1121082",
    "final_x": "3685564.4269",
    "final_y": "538245.141321",
    "longitude": "-90.0549994398811",
    "latitude": "29.97386346266819",
    "geocoded_column": {
      "latitude": "29.97386346266819",
      "longitude": "-90.0549994398811"
    }
  },
  {
    "service_request": "2024-1121081",
    "request_type": "Roads/Drainage",
    "request_reason": "Pothole",
    "date_created": "2024-08-12T16:09:53.000",
    "date_modified": "2024-08-12T16:09:53.000",
    "request_status": "Pending",
    "responsible_agency": "Department of Public Works",
    "final_address": "WEST END BLVD & OPAL ST",
    "address_councildis": "D",
    "status": "Pending",
    "rowid": "1121081",
    "final_x": "3667030.6",
    "final_y": "555546.08",
    "longitude": "-90.11295162821882",
    "latitude": "30.021990612497145",
    "geocoded_column": {
      "latitude": "30.021990612497145",
      "longitude": "-90.11295162821882"
    }
  },
  {
    "service_request": "2024-1121080",
    "request_type": "Roads/Drainage",
    "request_reason": "Pothole",
    "date_created": "2024-08-12T16:02:39.000",
    "date_modified": "2024-08-12T16:02:39.000",
    "request_status": "Pending",
    "responsible_agency": "Department of Public Works",
    "final_address": "729 Harrison Ave, New Orleans, Louisiana, 70124",
    "address_councildis": "A",
    "status": "Pending",
    "rowid": "1121080",
    "final_x": "3668951.66817",
    "final_y": "549383.324627",
    "longitude": "-90.10708991488733",
    "latitude": "30.004988808161826",
    "geocoded_column": {
      "latitude": "30.004988808161826",
      "longitude": "-90.10708991488733"
    }
  },
  {
    "service_request": "2024-1121079",
    "request_type": "Trash/Recycling",
    "request_reason": "Request a Large Item Pick Up",
    "date_created": "2024-08-12T16:01:24.000",
    "date_modified": "2024-08-12T16:01:24.000",
    "request_status": "Pending",
    "responsible_agency": "Department of Sanitation",
    "final_address": "2754 Lavender St",
    "address_councildis": "D",
    "status": "Assigned to Contractor",
    "contractor": "IV Waste",
    "rowid": "1121079",
    "final_x": "3688306.1622",
    "final_y": "546982.610193",
    "longitude": "-90.04603044156204",
    "latitude": "29.997803993935175",
    "geocoded_column": {
      "latitude": "29.997803993935175",
      "longitude": "-90.04603044156204"
    }
  },
  {
    "service_request": "2024-1121078",
    "request_type": "Roads/Drainage",
    "request_reason": "Catch Basin - Clogged",
    "date_created": "2024-08-12T15:59:51.000",
    "date_modified": "2024-08-12T15:59:52.000",
    "request_status": "Pending",
    "responsible_agency": "Department of Public Works",
    "final_address": "2754 Lavender St",
    "address_councildis": "D",
    "status": "Pending",
    "rowid": "1121078",
    "final_x": "3688306.1622",
    "final_y": "546982.610193",
    "longitude": "-90.04603044156204",
    "latitude": "29.997803993935175",
    "geocoded_column": {
      "latitude": "29.997803993935175",
      "longitude": "-90.04603044156204"
    }
  },
  {
    "service_request": "2024-1121077",
    "request_type": "Trash/Recycling",
    "request_reason": "Illegal Dumping",
    "date_created": "2024-08-12T15:58:43.000",
    "date_modified": "2024-08-12T15:58:44.000",
    "request_status": "Pending",
    "responsible_agency": "Department of Sanitation",
    "final_address": "8423 Hickory St",
    "address_councildis": "A",
    "status": "Pending",
    "rowid": "1121077",
    "final_x": "3662466.77792",
    "final_y": "530815.12973",
    "longitude": "-90.1281940930222",
    "latitude": "29.954121687129657",
    "geocoded_column": {
      "latitude": "29.954121687129657",
      "longitude": "-90.1281940930222"
    }
  },
  {
    "service_request": "2024-1121076",
    "request_type": "Trash/Recycling",
    "request_reason": "Request a Large Item Pick Up",
    "date_created": "2024-08-12T15:57:30.000",
    "date_modified": "2024-08-12T15:57:31.000",
    "request_status": "Pending",
    "responsible_agency": "Department of Sanitation",
    "final_address": "8417 Hickory St",
    "address_councildis": "A",
    "status": "Assigned to Contractor",
    "contractor": "IV Waste",
    "rowid": "1121076",
    "final_x": "3662492.94746",
    "final_y": "530791.925634",
    "longitude": "-90.1281122304302",
    "latitude": "29.95405712652059",
    "geocoded_column": {
      "latitude": "29.95405712652059",
      "longitude": "-90.1281122304302"
    }
  },
  {
    "service_request": "2024-1121075",
    "request_type": "Trash/Recycling",
    "request_reason": "Request a Large Item Pick Up",
    "date_created": "2024-08-12T15:55:02.000",
    "date_modified": "2024-08-12T15:55:03.000",
    "request_status": "Pending",
    "responsible_agency": "Department of Sanitation",
    "final_address": "5129 Chartres St",
    "address_councildis": "E",
    "status": "Assigned to Contractor",
    "contractor": "Waste Pro",
    "rowid": "1121075",
    "final_x": "3695974.55088",
    "final_y": "532336.277443",
    "longitude": "-90.0223356476377",
    "latitude": "29.957292739292367",
    "geocoded_column": {
      "latitude": "29.957292739292367",
      "longitude": "-90.0223356476377"
    }
  },
  {
    "service_request": "2024-1121074",
    "request_type": "Trash/Recycling",
    "request_reason": "Replace Trash Cart",
    "date_created": "2024-08-12T15:50:31.000",
    "date_modified": "2024-08-12T15:50:32.000",
    "request_status": "Pending",
    "responsible_agency": "Department of Sanitation",
    "final_address": "3806 State Street Dr",
    "address_councildis": "A",
    "status": "Assigned to Contractor",
    "contractor": "IV Waste",
    "rowid": "1121074",
    "final_x": "3668002.03053",
    "final_y": "529510.882049",
    "longitude": "-90.11075988140503",
    "latitude": "29.95037419367859",
    "geocoded_column": {
      "latitude": "29.95037419367859",
      "longitude": "-90.11075988140503"
    }
  },
  {
    "service_request": "2024-1121073",
    "request_type": "Abandoned Vehicles",
    "request_reason": "Abandoned/Junk Vehicles",
    "date_created": "2024-08-12T15:49:17.000",
    "date_modified": "2024-08-12T15:49:17.000",
    "request_status": "Pending",
    "responsible_agency": "Department of Public Works",
    "final_address": "4510 Pauger St",
    "address_councildis": "D",
    "status": "Pending",
    "rowid": "1121073",
    "final_x": "3682752.24584",
    "final_y": "549240.363987",
    "longitude": "-90.06349608854258",
    "latitude": "30.004182404845174",
    "geocoded_column": {
      "latitude": "30.004182404845174",
      "longitude": "-90.06349608854258"
    }
  },
  {
    "service_request": "2024-1121072",
    "request_type": "Trash/Recycling",
    "request_reason": "Return Recycling Cart",
    "date_created": "2024-08-12T15:49:10.000",
    "date_modified": "2024-08-12T15:49:11.000",
    "request_status": "Pending",
    "responsible_agency": "Department of Sanitation",
    "final_address": "7131 Ridgefield Dr",
    "address_councildis": "E",
    "status": "Pending",
    "rowid": "1121072",
    "final_x": "3719161.58866",
    "final_y": "570019.015846",
    "longitude": "-89.94768001296606",
    "latitude": "30.06015559706482",
    "geocoded_column": {
      "latitude": "30.06015559706482",
      "longitude": "-89.94768001296606"
    }
  },
  {
    "service_request": "2024-1121071",
    "request_type": "Trash/Recycling",
    "request_reason": "Illegal Dumping",
    "date_created": "2024-08-12T15:46:55.000",
    "date_modified": "2024-08-12T15:46:56.000",
    "request_status": "Pending",
    "responsible_agency": "Department of Sanitation",
    "final_address": "5401 St Claude Ave",
    "address_councildis": "E",
    "status": "Pending",
    "rowid": "1121071",
    "final_x": "3697320.78487",
    "final_y": "534050.720325",
    "longitude": "-90.01802252911733",
    "latitude": "29.96196442906811",
    "geocoded_column": {
      "latitude": "29.96196442906811",
      "longitude": "-90.01802252911733"
    }
  },
  {
    "service_request": "2024-1121070",
    "request_type": "Trash/Recycling",
    "request_reason": "Repair Trash Cart",
    "date_created": "2024-08-12T15:45:04.000",
    "date_modified": "2024-08-12T15:45:05.000",
    "request_status": "Pending",
    "responsible_agency": "Department of Sanitation",
    "final_address": "5136 Westgrove Park",
    "address_councildis": "C",
    "status": "Assigned to Contractor",
    "contractor": "Richards Disposal",
    "rowid": "1121070",
    "final_x": "3703290.92164",
    "final_y": "510953.604783",
    "longitude": "-90.00001860826917",
    "latitude": "29.898265621942947",
    "geocoded_column": {
      "latitude": "29.898265621942947",
      "longitude": "-90.00001860826917"
    }
  },
  {
    "service_request": "2024-1121069",
    "request_type": "Property Maintenance",
    "request_reason": "Property Maintenance",
    "date_created": "2024-08-12T15:44:10.000",
    "date_modified": "2024-08-12T15:44:11.000",
    "request_status": "Pending",
    "responsible_agency": "Department of Code Enforcement",
    "final_address": "6949 Pinebrook Dr",
    "address_councildis": "E",
    "status": "Pending",
    "rowid": "1121069",
    "final_x": "3720031.26457",
    "final_y": "569317.818918",
    "longitude": "-89.9449578982205",
    "latitude": "30.058198652019918",
    "geocoded_column": {
      "latitude": "30.058198652019918",
      "longitude": "-89.9449578982205"
    }
  },
  {
    "service_request": "2024-1121068",
    "request_type": "Trash/Recycling",
    "request_reason": "Request a Large Item Pick Up",
    "date_created": "2024-08-12T15:44:01.000",
    "date_modified": "2024-08-12T15:44:02.000",
    "request_status": "Pending",
    "responsible_agency": "Department of Sanitation",
    "final_address": "4837 Nottingham Dr",
    "address_councildis": "E",
    "status": "Assigned to Contractor",
    "contractor": "Waste Pro",
    "rowid": "1121068",
    "final_x": "3716424.3324",
    "final_y": "557384.970011",
    "longitude": "-89.95681200815142",
    "latitude": "30.025507836780207",
    "geocoded_column": {
      "latitude": "30.025507836780207",
      "longitude": "-89.95681200815142"
    }
  },
  {
    "service_request": "2024-1121067",
    "request_type": "Trash/Recycling",
    "request_reason": "Request a Large Item Pick Up",
    "date_created": "2024-08-12T15:42:23.000",
    "date_modified": "2024-08-12T15:42:24.000",
    "request_status": "Pending",
    "responsible_agency": "Department of Sanitation",
    "final_address": "7601 Devine Ave",
    "address_councildis": "E",
    "status": "Assigned to Contractor",
    "contractor": "Waste Pro",
    "rowid": "1121067",
    "final_x": "3705786.27991",
    "final_y": "562986.995808",
    "longitude": "-89.99021895845964",
    "latitude": "30.04125831221498",
    "geocoded_column": {
      "latitude": "30.04125831221498",
      "longitude": "-89.99021895845964"
    }
  },
  {
    "service_request": "2024-1121065",
    "request_type": "Trash/Recycling",
    "request_reason": "Missed Trash Pick-Up",
    "date_created": "2024-08-12T15:34:39.000",
    "date_modified": "2024-08-12T15:34:40.000",
    "request_status": "Pending",
    "responsible_agency": "Department of Sanitation",
    "final_address": "411 Natchez St",
    "address_councildis": "B",
    "status": "Assigned to Contractor",
    "contractor": "Empire Services",
    "rowid": "1121065",
    "final_x": "3681844.61109",
    "final_y": "529330.553473",
    "longitude": "-90.06705856595816",
    "latitude": "29.949464977641632",
    "geocoded_column": {
      "latitude": "29.949464977641632",
      "longitude": "-90.06705856595816"
    }
  },
  {
    "service_request": "2024-1121064",
    "request_type": "Property Maintenance",
    "request_reason": "Property Maintenance",
    "date_created": "2024-08-12T15:33:15.000",
    "date_modified": "2024-08-12T15:33:16.000",
    "request_status": "Pending",
    "responsible_agency": "Department of Code Enforcement",
    "final_address": "2208 Ap Tureaud Ave",
    "address_councildis": "D",
    "status": "Pending",
    "rowid": "1121064",
    "final_x": "3681599.02216",
    "final_y": "540207.714507",
    "longitude": "-90.06745458031607",
    "latitude": "29.97938090375708",
    "geocoded_column": {
      "latitude": "29.97938090375708",
      "longitude": "-90.06745458031607"
    }
  },
  {
    "service_request": "2024-1121063",
    "request_type": "Property Maintenance",
    "request_reason": "Property Maintenance",
    "date_created": "2024-08-12T15:29:30.000",
    "date_modified": "2024-08-12T15:29:31.000",
    "request_status": "Pending",
    "responsible_agency": "Department of Code Enforcement",
    "final_address": "2025 Mazant St",
    "address_councildis": "D",
    "status": "Pending",
    "rowid": "1121063",
    "final_x": "3693032.95766",
    "final_y": "538792.677321",
    "longitude": "-90.03139261996587",
    "latitude": "29.975137773665143",
    "geocoded_column": {
      "latitude": "29.975137773665143",
      "longitude": "-90.03139261996587"
    }
  },
  {
    "service_request": "2024-1121062",
    "request_type": "Trash/Recycling",
    "request_reason": "Request a Large Item Pick Up",
    "date_created": "2024-08-12T15:29:01.000",
    "date_modified": "2024-08-12T15:29:02.000",
    "request_status": "Pending",
    "responsible_agency": "Department of Sanitation",
    "final_address": "7540 Hickman St",
    "address_councildis": "E",
    "status": "Assigned to Contractor",
    "contractor": "Waste Pro",
    "rowid": "1121062",
    "final_x": "3706166.93777",
    "final_y": "563123.526048",
    "longitude": "-89.98901089207631",
    "latitude": "30.041621442120622",
    "geocoded_column": {
      "latitude": "30.041621442120622",
      "longitude": "-89.98901089207631"
    }
  },
  {
    "service_request": "2024-1121061",
    "request_type": "Trash/Recycling",
    "request_reason": "Request a Large Item Pick Up",
    "date_created": "2024-08-12T15:28:51.000",
    "date_modified": "2024-08-12T15:28:52.000",
    "request_status": "Pending",
    "responsible_agency": "Department of Sanitation",
    "final_address": "2261 Industry St",
    "address_councildis": "D",
    "status": "Assigned to Contractor",
    "contractor": "IV Waste",
    "rowid": "1121061",
    "final_x": "3685072.44956",
    "final_y": "543085.746189",
    "longitude": "-90.05638284084388",
    "latitude": "29.987188505105753",
    "geocoded_column": {
      "latitude": "29.987188505105753",
      "longitude": "-90.05638284084388"
    }
  },
  {
    "service_request": "2024-1121060",
    "request_type": "Trash/Recycling",
    "request_reason": "Repair Trash Cart",
    "date_created": "2024-08-12T15:28:35.000",
    "date_modified": "2024-08-12T15:28:36.000",
    "request_status": "Pending",
    "responsible_agency": "Department of Sanitation",
    "final_address": "7540 Hickman St",
    "address_councildis": "E",
    "status": "Assigned to Contractor",
    "contractor": "Waste Pro",
    "rowid": "1121060",
    "final_x": "3706166.93777",
    "final_y": "563123.526048",
    "longitude": "-89.98901089207631",
    "latitude": "30.041621442120622",
    "geocoded_column": {
      "latitude": "30.041621442120622",
      "longitude": "-89.98901089207631"
    }
  },
  {
    "service_request": "2024-1121059",
    "request_type": "Parks & Parkways",
    "request_reason": "Request Tree Service (Right of Way/Public Property)",
    "date_created": "2024-08-12T15:27:55.000",
    "date_modified": "2024-08-12T15:27:56.000",
    "request_status": "Pending",
    "responsible_agency": "Department of Parks & Parkway",
    "final_address": "1729 Pine St",
    "address_councildis": "A",
    "status": "Pending",
    "rowid": "1121059",
    "final_x": "3665059.87917",
    "final_y": "528288.264768",
    "longitude": "-90.12009057302024",
    "latitude": "29.947098380138822",
    "geocoded_column": {
      "latitude": "29.947098380138822",
      "longitude": "-90.12009057302024"
    }
  },
  {
    "service_request": "2024-1121058",
    "request_type": "Trash/Recycling",
    "request_reason": "Illegal Dumping",
    "date_created": "2024-08-12T15:25:25.000",
    "date_modified": "2024-08-12T15:25:26.000",
    "request_status": "Pending",
    "responsible_agency": "Department of Sanitation",
    "final_address": "1229 Lauradale Dr",
    "address_councildis": "C",
    "status": "Pending",
    "rowid": "1121058",
    "final_x": "3692775.46768",
    "final_y": "526689.195198",
    "longitude": "-90.03263975630162",
    "latitude": "29.94186547427844",
    "geocoded_column": {
      "latitude": "29.94186547427844",
      "longitude": "-90.03263975630162"
    }
  },
  {
    "service_request": "2024-1121057",
    "request_type": "Parks & Parkways",
    "request_reason": "Request Tree Service (Right of Way/Public Property)",
    "date_created": "2024-08-12T15:25:02.000",
    "date_modified": "2024-08-12T15:25:02.000",
    "request_status": "Pending",
    "responsible_agency": "Department of Parks & Parkway",
    "final_address": "211 W Brooks St",
    "address_councildis": "A",
    "status": "Pending",
    "rowid": "1121057",
    "final_x": "3665502.09261",
    "final_y": "546650.909265",
    "longitude": "-90.11807943375858",
    "latitude": "29.997576662679382",
    "geocoded_column": {
      "latitude": "29.997576662679382",
      "longitude": "-90.11807943375858"
    }
  },
  {
    "service_request": "2024-1121055",
    "request_type": "Trash/Recycling",
    "request_reason": "Illegal Dumping",
    "date_created": "2024-08-12T15:22:45.000",
    "date_modified": "2024-08-12T15:22:46.000",
    "request_status": "Pending",
    "responsible_agency": "Department of Sanitation",
    "final_address": "14801 S Little Woods Dr",
    "address_councildis": "E",
    "status": "Pending",
    "rowid": "1121055",
    "final_x": "3720094.61254",
    "final_y": "574837.714795",
    "longitude": "-89.94454619391752",
    "latitude": "30.073373934451446",
    "geocoded_column": {
      "latitude": "30.073373934451446",
      "longitude": "-89.94454619391752"
    }
  },
  {
    "service_request": "2024-1121054",
    "request_type": "Roads/Drainage",
    "request_reason": "Pothole",
    "date_created": "2024-08-12T15:21:57.000",
    "date_modified": "2024-08-12T15:22:15.000",
    "request_status": "Pending",
    "responsible_agency": "Department of Public Works",
    "final_address": "13043 Deauville Ct",
    "address_councildis": "E",
    "status": "Pending",
    "rowid": "1121054",
    "final_x": "3724105.20902",
    "final_y": "560806.126238",
    "longitude": "-89.93240971874525",
    "latitude": "30.034658672494356",
    "geocoded_column": {
      "latitude": "30.034658672494356",
      "longitude": "-89.93240971874525"
    }
  },
  {
    "service_request": "2024-1121053",
    "request_type": "Property Maintenance",
    "request_reason": "Property Maintenance",
    "date_created": "2024-08-12T15:21:34.000",
    "date_modified": "2024-08-12T15:21:34.000",
    "request_status": "Pending",
    "responsible_agency": "Department of Code Enforcement",
    "final_address": "2712 Verbena St",
    "address_councildis": "D",
    "status": "Pending",
    "rowid": "1121053",
    "final_x": "3687851.9174",
    "final_y": "547781.698898",
    "longitude": "-90.04743705914153",
    "latitude": "30.00001522298953",
    "geocoded_column": {
      "latitude": "30.00001522298953",
      "longitude": "-90.04743705914153"
    }
  },
  {
    "service_request": "2024-1121052",
    "request_type": "Property Maintenance",
    "request_reason": "Property Maintenance",
    "date_created": "2024-08-12T15:20:25.000",
    "date_modified": "2024-08-12T15:21:54.000",
    "request_status": "Pending",
    "responsible_agency": "Department of Code Enforcement",
    "final_address": "2754 Verbena St",
    "address_councildis": "D",
    "status": "Pending",
    "rowid": "1121052",
    "final_x": "3688206.24169",
    "final_y": "547850.294674",
    "longitude": "-90.04631530040649",
    "latitude": "30.000192898243487",
    "geocoded_column": {
      "latitude": "30.000192898243487",
      "longitude": "-90.04631530040649"
    }
  },
  {
    "service_request": "2024-1121051",
    "request_type": "Safety & Permits",
    "request_reason": "Licenses & Permits",
    "date_created": "2024-08-12T15:18:54.000",
    "date_modified": "2024-08-12T15:18:54.000",
    "request_status": "Pending",
    "responsible_agency": "Safety and Permits",
    "final_address": "3035 Piety St",
    "address_councildis": "D",
    "status": "Pending",
    "rowid": "1121051",
    "final_x": "3691826.88758",
    "final_y": "543580.005006",
    "longitude": "-90.03503037595546",
    "latitude": "29.988338835411234",
    "geocoded_column": {
      "latitude": "29.988338835411234",
      "longitude": "-90.03503037595546"
    }
  },
  {
    "service_request": "2024-1121050",
    "request_type": "Trash/Recycling",
    "request_reason": "Request a Large Item Pick Up",
    "date_created": "2024-08-12T15:17:17.000",
    "date_modified": "2024-08-12T15:17:18.000",
    "request_status": "Pending",
    "responsible_agency": "Department of Sanitation",
    "final_address": "727 Flood St",
    "address_councildis": "E",
    "status": "Assigned to Contractor",
    "contractor": "Waste Pro",
    "rowid": "1121050",
    "final_x": "3697388.53053",
    "final_y": "532564.965892",
    "longitude": "-90.01786246349012",
    "latitude": "29.957876992397072",
    "geocoded_column": {
      "latitude": "29.957876992397072",
      "longitude": "-90.01786246349012"
    }
  },
  {
    "service_request": "2024-1121049",
    "request_type": "Trash/Recycling",
    "request_reason": "MIssed Recycling Pick-Up",
    "date_created": "2024-08-12T15:15:46.000",
    "date_modified": "2024-08-12T15:15:47.000",
    "request_status": "Pending",
    "responsible_agency": "Department of Sanitation",
    "final_address": "4662 Alcee Fortier Blvd",
    "address_councildis": "E",
    "status": "Assigned to Contractor",
    "contractor": "Waste Pro",
    "rowid": "1121049",
    "final_x": "3730462.5193",
    "final_y": "561927.853599",
    "longitude": "-89.91227605550334",
    "latitude": "30.037527708137656",
    "geocoded_column": {
      "latitude": "30.037527708137656",
      "longitude": "-89.91227605550334"
    }
  },
  {
    "service_request": "2024-1121048",
    "request_type": "Trash/Recycling",
    "request_reason": "Illegal Dumping",
    "date_created": "2024-08-12T15:12:41.000",
    "date_modified": "2024-08-12T15:12:42.000",
    "request_status": "Pending",
    "responsible_agency": "Department of Sanitation",
    "final_address": "9942 Chef Menteur Hwy",
    "address_councildis": "E",
    "status": "Pending",
    "rowid": "1121048",
    "final_x": "3712529.63448",
    "final_y": "554596.680152",
    "longitude": "-89.96922345505435",
    "latitude": "30.017969210196433",
    "geocoded_column": {
      "latitude": "30.017969210196433",
      "longitude": "-89.96922345505435"
    }
  },
  {
    "service_request": "2024-1121047",
    "request_type": "Roads/Drainage",
    "request_reason": "Debris in Roadway",
    "date_created": "2024-08-12T15:09:13.000",
    "date_modified": "2024-08-12T15:09:14.000",
    "request_status": "Pending",
    "responsible_agency": "Department of Public Works",
    "final_address": "CHEF MENTEUR HWY & DOWNMAN RD & CHEF MENTEUR BRIDGE",
    "address_councildis": "D",
    "status": "Pending",
    "rowid": "1121047",
    "final_x": "3696211.9",
    "final_y": "551507.88",
    "longitude": "-90.02089277553281",
    "latitude": "30.010000220946775",
    "geocoded_column": {
      "latitude": "30.010000220946775",
      "longitude": "-90.02089277553281"
    }
  },
  {
    "service_request": "2024-1121046",
    "request_type": "Roads/Drainage",
    "request_reason": "Pothole",
    "date_created": "2024-08-12T15:05:38.000",
    "date_modified": "2024-08-12T15:05:38.000",
    "request_status": "Pending",
    "responsible_agency": "Department of Public Works",
    "final_address": "0 BLK Audubon Blvd",
    "address_councildis": "A",
    "status": "Pending",
    "rowid": "1121046",
    "final_x": "3665721.60225",
    "final_y": "527591.816651",
    "longitude": "-90.11802457989006",
    "latitude": "29.945164090388623",
    "geocoded_column": {
      "latitude": "29.945164090388623",
      "longitude": "-90.11802457989006"
    }
  },
  {
    "service_request": "2024-1121045",
    "request_type": "Trash/Recycling",
    "request_reason": "Request a Large Item Pick Up",
    "date_created": "2024-08-12T15:02:30.000",
    "date_modified": "2024-08-12T15:02:31.000",
    "request_status": "Pending",
    "responsible_agency": "Department of Sanitation",
    "final_address": "4217 Vincennes Pl",
    "address_councildis": "B",
    "status": "Assigned to Contractor",
    "contractor": "IV Waste",
    "rowid": "1121045",
    "final_x": "3668809.25614",
    "final_y": "531353.570434",
    "longitude": "-90.10814886511454",
    "latitude": "29.955417275911277",
    "geocoded_column": {
      "latitude": "29.955417275911277",
      "longitude": "-90.10814886511454"
    }
  },
  {
    "service_request": "2024-1121044",
    "request_type": "Trash/Recycling",
    "request_reason": "MIssed Recycling Pick-Up",
    "date_created": "2024-08-12T15:01:58.000",
    "date_modified": "2024-08-12T15:38:28.000",
    "case_close_date": "2024-08-12T10:38:28.000",
    "request_status": "Closed",
    "responsible_agency": "Department of Sanitation",
    "final_address": "2913 Gravier St",
    "address_councildis": "B",
    "status": "Invalid Request",
    "contractor": "IV Waste",
    "contractor_action": "Invalid",
    "rowid": "1121044",
    "final_x": "3673082.90004",
    "final_y": "533912.740421",
    "longitude": "-90.09456685960517",
    "latitude": "29.962327800244715",
    "geocoded_column": {
      "latitude": "29.962327800244715",
      "longitude": "-90.09456685960517"
    }
  },
  {
    "service_request": "2024-1121043",
    "request_type": "Trash/Recycling",
    "request_reason": "Repair Trash Cart",
    "date_created": "2024-08-12T15:01:33.000",
    "date_modified": "2024-08-12T15:56:31.000",
    "request_status": "Pending",
    "responsible_agency": "Department of Sanitation",
    "final_address": "5626 St Claude Ave",
    "address_councildis": "E",
    "contractor": "Waste Pro",
    "rowid": "1121043",
    "final_x": "3698258.88291",
    "final_y": "533657.654341",
    "longitude": "-90.01507445890039",
    "latitude": "29.960853994599557",
    "geocoded_column": {
      "latitude": "29.960853994599557",
      "longitude": "-90.01507445890039"
    }
  },
  {
    "service_request": "2024-1121042",
    "request_type": "Trash/Recycling",
    "request_reason": "Request a Large Item Pick Up",
    "date_created": "2024-08-12T15:01:03.000",
    "date_modified": "2024-08-12T15:01:04.000",
    "request_status": "Pending",
    "responsible_agency": "Department of Sanitation",
    "final_address": "4217 Vincennes Pl",
    "address_councildis": "B",
    "status": "Assigned to Contractor",
    "contractor": "IV Waste",
    "rowid": "1121042",
    "final_x": "3668809.25614",
    "final_y": "531353.570434",
    "longitude": "-90.10814886511454",
    "latitude": "29.955417275911277",
    "geocoded_column": {
      "latitude": "29.955417275911277",
      "longitude": "-90.10814886511454"
    }
  },
  {
    "service_request": "2024-1121041",
    "request_type": "Trash/Recycling",
    "request_reason": "Replace Trash Cart",
    "date_created": "2024-08-12T14:59:53.000",
    "date_modified": "2024-08-12T15:49:29.000",
    "request_status": "Pending",
    "responsible_agency": "Department of Sanitation",
    "final_address": "5624 St Claude Ave",
    "address_councildis": "E",
    "status": "Assigned to Contractor",
    "contractor": "Waste Pro",
    "rowid": "1121041",
    "final_x": "3698241.15562",
    "final_y": "533661.781701",
    "longitude": "-90.01513028803483",
    "latitude": "29.96086590414659",
    "geocoded_column": {
      "latitude": "29.96086590414659",
      "longitude": "-90.01513028803483"
    }
  },
  {
    "service_request": "2024-1121040",
    "request_type": "Traffic Signals/Signs/Striping/Streetlights",
    "request_reason": "Traffic Sign Missing/Damaged",
    "date_created": "2024-08-12T14:59:37.000",
    "date_modified": "2024-08-12T14:59:37.000",
    "request_status": "Pending",
    "responsible_agency": "Department of Public Works",
    "final_address": "GIBSON ST & SERE ST",
    "address_councildis": "D",
    "status": "Pending",
    "rowid": "1121040",
    "final_x": "3678904.8",
    "final_y": "545452.08",
    "longitude": "-90.07578221476106",
    "latitude": "29.993882644605648",
    "geocoded_column": {
      "latitude": "29.993882644605648",
      "longitude": "-90.07578221476106"
    }
  },
  {
    "service_request": "2024-1121039",
    "request_type": "Trash/Recycling",
    "request_reason": "Illegal Dumping",
    "date_created": "2024-08-12T14:57:46.000",
    "date_modified": "2024-08-12T14:57:47.000",
    "request_status": "Pending",
    "responsible_agency": "Department of Sanitation",
    "final_address": "8120 Lomond Rd",
    "address_councildis": "E",
    "status": "Pending",
    "rowid": "1121039",
    "final_x": "3702677.39095",
    "final_y": "561481.336479",
    "longitude": "-90.00009944815555",
    "latitude": "30.037218173111096",
    "geocoded_column": {
      "latitude": "30.037218173111096",
      "longitude": "-90.00009944815555"
    }
  },
  {
    "service_request": "2024-1121038",
    "request_type": "Abandoned Vehicles",
    "request_reason": "Abandoned/Junk Vehicles",
    "date_created": "2024-08-12T14:56:38.000",
    "date_modified": "2024-08-12T14:56:38.000",
    "request_status": "Pending",
    "responsible_agency": "Department of Public Works",
    "final_address": "7289 Canal Blvd",
    "address_councildis": "D",
    "status": "Pending",
    "rowid": "1121038",
    "final_x": "3669382.17786",
    "final_y": "555493.860761",
    "longitude": "-90.10552298733997",
    "latitude": "30.02177795228603",
    "geocoded_column": {
      "latitude": "30.02177795228603",
      "longitude": "-90.10552298733997"
    }
  },
  {
    "service_request": "2024-1121037",
    "request_type": "Trash/Recycling",
    "request_reason": "Order Trash Cart",
    "date_created": "2024-08-12T14:56:22.000",
    "date_modified": "2024-08-12T14:56:23.000",
    "request_status": "Pending",
    "responsible_agency": "Department of Sanitation",
    "final_address": "954 Picheloup Pl",
    "address_councildis": "A",
    "status": "Assigned to Contractor",
    "contractor": "IV Waste",
    "rowid": "1121037",
    "final_x": "3673672.09422",
    "final_y": "540663.330187",
    "longitude": "-90.09247541489243",
    "latitude": "29.980872106578",
    "geocoded_column": {
      "latitude": "29.980872106578",
      "longitude": "-90.09247541489243"
    }
  },
  {
    "service_request": "2024-1121036",
    "request_type": "Trash/Recycling",
    "request_reason": "Request a Large Item Pick Up",
    "date_created": "2024-08-12T14:56:02.000",
    "date_modified": "2024-08-12T14:56:03.000",
    "request_status": "Pending",
    "responsible_agency": "Department of Sanitation",
    "final_address": "7451 Bullard Ave",
    "address_councildis": "E",
    "status": "Assigned to Contractor",
    "contractor": "Waste Pro",
    "rowid": "1121036",
    "final_x": "3713565.55685",
    "final_y": "566964.363812",
    "longitude": "-89.96548388924016",
    "latitude": "30.051941440478178",
    "geocoded_column": {
      "latitude": "30.051941440478178",
      "longitude": "-89.96548388924016"
    }
  },
  {
    "service_request": "2024-1121035",
    "request_type": "Trash/Recycling",
    "request_reason": "Order Trash Cart",
    "date_created": "2024-08-12T14:55:53.000",
    "date_modified": "2024-08-12T14:55:53.000",
    "request_status": "Pending",
    "responsible_agency": "Department of Sanitation",
    "final_address": "952 Picheloup Pl",
    "address_councildis": "A",
    "status": "Assigned to Contractor",
    "contractor": "IV Waste",
    "rowid": "1121035",
    "final_x": "3673669.5028",
    "final_y": "540647.780299",
    "longitude": "-90.09248413161617",
    "latitude": "29.98082942687662",
    "geocoded_column": {
      "latitude": "29.98082942687662",
      "longitude": "-90.09248413161617"
    }
  },
  {
    "service_request": "2024-1121034",
    "request_type": "Property Maintenance",
    "request_reason": "Property Maintenance",
    "date_created": "2024-08-12T14:55:50.000",
    "date_modified": "2024-08-12T14:55:50.000",
    "request_status": "Pending",
    "responsible_agency": "Department of Code Enforcement",
    "final_address": "8601 Gervais St",
    "address_councildis": "E",
    "status": "Pending",
    "rowid": "1121034",
    "final_x": "3703875.73354",
    "final_y": "562771.737952",
    "longitude": "-89.99626485659405",
    "latitude": "30.040727876634456",
    "geocoded_column": {
      "latitude": "30.040727876634456",
      "longitude": "-89.99626485659405"
    }
  },
  {
    "service_request": "2024-1121033",
    "request_type": "Trash/Recycling",
    "request_reason": "Request a Large Item Pick Up",
    "date_created": "2024-08-12T14:53:16.000",
    "date_modified": "2024-08-12T14:53:17.000",
    "request_status": "Pending",
    "responsible_agency": "Department of Sanitation",
    "final_address": "7542 Surf St",
    "address_councildis": "E",
    "status": "Assigned to Contractor",
    "contractor": "Waste Pro",
    "rowid": "1121033",
    "final_x": "3715664.75756",
    "final_y": "568893.985253",
    "longitude": "-89.95877587074581",
    "latitude": "30.05717803598379",
    "geocoded_column": {
      "latitude": "30.05717803598379",
      "longitude": "-89.95877587074581"
    }
  },
  {
    "service_request": "2024-1121032",
    "request_type": "Property Maintenance",
    "request_reason": "Property Maintenance",
    "date_created": "2024-08-12T14:51:44.000",
    "date_modified": "2024-08-12T14:51:45.000",
    "request_status": "Pending",
    "responsible_agency": "Department of Code Enforcement",
    "final_address": "1700 BLK Deslonde St",
    "address_councildis": "E",
    "status": "Pending",
    "rowid": "1121032",
    "final_x": "3696058.21349",
    "final_y": "536833.447774",
    "longitude": "-90.02190893989771",
    "latitude": "29.96965573083764",
    "geocoded_column": {
      "latitude": "29.96965573083764",
      "longitude": "-90.02190893989771"
    }
  },
  {
    "service_request": "2024-1121031",
    "request_type": "Trash/Recycling",
    "request_reason": "Request a Large Item Pick Up",
    "date_created": "2024-08-12T14:49:51.000",
    "date_modified": "2024-08-12T14:49:52.000",
    "request_status": "Pending",
    "responsible_agency": "Department of Sanitation",
    "final_address": "2623 Cleveland Ave",
    "address_councildis": "B",
    "status": "Assigned to Contractor",
    "contractor": "IV Waste",
    "rowid": "1121031",
    "final_x": "3675451.58869",
    "final_y": "534589.078469",
    "longitude": "-90.08706364354376",
    "latitude": "29.964116876399345",
    "geocoded_column": {
      "latitude": "29.964116876399345",
      "longitude": "-90.08706364354376"
    }
  },
  {
    "service_request": "2024-1121030",
    "request_type": "Trash/Recycling",
    "request_reason": "Request a Large Item Pick Up",
    "date_created": "2024-08-12T14:49:33.000",
    "date_modified": "2024-08-12T14:49:34.000",
    "request_status": "Pending",
    "responsible_agency": "Department of Sanitation",
    "final_address": "7151 Wayside Dr",
    "address_councildis": "E",
    "status": "Assigned to Contractor",
    "contractor": "Waste Pro",
    "rowid": "1121030",
    "final_x": "3717459.73797",
    "final_y": "568188.086501",
    "longitude": "-89.95312913296327",
    "latitude": "30.055177777562037",
    "geocoded_column": {
      "latitude": "30.055177777562037",
      "longitude": "-89.95312913296327"
    }
  },
  {
    "service_request": "2024-1121029",
    "request_type": "Trash/Recycling",
    "request_reason": "Illegal Dumping",
    "date_created": "2024-08-12T14:46:46.000",
    "date_modified": "2024-08-12T14:46:47.000",
    "request_status": "Pending",
    "responsible_agency": "Department of Sanitation",
    "final_address": "8120 Lomond Rd",
    "address_councildis": "E",
    "status": "Pending",
    "rowid": "1121029",
    "final_x": "3702677.39095",
    "final_y": "561481.336479",
    "longitude": "-90.00009944815555",
    "latitude": "30.037218173111096",
    "geocoded_column": {
      "latitude": "30.037218173111096",
      "longitude": "-90.00009944815555"
    }
  },
  {
    "service_request": "2024-1121028",
    "request_type": "Property Maintenance",
    "request_reason": "Property Maintenance",
    "date_created": "2024-08-12T14:44:48.000",
    "date_modified": "2024-08-12T14:44:49.000",
    "request_status": "Pending",
    "responsible_agency": "Department of Code Enforcement",
    "final_address": "4742 Viola St",
    "address_councildis": "E",
    "status": "Pending",
    "rowid": "1121028",
    "final_x": "3703923.0641",
    "final_y": "555192.320409",
    "longitude": "-89.9963947603384",
    "latitude": "30.019885911427973",
    "geocoded_column": {
      "latitude": "30.019885911427973",
      "longitude": "-89.9963947603384"
    }
  },
  {
    "service_request": "2024-1121027",
    "request_type": "Property Maintenance",
    "request_reason": "Property Maintenance",
    "date_created": "2024-08-12T14:41:57.000",
    "date_modified": "2024-08-12T14:41:57.000",
    "request_status": "Pending",
    "responsible_agency": "Department of Code Enforcement",
    "final_address": "6500 Downman Rd",
    "address_councildis": "D",
    "status": "Pending",
    "rowid": "1121027",
    "final_x": "3695753.07664",
    "final_y": "554729.306904",
    "longitude": "-90.02222590285102",
    "latitude": "30.018872378259662",
    "geocoded_column": {
      "latitude": "30.018872378259662",
      "longitude": "-90.02222590285102"
    }
  },
  {
    "service_request": "2024-1121026",
    "request_type": "Roads/Drainage",
    "request_reason": "Catch Basin - Broken/Damage",
    "date_created": "2024-08-12T14:41:10.000",
    "date_modified": "2024-08-12T14:41:11.000",
    "request_status": "Pending",
    "responsible_agency": "Department of Public Works",
    "final_address": "4026 Walmsley Ave",
    "address_councildis": "B",
    "status": "Pending",
    "rowid": "1121026",
    "final_x": "3670463.88097",
    "final_y": "529483.279873",
    "longitude": "-90.10298755861538",
    "latitude": "29.95022584128906",
    "geocoded_column": {
      "latitude": "29.95022584128906",
      "longitude": "-90.10298755861538"
    }
  },
  {
    "service_request": "2024-1121025",
    "request_type": "Trash/Recycling",
    "request_reason": "Request a Large Item Pick Up",
    "date_created": "2024-08-12T14:38:40.000",
    "date_modified": "2024-08-12T14:39:51.000",
    "request_status": "Pending",
    "responsible_agency": "Department of Sanitation",
    "final_address": "5533 S Tonti St",
    "address_councildis": "A",
    "status": "Assigned to Contractor",
    "contractor": "IV Waste",
    "rowid": "1121025",
    "final_x": "3668218.64916",
    "final_y": "528156.668479",
    "longitude": "-90.11012155691748",
    "latitude": "29.94664419020916",
    "geocoded_column": {
      "latitude": "29.94664419020916",
      "longitude": "-90.11012155691748"
    }
  },