[
  {
    "service_request": "2023-985149",
    "request_type": "Trash/Recycling",
    "request_reason": "Missed Trash Pick-Up",
    "date_created": "2023-03-22T22:46:32.000",
    "date_modified": "2023-03-22T22:46:33.000",
    "request_status": "Pending",
    "responsible_agency": "Department of Sanitation",
    "final_address": "1444 Henry Clay Ave",
    "address_councildis": "A",
    "status": "Assigned to Contractor",
    "contractor": "Richards Disposal",
    "rowid": "985149",
    "final_x": "3664631.57056",
    "final_y": "521882.417978",
    "longitude": "-90.12165678729914",
    "latitude": "29.929496806635754",
    "geocoded_column": {
      "latitude": "29.929496806635754",
      "longitude": "-90.12165678729914"
    }
  },
  {
    "service_request": "2023-985148",
    "request_type": "Abandoned Vehicles",
    "request_reason": "Abandoned/Junk Vehicles",
    "date_created": "2023-03-22T22:36:49.000",
    "date_modified": "2023-03-22T22:36:49.000",
    "request_status": "Pending",
    "responsible_agency": "Department of Public Works",
    "final_address": "11031 Roger Dr",
    "address_councildis": "E",
    "status": "Pending",
    "rowid": "985148",
    "final_x": "3712306.51883",
    "final_y": "563607.228769",
    "longitude": "-89.96958956922946",
    "latitude": "30.04275194361198",
    "geocoded_column": {
      "latitude": "30.04275194361198",
      "longitude": "-89.96958956922946"
    }
  },
  {
    "service_request": "2023-985147",
    "request_type": "Traffic Signals/Signs/Striping/Streetlights",
    "request_reason": "Street Light Outage/Malfunction",
    "date_created": "2023-03-22T22:32:49.000",
    "date_modified": "2023-03-22T22:32:50.000",
    "request_status": "Pending",
    "responsible_agency": "Department of Public Works",
    "final_address": "120 Mound Ave",
    "address_councildis": "A",
    "status": "Assigned to Contractor",
    "contractor": "Legacy Professional Services",
    "rowid": "985147",
    "final_x": "3666452.02093",
    "final_y": "543838.548622",
    "longitude": "-90.11517307446007",
    "latitude": "29.989815896447553",
    "geocoded_column": {
      "latitude": "29.989815896447553",
      "longitude": "-90.11517307446007"
    }
  },
  {
    "service_request": "2023-985146",
    "request_type": "Trash/Recycling",
    "request_reason": "Illegal Dumping",
    "date_created": "2023-03-22T22:29:48.000",
    "date_modified": "2023-03-22T22:29:48.000",
    "request_status": "Pending",
    "responsible_agency": "Department of Sanitation",
    "final_address": "11031 Roger Dr Apt B",
    "address_councildis": "E",
    "status": "Pending",
    "rowid": "985146",
    "final_x": "3712273.41797",
    "final_y": "563644.727905",
    "longitude": "-89.96969276981577",
    "latitude": "30.04285613432818",
    "geocoded_column": {
      "latitude": "30.04285613432818",
      "longitude": "-89.96969276981577"
    }
  },
  {
    "service_request": "2023-985144",
    "request_type": "Trash/Recycling",
    "request_reason": "Illegal Dumping",
    "date_created": "2023-03-22T22:25:28.000",
    "date_modified": "2023-03-22T22:25:28.000",
    "request_status": "Pending",
    "responsible_agency": "Department of Sanitation",
    "final_address": "Behind 11031 Roger Drive ",
    "status": "Pending",
    "rowid": "985144",
    "longitude": "0.0",
    "latitude": "0.0",
    "geocoded_column": {
      "latitude": "0.0",
      "longitude": "0.0"
    }
  },
  {
    "service_request": "2023-985143",
    "request_type": "Abandoned Vehicles",
    "request_reason": "Abandoned/Junk Vehicles",
    "date_created": "2023-03-22T22:11:03.000",
    "date_modified": "2023-03-22T22:11:03.000",
    "request_status": "Pending",
    "responsible_agency": "Department of Public Works",
    "final_address": "2215 S Liberty St",
    "address_councildis": "B",
    "status": "Pending",
    "rowid": "985143",
    "final_x": "3675867.34491",
    "final_y": "525760.909629",
    "longitude": "-90.08605418659143",
    "latitude": "29.93982991213108",
    "geocoded_column": {
      "latitude": "29.93982991213108",
      "longitude": "-90.08605418659143"
    }
  },
  {
    "service_request": "2023-985142",
    "request_type": "Trash/Recycling",
    "request_reason": "Request a Large Item Pick Up",
    "date_created": "2023-03-22T21:53:51.000",
    "date_modified": "2023-03-22T21:53:51.000",
    "request_status": "Pending",
    "responsible_agency": "Department of Sanitation",
    "final_address": "4717 Stemway Dr",
    "address_councildis": "D",
    "status": "Assigned to Contractor",
    "contractor": "Waste Pro",
    "rowid": "985142",
    "final_x": "3696995.31242",
    "final_y": "554083.43868",
    "longitude": "-90.01832431850424",
    "latitude": "30.01705734277201",
    "geocoded_column": {
      "latitude": "30.01705734277201",
      "longitude": "-90.01832431850424"
    }
  },
  {
    "service_request": "2023-985140",
    "request_type": "Trash/Recycling",
    "request_reason": "MIssed Recycling Pick-Up",
    "date_created": "2023-03-22T21:34:25.000",
    "date_modified": "2023-03-22T21:34:26.000",
    "request_status": "Pending",
    "responsible_agency": "Department of Sanitation",
    "final_address": "1438 Melpomene St, New Orleans, Louisiana, 70130",
    "address_councildis": "B",
    "status": "Assigned to Contractor",
    "contractor": "Richards Disposal",
    "rowid": "985140",
    "final_x": "3679703.83503",
    "final_y": "525164.307389",
    "longitude": "-90.07396253729813",
    "latitude": "29.938074066444944",
    "geocoded_column": {
      "latitude": "29.938074066444944",
      "longitude": "-90.07396253729813"
    }
  },
  {
    "service_request": "2023-985139",
    "request_type": "Trash/Recycling",
    "request_reason": "Illegal Dumping",
    "date_created": "2023-03-22T21:09:17.000",
    "date_modified": "2023-03-22T21:09:17.000",
    "request_status": "Pending",
    "responsible_agency": "Department of Sanitation",
    "final_address": "5656 Tullis Dr",
    "address_councildis": "C",
    "status": "Pending",
    "rowid": "985139",
    "final_x": "3704877.57604",
    "final_y": "512557.587121",
    "longitude": "-89.99495231212946",
    "latitude": "29.902625167781785",
    "geocoded_column": {
      "latitude": "29.902625167781785",
      "longitude": "-89.99495231212946"
    }
  },
  {
    "service_request": "2023-985138",
    "request_type": "Trash/Recycling",
    "request_reason": "Illegal Dumping",
    "date_created": "2023-03-22T21:08:40.000",
    "date_modified": "2023-03-22T21:08:40.000",
    "request_status": "Pending",
    "responsible_agency": "Department of Sanitation",
    "final_address": "5656 Tullis Dr",
    "address_councildis": "C",
    "status": "Pending",
    "rowid": "985138",
    "final_x": "3704877.57604",
    "final_y": "512557.587121",
    "longitude": "-89.99495231212946",
    "latitude": "29.902625167781785",
    "geocoded_column": {
      "latitude": "29.902625167781785",
      "longitude": "-89.99495231212946"
    }
  },
  {
    "service_request": "2023-985137",
    "request_type": "Trash/Recycling",
    "request_reason": "Request a Large Item Pick Up",
    "date_created": "2023-03-22T21:02:56.000",
    "date_modified": "2023-03-22T21:02:57.000",
    "request_status": "Pending",
    "responsible_agency": "Department of Sanitation",
    "final_address": "5656 Tullis Dr",
    "address_councildis": "C",
    "status": "Assigned to Contractor",
    "contractor": "Richards Disposal",
    "rowid": "985137",
    "final_x": "3704877.57604",
    "final_y": "512557.587121",
    "longitude": "-89.99495231212946",
    "latitude": "29.902625167781785",
    "geocoded_column": {
      "latitude": "29.902625167781785",
      "longitude": "-89.99495231212946"
    }
  },
  {
    "service_request": "2023-985136",
    "request_type": "Traffic Signals/Signs/Striping/Streetlights",
    "request_reason": "Street Light Outage/Malfunction",
    "date_created": "2023-03-22T20:54:43.000",
    "date_modified": "2023-03-22T20:54:44.000",
    "request_status": "Pending",
    "responsible_agency": "Department of Public Works",
    "final_address": "3612 Dauphine St",
    "address_councildis": "C",
    "status": "Assigned to Contractor",
    "contractor": "Legacy Professional Services",
    "rowid": "985136",
    "final_x": "3690535.97411",
    "final_y": "534381.583813",
    "longitude": "-90.03943603450207",
    "latitude": "29.963086594982084",
    "geocoded_column": {
      "latitude": "29.963086594982084",
      "longitude": "-90.03943603450207"
    }
  },
  {
    "service_request": "2023-985135",
    "request_type": "Abandoned Vehicles",
    "request_reason": "Abandoned/Junk Vehicles",
    "date_created": "2023-03-22T20:53:31.000",
    "date_modified": "2023-03-22T20:53:31.000",
    "request_status": "Pending",
    "responsible_agency": "Department of Public Works",
    "final_address": "5664 Tullis Dr",
    "address_councildis": "C",
    "status": "Pending",
    "rowid": "985135",
    "final_x": "3704906.34238",
    "final_y": "512582.586673",
    "longitude": "-89.99486060559767",
    "latitude": "29.90269298412239",
    "geocoded_column": {
      "latitude": "29.90269298412239",
      "longitude": "-89.99486060559767"
    }
  },
  {
    "service_request": "2023-985134",
    "request_type": "Trash/Recycling",
    "request_reason": "Request a Large Item Pick Up",
    "date_created": "2023-03-22T20:49:46.000",
    "date_modified": "2023-03-22T20:49:47.000",
    "request_status": "Pending",
    "responsible_agency": "Department of Sanitation",
    "final_address": "4401 Joycelyn Dr",
    "address_councildis": "C",
    "status": "Assigned to Contractor",
    "contractor": "Richards Disposal",
    "rowid": "985134",
    "final_x": "3707969.74833",
    "final_y": "514528.008883",
    "longitude": "-89.98512043497223",
    "latitude": "29.90794347652955",
    "geocoded_column": {
      "latitude": "29.90794347652955",
      "longitude": "-89.98512043497223"
    }
  },
  {
    "service_request": "2023-985133",
    "request_type": "Roads/Drainage",
    "request_reason": "Street Subsidence (Sinking)",
    "date_created": "2023-03-22T20:40:22.000",
    "date_modified": "2023-03-22T20:40:22.000",
    "request_status": "Pending",
    "responsible_agency": "Department of Public Works",
    "final_address": "1624 River Oaks Dr",
    "address_councildis": "C",
    "status": "Pending",
    "rowid": "985133",
    "final_x": "3701754.20996",
    "final_y": "524565.0135",
    "longitude": "-90.00436997415856",
    "latitude": "29.935741414303262",
    "geocoded_column": {
      "latitude": "29.935741414303262",
      "longitude": "-90.00436997415856"
    }
  },
  {
    "service_request": "2023-985132",
    "request_type": "Traffic Signals/Signs/Striping/Streetlights",
    "request_reason": "Traffic Signal Malfunctioning/Damaged",
    "date_created": "2023-03-22T20:16:49.000",
    "date_modified": "2023-03-22T20:16:49.000",
    "request_status": "Pending",
    "responsible_agency": "Department of Public Works",
    "final_address": "701 Poydras St",
    "address_councildis": "B",
    "status": "Pending",
    "rowid": "985132",
    "final_x": "3680537.7684",
    "final_y": "529481.680385",
    "longitude": "-90.07117959742759",
    "latitude": "29.94992017179336",
    "geocoded_column": {
      "latitude": "29.94992017179336",
      "longitude": "-90.07117959742759"
    }
  },
  {
    "service_request": "2023-985131",
    "request_type": "Trash/Recycling",
    "request_reason": "Order Recycling Cart",
    "date_created": "2023-03-22T19:37:19.000",
    "date_modified": "2023-03-22T19:37:19.000",
    "request_status": "Pending",
    "responsible_agency": "Department of Sanitation",
    "final_address": "3319 Calhoun St",
    "address_councildis": "A",
    "status": "Pending",
    "rowid": "985131",
    "final_x": "3667541.25025",
    "final_y": "528941.343872",
    "longitude": "-90.11223395419094",
    "latitude": "29.948821659343388",
    "geocoded_column": {
      "latitude": "29.948821659343388",
      "longitude": "-90.11223395419094"
    }
  },
  {
    "service_request": "2023-985130",
    "request_type": "Roads/Drainage",
    "request_reason": "Pothole",
    "date_created": "2023-03-22T19:27:44.000",
    "date_modified": "2023-03-22T19:27:44.000",
    "request_status": "Pending",
    "responsible_agency": "Department of Public Works",
    "final_address": "937 France St",
    "address_councildis": "C",
    "status": "Pending",
    "rowid": "985130",
    "final_x": "3692288.57814",
    "final_y": "534642.14119",
    "longitude": "-90.033892212322",
    "latitude": "29.963748502443654",
    "geocoded_column": {
      "latitude": "29.963748502443654",
      "longitude": "-90.033892212322"
    }
  },
  {
    "service_request": "2023-985129",
    "request_type": "Trash/Recycling",
    "request_reason": "Order Trash Cart",
    "date_created": "2023-03-22T19:23:30.000",
    "date_modified": "2023-03-22T19:23:31.000",
    "request_status": "Pending",
    "responsible_agency": "Department of Sanitation",
    "final_address": "6115 S Hermes St",
    "address_councildis": "D",
    "status": "Assigned to Contractor",
    "contractor": "Waste Pro",
    "rowid": "985129",
    "final_x": "3696545.24067",
    "final_y": "555078.383897",
    "longitude": "-90.01971031337534",
    "latitude": "30.019807261011994",
    "geocoded_column": {
      "latitude": "30.019807261011994",
      "longitude": "-90.01971031337534"
    }
  },
  {
    "service_request": "2023-985128",
    "request_type": "Trash/Recycling",
    "request_reason": "Order Recycling Cart",
    "date_created": "2023-03-22T19:14:58.000",
    "date_modified": "2023-03-22T19:14:58.000",
    "request_status": "Pending",
    "responsible_agency": "Department of Sanitation",
    "final_address": "1619 S Liberty St",
    "address_councildis": "B",
    "status": "Pending",
    "rowid": "985128",
    "final_x": "3676673.81403",
    "final_y": "526562.668158",
    "longitude": "-90.08348043486053",
    "latitude": "29.942010320855633",
    "geocoded_column": {
      "latitude": "29.942010320855633",
      "longitude": "-90.08348043486053"
    }
  },
  {
    "service_request": "2023-985127",
    "request_type": "Trash/Recycling",
    "request_reason": "Missed Trash Pick-Up",
    "date_created": "2023-03-22T19:13:23.000",
    "date_modified": "2023-03-22T19:13:23.000",
    "request_status": "Pending",
    "responsible_agency": "Department of Sanitation",
    "final_address": "7901 Devine Ave",
    "address_councildis": "E",
    "status": "Assigned to Contractor",
    "contractor": "Waste Pro",
    "rowid": "985127",
    "final_x": "3705310.89745",
    "final_y": "563839.626145",
    "longitude": "-89.99168977325742",
    "latitude": "30.04361802092966",
    "geocoded_column": {
      "latitude": "30.04361802092966",
      "longitude": "-89.99168977325742"
    }
  },
  {
    "service_request": "2023-985126",
    "request_type": "Traffic Signals/Signs/Striping/Streetlights",
    "request_reason": "Additional signage",
    "date_created": "2023-03-22T19:06:59.000",
    "date_modified": "2023-03-22T19:06:59.000",
    "request_status": "Pending",
    "responsible_agency": "Department of Public Works",
    "final_address": "2119 Prytania St",
    "address_councildis": "B",
    "status": "Pending",
    "rowid": "985126",
    "final_x": "3678074.67893",
    "final_y": "523451.946107",
    "longitude": "-90.07916510117107",
    "latitude": "29.93341477031296",
    "geocoded_column": {
      "latitude": "29.93341477031296",
      "longitude": "-90.07916510117107"
    }
  },
  {
    "service_request": "2023-985125",
    "request_type": "Trash/Recycling",
    "request_reason": "MIssed Recycling Pick-Up",
    "date_created": "2023-03-22T18:48:30.000",
    "date_modified": "2023-03-22T18:48:31.000",
    "request_status": "Pending",
    "responsible_agency": "Department of Sanitation",
    "final_address": "1123 Louisiana Ave",
    "address_councildis": "B",
    "status": "Assigned to Contractor",
    "contractor": "Richards Disposal",
    "rowid": "985125",
    "final_x": "3675017.26952",
    "final_y": "519856.663736",
    "longitude": "-90.08894043886947",
    "latitude": "29.92362057005257",
    "geocoded_column": {
      "latitude": "29.92362057005257",
      "longitude": "-90.08894043886947"
    }
  },
  {
    "service_request": "2023-985124",
    "request_type": "Trash/Recycling",
    "request_reason": "MIssed Recycling Pick-Up",
    "date_created": "2023-03-22T18:43:41.000",
    "date_modified": "2023-03-22T18:43:42.000",
    "request_status": "Pending",
    "responsible_agency": "Department of Sanitation",
    "final_address": "4956 Painters St",
    "address_councildis": "D",
    "status": "Assigned to Contractor",
    "contractor": "IV Waste",
    "rowid": "985124",
    "final_x": "3686061.26358",
    "final_y": "551388.691797",
    "longitude": "-90.05296648630976",
    "latitude": "30.00998827755513",
    "geocoded_column": {
      "latitude": "30.00998827755513",
      "longitude": "-90.05296648630976"
    }
  },
  {
    "service_request": "2023-985123",
    "request_type": "Abandoned Vehicles",
    "request_reason": "Abandoned/Junk Vehicles",
    "date_created": "2023-03-22T18:31:48.000",
    "date_modified": "2023-03-22T18:31:48.000",
    "request_status": "Pending",
    "responsible_agency": "Department of Public Works",
    "final_address": "4501 Perrier St",
    "address_councildis": "B",
    "status": "Pending",
    "rowid": "985123",
    "final_x": "3670477.05761",
    "final_y": "520070.678584",
    "longitude": "-90.10326500071153",
    "latitude": "29.924343840588588",
    "geocoded_column": {
      "latitude": "29.924343840588588",
      "longitude": "-90.10326500071153"
    }
  },
  {
    "service_request": "2023-985122",
    "request_type": "Trash/Recycling",
    "request_reason": "Missed Trash Pick-Up",
    "date_created": "2023-03-22T18:28:19.000",
    "date_modified": "2023-03-22T18:28:20.000",
    "request_status": "Pending",
    "responsible_agency": "Department of Sanitation",
    "final_address": "1138 Josephine St, New Orleans, Louisiana, 70130",
    "address_councildis": "B",
    "status": "Assigned to Contractor",
    "contractor": "Richards Disposal",
    "rowid": "985122",
    "final_x": "3678939.07432",
    "final_y": "522549.966266",
    "longitude": "-90.0764674893942",
    "latitude": "29.930908578442235",
    "geocoded_column": {
      "latitude": "29.930908578442235",
      "longitude": "-90.0764674893942"
    }
  },
  {
    "service_request": "2023-985121",
    "request_type": "Trash/Recycling",
    "request_reason": "Request a Large Item Pick Up",
    "date_created": "2023-03-22T18:24:16.000",
    "date_modified": "2023-03-22T18:24:17.000",
    "request_status": "Pending",
    "responsible_agency": "Department of Sanitation",
    "final_address": "9211 Dwyer Rd",
    "address_councildis": "E",
    "status": "Assigned to Contractor",
    "contractor": "Waste Pro",
    "rowid": "985121",
    "final_x": "3708704.47044",
    "final_y": "557146.028955",
    "longitude": "-89.98121434939222",
    "latitude": "30.025103583869438",
    "geocoded_column": {
      "latitude": "30.025103583869438",
      "longitude": "-89.98121434939222"
    }
  },
  {
    "service_request": "2023-985120",
    "request_type": "Trash/Recycling",
    "request_reason": "Request a Large Item Pick Up",
    "date_created": "2023-03-22T18:18:30.000",
    "date_modified": "2023-03-22T18:18:31.000",
    "request_status": "Pending",
    "responsible_agency": "Department of Sanitation",
    "final_address": "4523 Iberville St",
    "address_councildis": "A",
    "status": "Assigned to Contractor",
    "contractor": "Richards Disposal",
    "rowid": "985120",
    "final_x": "3669853.26126",
    "final_y": "539922.376522",
    "longitude": "-90.10456211149005",
    "latitude": "29.978947894716445",
    "geocoded_column": {
      "latitude": "29.978947894716445",
      "longitude": "-90.10456211149005"
    }
  },
  {
    "service_request": "2023-985119",
    "request_type": "Trash/Recycling",
    "request_reason": "Missed Trash Pick-Up",
    "date_created": "2023-03-22T18:12:40.000",
    "date_modified": "2023-03-22T18:12:41.000",
    "request_status": "Pending",
    "responsible_agency": "Department of Sanitation",
    "final_address": "3730 Clermont Dr",
    "address_councildis": "D",
    "status": "Assigned to Contractor",
    "contractor": "IV Waste",
    "rowid": "985119",
    "final_x": "3685484.19375",
    "final_y": "546247.210512",
    "longitude": "-90.05497088191703",
    "latitude": "29.99586878063454",
    "geocoded_column": {
      "latitude": "29.99586878063454",
      "longitude": "-90.05497088191703"
    }
  },
  {
    "service_request": "2023-985118",
    "request_type": "Trash/Recycling",
    "request_reason": "MIssed Recycling Pick-Up",
    "date_created": "2023-03-22T18:09:08.000",
    "date_modified": "2023-03-22T18:09:08.000",
    "request_status": "Pending",
    "responsible_agency": "Department of Sanitation",
    "final_address": "917 Thalia St",
    "address_councildis": "B",
    "status": "Assigned to Contractor",
    "contractor": "Richards Disposal",
    "rowid": "985118",
    "final_x": "3681183.92591",
    "final_y": "525116.528957",
    "longitude": "-90.06929142583014",
    "latitude": "29.937897878712683",
    "geocoded_column": {
      "latitude": "29.937897878712683",
      "longitude": "-90.06929142583014"
    }
  },
  {
    "service_request": "2023-985117",
    "request_type": "Roads/Drainage",
    "request_reason": "Man hole cover issue",
    "date_created": "2023-03-22T18:08:05.000",
    "date_modified": "2023-03-22T18:08:05.000",
    "request_status": "Pending",
    "responsible_agency": "Department of Public Works",
    "final_address": "1209 Patterson St",
    "address_councildis": "C",
    "status": "Pending",
    "rowid": "985117",
    "final_x": "3689388.983",
    "final_y": "531216.204994",
    "longitude": "-90.04317063253121",
    "latitude": "29.954418465264524",
    "geocoded_column": {
      "latitude": "29.954418465264524",
      "longitude": "-90.04317063253121"
    }
  },
  {
    "service_request": "2023-985116",
    "request_type": "Trash/Recycling",
    "request_reason": "MIssed Recycling Pick-Up",
    "date_created": "2023-03-22T18:02:47.000",
    "date_modified": "2023-03-22T18:02:48.000",
    "request_status": "Pending",
    "responsible_agency": "Department of Sanitation",
    "final_address": "2566 Jasmine St",
    "address_councildis": "D",
    "status": "Assigned to Contractor",
    "contractor": "IV Waste",
    "rowid": "985116",
    "final_x": "3686805.57014",
    "final_y": "548032.850194",
    "longitude": "-90.05073363298386",
    "latitude": "30.000738044197735",
    "geocoded_column": {
      "latitude": "30.000738044197735",
      "longitude": "-90.05073363298386"
    }
  },
  {
    "service_request": "2023-985115",
    "request_type": "Traffic Signals/Signs/Striping/Streetlights",
    "request_reason": "Street Name Sign Damaged or Missing",
    "date_created": "2023-03-22T17:56:52.000",
    "date_modified": "2023-03-22T17:56:52.000",
    "request_status": "Pending",
    "responsible_agency": "Department of Public Works",
    "final_address": "1209 Patterson St",
    "address_councildis": "C",
    "status": "Pending",
    "rowid": "985115",
    "final_x": "3689388.983",
    "final_y": "531216.204994",
    "longitude": "-90.04317063253121",
    "latitude": "29.954418465264524",
    "geocoded_column": {
      "latitude": "29.954418465264524",
      "longitude": "-90.04317063253121"
    }
  },
  {
    "service_request": "2023-985114",
    "request_type": "Abandoned Vehicles",
    "request_reason": "Abandoned/Junk Vehicles",
    "date_created": "2023-03-22T17:56:15.000",
    "date_modified": "2023-03-22T17:56:15.000",
    "request_status": "Pending",
    "responsible_agency": "Department of Public Works",
    "final_address": "4000 Orleans Ave",
    "address_councildis": "A",
    "status": "Pending",
    "rowid": "985114",
    "final_x": "3672891.8866",
    "final_y": "539847.947594",
    "longitude": "-90.0949674938743",
    "latitude": "29.978653291815583",
    "geocoded_column": {
      "latitude": "29.978653291815583",
      "longitude": "-90.0949674938743"
    }
  },
  {
    "service_request": "2023-985113",
    "request_type": "Trash/Recycling",
    "request_reason": "Request a Large Item Pick Up",
    "date_created": "2023-03-22T17:54:41.000",
    "date_modified": "2023-03-22T17:54:42.000",
    "request_status": "Pending",
    "responsible_agency": "Department of Sanitation",
    "final_address": "1309 Magazine St",
    "address_councildis": "B",
    "status": "Assigned to Contractor",
    "contractor": "Richards Disposal",
    "rowid": "985113",
    "final_x": "3680474.73192",
    "final_y": "525133.916989",
    "longitude": "-90.07152980487972",
    "latitude": "29.93796718308046",
    "geocoded_column": {
      "latitude": "29.93796718308046",
      "longitude": "-90.07152980487972"
    }
  },
  {
    "service_request": "2023-985112",
    "request_type": "Trash/Recycling",
    "request_reason": "Request a Large Item Pick Up",
    "date_created": "2023-03-22T17:54:00.000",
    "date_modified": "2023-03-22T17:54:01.000",
    "request_status": "Pending",
    "responsible_agency": "Department of Sanitation",
    "final_address": "5931 Mandeville St",
    "address_councildis": "D",
    "status": "Assigned to Contractor",
    "contractor": "IV Waste",
    "rowid": "985112",
    "final_x": "3684372.32834",
    "final_y": "554917.530712",
    "longitude": "-90.05817836983275",
    "latitude": "30.019743077605092",
    "geocoded_column": {
      "latitude": "30.019743077605092",
      "longitude": "-90.05817836983275"
    }
  },
  {
    "service_request": "2023-985111",
    "request_type": "Trash/Recycling",
    "request_reason": "Replace Trash Cart",
    "date_created": "2023-03-22T17:34:23.000",
    "date_modified": "2023-03-22T17:34:23.000",
    "request_status": "Pending",
    "responsible_agency": "Department of Sanitation",
    "final_address": "7 Versailles Blvd",
    "address_councildis": "A",
    "status": "Assigned to Contractor",
    "contractor": "Richards Disposal",
    "rowid": "985111",
    "final_x": "3667075.02657",
    "final_y": "528744.022912",
    "longitude": "-90.11371265900038",
    "latitude": "29.94829274411683",
    "geocoded_column": {
      "latitude": "29.94829274411683",
      "longitude": "-90.11371265900038"
    }
  },
  {
    "service_request": "2023-985110",
    "request_type": "Trash/Recycling",
    "request_reason": "MIssed Recycling Pick-Up",
    "date_created": "2023-03-22T17:33:12.000",
    "date_modified": "2023-03-22T17:33:13.000",
    "request_status": "Pending",
    "responsible_agency": "Department of Sanitation",
    "final_address": "1124 Jackson Ave",
    "address_councildis": "B",
    "status": "Assigned to Contractor",
    "contractor": "Richards Disposal",
    "rowid": "985110",
    "final_x": "3678674.23976",
    "final_y": "522220.253882",
    "longitude": "-90.07731494512066",
    "latitude": "29.93000996235017",
    "geocoded_column": {
      "latitude": "29.93000996235017",
      "longitude": "-90.07731494512066"
    }
  },
  {
    "service_request": "2023-985109",
    "request_type": "Trash/Recycling",
    "request_reason": "Repair Trash Cart",
    "date_created": "2023-03-22T17:32:46.000",
    "date_modified": "2023-03-22T17:32:46.000",
    "request_status": "Pending",
    "responsible_agency": "Department of Sanitation",
    "final_address": "4635 Warren Dr",
    "address_councildis": "E",
    "status": "Assigned to Contractor",
    "contractor": "Waste Pro",
    "rowid": "985109",
    "final_x": "3713594.96018",
    "final_y": "555629.932057",
    "longitude": "-89.96581850699343",
    "latitude": "30.020775331224847",
    "geocoded_column": {
      "latitude": "30.020775331224847",
      "longitude": "-89.96581850699343"
    }
  },
  {
    "service_request": "2023-985107",
    "request_type": "Traffic Signals/Signs/Striping/Streetlights",
    "request_reason": "Additional signage",
    "date_created": "2023-03-22T17:28:27.000",
    "date_modified": "2023-03-22T17:28:28.000",
    "request_status": "Pending",
    "responsible_agency": "Department of Public Works",
    "final_address": "LAUREL ST & UPPERLINE ST",
    "address_councildis": "B",
    "status": "Pending",
    "rowid": "985107",
    "final_x": "3668971.3",
    "final_y": "517834.18",
    "longitude": "-90.10809366247253",
    "latitude": "29.91823853763636",
    "geocoded_column": {
      "latitude": "29.91823853763636",
      "longitude": "-90.10809366247253"
    }
  },
  {
    "service_request": "2023-985106",
    "request_type": "Traffic Signals/Signs/Striping/Streetlights",
    "request_reason": "Traffic Sign Missing/Damaged",
    "date_created": "2023-03-22T17:25:31.000",
    "date_modified": "2023-03-22T17:25:31.000",
    "request_status": "Pending",
    "responsible_agency": "Department of Public Works",
    "final_address": "APPLE ST & LEONIDAS ST",
    "address_councildis": "A",
    "status": "Pending",
    "rowid": "985106",
    "final_x": "3664038.4",
    "final_y": "533299.68",
    "longitude": "-90.12314866481587",
    "latitude": "29.960907847145517",
    "geocoded_column": {
      "latitude": "29.960907847145517",
      "longitude": "-90.12314866481587"
    }
  },
  {
    "service_request": "2023-985105",
    "request_type": "Trash/Recycling",
    "request_reason": "Illegal Dumping",
    "date_created": "2023-03-22T17:13:44.000",
    "date_modified": "2023-03-22T17:13:44.000",
    "request_status": "Pending",
    "responsible_agency": "Department of Code Enforcement",
    "final_address": "NORMAN C FRANCIS OVERPASS & PERDIDO ST",
    "address_councildis": "B",
    "status": "Pending",
    "rowid": "985105",
    "final_x": "3671292.31",
    "final_y": "534163.6",
    "longitude": "-90.10021277347082",
    "latitude": "29.96307068703632",
    "geocoded_column": {
      "latitude": "29.96307068703632",
      "longitude": "-90.10021277347082"
    }
  },
  {
    "service_request": "2023-985104",
    "request_type": "Trash/Recycling",
    "request_reason": "Repair Trash Cart",
    "date_created": "2023-03-22T17:10:25.000",
    "date_modified": "2023-03-22T17:10:26.000",
    "request_status": "Pending",
    "responsible_agency": "Department of Sanitation",
    "final_address": "4308 General Pershing St",
    "address_councildis": "B",
    "status": "Assigned to Contractor",
    "contractor": "Richards Disposal",
    "rowid": "985104",
    "final_x": "3669563.60231",
    "final_y": "529653.424705",
    "longitude": "-90.10582441733122",
    "latitude": "29.95072023349288",
    "geocoded_column": {
      "latitude": "29.95072023349288",
      "longitude": "-90.10582441733122"
    }
  },
  {
    "service_request": "2023-985103",
    "request_type": "Abandoned Vehicles",
    "request_reason": "Abandoned/Junk Vehicles",
    "date_created": "2023-03-22T17:05:19.000",
    "date_modified": "2023-03-22T17:05:19.000",
    "request_status": "Pending",
    "responsible_agency": "Department of Public Works",
    "final_address": "2615 S Dorgenois St",
    "address_councildis": "B",
    "status": "Pending",
    "rowid": "985103",
    "final_x": "3671872.07649",
    "final_y": "529529.359297",
    "longitude": "-90.0985396413772",
    "latitude": "29.95031089308856",
    "geocoded_column": {
      "latitude": "29.95031089308856",
      "longitude": "-90.0985396413772"
    }
  },
  {
    "service_request": "2023-985102",
    "request_type": "Trash/Recycling",
    "request_reason": "Repair Trash Cart",
    "date_created": "2023-03-22T17:04:32.000",
    "date_modified": "2023-03-22T17:04:33.000",
    "request_status": "Pending",
    "responsible_agency": "Department of Sanitation",
    "final_address": "2533 Gravier St",
    "address_councildis": "B",
    "status": "Assigned to Contractor",
    "contractor": "Richards Disposal",
    "rowid": "985102",
    "final_x": "3674690.89832",
    "final_y": "533037.022788",
    "longitude": "-90.08951904395943",
    "latitude": "29.959871972415492",
    "geocoded_column": {
      "latitude": "29.959871972415492",
      "longitude": "-90.08951904395943"
    }
  },
  {
    "service_request": "2023-985101",
    "request_type": "Property Maintenance",
    "request_reason": "Property Maintenance",
    "date_created": "2023-03-22T17:03:55.000",
    "date_modified": "2023-03-22T17:03:55.000",
    "request_status": "Pending",
    "responsible_agency": "Department of Code Enforcement",
    "final_address": "3205 Lowerline St",
    "address_councildis": "B",
    "status": "Pending",
    "rowid": "985101",
    "final_x": "3667763.83137",
    "final_y": "532844.994436",
    "longitude": "-90.11139972750864",
    "latitude": "29.959548896686748",
    "geocoded_column": {
      "latitude": "29.959548896686748",
      "longitude": "-90.11139972750864"
    }
  },
  {
    "service_request": "2023-985100",
    "request_type": "Trash/Recycling",
    "request_reason": "Order Trash Cart",
    "date_created": "2023-03-22T17:03:17.000",
    "date_modified": "2023-03-22T17:03:51.000",
    "request_status": "Pending",
    "responsible_agency": "Department of Sanitation",
    "final_address": "2813 St Peter St",
    "address_councildis": "A",
    "status": "Assigned to Contractor",
    "contractor": "Richards Disposal",
    "rowid": "985100",
    "final_x": "3676120.87374",
    "final_y": "537311.435016",
    "longitude": "-90.0848564275951",
    "latitude": "29.971582399910822",
    "geocoded_column": {
      "latitude": "29.971582399910822",
      "longitude": "-90.0848564275951"
    }
  },
  {
    "service_request": "2023-985099",
    "request_type": "Trash/Recycling",
    "request_reason": "Request a Large Item Pick Up",
    "date_created": "2023-03-22T17:01:50.000",
    "date_modified": "2023-03-22T17:01:51.000",
    "request_status": "Pending",
    "responsible_agency": "Department of Sanitation",
    "final_address": "7311 Beau St",
    "address_councildis": "E",
    "status": "Assigned to Contractor",
    "contractor": "Waste Pro",
    "rowid": "985099",
    "final_x": "3695669.36074",
    "final_y": "557730.172187",
    "longitude": "-90.02238193489183",
    "latitude": "30.027126254214675",
    "geocoded_column": {
      "latitude": "30.027126254214675",
      "longitude": "-90.02238193489183"
    }
  },
  {
    "service_request": "2023-985096",
    "request_type": "Safety & Permits",
    "request_reason": "Licenses & Permits",
    "date_created": "2023-03-22T16:55:47.000",
    "date_modified": "2023-03-22T16:55:47.000",
    "request_status": "Pending",
    "responsible_agency": "Safety and Permits",
    "status": "Pending",
    "rowid": "985096",
    "longitude": "0.0",
    "latitude": "0.0",
    "geocoded_column": {
      "latitude": "0.0",
      "longitude": "0.0"
    }
  },
  {
    "service_request": "2023-985095",
    "request_type": "Trash/Recycling",
    "request_reason": "Missed Trash Pick-Up",
    "date_created": "2023-03-22T16:50:36.000",
    "date_modified": "2023-03-22T16:50:36.000",
    "request_status": "Pending",
    "responsible_agency": "Department of Sanitation",
    "final_address": "7241 Boston Dr",
    "address_councildis": "E",
    "status": "Assigned to Contractor",
    "contractor": "Waste Pro",
    "rowid": "985095",
    "final_x": "3706056.86052",
    "final_y": "561548.837599",
    "longitude": "-89.98941714227287",
    "latitude": "30.037295222113368",
    "geocoded_column": {
      "latitude": "30.037295222113368",
      "longitude": "-89.98941714227287"
    }
  },
  {
    "service_request": "2023-985094",
    "request_type": "Trash/Recycling",
    "request_reason": "Return Trash Cart",
    "date_created": "2023-03-22T16:47:34.000",
    "date_modified": "2023-03-22T16:47:34.000",
    "request_status": "Pending",
    "responsible_agency": "Department of Sanitation",
    "final_address": "7827 Green Street, New Orleans,LA 70118",
    "address_councildis": "A",
    "status": "Assigned to Contractor",
    "contractor": "Richards Disposal",
    "rowid": "985094",
    "final_x": "3663821.56109",
    "final_y": "529106.595584",
    "longitude": "-90.12397315431738",
    "latitude": "29.949384520977173",
    "geocoded_column": {
      "latitude": "29.949384520977173",
      "longitude": "-90.12397315431738"
    }
  },
  {
    "service_request": "2023-985093",
    "request_type": "Traffic Signals/Signs/Striping/Streetlights",
    "request_reason": "Street Light Outage/Malfunction",
    "date_created": "2023-03-22T16:46:17.000",
    "date_modified": "2023-03-22T16:46:17.000",
    "request_status": "Pending",
    "responsible_agency": "Department of Public Works",
    "final_address": "3800 Utah St",
    "address_councildis": "C",
    "status": "Assigned to Contractor",
    "contractor": "Legacy Professional Services",
    "rowid": "985093",
    "final_x": "3695153.89098",
    "final_y": "517661.309302",
    "longitude": "-90.02545594984562",
    "latitude": "29.916967415377695",
    "geocoded_column": {
      "latitude": "29.916967415377695",
      "longitude": "-90.02545594984562"
    }
  },
  {
    "service_request": "2023-985092",
    "request_type": "Traffic Signals/Signs/Striping/Streetlights",
    "request_reason": "Street Light Outage/Malfunction",
    "date_created": "2023-03-22T16:44:40.000",
    "date_modified": "2023-03-22T16:44:41.000",
    "request_status": "Pending",
    "responsible_agency": "Department of Public Works",
    "final_address": "3900 Utah St",
    "address_councildis": "C",
    "status": "Assigned to Contractor",
    "contractor": "Legacy Professional Services",
    "rowid": "985092",
    "final_x": "3694945.17789",
    "final_y": "517437.419446",
    "longitude": "-90.02612279522616",
    "latitude": "29.91635834239621",
    "geocoded_column": {
      "latitude": "29.91635834239621",
      "longitude": "-90.02612279522616"
    }
  },
  {
    "service_request": "2023-985091",
    "request_type": "Trash/Recycling",
    "request_reason": "Request a Large Item Pick Up",
    "date_created": "2023-03-22T16:41:25.000",
    "date_modified": "2023-03-22T16:41:26.000",
    "request_status": "Pending",
    "responsible_agency": "Department of Sanitation",
    "final_address": "2539 Octavia St",
    "address_councildis": "A",
    "status": "Assigned to Contractor",
    "contractor": "Richards Disposal",
    "rowid": "985091",
    "final_x": "3667841.20948",
    "final_y": "524978.823101",
    "longitude": "-90.11142027132516",
    "latitude": "29.937917215158866",
    "geocoded_column": {
      "latitude": "29.937917215158866",
      "longitude": "-90.11142027132516"
    }
  },
  {
    "service_request": "2023-985090",
    "request_type": "Trash/Recycling",
    "request_reason": "Return Trash Cart",
    "date_created": "2023-03-22T16:40:03.000",
    "date_modified": "2023-03-22T16:40:04.000",
    "request_status": "Pending",
    "responsible_agency": "Department of Sanitation",
    "final_address": "412 S Alexander St, New Orleans, Louisiana, 70119",
    "address_councildis": "A",
    "status": "Assigned to Contractor",
    "contractor": "Richards Disposal",
    "rowid": "985090",
    "final_x": "3669193.39585",
    "final_y": "538059.347977",
    "longitude": "-90.10670921491145",
    "latitude": "29.97384463502483",
    "geocoded_column": {
      "latitude": "29.97384463502483",
      "longitude": "-90.10670921491145"
    }
  },
  {
    "service_request": "2023-985089",
    "request_type": "Trash/Recycling",
    "request_reason": "Request a Large Item Pick Up",
    "date_created": "2023-03-22T16:38:27.000",
    "date_modified": "2023-03-22T16:38:28.000",
    "request_status": "Pending",
    "responsible_agency": "Department of Sanitation",
    "final_address": "1444 Egania St",
    "address_councildis": "E",
    "status": "Assigned to Contractor",
    "contractor": "Waste Pro",
    "rowid": "985089",
    "final_x": "3697173.27632",
    "final_y": "535507.472326",
    "longitude": "-90.018435546605",
    "latitude": "29.965974633887058",
    "geocoded_column": {
      "latitude": "29.965974633887058",
      "longitude": "-90.018435546605"
    }
  },
  {
    "service_request": "2023-985088",
    "request_type": "Traffic Signals/Signs/Striping/Streetlights",
    "request_reason": "Request for Traffic Calming due to Speeding",
    "date_created": "2023-03-22T16:35:24.000",
    "date_modified": "2023-03-22T16:35:24.000",
    "request_status": "Pending",
    "responsible_agency": "Department of Public Works",
    "final_address": "4026 Virgil Blvd",
    "address_councildis": "D",
    "status": "Pending",
    "rowid": "985088",
    "final_x": "3679706.80495",
    "final_y": "547221.355153",
    "longitude": "-90.0731873336981",
    "latitude": "29.998723298478243",
    "geocoded_column": {
      "latitude": "29.998723298478243",
      "longitude": "-90.0731873336981"
    }
  },
  {
    "service_request": "2023-985087",
    "request_type": "Trash/Recycling",
    "request_reason": "Request a Large Item Pick Up",
    "date_created": "2023-03-22T16:32:21.000",
    "date_modified": "2023-03-22T16:32:22.000",
    "request_status": "Pending",
    "responsible_agency": "Department of Sanitation",
    "final_address": "1401 St Roch Ave",
    "address_councildis": "C",
    "status": "Assigned to Contractor",
    "contractor": "IV Waste",
    "rowid": "985087",
    "final_x": "3686471.89986",
    "final_y": "537563.756872",
    "longitude": "-90.05215750720372",
    "latitude": "29.971962025153253",
    "geocoded_column": {
      "latitude": "29.971962025153253",
      "longitude": "-90.05215750720372"
    }
  },
  {
    "service_request": "2023-985086",
    "request_type": "Trash/Recycling",
    "request_reason": "Order Trash Cart",
    "date_created": "2023-03-22T16:30:38.000",
    "date_modified": "2023-03-22T16:30:39.000",
    "request_status": "Pending",
    "responsible_agency": "Department of Sanitation",
    "final_address": "2255 N Miro St",
    "address_councildis": "D",
    "status": "Assigned to Contractor",
    "contractor": "IV Waste",
    "rowid": "985086",
    "final_x": "3685245.49865",
    "final_y": "540440.218443",
    "longitude": "-90.05592939880573",
    "latitude": "29.979908934681344",
    "geocoded_column": {
      "latitude": "29.979908934681344",
      "longitude": "-90.05592939880573"
    }
  },
  {
    "service_request": "2023-985085",
    "request_type": "Trash/Recycling",
    "request_reason": "Missed Trash Pick-Up",
    "date_created": "2023-03-22T16:27:50.000",
    "date_modified": "2023-03-22T16:27:50.000",
    "request_status": "Pending",
    "responsible_agency": "Department of Sanitation",
    "final_address": "14900 Hayne Blvd",
    "address_councildis": "E",
    "status": "Assigned to Contractor",
    "contractor": "Waste Pro",
    "rowid": "985085",
    "final_x": "3720092.02438",
    "final_y": "575335.573419",
    "longitude": "-89.9445352996144",
    "latitude": "30.074742920646166",
    "geocoded_column": {
      "latitude": "30.074742920646166",
      "longitude": "-89.9445352996144"
    }
  },
  {
    "service_request": "2023-985084",
    "request_type": "Trash/Recycling",
    "request_reason": "Missed Trash Pick-Up",
    "date_created": "2023-03-22T16:23:08.000",
    "date_modified": "2023-03-22T16:23:09.000",
    "request_status": "Pending",
    "responsible_agency": "Department of Sanitation",
    "final_address": "10501 Prentiss Ave",
    "address_councildis": "E",
    "status": "Assigned to Contractor",
    "contractor": "Waste Pro",
    "rowid": "985084",
    "final_x": "3714427.16242",
    "final_y": "556449.37801",
    "longitude": "-89.96315806006128",
    "latitude": "30.023001148289023",
    "geocoded_column": {
      "latitude": "30.023001148289023",
      "longitude": "-89.96315806006128"
    }
  },
  {
    "service_request": "2023-985083",
    "request_type": "Trash/Recycling",
    "request_reason": "Missed Trash Pick-Up",
    "date_created": "2023-03-22T16:20:13.000",
    "date_modified": "2023-03-22T16:20:14.000",
    "request_status": "Pending",
    "responsible_agency": "Department of Sanitation",
    "final_address": "718 Bourbon St",
    "address_councildis": "C",
    "status": "Assigned to Contractor",
    "contractor": "Empire Services",
    "rowid": "985083",
    "final_x": "3682364.17781",
    "final_y": "532746.008004",
    "longitude": "-90.06529872053143",
    "latitude": "29.95884052062511",
    "geocoded_column": {
      "latitude": "29.95884052062511",
      "longitude": "-90.06529872053143"
    }
  },
  {
    "service_request": "2023-985082",
    "request_type": "Property Maintenance",
    "request_reason": "Property Maintenance",
    "date_created": "2023-03-22T16:20:03.000",
    "date_modified": "2023-03-22T16:20:03.000",
    "request_status": "Pending",
    "responsible_agency": "Department of Code Enforcement",
    "final_address": "4502 General Meyer Ave",
    "address_councildis": "C",
    "status": "Pending",
    "rowid": "985082",
    "final_x": "3700712.62084",
    "final_y": "524409.88582",
    "longitude": "-90.0076639306392",
    "latitude": "29.935348043426018",
    "geocoded_column": {
      "latitude": "29.935348043426018",
      "longitude": "-90.0076639306392"
    }
  },
  {
    "service_request": "2023-985081",
    "request_type": "Property Maintenance",
    "request_reason": "Property Maintenance",
    "date_created": "2023-03-22T16:17:53.000",
    "date_modified": "2023-03-22T16:17:53.000",
    "request_status": "Pending",
    "responsible_agency": "Department of Code Enforcement",
    "final_address": "4500 General Meyer Ave",
    "address_councildis": "C",
    "status": "Pending",
    "rowid": "985081",
    "final_x": "3700689.88836",
    "final_y": "524028.745724",
    "longitude": "-90.00774961673321",
    "latitude": "29.934300763858566",
    "geocoded_column": {
      "latitude": "29.934300763858566",
      "longitude": "-90.00774961673321"
    }
  },
  {
    "service_request": "2023-985080",
    "request_type": "Trash/Recycling",
    "request_reason": "Missed Trash Pick-Up",
    "date_created": "2023-03-22T16:16:49.000",
    "date_modified": "2023-03-22T16:16:50.000",
    "request_status": "Pending",
    "responsible_agency": "Department of Sanitation",
    "final_address": "6300 BLK Fontainebleau Dr",
    "address_councildis": "B",
    "status": "Assigned to Contractor",
    "contractor": "Richards Disposal",
    "rowid": "985080",
    "final_x": "3667818.96059",
    "final_y": "530105.424157",
    "longitude": "-90.11131790210142",
    "latitude": "29.952014360184606",
    "geocoded_column": {
      "latitude": "29.952014360184606",
      "longitude": "-90.11131790210142"
    }
  },
  {
    "service_request": "2023-985079",
    "request_type": "Trash/Recycling",
    "request_reason": "Order Trash Cart",
    "date_created": "2023-03-22T16:15:20.000",
    "date_modified": "2023-03-22T16:15:20.000",
    "request_status": "Pending",
    "responsible_agency": "Department of Sanitation",
    "final_address": "1803 Treasure St",
    "address_councildis": "D",
    "status": "Assigned to Contractor",
    "contractor": "IV Waste",
    "rowid": "985079",
    "final_x": "3681475.33826",
    "final_y": "543839.17115",
    "longitude": "-90.06771853789742",
    "latitude": "29.98936989333288",
    "geocoded_column": {
      "latitude": "29.98936989333288",
      "longitude": "-90.06771853789742"
    }
  },
  {
    "service_request": "2023-985077",
    "request_type": "Trash/Recycling",
    "request_reason": "Missed Trash Pick-Up",
    "date_created": "2023-03-22T16:05:39.000",
    "date_modified": "2023-03-22T16:05:40.000",
    "request_status": "Pending",
    "responsible_agency": "Department of Sanitation",
    "final_address": "1917 General Taylor St",
    "address_councildis": "B",
    "status": "Assigned to Contractor",
    "contractor": "Richards Disposal",
    "rowid": "985077",
    "final_x": "3672391.62331",
    "final_y": "522259.410298",
    "longitude": "-90.09714682757276",
    "latitude": "29.930305497094775",
    "geocoded_column": {
      "latitude": "29.930305497094775",
      "longitude": "-90.09714682757276"
    }
  },
  {
    "service_request": "2023-985076",
    "request_type": "Safety & Permits",
    "request_reason": "Construction permit",
    "date_created": "2023-03-22T16:04:49.000",
    "date_modified": "2023-03-22T16:04:49.000",
    "request_status": "Pending",
    "responsible_agency": "Department of Code Enforcement",
    "final_address": "6969 Deanne St",
    "address_councildis": "D",
    "status": "Pending",
    "rowid": "985076",
    "final_x": "3695700.75632",
    "final_y": "556542.002522",
    "longitude": "-90.02232568518465",
    "latitude": "30.02385825154291",
    "geocoded_column": {
      "latitude": "30.02385825154291",
      "longitude": "-90.02232568518465"
    }
  },
  {
    "service_request": "2023-985075",
    "request_type": "Traffic Signals/Signs/Striping/Streetlights",
    "request_reason": "Traffic Sign Missing/Damaged",
    "date_created": "2023-03-22T16:04:47.000",
    "date_modified": "2023-03-22T16:25:25.000",
    "request_status": "Pending",
    "responsible_agency": "Department of Public Works",
    "final_address": "1225 Magazine street, New Orleans, LA 70130",
    "address_councildis": "B",
    "rowid": "985075",
    "final_x": "3680543.26939",
    "final_y": "525414.228925",
    "longitude": "-90.07130367927188",
    "latitude": "29.93873587243226",
    "geocoded_column": {
      "latitude": "29.93873587243226",
      "longitude": "-90.07130367927188"
    }
  },
  {
    "service_request": "2023-985074",
    "request_type": "Trash/Recycling",
    "request_reason": "MIssed Recycling Pick-Up",
    "date_created": "2023-03-22T16:02:37.000",
    "date_modified": "2023-03-22T16:02:37.000",
    "request_status": "Pending",
    "responsible_agency": "Department of Sanitation",
    "final_address": "2600 Arts St",
    "address_councildis": "D",
    "status": "Assigned to Contractor",
    "contractor": "IV Waste",
    "rowid": "985074",
    "final_x": "3686718.40393",
    "final_y": "542043.548748",
    "longitude": "-90.05122070476703",
    "latitude": "29.984272293417494",
    "geocoded_column": {
      "latitude": "29.984272293417494",
      "longitude": "-90.05122070476703"
    }
  },
  {
    "service_request": "2023-985073",
    "request_type": "Trash/Recycling",
    "request_reason": "Request a Large Item Pick Up",
    "date_created": "2023-03-22T16:02:25.000",
    "date_modified": "2023-03-22T16:02:26.000",
    "request_status": "Pending",
    "responsible_agency": "Department of Sanitation",
    "final_address": "8134 Willow St",
    "address_councildis": "A",
    "status": "Assigned to Contractor",
    "contractor": "Richards Disposal",
    "rowid": "985073",
    "final_x": "3662214.24269",
    "final_y": "529038.45312",
    "longitude": "-90.12905046309072",
    "latitude": "29.94924369914815",
    "geocoded_column": {
      "latitude": "29.94924369914815",
      "longitude": "-90.12905046309072"
    }
  },
  {
    "service_request": "2023-985072",
    "request_type": "Traffic Signals/Signs/Striping/Streetlights",
    "request_reason": "Street Light Outage/Malfunction",
    "date_created": "2023-03-22T15:59:40.000",
    "date_modified": "2023-03-22T15:59:40.000",
    "request_status": "Pending",
    "responsible_agency": "Department of Public Works",
    "final_address": "4710 Cardenas Dr",
    "address_councildis": "E",
    "status": "Assigned to Contractor",
    "contractor": "Legacy Professional Services",
    "rowid": "985072",
    "final_x": "3713637.32555",
    "final_y": "556113.611418",
    "longitude": "-89.9656664048696",
    "latitude": "30.022103868488774",
    "geocoded_column": {
      "latitude": "30.022103868488774",
      "longitude": "-89.9656664048696"
    }
  },
  {
    "service_request": "2023-985071",
    "request_type": "Trash/Recycling",
    "request_reason": "MIssed Recycling Pick-Up",
    "date_created": "2023-03-22T15:59:01.000",
    "date_modified": "2023-03-22T15:59:02.000",
    "request_status": "Pending",
    "responsible_agency": "Department of Sanitation",
    "final_address": "4558 Hickerson Dr",
    "address_councildis": "E",
    "status": "Assigned to Contractor",
    "contractor": "Waste Pro",
    "rowid": "985071",
    "final_x": "3710398.18136",
    "final_y": "554658.898072",
    "longitude": "-89.97595563754861",
    "latitude": "30.01820988399306",
    "geocoded_column": {
      "latitude": "30.01820988399306",
      "longitude": "-89.97595563754861"
    }
  },
  {
    "service_request": "2023-985070",
    "request_type": "Tax and Revenue",
    "request_reason": "Business Renewal",
    "date_created": "2023-03-22T15:54:59.000",
    "date_modified": "2023-03-22T15:54:59.000",
    "request_status": "Pending",
    "responsible_agency": "Bureau of Revenue",
    "status": "Pending",
    "rowid": "985070",
    "longitude": "0.0",
    "latitude": "0.0",
    "geocoded_column": {
      "latitude": "0.0",
      "longitude": "0.0"
    }
  },
  {
    "service_request": "2023-985069",
    "request_type": "Abandoned Vehicles",
    "request_reason": "Abandoned/Junk Vehicles",
    "date_created": "2023-03-22T15:54:29.000",
    "date_modified": "2023-03-22T15:54:30.000",
    "request_status": "Pending",
    "responsible_agency": "Department of Public Works",
    "final_address": "4516 Louisa Dr",
    "address_councildis": "D",
    "status": "Pending",
    "rowid": "985069",
    "final_x": "3690921.97033",
    "final_y": "550485.462356",
    "longitude": "-90.0376420626624",
    "latitude": "30.007354490788604",
    "geocoded_column": {
      "latitude": "30.007354490788604",
      "longitude": "-90.0376420626624"
    }
  },
  {
    "service_request": "2023-985068",
    "request_type": "Roads/Drainage",
    "request_reason": "Street Subsidence (Sinking)",
    "date_created": "2023-03-22T15:53:35.000",
    "date_modified": "2023-03-22T15:53:36.000",
    "request_status": "Pending",
    "responsible_agency": "Department of Public Works",
    "final_address": "5108 Eastern St",
    "address_councildis": "D",
    "status": "Pending",
    "rowid": "985068",
    "final_x": "3687881.93647",
    "final_y": "551776.668309",
    "longitude": "-90.04720057293399",
    "latitude": "30.010999005592584",
    "geocoded_column": {
      "latitude": "30.010999005592584",
      "longitude": "-90.04720057293399"
    }
  },
  {
    "service_request": "2023-985067",
    "request_type": "Trash/Recycling",
    "request_reason": "MIssed Recycling Pick-Up",
    "date_created": "2023-03-22T15:52:51.000",
    "date_modified": "2023-03-22T15:52:52.000",
    "request_status": "Pending",
    "responsible_agency": "Department of Sanitation",
    "final_address": "743 Felicity St",
    "address_councildis": "B",
    "status": "Assigned to Contractor",
    "contractor": "Richards Disposal",
    "rowid": "985067",
    "final_x": "3681052.04827",
    "final_y": "522025.25849",
    "longitude": "-90.06981539111247",
    "latitude": "29.929401906320233",
    "geocoded_column": {
      "latitude": "29.929401906320233",
      "longitude": "-90.06981539111247"
    }
  },
  {
    "service_request": "2023-985066",
    "request_type": "Trash/Recycling",
    "request_reason": "Missed Trash Pick-Up",
    "date_created": "2023-03-22T15:49:22.000",
    "date_modified": "2023-03-22T15:49:23.000",
    "request_status": "Pending",
    "responsible_agency": "Department of Sanitation",
    "final_address": "613 St Philip St",
    "address_councildis": "C",
    "status": "Assigned to Contractor",
    "contractor": "Empire Services",
    "rowid": "985066",
    "final_x": "3683423.28252",
    "final_y": "533225.176196",
    "longitude": "-90.06193755256837",
    "latitude": "29.96012579929664",
    "geocoded_column": {
      "latitude": "29.96012579929664",
      "longitude": "-90.06193755256837"
    }
  },
  {
    "service_request": "2023-985065",
    "request_type": "Trash/Recycling",
    "request_reason": "Illegal Dumping",
    "date_created": "2023-03-22T15:47:43.000",
    "date_modified": "2023-03-22T15:47:43.000",
    "request_status": "Pending",
    "responsible_agency": "Department of Sanitation",
    "final_address": "FILMORE ST & PEOPLES AVE",
    "address_councildis": "D",
    "status": "Pending",
    "rowid": "985065",
    "final_x": "3688016.9",
    "final_y": "552601.38",
    "longitude": "-90.04674491426486",
    "latitude": "30.013262493486113",
    "geocoded_column": {
      "latitude": "30.013262493486113",
      "longitude": "-90.04674491426486"
    }
  },
  {
    "service_request": "2023-985064",
    "request_type": "Trash/Recycling",
    "request_reason": "Request a Large Item Pick Up",
    "date_created": "2023-03-22T15:46:16.000",
    "date_modified": "2023-03-22T15:46:17.000",
    "request_status": "Pending",
    "responsible_agency": "Department of Sanitation",
    "final_address": "6240 Waldo Dr",
    "address_councildis": "D",
    "status": "Assigned to Contractor",
    "contractor": "IV Waste",
    "rowid": "985064",
    "final_x": "3681016.56149",
    "final_y": "556094.095642",
    "longitude": "-90.0687404650943",
    "latitude": "30.02308045856621",
    "geocoded_column": {
      "latitude": "30.02308045856621",
      "longitude": "-90.0687404650943"
    }
  },
  {
    "service_request": "2023-985063",
    "request_type": "Property Maintenance",
    "request_reason": "Property Maintenance",
    "date_created": "2023-03-22T15:41:11.000",
    "date_modified": "2023-03-22T15:41:11.000",
    "request_status": "Pending",
    "responsible_agency": "Department of Code Enforcement",
    "final_address": "600 Bourbon St",
    "address_councildis": "C",
    "status": "Pending",
    "rowid": "985063",
    "final_x": "3682078.16098",
    "final_y": "532385.154115",
    "longitude": "-90.0662144890723",
    "latitude": "29.957856995434486",
    "geocoded_column": {
      "latitude": "29.957856995434486",
      "longitude": "-90.0662144890723"
    }
  },
  {
    "service_request": "2023-985061",
    "request_type": "Trash/Recycling",
    "request_reason": "Repair Trash Cart",
    "date_created": "2023-03-22T15:40:10.000",
    "date_modified": "2023-03-22T16:08:32.000",
    "request_status": "Pending",
    "responsible_agency": "Department of Sanitation",
    "final_address": "5942 Music St",
    "address_councildis": "D",
    "status": "Assigned to Contractor",
    "contractor": "IV Waste",
    "rowid": "985061",
    "final_x": "3685271.84546",
    "final_y": "555057.623513",
    "longitude": "-90.05533125714491",
    "latitude": "30.020100725737954",
    "geocoded_column": {
      "latitude": "30.020100725737954",
      "longitude": "-90.05533125714491"
    }
  },
  {
    "service_request": "2023-985062",
    "request_type": "Trash/Recycling",
    "request_reason": "Request a Large Item Pick Up",
    "date_created": "2023-03-22T15:40:10.000",
    "date_modified": "2023-03-22T15:40:11.000",
    "request_status": "Pending",
    "responsible_agency": "Department of Sanitation",
    "final_address": "5728 Alfred St",
    "address_councildis": "D",
    "status": "Assigned to Contractor",
    "contractor": "IV Waste",
    "rowid": "985062",
    "final_x": "3677128.1179",
    "final_y": "553575.041559",
    "longitude": "-90.0811140847701",
    "latitude": "30.016271396751517",
    "geocoded_column": {
      "latitude": "30.016271396751517",
      "longitude": "-90.0811140847701"
    }
  },
  {
    "service_request": "2023-985060",
    "request_type": "Property Maintenance",
    "request_reason": "Property Maintenance",
    "date_created": "2023-03-22T15:33:58.000",
    "date_modified": "2023-03-22T15:33:58.000",
    "request_status": "Pending",
    "responsible_agency": "Department of Code Enforcement",
    "final_address": "332 Harney St",
    "address_councildis": "A",
    "status": "Pending",
    "rowid": "985060",
    "final_x": "3667223.6841",
    "final_y": "547100.982161",
    "longitude": "-90.11262580843967",
    "latitude": "29.99876389038997",
    "geocoded_column": {
      "latitude": "29.99876389038997",
      "longitude": "-90.11262580843967"
    }
  },
  {
    "service_request": "2023-985059",
    "request_type": "Trash/Recycling",
    "request_reason": "Request a Large Item Pick Up",
    "date_created": "2023-03-22T15:33:46.000",
    "date_modified": "2023-03-22T15:33:47.000",
    "request_status": "Pending",
    "responsible_agency": "Department of Sanitation",
    "final_address": "2220 S Lopez St",
    "address_councildis": "A",
    "status": "Assigned to Contractor",
    "contractor": "Richards Disposal",
    "rowid": "985059",
    "final_x": "3669056.01626",
    "final_y": "529013.086528",
    "longitude": "-90.107448750489",
    "latitude": "29.94897445462455",
    "geocoded_column": {
      "latitude": "29.94897445462455",
      "longitude": "-90.107448750489"
    }
  },
  {
    "service_request": "2023-985058",
    "request_type": "Trash/Recycling",
    "request_reason": "Order Recycling Cart",
    "date_created": "2023-03-22T15:32:59.000",
    "date_modified": "2023-03-22T15:32:59.000",
    "request_status": "Pending",
    "responsible_agency": "Department of Sanitation",
    "final_address": "1707 S Gayoso St",
    "address_councildis": "B",
    "status": "Pending",
    "rowid": "985058",
    "final_x": "3670408.88506",
    "final_y": "530257.954561",
    "longitude": "-90.10313494623351",
    "latitude": "29.95235756594925",
    "geocoded_column": {
      "latitude": "29.95235756594925",
      "longitude": "-90.10313494623351"
    }
  },
  {
    "service_request": "2023-985057",
    "request_type": "Abandoned Vehicles",
    "request_reason": "Abandoned/Junk Vehicles",
    "date_created": "2023-03-22T15:32:45.000",
    "date_modified": "2023-03-22T15:32:45.000",
    "request_status": "Pending",
    "responsible_agency": "Department of Public Works",
    "final_address": "4511 St Bernard Ave",
    "address_councildis": "D",
    "status": "Inspected",
    "rowid": "985057",
    "final_x": "3676899.96469",
    "final_y": "548995.624467",
    "longitude": "-90.0819929615085",
    "latitude": "30.003686490201883",
    "geocoded_column": {
      "latitude": "30.003686490201883",
      "longitude": "-90.0819929615085"
    }
  },
  {
    "service_request": "2023-985056",
    "request_type": "Safety & Permits",
    "request_reason": "Licenses & Permits",
    "date_created": "2023-03-22T15:30:26.000",
    "date_modified": "2023-03-22T15:30:26.000",
    "request_status": "Pending",
    "responsible_agency": "Safety and Permits",
    "final_address": "3113 Pine St",
    "address_councildis": "B",
    "status": "Pending",
    "rowid": "985056",
    "final_x": "3667838.29805",
    "final_y": "532393.210563",
    "longitude": "-90.11117979464073",
    "latitude": "29.958304455976485",
    "geocoded_column": {
      "latitude": "29.958304455976485",
      "longitude": "-90.11117979464073"
    }
  },
  {
    "service_request": "2023-985055",
    "request_type": "Trash/Recycling",
    "request_reason": "Missed Trash Pick-Up",
    "date_created": "2023-03-22T15:30:08.000",
    "date_modified": "2023-03-22T16:55:28.000",
    "case_close_date": "2023-03-22T11:55:28.000",
    "request_status": "Closed",
    "responsible_agency": "Department of Sanitation",
    "final_address": "4666 Charlene Dr",
    "address_councildis": "E",
    "status": "Assigned to Contractor",
    "contractor": "Waste Pro",
    "contractor_action": "Completed",
    "rowid": "985055",
    "final_x": "3707898.62808",
    "final_y": "554992.152024",
    "longitude": "-89.98384081773466",
    "latitude": "30.019207382861733",
    "geocoded_column": {
      "latitude": "30.019207382861733",
      "longitude": "-89.98384081773466"
    }
  },
  {
    "service_request": "2023-985054",
    "request_type": "Trash/Recycling",
    "request_reason": "Missed Trash Pick-Up",
    "date_created": "2023-03-22T15:24:57.000",
    "date_modified": "2023-03-22T15:24:58.000",
    "request_status": "Pending",
    "responsible_agency": "Department of Sanitation",
    "final_address": "4712 Bright Dr",
    "address_councildis": "E",
    "status": "Assigned to Contractor",
    "contractor": "Waste Pro",
    "rowid": "985054",
    "final_x": "3715827.82924",
    "final_y": "556773.905434",
    "longitude": "-89.95872001457307",
    "latitude": "30.023847342231054",
    "geocoded_column": {
      "latitude": "30.023847342231054",
      "longitude": "-89.95872001457307"
    }
  },
  {
    "service_request": "2023-985053",
    "request_type": "Abandoned Vehicles",
    "request_reason": "Abandoned/Junk Vehicles",
    "date_created": "2023-03-22T15:22:27.000",
    "date_modified": "2023-03-22T15:22:27.000",
    "request_status": "Pending",
    "responsible_agency": "Department of Public Works",
    "final_address": "3428 Bienville Ave",
    "address_councildis": "B",
    "status": "Pending",
    "rowid": "985053",
    "final_x": "3673378.17569",
    "final_y": "537504.501896",
    "longitude": "-90.0935116943828",
    "latitude": "29.97219515332791",
    "geocoded_column": {
      "latitude": "29.97219515332791",
      "longitude": "-90.0935116943828"
    }
  },
  {
    "service_request": "2023-985052",
    "request_type": "Traffic Signals/Signs/Striping/Streetlights",
    "request_reason": "Street Light Outage/Malfunction",
    "date_created": "2023-03-22T15:21:11.000",
    "date_modified": "2023-03-22T15:21:11.000",
    "request_status": "Pending",
    "responsible_agency": "Department of Public Works",
    "final_address": "10100 Rosewood Pl",
    "address_councildis": "E",
    "status": "Assigned to Contractor",
    "contractor": "Legacy Professional Services",
    "rowid": "985052",
    "final_x": "3712724.7027",
    "final_y": "557594.016091",
    "longitude": "-89.96849431622478",
    "latitude": "30.026204317317674",
    "geocoded_column": {
      "latitude": "30.026204317317674",
      "longitude": "-89.96849431622478"
    }
  },
  {
    "service_request": "2023-985051",
    "request_type": "Abandoned Vehicles",
    "request_reason": "Abandoned/Junk Vehicles",
    "date_created": "2023-03-22T15:18:41.000",
    "date_modified": "2023-03-22T15:18:41.000",
    "request_status": "Pending",
    "responsible_agency": "Department of Public Works",
    "final_address": "3428 Bienville Ave",
    "address_councildis": "B",
    "status": "Pending",
    "rowid": "985051",
    "final_x": "3673378.17569",
    "final_y": "537504.501896",
    "longitude": "-90.0935116943828",
    "latitude": "29.97219515332791",
    "geocoded_column": {
      "latitude": "29.97219515332791",
      "longitude": "-90.0935116943828"
    }
  },
  {
    "service_request": "2023-985050",
    "request_type": "Roads/Drainage",
    "request_reason": "Pothole",
    "date_created": "2023-03-22T15:18:04.000",
    "date_modified": "2023-03-22T15:18:04.000",
    "request_status": "Pending",
    "responsible_agency": "Department of Public Works",
    "final_address": "3137 Orleans Ave, New Orleans, Louisiana, 70119",
    "address_councildis": "A",
    "status": "Pending",
    "rowid": "985050",
    "final_x": "3675086.00885",
    "final_y": "538360.268233",
    "longitude": "-90.08808869185481",
    "latitude": "29.974497297491975",
    "geocoded_column": {
      "latitude": "29.974497297491975",
      "longitude": "-90.08808869185481"
    }
  },
  {
    "service_request": "2023-985049",
    "request_type": "Trash/Recycling",
    "request_reason": "Request a Large Item Pick Up",
    "date_created": "2023-03-22T15:16:48.000",
    "date_modified": "2023-03-22T15:16:48.000",
    "request_status": "Pending",
    "responsible_agency": "Department of Sanitation",
    "final_address": "2438 Monticello St",
    "address_councildis": "E",
    "status": "Assigned to Contractor",
    "contractor": "Waste Pro",
    "rowid": "985049",
    "final_x": "3700953.7329",
    "final_y": "538451.748425",
    "longitude": "-90.0063893784631",
    "latitude": "29.97395050151364",
    "geocoded_column": {
      "latitude": "29.97395050151364",
      "longitude": "-90.0063893784631"
    }
  },
  {
    "service_request": "2023-985048",
    "request_type": "Trash/Recycling",
    "request_reason": "Illegal Dumping",
    "date_created": "2023-03-22T15:15:04.000",
    "date_modified": "2023-03-22T15:15:05.000",
    "request_status": "Pending",
    "responsible_agency": "Department of Sanitation",
    "final_address": "5500 BLK Read Blvd",
    "address_councildis": "E",
    "status": "Pending",
    "rowid": "985048",
    "final_x": "3712071.66407",
    "final_y": "558808.334271",
    "longitude": "-89.97051218083735",
    "latitude": "30.02956458368936",
    "geocoded_column": {
      "latitude": "30.02956458368936",
      "longitude": "-89.97051218083735"
    }
  },
  {
    "service_request": "2023-985047",
    "request_type": "Property Maintenance",
    "request_reason": "Property Maintenance",
    "date_created": "2023-03-22T15:12:35.000",
    "date_modified": "2023-03-22T15:12:35.000",
    "request_status": "Pending",
    "responsible_agency": "Department of Code Enforcement",
    "final_address": "2007 Seventh St",
    "address_councildis": "B",
    "status": "Pending",
    "rowid": "985047",
    "final_x": "3674443.61953",
    "final_y": "523361.798203",
    "longitude": "-90.0906312458112",
    "latitude": "29.93327567475967",
    "geocoded_column": {
      "latitude": "29.93327567475967",
      "longitude": "-90.0906312458112"
    }
  },
  {
    "service_request": "2023-985046",
    "request_type": "Abandoned Vehicles",
    "request_reason": "Abandoned/Junk Vehicles",
    "date_created": "2023-03-22T15:06:14.000",
    "date_modified": "2023-03-22T15:06:15.000",
    "request_status": "Pending",
    "responsible_agency": "Department of Public Works",
    "final_address": "4320 America St",
    "address_councildis": "E",
    "status": "Pending",
    "rowid": "985046",
    "final_x": "3699902.14116",
    "final_y": "552752.277782",
    "longitude": "-90.00918859739038",
    "latitude": "30.013305107456993",
    "geocoded_column": {
      "latitude": "30.013305107456993",
      "longitude": "-90.00918859739038"
    }
  },
  {
    "service_request": "2023-985045",
    "request_type": "Trash/Recycling",
    "request_reason": "Repair Recycling Cart",
    "date_created": "2023-03-22T15:04:34.000",
    "date_modified": "2023-03-22T15:04:35.000",
    "request_status": "Pending",
    "responsible_agency": "Department of Sanitation",
    "final_address": "400 Camp St",
    "address_councildis": "B",
    "status": "Pending",
    "rowid": "985045",
    "final_x": "3681203.89391",
    "final_y": "529463.092609",
    "longitude": "-90.06907697927583",
    "latitude": "29.949848869377718",
    "geocoded_column": {
      "latitude": "29.949848869377718",
      "longitude": "-90.06907697927583"
    }
  },
  {
    "service_request": "2023-985044",
    "request_type": "Mayor's Request",
    "request_reason": "Entergy Bill Payment Assistance",
    "date_created": "2023-03-22T15:04:18.000",
    "date_modified": "2023-03-22T15:07:17.000",
    "request_status": "Pending",
    "responsible_agency": "Executive Office of the Mayor",
    "final_address": "7803 W Laverne St",
    "address_councildis": "E",
    "status": "Pending",
    "rowid": "985044",
    "final_x": "3695047.06947",
    "final_y": "559165.880412",
    "longitude": "-90.02429648004178",
    "latitude": "30.03109346625167",
    "geocoded_column": {
      "latitude": "30.03109346625167",
      "longitude": "-90.02429648004178"
    }
  },
  {
    "service_request": "2023-985043",
    "request_type": "Abandoned Vehicles",
    "request_reason": "Abandoned/Junk Vehicles",
    "date_created": "2023-03-22T15:03:38.000",
    "date_modified": "2023-03-22T15:03:38.000",
    "request_status": "Pending",
    "responsible_agency": "Department of Public Works",
    "final_address": "8600 Belfast St",
    "address_councildis": "A",
    "status": "Pending",
    "rowid": "985043",
    "final_x": "3664228.75111",
    "final_y": "533552.353221",
    "longitude": "-90.12253913803004",
    "latitude": "29.96159708653462",
    "geocoded_column": {
      "latitude": "29.96159708653462",
      "longitude": "-90.12253913803004"
    }
  },
  {
    "service_request": "2023-985042",
    "request_type": "Trash/Recycling",
    "request_reason": "Request a Large Item Pick Up",
    "date_created": "2023-03-22T15:02:43.000",
    "date_modified": "2023-03-22T15:02:44.000",
    "request_status": "Pending",
    "responsible_agency": "Department of Sanitation",
    "final_address": "1712 Soniat St",
    "address_councildis": "B",
    "status": "Assigned to Contractor",
    "contractor": "Richards Disposal",
    "rowid": "985042",
    "final_x": "3668390.54657",
    "final_y": "521928.420538",
    "longitude": "-90.10978879710751",
    "latitude": "29.929513465466307",
    "geocoded_column": {
      "latitude": "29.929513465466307",
      "longitude": "-90.10978879710751"
    }
  },
  {
    "service_request": "2023-985041",
    "request_type": "Trash/Recycling",
    "request_reason": "Request a Large Item Pick Up",
    "date_created": "2023-03-22T14:59:22.000",
    "date_modified": "2023-03-22T14:59:23.000",
    "request_status": "Pending",
    "responsible_agency": "Department of Sanitation",
    "final_address": "11930 Lakeland Ct",
    "address_councildis": "E",
    "status": "Assigned to Contractor",
    "contractor": "Waste Pro",
    "rowid": "985041",
    "final_x": "3712578.20197",
    "final_y": "568639.345509",
    "longitude": "-89.96854152648238",
    "latitude": "30.056579328090205",
    "geocoded_column": {
      "latitude": "30.056579328090205",
      "longitude": "-89.96854152648238"
    }
  },
  {
    "service_request": "2023-985040",
    "request_type": "Trash/Recycling",
    "request_reason": "Missed Trash Pick-Up",
    "date_created": "2023-03-22T14:56:25.000",
    "date_modified": "2023-03-22T14:56:25.000",
    "request_status": "Pending",
    "responsible_agency": "Department of Sanitation",
    "final_address": "4956 Pentland Dr",
    "address_councildis": "E",
    "status": "Assigned to Contractor",
    "contractor": "Waste Pro",
    "rowid": "985040",
    "final_x": "3718578.81093",
    "final_y": "558319.172508",
    "longitude": "-89.94996861144277",
    "latitude": "30.028005176777242",
    "geocoded_column": {
      "latitude": "30.028005176777242",
      "longitude": "-89.94996861144277"
    }
  },
  {
    "service_request": "2023-985039",
    "request_type": "Traffic Signals/Signs/Striping/Streetlights",
    "request_reason": "Street Light Outage/Malfunction",
    "date_created": "2023-03-22T14:55:10.000",
    "date_modified": "2023-03-22T14:55:10.000",
    "request_status": "Pending",
    "responsible_agency": "Department of Public Works",
    "final_address": "5163 General De Gaulle Dr",
    "address_councildis": "C",
    "status": "Assigned to Contractor",
    "contractor": "Legacy Professional Services",
    "rowid": "985039",
    "final_x": "3703270.68497",
    "final_y": "515726.661748",
    "longitude": "-89.99990718257494",
    "latitude": "29.911390555885003",
    "geocoded_column": {
      "latitude": "29.911390555885003",
      "longitude": "-89.99990718257494"
    }
  },
  {
    "service_request": "2023-985038",
    "request_type": "Abandoned Vehicles",
    "request_reason": "Abandoned/Junk Vehicles",
    "date_created": "2023-03-22T14:54:49.000",
    "date_modified": "2023-03-22T14:54:49.000",
    "request_status": "Pending",
    "responsible_agency": "Department of Public Works",
    "final_address": "6969 Marshal Foch St",
    "address_councildis": "A",
    "status": "Pending",
    "rowid": "985038",
    "final_x": "3670506.55265",
    "final_y": "553659.909335",
    "longitude": "-90.10203251776367",
    "latitude": "30.01670206316952",
    "geocoded_column": {
      "latitude": "30.01670206316952",
      "longitude": "-90.10203251776367"
    }
  },
  {
    "service_request": "2023-985037",
    "request_type": "Property Maintenance",
    "request_reason": "Property Maintenance",
    "date_created": "2023-03-22T14:53:54.000",
    "date_modified": "2023-03-22T14:53:54.000",
    "request_status": "Pending",
    "responsible_agency": "Department of Code Enforcement",
    "final_address": "13505 Trappers Ct",
    "address_councildis": "E",
    "status": "Pending",
    "rowid": "985037",
    "final_x": "3724259.17152",
    "final_y": "568977.30327",
    "longitude": "-89.93160729685378",
    "latitude": "30.057120842111786",
    "geocoded_column": {
      "latitude": "30.057120842111786",
      "longitude": "-89.93160729685378"
    }
  },
  {
    "service_request": "2023-985036",
    "request_type": "Abandoned Vehicles",
    "request_reason": "Abandoned/Junk Vehicles",
    "date_created": "2023-03-22T14:46:55.000",
    "date_modified": "2023-03-22T14:46:55.000",
    "request_status": "Pending",
    "responsible_agency": "Department of Public Works",
    "final_address": "4168 Bienville Ave",
    "address_councildis": "A",
    "status": "Pending",
    "rowid": "985036",
    "final_x": "3671101.96711",
    "final_y": "539243.38049",
    "longitude": "-90.1006412824638",
    "latitude": "29.977044006798113",
    "geocoded_column": {
      "latitude": "29.977044006798113",
      "longitude": "-90.1006412824638"
    }
  },
  {
    "service_request": "2023-985035",
    "request_type": "Abandoned Vehicles",
    "request_reason": "Abandoned/Junk Vehicles",
    "date_created": "2023-03-22T14:45:19.000",
    "date_modified": "2023-03-22T14:45:19.000",
    "request_status": "Pending",
    "responsible_agency": "Department of Public Works",
    "final_address": "4168 Bienville Ave",
    "address_councildis": "A",
    "status": "Pending",
    "rowid": "985035",
    "final_x": "3671101.96711",
    "final_y": "539243.38049",
    "longitude": "-90.1006412824638",
    "latitude": "29.977044006798113",
    "geocoded_column": {
      "latitude": "29.977044006798113",
      "longitude": "-90.1006412824638"
    }
  },
  {
    "service_request": "2023-985033",
    "request_type": "Trash/Recycling",
    "request_reason": "Illegal Dumping",
    "date_created": "2023-03-22T14:40:58.000",
    "date_modified": "2023-03-22T14:41:58.000",
    "request_status": "Pending",
    "responsible_agency": "Department of Code Enforcement",
    "final_address": "4019 Erato St",
    "address_councildis": "B",
    "status": "Pending",
    "rowid": "985033",
    "final_x": "3671605.62855",
    "final_y": "531116.137602",
    "longitude": "-90.09932698897069",
    "latitude": "29.9546819026717",
    "geocoded_column": {
      "latitude": "29.9546819026717",
      "longitude": "-90.09932698897069"
    }
  },
  {
    "service_request": "2023-985032",
    "request_type": "Trash/Recycling",
    "request_reason": "Request a Large Item Pick Up",
    "date_created": "2023-03-22T14:39:53.000",
    "date_modified": "2023-03-22T14:39:53.000",
    "request_status": "Pending",
    "responsible_agency": "Department of Sanitation",
    "final_address": "4220 General Ogden St",
    "address_councildis": "A",
    "status": "Assigned to Contractor",
    "contractor": "Richards Disposal",
    "rowid": "985032",
    "final_x": "3667104.88621",
    "final_y": "538348.129801",
    "longitude": "-90.11329550189211",
    "latitude": "29.974699998702857",
    "geocoded_column": {
      "latitude": "29.974699998702857",
      "longitude": "-90.11329550189211"
    }
  },
  {
    "service_request": "2023-985031",
    "request_type": "Trash/Recycling",
    "request_reason": "Missed Trash Pick-Up",
    "date_created": "2023-03-22T14:38:26.000",
    "date_modified": "2023-03-22T15:53:48.000",
    "case_close_date": "2023-03-22T10:53:48.000",
    "request_status": "Closed",
    "responsible_agency": "Department of Sanitation",
    "final_address": "5213 Pasteur Blvd",
    "address_councildis": "D",
    "status": "Assigned to Contractor",
    "contractor": "IV Waste",
    "contractor_action": "Completed",
    "rowid": "985031",
    "final_x": "3683065.15068",
    "final_y": "551971.895254",
    "longitude": "-90.06241185271466",
    "latitude": "30.0116835894476",
    "geocoded_column": {
      "latitude": "30.0116835894476",
      "longitude": "-90.06241185271466"
    }
  },
  {
    "service_request": "2023-985030",
    "request_type": "Trash/Recycling",
    "request_reason": "Repair Trash Cart",
    "date_created": "2023-03-22T14:36:44.000",
    "date_modified": "2023-03-22T14:36:45.000",
    "request_status": "Pending",
    "responsible_agency": "Department of Sanitation",
    "final_address": "1012 S Genois St",
    "address_councildis": "B",
    "status": "Assigned to Contractor",
    "contractor": "Richards Disposal",
    "rowid": "985030",
    "final_x": "3670014.78772",
    "final_y": "533610.232005",
    "longitude": "-90.10426579008823",
    "latitude": "29.961586850326654",
    "geocoded_column": {
      "latitude": "29.961586850326654",
      "longitude": "-90.10426579008823"
    }
  },
  {
    "service_request": "2023-985029",
    "request_type": "Abandoned Vehicles",
    "request_reason": "Abandoned/Junk Vehicles",
    "date_created": "2023-03-22T14:36:31.000",
    "date_modified": "2023-03-22T14:36:31.000",
    "request_status": "Pending",
    "responsible_agency": "Department of Public Works",
    "final_address": "2018 Delachaise St",
    "address_councildis": "B",
    "status": "Pending",
    "rowid": "985029",
    "final_x": "3673166.99924",
    "final_y": "522847.205627",
    "longitude": "-90.09467902420118",
    "latitude": "29.93189872021982",
    "geocoded_column": {
      "latitude": "29.93189872021982",
      "longitude": "-90.09467902420118"
    }
  },
  {
    "service_request": "2023-985028",
    "request_type": "Trash/Recycling",
    "request_reason": "Repair Trash Cart",
    "date_created": "2023-03-22T14:31:15.000",
    "date_modified": "2023-03-22T14:31:15.000",
    "request_status": "Pending",
    "responsible_agency": "Department of Sanitation",
    "final_address": "1010 S Genois St",
    "address_councildis": "B",
    "status": "Assigned to Contractor",
    "contractor": "Richards Disposal",
    "rowid": "985028",
    "final_x": "3670025.59233",
    "final_y": "533624.324869",
    "longitude": "-90.10423119347716",
    "latitude": "29.961625282350504",
    "geocoded_column": {
      "latitude": "29.961625282350504",
      "longitude": "-90.10423119347716"
    }
  },
  {
    "service_request": "2023-985027",
    "request_type": "Trash/Recycling",
    "request_reason": "Order Recycling Cart",
    "date_created": "2023-03-22T14:29:16.000",
    "date_modified": "2023-03-22T14:29:17.000",
    "request_status": "Pending",
    "responsible_agency": "Department of Sanitation",
    "final_address": "6416 Brunswick Ct",
    "address_councildis": "C",
    "status": "Pending",
    "rowid": "985027",
    "final_x": "3707771.75537",
    "final_y": "517040.712565",
    "longitude": "-89.98565204849417",
    "latitude": "29.914858947234954",
    "geocoded_column": {
      "latitude": "29.914858947234954",
      "longitude": "-89.98565204849417"
    }
  },
  {
    "service_request": "2023-985026",
    "request_type": "Trash/Recycling",
    "request_reason": "Replace Recycling Cart",
    "date_created": "2023-03-22T14:22:44.000",
    "date_modified": "2023-03-22T14:22:45.000",
    "request_status": "Pending",
    "responsible_agency": "Department of Sanitation",
    "final_address": "2832 Audubon St",
    "address_councildis": "B",
    "status": "Pending",
    "rowid": "985026",
    "final_x": "3667649.80141",
    "final_y": "531343.765058",
    "longitude": "-90.11181034544178",
    "latitude": "29.955424352154846",
    "geocoded_column": {
      "latitude": "29.955424352154846",
      "longitude": "-90.11181034544178"
    }
  },
  {
    "service_request": "2023-985025",
    "request_type": "Trash/Recycling",
    "request_reason": "Replace Trash Cart",
    "date_created": "2023-03-22T14:21:26.000",
    "date_modified": "2023-03-22T14:21:44.000",
    "request_status": "Pending",
    "responsible_agency": "Department of Sanitation",
    "final_address": "2832 Audubon St",
    "address_councildis": "B",
    "contractor": "Richards Disposal",
    "rowid": "985025",
    "final_x": "3667649.80141",
    "final_y": "531343.765058",
    "longitude": "-90.11181034544178",
    "latitude": "29.955424352154846",
    "geocoded_column": {
      "latitude": "29.955424352154846",
      "longitude": "-90.11181034544178"
    }
  },
  {
    "service_request": "2023-985024",
    "request_type": "Property Maintenance",
    "request_reason": "Property Maintenance",
    "date_created": "2023-03-22T14:20:04.000",
    "date_modified": "2023-03-22T14:20:04.000",
    "request_status": "Pending",
    "responsible_agency": "Department of Code Enforcement",
    "final_address": "4836 Deanne St",
    "address_councildis": "D",
    "status": "Pending",
    "rowid": "985024",
    "final_x": "3696446.03203",
    "final_y": "554610.30812",
    "longitude": "-90.02004072987313",
    "latitude": "30.018523356466634",
    "geocoded_column": {
      "latitude": "30.018523356466634",
      "longitude": "-90.02004072987313"
    }
  },
  {
    "service_request": "2023-985023",
    "request_type": "Roads/Drainage",
    "request_reason": "Alley Way",
    "date_created": "2023-03-22T14:18:32.000",
    "date_modified": "2023-03-22T14:18:32.000",
    "request_status": "Pending",
    "responsible_agency": "Department of Public Works",
    "final_address": "6737 General Haig St",
    "address_councildis": "A",
    "status": "Pending",
    "rowid": "985023",
    "final_x": "3671091.02164",
    "final_y": "552154.48175",
    "longitude": "-90.10023702534198",
    "latitude": "30.01254538878504",
    "geocoded_column": {
      "latitude": "30.01254538878504",
      "longitude": "-90.10023702534198"
    }
  },
  {
    "service_request": "2023-985022",
    "request_type": "Trash/Recycling",
    "request_reason": "Missed Trash Pick-Up",
    "date_created": "2023-03-22T14:12:06.000",
    "date_modified": "2023-03-22T14:12:07.000",
    "request_status": "Pending",
    "responsible_agency": "Department of Sanitation",
    "final_address": "4524 Perrier St",
    "address_councildis": "B",
    "status": "Assigned to Contractor",
    "contractor": "Richards Disposal",
    "rowid": "985022",
    "final_x": "3670299.62887",
    "final_y": "519960.127288",
    "longitude": "-90.10382882796866",
    "latitude": "29.924045095855618",
    "geocoded_column": {
      "latitude": "29.924045095855618",
      "longitude": "-90.10382882796866"
    }
  },
  {
    "service_request": "2023-985021",
    "request_type": "Trash/Recycling",
    "request_reason": "Request a Large Item Pick Up",
    "date_created": "2023-03-22T14:04:48.000",
    "date_modified": "2023-03-22T14:30:41.000",
    "case_close_date": "2023-03-22T09:30:41.000",
    "request_status": "Closed",
    "responsible_agency": "Department of Sanitation",
    "final_address": "2421 Royal St",
    "address_councildis": "C",
    "status": "Assigned to Contractor",
    "contractor": "IV Waste",
    "contractor_action": "Completed",
    "rowid": "985021",
    "final_x": "3686051.65775",
    "final_y": "534976.723974",
    "longitude": "-90.05357594805788",
    "latitude": "29.964861498109308",
    "geocoded_column": {
      "latitude": "29.964861498109308",
      "longitude": "-90.05357594805788"
    }
  },
  {
    "service_request": "2023-985020",
    "request_type": "Trash/Recycling",
    "request_reason": "MIssed Recycling Pick-Up",
    "date_created": "2023-03-22T14:02:57.000",
    "date_modified": "2023-03-22T14:02:58.000",
    "request_status": "Pending",
    "responsible_agency": "Department of Sanitation",
    "final_address": "2408 Pine St",
    "address_councildis": "A",
    "status": "Assigned to Contractor",
    "contractor": "Richards Disposal",
    "rowid": "985020",
    "final_x": "3666358.19073",
    "final_y": "530441.541698",
    "longitude": "-90.11591906807385",
    "latitude": "29.952981329720956",
    "geocoded_column": {
      "latitude": "29.952981329720956",
      "longitude": "-90.11591906807385"
    }
  },
  {
    "service_request": "2023-985019",
    "request_type": "Trash/Recycling",
    "request_reason": "Repair Recycling Cart",
    "date_created": "2023-03-22T14:02:38.000",
    "date_modified": "2023-03-22T14:02:39.000",
    "request_status": "Pending",
    "responsible_agency": "Department of Sanitation",
    "final_address": "2408 Pine St",
    "address_councildis": "A",
    "status": "Pending",
    "rowid": "985019",
    "final_x": "3666358.19073",
    "final_y": "530441.541698",
    "longitude": "-90.11591906807385",
    "latitude": "29.952981329720956",
    "geocoded_column": {
      "latitude": "29.952981329720956",
      "longitude": "-90.11591906807385"
    }
  },
  {
    "service_request": "2023-985018",
    "request_type": "Traffic Signals/Signs/Striping/Streetlights",
    "request_reason": "Street Light Outage/Malfunction",
    "date_created": "2023-03-22T14:01:38.000",
    "date_modified": "2023-03-22T14:01:40.000",
    "request_status": "Pending",
    "responsible_agency": "Department of Public Works",
    "final_address": "1724 St Maurice Ave",
    "address_councildis": "E",
    "status": "Assigned to Contractor",
    "contractor": "Legacy Professional Services",
    "rowid": "985018",
    "final_x": "3700717.51082",
    "final_y": "535501.798406",
    "longitude": "-90.00724323724141",
    "latitude": "29.965846724138213",
    "geocoded_column": {
      "latitude": "29.965846724138213",
      "longitude": "-90.00724323724141"
    }
  },
  {
    "service_request": "2023-985017",
    "request_type": "Trash/Recycling",
    "request_reason": "Return Trash Cart",
    "date_created": "2023-03-22T14:01:36.000",
    "date_modified": "2023-03-22T14:03:14.000",
    "request_status": "Pending",
    "responsible_agency": "Department of Sanitation",
    "final_address": "3641 Paris Ave",
    "address_councildis": "D",
    "status": "Assigned to Contractor",
    "contractor": "IV Waste",
    "rowid": "985017",
    "final_x": "3679737.14191",
    "final_y": "545838.637072",
    "longitude": "-90.07313953840585",
    "latitude": "29.994920396059175",
    "geocoded_column": {
      "latitude": "29.994920396059175",
      "longitude": "-90.07313953840585"
    }
  },
  {
    "service_request": "2023-985016",
    "request_type": "Roads/Drainage",
    "request_reason": "Damaged Sidewalk",
    "date_created": "2023-03-22T13:59:33.000",
    "date_modified": "2023-03-22T14:57:33.000",
    "request_status": "Pending",
    "responsible_agency": "Department of Public Works",
    "final_address": "6346 Arts St",
    "address_councildis": "D",
    "status": "Inspected",
    "rowid": "985016",
    "final_x": "3685548.767",
    "final_y": "556641.370266",
    "longitude": "-90.05440042006849",
    "latitude": "30.024446947910725",
    "geocoded_column": {
      "latitude": "30.024446947910725",
      "longitude": "-90.05440042006849"
    }
  },
  {
    "service_request": "2023-985015",
    "request_type": "Trash/Recycling",
    "request_reason": "Order Trash Cart",
    "date_created": "2023-03-22T13:58:41.000",
    "date_modified": "2023-03-22T13:58:41.000",
    "request_status": "Pending",
    "responsible_agency": "Department of Sanitation",
    "final_address": "4755 Werner Dr",
    "address_councildis": "E",
    "status": "Assigned to Contractor",
    "contractor": "Waste Pro",
    "rowid": "985015",
    "final_x": "3704841.68535",
    "final_y": "555412.170073",
    "longitude": "-89.99348411302033",
    "latitude": "30.020460909997713",
    "geocoded_column": {
      "latitude": "30.020460909997713",
      "longitude": "-89.99348411302033"
    }
  },
  {
    "service_request": "2023-985014",
    "request_type": "Trash/Recycling",
    "request_reason": "Request a Large Item Pick Up",
    "date_created": "2023-03-22T13:56:28.000",
    "date_modified": "2023-03-22T13:56:29.000",
    "request_status": "Pending",
    "responsible_agency": "Department of Sanitation",
    "final_address": "7100 Grey Oaks Dr",
    "address_councildis": "E",
    "status": "Assigned to Contractor",
    "contractor": "Waste Pro",
    "rowid": "985014",
    "final_x": "3702137.68036",
    "final_y": "559321.485149",
    "longitude": "-90.00188435689445",
    "latitude": "30.031296679409138",
    "geocoded_column": {
      "latitude": "30.031296679409138",
      "longitude": "-90.00188435689445"
    }
  },
  {
    "service_request": "2023-985013",
    "request_type": "Trash/Recycling",
    "request_reason": "Repair Recycling Cart",
    "date_created": "2023-03-22T13:55:55.000",
    "date_modified": "2023-03-22T13:55:56.000",
    "request_status": "Pending",
    "responsible_agency": "Department of Sanitation",
    "final_address": "3425 S Liberty St",
    "address_councildis": "B",
    "status": "Pending",
    "rowid": "985013",
    "final_x": "3672963.63681",
    "final_y": "523764.787067",
    "longitude": "-90.09528972092338",
    "latitude": "29.934427815361854",
    "geocoded_column": {
      "latitude": "29.934427815361854",
      "longitude": "-90.09528972092338"
    }
  },
  {
    "service_request": "2023-985012",
    "request_type": "Trash/Recycling",
    "request_reason": "Request a Large Item Pick Up",
    "date_created": "2023-03-22T13:53:12.000",
    "date_modified": "2023-03-22T14:13:12.000",
    "case_close_date": "2023-03-22T09:13:12.000",
    "request_status": "Closed",
    "responsible_agency": "Department of Sanitation",
    "final_address": "4908 Pecan St",
    "address_councildis": "E",
    "status": "Duplicate Request",
    "contractor": "Waste Pro",
    "rowid": "985012",
    "final_x": "3701654.75191",
    "final_y": "555110.973529",
    "longitude": "-90.0035648305922",
    "latitude": "30.019734815594887",
    "geocoded_column": {
      "latitude": "30.019734815594887",
      "longitude": "-90.0035648305922"
    }
  },
  {
    "service_request": "2023-985011",
    "request_type": "Trash/Recycling",
    "request_reason": "Missed Trash Pick-Up",
    "date_created": "2023-03-22T13:51:21.000",
    "date_modified": "2023-03-22T13:51:21.000",
    "request_status": "Pending",
    "responsible_agency": "Department of Sanitation",
    "final_address": "5014 Freret St",
    "address_councildis": "B",
    "status": "Assigned to Contractor",
    "contractor": "Richards Disposal",
    "rowid": "985011",
    "final_x": "3668672.34465",
    "final_y": "523876.98566",
    "longitude": "-90.10883347363414",
    "latitude": "29.93486311936244",
    "geocoded_column": {
      "latitude": "29.93486311936244",
      "longitude": "-90.10883347363414"
    }
  },
  {
    "service_request": "2023-985010",
    "request_type": "Mosquito, Termite & Rodent Control",
    "request_reason": "Non-Rodent Complaint (Mice, Possums, Snakes)",
    "date_created": "2023-03-22T13:47:24.000",
    "date_modified": "2023-03-22T13:47:24.000",
    "request_status": "Pending",
    "responsible_agency": "Mosquito, Termite & Rodent Control Board",
    "final_address": "830 Marigny St",
    "address_councildis": "C",
    "status": "Pending",
    "rowid": "985010",
    "final_x": "3685443.40444",
    "final_y": "535519.789382",
    "longitude": "-90.05547764408743",
    "latitude": "29.966373405442624",
    "geocoded_column": {
      "latitude": "29.966373405442624",
      "longitude": "-90.05547764408743"
    }
  },
  {
    "service_request": "2023-985009",
    "request_type": "Roads/Drainage",
    "request_reason": "Catch Basin - Clogged",
    "date_created": "2023-03-22T13:42:32.000",
    "date_modified": "2023-03-22T14:13:42.000",
    "case_close_date": "2023-03-21T19:00:00.000",
    "request_status": "Closed",
    "responsible_agency": "Department of Public Works",
    "final_address": "800 BLK Loyola Ave",
    "address_councildis": "B",
    "status": "Resolved",
    "rowid": "985009",
    "final_x": "3678716.65729",
    "final_y": "528268.059065",
    "longitude": "-90.07697170589817",
    "latitude": "29.94663815036923",
    "geocoded_column": {
      "latitude": "29.94663815036923",
      "longitude": "-90.07697170589817"
    }
  },
  {
    "service_request": "2023-985008",
    "request_type": "Trash/Recycling",
    "request_reason": "Order Recycling Cart",
    "date_created": "2023-03-22T13:40:27.000",
    "date_modified": "2023-03-22T13:40:27.000",
    "request_status": "Pending",
    "responsible_agency": "Department of Sanitation",
    "final_address": "7921 Nelson St",
    "address_councildis": "A",
    "status": "Pending",
    "rowid": "985008",
    "final_x": "3665653.22535",
    "final_y": "531473.152579",
    "longitude": "-90.11811050159713",
    "latitude": "29.955838499866445",
    "geocoded_column": {
      "latitude": "29.955838499866445",
      "longitude": "-90.11811050159713"
    }
  },
  {
    "service_request": "2023-985007",
    "request_type": "Trash/Recycling",
    "request_reason": "MIssed Recycling Pick-Up",
    "date_created": "2023-03-22T13:33:32.000",
    "date_modified": "2023-03-22T13:33:32.000",
    "request_status": "Pending",
    "responsible_agency": "Department of Sanitation",
    "final_address": "9701 W Wheaton Cir",
    "address_councildis": "E",
    "status": "Assigned to Contractor",
    "contractor": "Waste Pro",
    "rowid": "985007",
    "final_x": "3708544.50398",
    "final_y": "562225.718175",
    "longitude": "-89.98153045271161",
    "latitude": "30.03907591542858",
    "geocoded_column": {
      "latitude": "30.03907591542858",
      "longitude": "-89.98153045271161"
    }
  },
  {
    "service_request": "2023-985006",
    "request_type": "Trash/Recycling",
    "request_reason": "Order Trash Cart",
    "date_created": "2023-03-22T13:29:06.000",
    "date_modified": "2023-03-22T13:29:07.000",
    "request_status": "Pending",
    "responsible_agency": "Department of Sanitation",
    "final_address": "3216 Deers St",
    "address_councildis": "D",
    "status": "Assigned to Contractor",
    "contractor": "IV Waste",
    "rowid": "985006",
    "final_x": "3687933.63849",
    "final_y": "544843.150415",
    "longitude": "-90.04728308807518",
    "latitude": "29.991932752698744",
    "geocoded_column": {
      "latitude": "29.991932752698744",
      "longitude": "-90.04728308807518"
    }
  },
  {
    "service_request": "2023-985005",
    "request_type": "Trash/Recycling",
    "request_reason": "Repair Trash Cart",
    "date_created": "2023-03-22T13:28:36.000",
    "date_modified": "2023-03-22T13:28:37.000",
    "request_status": "Pending",
    "responsible_agency": "Department of Sanitation",
    "final_address": "4436 Longfellow Dr",
    "address_councildis": "E",
    "status": "Assigned to Contractor",
    "contractor": "Waste Pro",
    "rowid": "985005",
    "final_x": "3709706.61451",
    "final_y": "554316.20316",
    "longitude": "-89.97815351487934",
    "latitude": "30.017290114209302",
    "geocoded_column": {
      "latitude": "30.017290114209302",
      "longitude": "-89.97815351487934"
    }
  },