[
  {
    "service_request": "2024-1059092",
    "request_type": "Trash/Recycling",
    "request_reason": "Replace Trash Cart",
    "date_created": "2024-01-04T01:49:53.000",
    "date_modified": "2024-01-04T01:49:54.000",
    "request_status": "Pending",
    "responsible_agency": "Department of Sanitation",
    "final_address": "2429 Felicity St",
    "address_councildis": "B",
    "status": "Assigned to Contractor",
    "contractor": "Richards Disposal",
    "rowid": "1059092",
    "final_x": "3675998.05345",
    "final_y": "527112.458495",
    "longitude": "-90.08559505550309",
    "latitude": "29.94354231357682",
    "geocoded_column": {
      "latitude": "29.94354231357682",
      "longitude": "-90.08559505550309"
    }
  },
  {
    "service_request": "2024-1059091",
    "request_type": "Traffic Signals/Signs/Striping/Streetlights",
    "request_reason": "Road Surface Marking Maintenance-Parking Lane",
    "date_created": "2024-01-04T01:03:04.000",
    "date_modified": "2024-01-04T01:03:04.000",
    "request_status": "Pending",
    "responsible_agency": "Department of Public Works",
    "final_address": "1300 Lawrence St",
    "address_councildis": "C",
    "status": "Pending",
    "rowid": "1059091",
    "final_x": "3689413.31356",
    "final_y": "525702.042045",
    "longitude": "-90.04328983406728",
    "latitude": "29.939255652397552",
    "geocoded_column": {
      "latitude": "29.939255652397552",
      "longitude": "-90.04328983406728"
    }
  },
  {
    "service_request": "2024-1059089",
    "request_type": "Roads/Drainage",
    "request_reason": "Pothole",
    "date_created": "2024-01-04T00:16:01.000",
    "date_modified": "2024-01-04T00:16:01.000",
    "request_status": "Pending",
    "responsible_agency": "Department of Public Works",
    "final_address": "4314 Pitt St",
    "address_councildis": "B",
    "status": "Pending",
    "rowid": "1059089",
    "final_x": "3671181.83662",
    "final_y": "520562.776248",
    "longitude": "-90.10102354544037",
    "latitude": "29.92567612958479",
    "geocoded_column": {
      "latitude": "29.92567612958479",
      "longitude": "-90.10102354544037"
    }
  },
  {
    "service_request": "2024-1059088",
    "request_type": "Trash/Recycling",
    "request_reason": "Order Recycling Cart",
    "date_created": "2024-01-03T23:58:29.000",
    "date_modified": "2024-01-03T23:58:29.000",
    "request_status": "Pending",
    "responsible_agency": "Department of Sanitation",
    "final_address": "5656 S Rocheblave St",
    "address_councildis": "A",
    "status": "Pending",
    "rowid": "1059088",
    "final_x": "3667989.40666",
    "final_y": "528462.730432",
    "longitude": "-90.11083505042028",
    "latitude": "29.947492488228885",
    "geocoded_column": {
      "latitude": "29.947492488228885",
      "longitude": "-90.11083505042028"
    }
  },
  {
    "service_request": "2024-1059087",
    "request_type": "Property Maintenance",
    "request_reason": "Property Maintenance",
    "date_created": "2024-01-03T23:19:01.000",
    "date_modified": "2024-01-03T23:19:01.000",
    "request_status": "Pending",
    "responsible_agency": "Department of Code Enforcement",
    "final_address": "1502 Calhoun St",
    "address_councildis": "A",
    "status": "Pending",
    "rowid": "1059087",
    "final_x": "3664502.37172",
    "final_y": "522297.190202",
    "longitude": "-90.12205080480256",
    "latitude": "29.930641055345404",
    "geocoded_column": {
      "latitude": "29.930641055345404",
      "longitude": "-90.12205080480256"
    }
  },
  {
    "service_request": "2024-1059086",
    "request_type": "Trash/Recycling",
    "request_reason": "Order Trash Cart",
    "date_created": "2024-01-03T22:53:53.000",
    "date_modified": "2024-01-03T22:53:54.000",
    "request_status": "Pending",
    "responsible_agency": "Department of Sanitation",
    "final_address": "927 Dublin St",
    "address_councildis": "A",
    "status": "Assigned to Contractor",
    "contractor": "Richards Disposal",
    "rowid": "1059086",
    "final_x": "3661166.78624",
    "final_y": "527966.860735",
    "longitude": "-90.13239322580853",
    "latitude": "29.94632739157086",
    "geocoded_column": {
      "latitude": "29.94632739157086",
      "longitude": "-90.13239322580853"
    }
  },
  {
    "service_request": "2024-1059085",
    "request_type": "Trash/Recycling",
    "request_reason": "Order Recycling Cart",
    "date_created": "2024-01-03T22:44:06.000",
    "date_modified": "2024-01-03T22:44:06.000",
    "request_status": "Pending",
    "responsible_agency": "Department of Sanitation",
    "final_address": "3031 Mistletoe St",
    "address_councildis": "A",
    "status": "Pending",
    "rowid": "1059085",
    "final_x": "3663659.99482",
    "final_y": "535945.564487",
    "longitude": "-90.12425543911928",
    "latitude": "29.968194145386846",
    "geocoded_column": {
      "latitude": "29.968194145386846",
      "longitude": "-90.12425543911928"
    }
  },
  {
    "service_request": "2024-1059083",
    "request_type": "Roads/Drainage",
    "request_reason": "Pothole",
    "date_created": "2024-01-03T22:26:31.000",
    "date_modified": "2024-01-03T22:26:31.000",
    "request_status": "Pending",
    "responsible_agency": "Department of Public Works",
    "final_address": "4200 Perrier St",
    "address_councildis": "B",
    "status": "Pending",
    "rowid": "1059083",
    "final_x": "3671579.76411",
    "final_y": "520095.16844",
    "longitude": "-90.09978329705561",
    "latitude": "29.924378584144126",
    "geocoded_column": {
      "latitude": "29.924378584144126",
      "longitude": "-90.09978329705561"
    }
  },
  {
    "service_request": "2024-1059082",
    "request_type": "Trash/Recycling",
    "request_reason": "Missed Trash Pick-Up",
    "date_created": "2024-01-03T22:02:22.000",
    "date_modified": "2024-01-03T22:02:23.000",
    "request_status": "Pending",
    "responsible_agency": "Department of Sanitation",
    "final_address": "20309 Old Spanish Trl",
    "address_councildis": "E",
    "status": "Assigned to Contractor",
    "contractor": "Waste Pro",
    "rowid": "1059082",
    "final_x": "3760591.94377",
    "final_y": "572627.128617",
    "longitude": "-89.81661493681592",
    "latitude": "30.065884030593143",
    "geocoded_column": {
      "latitude": "30.065884030593143",
      "longitude": "-89.81661493681592"
    }
  },
  {
    "service_request": "2024-1059081",
    "request_type": "Traffic Signals/Signs/Striping/Streetlights",
    "request_reason": "Street Light Outage/Malfunction",
    "date_created": "2024-01-03T21:52:05.000",
    "date_modified": "2024-01-03T21:52:06.000",
    "request_status": "Pending",
    "responsible_agency": "Department of Public Works",
    "final_address": "3421 Cecil St",
    "address_councildis": "A",
    "status": "Assigned to Contractor",
    "contractor": "Legacy Professional Services",
    "rowid": "1059081",
    "final_x": "3663430.14541",
    "final_y": "537906.953225",
    "longitude": "-90.12491599220616",
    "latitude": "29.973593983445653",
    "geocoded_column": {
      "latitude": "29.973593983445653",
      "longitude": "-90.12491599220616"
    }
  },
  {
    "service_request": "2024-1059080",
    "request_type": "Trash/Recycling",
    "request_reason": "Missed Trash Pick-Up",
    "date_created": "2024-01-03T21:06:45.000",
    "date_modified": "2024-01-03T21:06:46.000",
    "request_status": "Pending",
    "responsible_agency": "Department of Sanitation",
    "final_address": "6038 St Roch Ave",
    "address_councildis": "D",
    "status": "Assigned to Contractor",
    "contractor": "IV Waste",
    "rowid": "1059080",
    "final_x": "3684849.52105",
    "final_y": "555387.567513",
    "longitude": "-90.05665405152598",
    "latitude": "30.02102089510698",
    "geocoded_column": {
      "latitude": "30.02102089510698",
      "longitude": "-90.05665405152598"
    }
  },
  {
    "service_request": "2024-1059079",
    "request_type": "Trash/Recycling",
    "request_reason": "MIssed Recycling Pick-Up",
    "date_created": "2024-01-03T20:55:41.000",
    "date_modified": "2024-01-03T20:55:42.000",
    "request_status": "Pending",
    "responsible_agency": "Department of Sanitation",
    "final_address": "3315 Chestnut St",
    "address_councildis": "B",
    "status": "Assigned to Contractor",
    "contractor": "Richards Disposal",
    "rowid": "1059079",
    "final_x": "3674957.27086",
    "final_y": "520448.399736",
    "longitude": "-90.08910955005064",
    "latitude": "29.92524944494753",
    "geocoded_column": {
      "latitude": "29.92524944494753",
      "longitude": "-90.08910955005064"
    }
  },
  {
    "service_request": "2024-1059078",
    "request_type": "Trash/Recycling",
    "request_reason": "Order Recycling Cart",
    "date_created": "2024-01-03T20:54:09.000",
    "date_modified": "2024-01-03T20:54:09.000",
    "request_status": "Pending",
    "responsible_agency": "Department of Sanitation",
    "final_address": "1415 Marigny St",
    "address_councildis": "C",
    "status": "Pending",
    "rowid": "1059078",
    "final_x": "3685355.67561",
    "final_y": "537577.803208",
    "longitude": "-90.05568222185046",
    "latitude": "29.972034917849008",
    "geocoded_column": {
      "latitude": "29.972034917849008",
      "longitude": "-90.05568222185046"
    }
  },
  {
    "service_request": "2024-1059077",
    "request_type": "Property Maintenance",
    "request_reason": "Property Maintenance",
    "date_created": "2024-01-03T20:45:21.000",
    "date_modified": "2024-01-03T20:45:21.000",
    "request_status": "Pending",
    "responsible_agency": "Department of Code Enforcement",
    "final_address": "1423 State St",
    "address_councildis": "A",
    "status": "Pending",
    "rowid": "1059077",
    "final_x": "3665484.57818",
    "final_y": "521309.431929",
    "longitude": "-90.11898315658152",
    "latitude": "29.927896445904437",
    "geocoded_column": {
      "latitude": "29.927896445904437",
      "longitude": "-90.11898315658152"
    }
  },
  {
    "service_request": "2024-1059075",
    "request_type": "Traffic Signals/Signs/Striping/Streetlights",
    "request_reason": "Street Light Outage/Malfunction",
    "date_created": "2024-01-03T20:34:34.000",
    "date_modified": "2024-01-03T20:34:35.000",
    "request_status": "Pending",
    "responsible_agency": "Department of Public Works",
    "final_address": "2928 Ursulines Ave",
    "address_councildis": "A",
    "status": "Assigned to Contractor",
    "contractor": "Legacy Professional Services",
    "rowid": "1059075",
    "final_x": "3676594.07797",
    "final_y": "538858.358793",
    "longitude": "-90.08330868078811",
    "latitude": "29.975821725612974",
    "geocoded_column": {
      "latitude": "29.975821725612974",
      "longitude": "-90.08330868078811"
    }
  },
  {
    "service_request": "2024-1059073",
    "request_type": "Trash/Recycling",
    "request_reason": "Order Trash Cart",
    "date_created": "2024-01-03T20:20:33.000",
    "date_modified": "2024-01-03T20:20:34.000",
    "request_status": "Pending",
    "responsible_agency": "Department of Sanitation",
    "final_address": "927 St Philip St",
    "address_councildis": "C",
    "status": "Assigned to Contractor",
    "contractor": "Empire Services",
    "rowid": "1059073",
    "final_x": "3682489.65448",
    "final_y": "533943.173061",
    "longitude": "-90.06486064822666",
    "latitude": "29.962128496590026",
    "geocoded_column": {
      "latitude": "29.962128496590026",
      "longitude": "-90.06486064822666"
    }
  },
  {
    "service_request": "2024-1059072",
    "request_type": "Trash/Recycling",
    "request_reason": "Missed Trash Pick-Up",
    "date_created": "2024-01-03T20:02:10.000",
    "date_modified": "2024-01-03T20:02:10.000",
    "request_status": "Pending",
    "responsible_agency": "Department of Sanitation",
    "final_address": "4867 Redwood St",
    "address_councildis": "E",
    "status": "Assigned to Contractor",
    "contractor": "Waste Pro",
    "rowid": "1059072",
    "final_x": "3712485.48197",
    "final_y": "556928.656538",
    "longitude": "-89.96927524525323",
    "latitude": "30.024382673922148",
    "geocoded_column": {
      "latitude": "30.024382673922148",
      "longitude": "-89.96927524525323"
    }
  },
  {
    "service_request": "2024-1059071",
    "request_type": "Trash/Recycling",
    "request_reason": "Missed Trash Pick-Up",
    "date_created": "2024-01-03T19:43:54.000",
    "date_modified": "2024-01-03T19:43:55.000",
    "request_status": "Pending",
    "responsible_agency": "Department of Sanitation",
    "final_address": "171 Horseshoe Bend",
    "address_councildis": "E",
    "status": "Assigned to Contractor",
    "contractor": "Waste Pro",
    "rowid": "1059071",
    "final_x": "3720576.19833",
    "final_y": "561938.537887",
    "longitude": "-89.94351835786871",
    "latitude": "30.037890506994696",
    "geocoded_column": {
      "latitude": "30.037890506994696",
      "longitude": "-89.94351835786871"
    }
  },
  {
    "service_request": "2024-1059070",
    "request_type": "Trash/Recycling",
    "request_reason": "Order Recycling Cart",
    "date_created": "2024-01-03T19:19:57.000",
    "date_modified": "2024-01-03T19:19:57.000",
    "request_status": "Pending",
    "responsible_agency": "Department of Sanitation",
    "final_address": "4963 Venus St",
    "address_councildis": "D",
    "status": "Pending",
    "rowid": "1059070",
    "final_x": "3686501.4239",
    "final_y": "551523.490581",
    "longitude": "-90.05157109831003",
    "latitude": "30.010345393857623",
    "geocoded_column": {
      "latitude": "30.010345393857623",
      "longitude": "-90.05157109831003"
    }
  },
  {
    "service_request": "2024-1059069",
    "request_type": "Roads/Drainage",
    "request_reason": "Damaged Sidewalk",
    "date_created": "2024-01-03T19:13:42.000",
    "date_modified": "2024-01-03T19:13:42.000",
    "request_status": "Pending",
    "responsible_agency": "Department of Public Works",
    "final_address": "1415 Nashville Ave",
    "address_councildis": "A",
    "status": "Pending",
    "rowid": "1059069",
    "final_x": "3666063.34528",
    "final_y": "521127.906745",
    "longitude": "-90.11716219868727",
    "latitude": "29.927380430600902",
    "geocoded_column": {
      "latitude": "29.927380430600902",
      "longitude": "-90.11716219868727"
    }
  },
  {
    "service_request": "2024-1059068",
    "request_type": "Roads/Drainage",
    "request_reason": "Catch Basin - Clogged",
    "date_created": "2024-01-03T19:11:37.000",
    "date_modified": "2024-01-03T19:11:37.000",
    "request_status": "Pending",
    "responsible_agency": "Department of Public Works",
    "final_address": "1415 Nashville Ave",
    "address_councildis": "A",
    "status": "Pending",
    "rowid": "1059068",
    "final_x": "3666063.34528",
    "final_y": "521127.906745",
    "longitude": "-90.11716219868727",
    "latitude": "29.927380430600902",
    "geocoded_column": {
      "latitude": "29.927380430600902",
      "longitude": "-90.11716219868727"
    }
  },
  {
    "service_request": "2024-1059067",
    "request_type": "Roads/Drainage",
    "request_reason": "Catch Basin - Clogged",
    "date_created": "2024-01-03T19:08:41.000",
    "date_modified": "2024-01-03T19:08:41.000",
    "request_status": "Pending",
    "responsible_agency": "Department of Public Works",
    "final_address": "1415 Nashville Ave",
    "address_councildis": "A",
    "status": "Pending",
    "rowid": "1059067",
    "final_x": "3666063.34528",
    "final_y": "521127.906745",
    "longitude": "-90.11716219868727",
    "latitude": "29.927380430600902",
    "geocoded_column": {
      "latitude": "29.927380430600902",
      "longitude": "-90.11716219868727"
    }
  },
  {
    "service_request": "2024-1059066",
    "request_type": "Trash/Recycling",
    "request_reason": "MIssed Recycling Pick-Up",
    "date_created": "2024-01-03T18:49:52.000",
    "date_modified": "2024-01-03T18:49:53.000",
    "request_status": "Pending",
    "responsible_agency": "Department of Sanitation",
    "final_address": "11137 Winchester Park Dr",
    "address_councildis": "E",
    "status": "Assigned to Contractor",
    "contractor": "Waste Pro",
    "rowid": "1059066",
    "final_x": "3715016.478",
    "final_y": "561447.954399",
    "longitude": "-89.96110682674389",
    "latitude": "30.036725848477847",
    "geocoded_column": {
      "latitude": "30.036725848477847",
      "longitude": "-89.96110682674389"
    }
  },
  {
    "service_request": "2024-1059065",
    "request_type": "Trash/Recycling",
    "request_reason": "Missed Trash Pick-Up",
    "date_created": "2024-01-03T18:47:59.000",
    "date_modified": "2024-01-03T18:48:00.000",
    "request_status": "Pending",
    "responsible_agency": "Department of Sanitation",
    "final_address": "11137 Winchester Park Dr",
    "address_councildis": "E",
    "status": "Assigned to Contractor",
    "contractor": "Waste Pro",
    "rowid": "1059065",
    "final_x": "3715016.478",
    "final_y": "561447.954399",
    "longitude": "-89.96110682674389",
    "latitude": "30.036725848477847",
    "geocoded_column": {
      "latitude": "30.036725848477847",
      "longitude": "-89.96110682674389"
    }
  },
  {
    "service_request": "2024-1059064",
    "request_type": "Mosquito, Termite & Rodent Control",
    "request_reason": "Mosquito Complaint",
    "date_created": "2024-01-03T18:41:06.000",
    "date_modified": "2024-01-03T18:41:06.000",
    "request_status": "Pending",
    "responsible_agency": "Mosquito, Termite & Rodent Control Board",
    "final_address": "7527 Lady Gray St",
    "address_councildis": "E",
    "status": "Pending",
    "rowid": "1059064",
    "final_x": "3710349.10885",
    "final_y": "564779.36957",
    "longitude": "-89.97573182297815",
    "latitude": "30.04603877127728",
    "geocoded_column": {
      "latitude": "30.04603877127728",
      "longitude": "-89.97573182297815"
    }
  },
  {
    "service_request": "2024-1059063",
    "request_type": "Trash/Recycling",
    "request_reason": "Replace Trash Cart",
    "date_created": "2024-01-03T18:39:12.000",
    "date_modified": "2024-01-03T18:39:13.000",
    "request_status": "Pending",
    "responsible_agency": "Department of Sanitation",
    "final_address": "7810 Colapissa St",
    "address_councildis": "B",
    "status": "Assigned to Contractor",
    "contractor": "Richards Disposal",
    "rowid": "1059063",
    "final_x": "3667254.59233",
    "final_y": "532695.62714",
    "longitude": "-90.11301281532538",
    "latitude": "29.95915310815409",
    "geocoded_column": {
      "latitude": "29.95915310815409",
      "longitude": "-90.11301281532538"
    }
  },
  {
    "service_request": "2024-1059062",
    "request_type": "Traffic Signals/Signs/Striping/Streetlights",
    "request_reason": "Street Light Outage/Malfunction",
    "date_created": "2024-01-03T18:38:13.000",
    "date_modified": "2024-01-03T18:38:14.000",
    "request_status": "Pending",
    "responsible_agency": "Department of Public Works",
    "final_address": "81 Yosemite Dr",
    "address_councildis": "C",
    "status": "Assigned to Contractor",
    "contractor": "Legacy Professional Services",
    "rowid": "1059062",
    "final_x": "3699372.69815",
    "final_y": "516019.04594",
    "longitude": "-90.01219946691747",
    "latitude": "29.912318666675368",
    "geocoded_column": {
      "latitude": "29.912318666675368",
      "longitude": "-90.01219946691747"
    }
  },
  {
    "service_request": "2024-1059061",
    "request_type": "Trash/Recycling",
    "request_reason": "Request a Large Item Pick Up",
    "date_created": "2024-01-03T18:37:37.000",
    "date_modified": "2024-01-03T18:37:38.000",
    "request_status": "Pending",
    "responsible_agency": "Department of Sanitation",
    "final_address": "4118 Laurel St",
    "address_councildis": "B",
    "status": "Assigned to Contractor",
    "contractor": "Richards Disposal",
    "rowid": "1059061",
    "final_x": "3672063.56283",
    "final_y": "518102.723318",
    "longitude": "-90.0983238969433",
    "latitude": "29.918885665174795",
    "geocoded_column": {
      "latitude": "29.918885665174795",
      "longitude": "-90.0983238969433"
    }
  },
  {
    "service_request": "2024-1059060",
    "request_type": "Trash/Recycling",
    "request_reason": "Order Trash Cart",
    "date_created": "2024-01-03T18:34:38.000",
    "date_modified": "2024-01-03T18:34:39.000",
    "request_status": "Pending",
    "responsible_agency": "Department of Sanitation",
    "final_address": "2400 BLK Saint Thomas St",
    "address_councildis": "B",
    "status": "Assigned to Contractor",
    "contractor": "Richards Disposal",
    "rowid": "1059060",
    "final_x": "3678958.95373",
    "final_y": "519892.582378",
    "longitude": "-90.07649674909138",
    "latitude": "29.923601040727778",
    "geocoded_column": {
      "latitude": "29.923601040727778",
      "longitude": "-90.07649674909138"
    }
  },
  {
    "service_request": "2024-1059059",
    "request_type": "Trash/Recycling",
    "request_reason": "Missed Trash Pick-Up",
    "date_created": "2024-01-03T18:27:35.000",
    "date_modified": "2024-01-03T18:27:36.000",
    "request_status": "Pending",
    "responsible_agency": "Department of Sanitation",
    "final_address": "2831 Audubon St",
    "address_councildis": "B",
    "status": "Assigned to Contractor",
    "contractor": "Richards Disposal",
    "rowid": "1059059",
    "final_x": "3667694.17434",
    "final_y": "531295.870018",
    "longitude": "-90.11167184375363",
    "latitude": "29.955291355719048",
    "geocoded_column": {
      "latitude": "29.955291355719048",
      "longitude": "-90.11167184375363"
    }
  },
  {
    "service_request": "2024-1059058",
    "request_type": "Abandoned Vehicles",
    "request_reason": "Abandoned/Junk Vehicles",
    "date_created": "2024-01-03T18:23:34.000",
    "date_modified": "2024-01-03T18:23:34.000",
    "request_status": "Pending",
    "responsible_agency": "Department of Public Works",
    "final_address": "7600 BLK Pineridge St",
    "address_councildis": "E",
    "status": "Pending",
    "rowid": "1059058",
    "final_x": "3718763.90561",
    "final_y": "572287.936905",
    "longitude": "-89.9488503991941",
    "latitude": "30.06640739884932",
    "geocoded_column": {
      "latitude": "30.06640739884932",
      "longitude": "-89.9488503991941"
    }
  },
  {
    "service_request": "2024-1059057",
    "request_type": "Traffic Signals/Signs/Striping/Streetlights",
    "request_reason": "Street Light Outage/Malfunction",
    "date_created": "2024-01-03T18:19:13.000",
    "date_modified": "2024-01-03T18:19:14.000",
    "request_status": "Pending",
    "responsible_agency": "Department of Public Works",
    "final_address": "6478 Vicksburg St",
    "address_councildis": "A",
    "status": "Assigned to Contractor",
    "contractor": "Legacy Professional Services",
    "rowid": "1059057",
    "final_x": "3669104.12474",
    "final_y": "550626.5021",
    "longitude": "-90.10656622320515",
    "latitude": "30.00840262457053",
    "geocoded_column": {
      "latitude": "30.00840262457053",
      "longitude": "-90.10656622320515"
    }
  },
  {
    "service_request": "2024-1059056",
    "request_type": "Trash/Recycling",
    "request_reason": "Order Trash Cart",
    "date_created": "2024-01-03T18:07:03.000",
    "date_modified": "2024-01-03T18:07:04.000",
    "request_status": "Pending",
    "responsible_agency": "Department of Sanitation",
    "final_address": "4558 Francis Dr",
    "address_councildis": "D",
    "status": "Assigned to Contractor",
    "contractor": "Waste Pro",
    "rowid": "1059056",
    "final_x": "3698258.86346",
    "final_y": "553458.642135",
    "longitude": "-90.01435476398579",
    "latitude": "30.015299455686737",
    "geocoded_column": {
      "latitude": "30.015299455686737",
      "longitude": "-90.01435476398579"
    }
  },
  {
    "service_request": "2024-1059055",
    "request_type": "Trash/Recycling",
    "request_reason": "Request a Large Item Pick Up",
    "date_created": "2024-01-03T17:56:32.000",
    "date_modified": "2024-01-03T17:56:33.000",
    "request_status": "Pending",
    "responsible_agency": "Department of Sanitation",
    "final_address": "5496 Hawthorne Pl",
    "address_councildis": "A",
    "status": "Assigned to Contractor",
    "contractor": "IV Waste",
    "rowid": "1059055",
    "final_x": "3667765.03911",
    "final_y": "543877.12667",
    "longitude": "-90.1110242954644",
    "latitude": "29.989883525459017",
    "geocoded_column": {
      "latitude": "29.989883525459017",
      "longitude": "-90.1110242954644"
    }
  },
  {
    "service_request": "2024-1059054",
    "request_type": "Roads/Drainage",
    "request_reason": "Street Flooding / Drainage",
    "date_created": "2024-01-03T17:49:51.000",
    "date_modified": "2024-01-03T17:49:51.000",
    "request_status": "Pending",
    "responsible_agency": "Department of Public Works",
    "final_address": "1014 Royal St",
    "address_councildis": "C",
    "status": "Pending",
    "rowid": "1059054",
    "final_x": "3683326.92757",
    "final_y": "533427.8937",
    "longitude": "-90.06223471938472",
    "latitude": "29.960686142393584",
    "geocoded_column": {
      "latitude": "29.960686142393584",
      "longitude": "-90.06223471938472"
    }
  },
  {
    "service_request": "2024-1059053",
    "request_type": "Trash/Recycling",
    "request_reason": "Missed Trash Pick-Up",
    "date_created": "2024-01-03T17:47:38.000",
    "date_modified": "2024-01-03T17:47:39.000",
    "request_status": "Pending",
    "responsible_agency": "Department of Sanitation",
    "final_address": "5379 Pratt Dr",
    "address_councildis": "D",
    "status": "Assigned to Contractor",
    "contractor": "IV Waste",
    "rowid": "1059053",
    "final_x": "3680489.99112",
    "final_y": "552277.243606",
    "longitude": "-90.07053722503704",
    "latitude": "30.0126014727302",
    "geocoded_column": {
      "latitude": "30.0126014727302",
      "longitude": "-90.07053722503704"
    }
  },
  {
    "service_request": "2024-1059052",
    "request_type": "Trash/Recycling",
    "request_reason": "Request a Large Item Pick Up",
    "date_created": "2024-01-03T17:39:15.000",
    "date_modified": "2024-01-03T17:39:16.000",
    "request_status": "Pending",
    "responsible_agency": "Department of Sanitation",
    "final_address": "7177 W Tamaron Blvd",
    "address_councildis": "E",
    "status": "Assigned to Contractor",
    "contractor": "Waste Pro",
    "rowid": "1059052",
    "final_x": "3718097.65337",
    "final_y": "569212.327846",
    "longitude": "-89.95107378300324",
    "latitude": "30.057972873833656",
    "geocoded_column": {
      "latitude": "30.057972873833656",
      "longitude": "-89.95107378300324"
    }
  },
  {
    "service_request": "2024-1059051",
    "request_type": "Trash/Recycling",
    "request_reason": "Missed Trash Pick-Up",
    "date_created": "2024-01-03T17:29:15.000",
    "date_modified": "2024-01-03T17:29:15.000",
    "request_status": "Pending",
    "responsible_agency": "Department of Sanitation",
    "final_address": "731 Fern St",
    "address_councildis": "A",
    "status": "Assigned to Contractor",
    "contractor": "Richards Disposal",
    "rowid": "1059051",
    "final_x": "3661572.91936",
    "final_y": "526733.867006",
    "longitude": "-90.1311517589614",
    "latitude": "29.942925341207168",
    "geocoded_column": {
      "latitude": "29.942925341207168",
      "longitude": "-90.1311517589614"
    }
  },
  {
    "service_request": "2024-1059050",
    "request_type": "Trash/Recycling",
    "request_reason": "MIssed Recycling Pick-Up",
    "date_created": "2024-01-03T17:26:47.000",
    "date_modified": "2024-01-03T17:26:48.000",
    "request_status": "Pending",
    "responsible_agency": "Department of Sanitation",
    "final_address": "1707 Second St",
    "address_councildis": "B",
    "status": "Assigned to Contractor",
    "contractor": "Richards Disposal",
    "rowid": "1059050",
    "final_x": "3676472.56641",
    "final_y": "523445.595643",
    "longitude": "-90.08422309921652",
    "latitude": "29.933445428973386",
    "geocoded_column": {
      "latitude": "29.933445428973386",
      "longitude": "-90.08422309921652"
    }
  },
  {
    "service_request": "2024-1059049",
    "request_type": "Trash/Recycling",
    "request_reason": "MIssed Recycling Pick-Up",
    "date_created": "2024-01-03T17:23:46.000",
    "date_modified": "2024-01-03T17:23:47.000",
    "request_status": "Pending",
    "responsible_agency": "Department of Sanitation",
    "final_address": "623 Ninth St",
    "address_councildis": "B",
    "status": "Assigned to Contractor",
    "contractor": "Richards Disposal",
    "rowid": "1059049",
    "final_x": "3676802.80238",
    "final_y": "518696.514295",
    "longitude": "-90.08334411550531",
    "latitude": "29.92037709375784",
    "geocoded_column": {
      "latitude": "29.92037709375784",
      "longitude": "-90.08334411550531"
    }
  },
  {
    "service_request": "2024-1059048",
    "request_type": "Roads/Drainage",
    "request_reason": "Leaking Hydrant",
    "date_created": "2024-01-03T17:19:59.000",
    "date_modified": "2024-01-03T17:19:59.000",
    "request_status": "Pending",
    "responsible_agency": "Department of Public Works",
    "final_address": "4919 Perelli Dr",
    "address_councildis": "E",
    "status": "Pending",
    "rowid": "1059048",
    "final_x": "3711693.59627",
    "final_y": "557097.012058",
    "longitude": "-89.97177111551093",
    "latitude": "30.0248714821004",
    "geocoded_column": {
      "latitude": "30.0248714821004",
      "longitude": "-89.97177111551093"
    }
  },
  {
    "service_request": "2024-1059046",
    "request_type": "Trash/Recycling",
    "request_reason": "Missed Trash Pick-Up",
    "date_created": "2024-01-03T17:10:40.000",
    "date_modified": "2024-01-03T17:10:40.000",
    "request_status": "Pending",
    "responsible_agency": "Department of Sanitation",
    "final_address": "5571 S Eastover Dr",
    "address_councildis": "E",
    "status": "Assigned to Contractor",
    "contractor": "Waste Pro",
    "rowid": "1059046",
    "final_x": "3719206.79685",
    "final_y": "562276.928735",
    "longitude": "-89.94783302194894",
    "latitude": "30.038866543553343",
    "geocoded_column": {
      "latitude": "30.038866543553343",
      "longitude": "-89.94783302194894"
    }
  },
  {
    "service_request": "2024-1059045",
    "request_type": "Trash/Recycling",
    "request_reason": "Replace Recycling Cart",
    "date_created": "2024-01-03T17:10:09.000",
    "date_modified": "2024-01-03T17:10:09.000",
    "request_status": "Pending",
    "responsible_agency": "Department of Sanitation",
    "final_address": "3113 Delachaise St",
    "address_councildis": "B",
    "status": "Pending",
    "rowid": "1059045",
    "final_x": "3671777.02369",
    "final_y": "526532.717438",
    "longitude": "-90.09894169943657",
    "latitude": "29.942073925628176",
    "geocoded_column": {
      "latitude": "29.942073925628176",
      "longitude": "-90.09894169943657"
    }
  },
  {
    "service_request": "2024-1059044",
    "request_type": "Trash/Recycling",
    "request_reason": "Replace Trash Cart",
    "date_created": "2024-01-03T16:59:25.000",
    "date_modified": "2024-01-03T16:59:26.000",
    "request_status": "Pending",
    "responsible_agency": "Department of Sanitation",
    "final_address": "2526 Jena St",
    "address_councildis": "B",
    "status": "Assigned to Contractor",
    "contractor": "Richards Disposal",
    "rowid": "1059044",
    "final_x": "3670070.21127",
    "final_y": "524227.180732",
    "longitude": "-90.1044085572973",
    "latitude": "29.93578489363679",
    "geocoded_column": {
      "latitude": "29.93578489363679",
      "longitude": "-90.1044085572973"
    }
  },
  {
    "service_request": "2024-1059043",
    "request_type": "Trash/Recycling",
    "request_reason": "Order Recycling Cart",
    "date_created": "2024-01-03T16:58:42.000",
    "date_modified": "2024-01-03T16:58:43.000",
    "request_status": "Pending",
    "responsible_agency": "Department of Sanitation",
    "final_address": "3116 Prytania St",
    "address_councildis": "B",
    "status": "Pending",
    "rowid": "1059043",
    "final_x": "3675181.91035",
    "final_y": "521334.114425",
    "longitude": "-90.08837005562229",
    "latitude": "29.92767816507729",
    "geocoded_column": {
      "latitude": "29.92767816507729",
      "longitude": "-90.08837005562229"
    }
  },
  {
    "service_request": "2024-1059042",
    "request_type": "Trash/Recycling",
    "request_reason": "Replace Trash Cart",
    "date_created": "2024-01-03T16:58:30.000",
    "date_modified": "2024-01-03T16:58:31.000",
    "request_status": "Pending",
    "responsible_agency": "Department of Sanitation",
    "final_address": "2524 Jena St",
    "address_councildis": "B",
    "status": "Assigned to Contractor",
    "contractor": "Richards Disposal",
    "rowid": "1059042",
    "final_x": "3670071.65114",
    "final_y": "524218.056316",
    "longitude": "-90.10440432053943",
    "latitude": "29.935759761970683",
    "geocoded_column": {
      "latitude": "29.935759761970683",
      "longitude": "-90.10440432053943"
    }
  },
  {
    "service_request": "2024-1059041",
    "request_type": "Trash/Recycling",
    "request_reason": "Request a Large Item Pick Up",
    "date_created": "2024-01-03T16:55:49.000",
    "date_modified": "2024-01-03T16:55:50.000",
    "request_status": "Pending",
    "responsible_agency": "Department of Sanitation",
    "final_address": "3118 Coliseum St",
    "address_councildis": "B",
    "status": "Assigned to Contractor",
    "contractor": "Richards Disposal",
    "rowid": "1059041",
    "final_x": "3675423.3924",
    "final_y": "520932.478073",
    "longitude": "-90.08762153765866",
    "latitude": "29.926566578459532",
    "geocoded_column": {
      "latitude": "29.926566578459532",
      "longitude": "-90.08762153765866"
    }
  },
  {
    "service_request": "2024-1059040",
    "request_type": "Trash/Recycling",
    "request_reason": "MIssed Recycling Pick-Up",
    "date_created": "2024-01-03T16:53:53.000",
    "date_modified": "2024-01-03T16:53:53.000",
    "request_status": "Pending",
    "responsible_agency": "Department of Sanitation",
    "final_address": "1240 Eighth St",
    "address_councildis": "B",
    "status": "Assigned to Contractor",
    "contractor": "Richards Disposal",
    "rowid": "1059040",
    "final_x": "3675693.45057",
    "final_y": "520764.085945",
    "longitude": "-90.08677482034872",
    "latitude": "29.9260954788643",
    "geocoded_column": {
      "latitude": "29.9260954788643",
      "longitude": "-90.08677482034872"
    }
  },
  {
    "service_request": "2024-1059039",
    "request_type": "Parks & Parkways",
    "request_reason": "Request Tree Service (Right of Way/Public Property)",
    "date_created": "2024-01-03T16:52:31.000",
    "date_modified": "2024-01-03T16:52:33.000",
    "request_status": "Pending",
    "responsible_agency": "Department of Parks & Parkway",
    "final_address": "746 S Norman C Francis Prkwy",
    "address_councildis": "B",
    "status": "Pending",
    "rowid": "1059039",
    "final_x": "3671780.89889",
    "final_y": "534591.030982",
    "longitude": "-90.09865532089559",
    "latitude": "29.964231512476776",
    "geocoded_column": {
      "latitude": "29.964231512476776",
      "longitude": "-90.09865532089559"
    }
  },
  {
    "service_request": "2024-1059037",
    "request_type": "Mosquito, Termite & Rodent Control",
    "request_reason": "Mosquito Complaint",
    "date_created": "2024-01-03T16:48:33.000",
    "date_modified": "2024-01-03T16:48:33.000",
    "request_status": "Pending",
    "responsible_agency": "Mosquito, Termite & Rodent Control Board",
    "final_address": "6700 BLK Deanne St",
    "address_councildis": "D",
    "status": "Pending",
    "rowid": "1059037",
    "final_x": "3695912.95952",
    "final_y": "555600.713061",
    "longitude": "-90.02168921469158",
    "latitude": "30.021263384676573",
    "geocoded_column": {
      "latitude": "30.021263384676573",
      "longitude": "-90.02168921469158"
    }
  },
  {
    "service_request": "2024-1059038",
    "request_type": "Roads/Drainage",
    "request_reason": "Street Subsidence (Sinking)",
    "date_created": "2024-01-03T16:48:33.000",
    "date_modified": "2024-01-03T16:48:33.000",
    "request_status": "Pending",
    "responsible_agency": "Department of Public Works",
    "final_address": "LAUREL ST & BELLECASTLE ST",
    "address_councildis": "B",
    "status": "Pending",
    "rowid": "1059038",
    "final_x": "3667667.7",
    "final_y": "517877.88",
    "longitude": "-90.11220696980725",
    "latitude": "29.91839696318268",
    "geocoded_column": {
      "latitude": "29.91839696318268",
      "longitude": "-90.11220696980725"
    }
  },
  {
    "service_request": "2024-1059036",
    "request_type": "Traffic Signals/Signs/Striping/Streetlights",
    "request_reason": "Street Light Outage/Malfunction",
    "date_created": "2024-01-03T16:47:30.000",
    "date_modified": "2024-01-03T16:47:30.000",
    "request_status": "Pending",
    "responsible_agency": "Department of Public Works",
    "final_address": "3520 Timber Bluff Ln",
    "address_councildis": "C",
    "status": "Assigned to Contractor",
    "contractor": "Legacy Professional Services",
    "rowid": "1059036",
    "final_x": "3704344.09572",
    "final_y": "511334.04792",
    "longitude": "-89.9966809904034",
    "latitude": "29.899277972933383",
    "geocoded_column": {
      "latitude": "29.899277972933383",
      "longitude": "-89.9966809904034"
    }
  },
  {
    "service_request": "2024-1059035",
    "request_type": "Traffic Signals/Signs/Striping/Streetlights",
    "request_reason": "Street Light Outage/Malfunction",
    "date_created": "2024-01-03T16:46:58.000",
    "date_modified": "2024-01-03T16:46:59.000",
    "request_status": "Pending",
    "responsible_agency": "Department of Public Works",
    "final_address": "2525 Hamilton St",
    "address_councildis": "A",
    "status": "Assigned to Contractor",
    "contractor": "Legacy Professional Services",
    "rowid": "1059035",
    "final_x": "3662655.33312",
    "final_y": "534324.765125",
    "longitude": "-90.12748208462061",
    "latitude": "29.963766589494412",
    "geocoded_column": {
      "latitude": "29.963766589494412",
      "longitude": "-90.12748208462061"
    }
  },
  {
    "service_request": "2024-1059034",
    "request_type": "Abandoned Vehicles",
    "request_reason": "Abandoned/Junk Vehicles",
    "date_created": "2024-01-03T16:46:08.000",
    "date_modified": "2024-01-03T16:46:08.000",
    "request_status": "Pending",
    "responsible_agency": "Department of Public Works",
    "final_address": "2419 Julia St",
    "address_councildis": "B",
    "status": "Pending",
    "rowid": "1059034",
    "final_x": "3674266.74817",
    "final_y": "531789.166083",
    "longitude": "-90.09090114441025",
    "latitude": "29.95645343648654",
    "geocoded_column": {
      "latitude": "29.95645343648654",
      "longitude": "-90.09090114441025"
    }
  },
  {
    "service_request": "2024-1059033",
    "request_type": "Trash/Recycling",
    "request_reason": "Replace Trash Cart",
    "date_created": "2024-01-03T16:44:24.000",
    "date_modified": "2024-01-03T16:44:25.000",
    "request_status": "Pending",
    "responsible_agency": "Department of Sanitation",
    "final_address": "1167 Eagle St",
    "address_councildis": "A",
    "status": "Assigned to Contractor",
    "contractor": "Richards Disposal",
    "rowid": "1059033",
    "final_x": "3660126.50208",
    "final_y": "529984.904193",
    "longitude": "-90.1356111835133",
    "latitude": "29.95190630569741",
    "geocoded_column": {
      "latitude": "29.95190630569741",
      "longitude": "-90.1356111835133"
    }
  },
  {
    "service_request": "2024-1059032",
    "request_type": "Trash/Recycling",
    "request_reason": "Order Recycling Cart",
    "date_created": "2024-01-03T16:40:16.000",
    "date_modified": "2024-01-03T16:40:16.000",
    "request_status": "Pending",
    "responsible_agency": "Department of Sanitation",
    "final_address": "1734 Second St",
    "address_councildis": "B",
    "status": "Pending",
    "rowid": "1059032",
    "final_x": "3676302.05121",
    "final_y": "523588.913915",
    "longitude": "-90.08475647620307",
    "latitude": "29.933844617486642",
    "geocoded_column": {
      "latitude": "29.933844617486642",
      "longitude": "-90.08475647620307"
    }
  },
  {
    "service_request": "2024-1059031",
    "request_type": "Trash/Recycling",
    "request_reason": "Missed Trash Pick-Up",
    "date_created": "2024-01-03T16:37:50.000",
    "date_modified": "2024-01-03T16:37:51.000",
    "request_status": "Pending",
    "responsible_agency": "Department of Sanitation",
    "final_address": "11220 N Parkwood Ct",
    "address_councildis": "E",
    "status": "Assigned to Contractor",
    "contractor": "Waste Pro",
    "rowid": "1059031",
    "final_x": "3716593.71896",
    "final_y": "559158.478172",
    "longitude": "-89.95620942566758",
    "latitude": "30.030378679034335",
    "geocoded_column": {
      "latitude": "30.030378679034335",
      "longitude": "-89.95620942566758"
    }
  },
  {
    "service_request": "2024-1059030",
    "request_type": "Trash/Recycling",
    "request_reason": "MIssed Recycling Pick-Up",
    "date_created": "2024-01-03T16:34:37.000",
    "date_modified": "2024-01-03T16:34:38.000",
    "request_status": "Pending",
    "responsible_agency": "Department of Sanitation",
    "final_address": "1930 Josephine St",
    "address_councildis": "B",
    "status": "Assigned to Contractor",
    "contractor": "Richards Disposal",
    "rowid": "1059030",
    "final_x": "3676934.0829",
    "final_y": "525159.730941",
    "longitude": "-90.08270705430522",
    "latitude": "29.938144897016212",
    "geocoded_column": {
      "latitude": "29.938144897016212",
      "longitude": "-90.08270705430522"
    }
  },
  {
    "service_request": "2024-1059029",
    "request_type": "Mosquito, Termite & Rodent Control",
    "request_reason": "Mosquito Complaint",
    "date_created": "2024-01-03T16:31:10.000",
    "date_modified": "2024-01-03T16:31:11.000",
    "request_status": "Pending",
    "responsible_agency": "Mosquito, Termite & Rodent Control Board",
    "final_address": "14712 Beekman Rd",
    "address_councildis": "E",
    "status": "Pending",
    "rowid": "1059029",
    "final_x": "3721284.71615",
    "final_y": "573671.832682",
    "longitude": "-89.94082867374001",
    "latitude": "30.070128538451875",
    "geocoded_column": {
      "latitude": "30.070128538451875",
      "longitude": "-89.94082867374001"
    }
  },
  {
    "service_request": "2024-1059028",
    "request_type": "Traffic Signals/Signs/Striping/Streetlights",
    "request_reason": "Street Light Outage/Malfunction",
    "date_created": "2024-01-03T16:21:05.000",
    "date_modified": "2024-01-03T16:21:06.000",
    "request_status": "Pending",
    "responsible_agency": "Department of Public Works",
    "final_address": "1727 Abundance St",
    "address_councildis": "D",
    "status": "Assigned to Contractor",
    "contractor": "Legacy Professional Services",
    "rowid": "1059028",
    "final_x": "3680873.83535",
    "final_y": "543414.625038",
    "longitude": "-90.06963330099035",
    "latitude": "29.988220795220656",
    "geocoded_column": {
      "latitude": "29.988220795220656",
      "longitude": "-90.06963330099035"
    }
  },
  {
    "service_request": "2024-1059027",
    "request_type": "Trash/Recycling",
    "request_reason": "MIssed Recycling Pick-Up",
    "date_created": "2024-01-03T16:13:18.000",
    "date_modified": "2024-01-03T16:13:19.000",
    "request_status": "Pending",
    "responsible_agency": "Department of Sanitation",
    "final_address": "2912 Annunciation St",
    "address_councildis": "B",
    "status": "Assigned to Contractor",
    "contractor": "Richards Disposal",
    "rowid": "1059027",
    "final_x": "3677146.62389",
    "final_y": "519523.474615",
    "longitude": "-90.08223033101143",
    "latitude": "29.922640649840694",
    "geocoded_column": {
      "latitude": "29.922640649840694",
      "longitude": "-90.08223033101143"
    }
  },
  {
    "service_request": "2024-1059026",
    "request_type": "Traffic Signals/Signs/Striping/Streetlights",
    "request_reason": "Street Name Sign Damaged or Missing",
    "date_created": "2024-01-03T16:11:58.000",
    "date_modified": "2024-01-03T16:11:58.000",
    "request_status": "Pending",
    "responsible_agency": "Department of Public Works",
    "final_address": "TITA ST & GENERAL MEYER AVE",
    "address_councildis": "C",
    "status": "Pending",
    "rowid": "1059026",
    "final_x": "3695671.1",
    "final_y": "526379.08",
    "longitude": "-90.02350887942234",
    "latitude": "29.940922066787923",
    "geocoded_column": {
      "latitude": "29.940922066787923",
      "longitude": "-90.02350887942234"
    }
  },
  {
    "service_request": "2024-1059025",
    "request_type": "Traffic Signals/Signs/Striping/Streetlights",
    "request_reason": "Street Name Sign Damaged or Missing",
    "date_created": "2024-01-03T16:11:40.000",
    "date_modified": "2024-01-03T16:11:41.000",
    "request_status": "Pending",
    "responsible_agency": "Department of Public Works",
    "final_address": "MERCEDES BLVD & WALL BLVD",
    "address_councildis": "C",
    "status": "Pending",
    "rowid": "1059025",
    "final_x": "3698124.9",
    "final_y": "523669.88",
    "longitude": "-90.01586018535335",
    "latitude": "29.93339534989877",
    "geocoded_column": {
      "latitude": "29.93339534989877",
      "longitude": "-90.01586018535335"
    }
  },
  {
    "service_request": "2024-1059024",
    "request_type": "Trash/Recycling",
    "request_reason": "Request a Large Item Pick Up",
    "date_created": "2024-01-03T16:09:43.000",
    "date_modified": "2024-01-03T16:09:44.000",
    "request_status": "Pending",
    "responsible_agency": "Department of Sanitation",
    "final_address": "8240 Curran Rd",
    "address_councildis": "E",
    "status": "Assigned to Contractor",
    "contractor": "Waste Pro",
    "rowid": "1059024",
    "final_x": "3702958.69207",
    "final_y": "561906.285599",
    "longitude": "-89.99919484292683",
    "latitude": "30.038377613964986",
    "geocoded_column": {
      "latitude": "30.038377613964986",
      "longitude": "-89.99919484292683"
    }
  },
  {
    "service_request": "2024-1059023",
    "request_type": "Property Maintenance",
    "request_reason": "Property Maintenance",
    "date_created": "2024-01-03T16:08:21.000",
    "date_modified": "2024-01-03T16:08:21.000",
    "request_status": "Pending",
    "responsible_agency": "Department of Code Enforcement",
    "final_address": "2407 Almonaster Ave",
    "address_councildis": "D",
    "status": "Pending",
    "rowid": "1059023",
    "final_x": "3688441.95113",
    "final_y": "541444.120972",
    "longitude": "-90.04579808345204",
    "latitude": "29.98257094016604",
    "geocoded_column": {
      "latitude": "29.98257094016604",
      "longitude": "-90.04579808345204"
    }
  },
  {
    "service_request": "2024-1059022",
    "request_type": "Trash/Recycling",
    "request_reason": "Missed Trash Pick-Up",
    "date_created": "2024-01-03T16:07:10.000",
    "date_modified": "2024-01-03T16:07:11.000",
    "request_status": "Pending",
    "responsible_agency": "Department of Sanitation",
    "final_address": "2451 Law St",
    "address_councildis": "D",
    "status": "Assigned to Contractor",
    "contractor": "IV Waste",
    "rowid": "1059022",
    "final_x": "3685730.17545",
    "final_y": "541981.861836",
    "longitude": "-90.05434424311846",
    "latitude": "29.98413304365652",
    "geocoded_column": {
      "latitude": "29.98413304365652",
      "longitude": "-90.05434424311846"
    }
  },
  {
    "service_request": "2024-1059021",
    "request_type": "Traffic Signals/Signs/Striping/Streetlights",
    "request_reason": "Street Light Outage/Malfunction",
    "date_created": "2024-01-03T16:02:59.000",
    "date_modified": "2024-01-03T16:03:00.000",
    "request_status": "Pending",
    "responsible_agency": "Department of Public Works",
    "final_address": "8003 Edward St",
    "address_councildis": "E",
    "status": "Assigned to Contractor",
    "contractor": "Legacy Professional Services",
    "rowid": "1059021",
    "final_x": "3700632.24906",
    "final_y": "562021.957919",
    "longitude": "-90.00654273650176",
    "latitude": "30.038769942906587",
    "geocoded_column": {
      "latitude": "30.038769942906587",
      "longitude": "-90.00654273650176"
    }
  },
  {
    "service_request": "2024-1059020",
    "request_type": "Trash/Recycling",
    "request_reason": "Repair Trash Cart",
    "date_created": "2024-01-03T16:02:12.000",
    "date_modified": "2024-01-03T16:02:14.000",
    "request_status": "Pending",
    "responsible_agency": "Department of Sanitation",
    "final_address": "2714 Acacia St",
    "address_councildis": "D",
    "status": "Assigned to Contractor",
    "contractor": "IV Waste",
    "rowid": "1059020",
    "final_x": "3687985.42601",
    "final_y": "546336.96264",
    "longitude": "-90.04706653320882",
    "latitude": "29.99603860032991",
    "geocoded_column": {
      "latitude": "29.99603860032991",
      "longitude": "-90.04706653320882"
    }
  },
  {
    "service_request": "2024-1059017",
    "request_type": "Trash/Recycling",
    "request_reason": "Request a Large Item Pick Up",
    "date_created": "2024-01-03T15:56:30.000",
    "date_modified": "2024-01-03T15:56:31.000",
    "request_status": "Pending",
    "responsible_agency": "Department of Sanitation",
    "final_address": "25100 Chef Menteur Hwy",
    "address_councildis": "E",
    "status": "Assigned to Contractor",
    "contractor": "Waste Pro",
    "rowid": "1059017",
    "final_x": "3778733.66206",
    "final_y": "597320.167424",
    "longitude": "-89.75819542008244",
    "latitude": "30.133104916519432",
    "geocoded_column": {
      "latitude": "30.133104916519432",
      "longitude": "-89.75819542008244"
    }
  },
  {
    "service_request": "2024-1059016",
    "request_type": "Roads/Drainage",
    "request_reason": "Pothole",
    "date_created": "2024-01-03T15:55:39.000",
    "date_modified": "2024-01-03T15:55:39.000",
    "request_status": "Pending",
    "responsible_agency": "Department of Public Works",
    "final_address": "4216 Chestnut St",
    "address_councildis": "B",
    "status": "Pending",
    "rowid": "1059016",
    "final_x": "3671574.31393",
    "final_y": "519539.203703",
    "longitude": "-90.09981939416457",
    "latitude": "29.922850019854593",
    "geocoded_column": {
      "latitude": "29.922850019854593",
      "longitude": "-90.09981939416457"
    }
  },
  {
    "service_request": "2024-1059015",
    "request_type": "Trash/Recycling",
    "request_reason": "MIssed Recycling Pick-Up",
    "date_created": "2024-01-03T15:54:54.000",
    "date_modified": "2024-01-03T15:54:55.000",
    "request_status": "Pending",
    "responsible_agency": "Department of Sanitation",
    "final_address": "2233 Washington Ave",
    "address_councildis": "B",
    "status": "Assigned to Contractor",
    "contractor": "Richards Disposal",
    "rowid": "1059015",
    "final_x": "3674625.65736",
    "final_y": "524567.716476",
    "longitude": "-90.09001525431059",
    "latitude": "29.936586127445302",
    "geocoded_column": {
      "latitude": "29.936586127445302",
      "longitude": "-90.09001525431059"
    }
  },
  {
    "service_request": "2024-1059014",
    "request_type": "Trash/Recycling",
    "request_reason": "Request a Large Item Pick Up",
    "date_created": "2024-01-03T15:53:11.000",
    "date_modified": "2024-01-03T15:53:24.000",
    "request_status": "Pending",
    "responsible_agency": "Department of Sanitation",
    "final_address": "4767 Painters St",
    "address_councildis": "D",
    "status": "Assigned to Contractor",
    "contractor": "IV Waste",
    "rowid": "1059014",
    "final_x": "3686273.45193",
    "final_y": "550801.354133",
    "longitude": "-90.05231685251246",
    "latitude": "30.008366792187555",
    "geocoded_column": {
      "latitude": "30.008366792187555",
      "longitude": "-90.05231685251246"
    }
  },
  {
    "service_request": "2024-1059013",
    "request_type": "Abandoned Vehicles",
    "request_reason": "Abandoned/Junk Vehicles",
    "date_created": "2024-01-03T15:51:32.000",
    "date_modified": "2024-01-03T15:54:42.000",
    "request_status": "Pending",
    "responsible_agency": "Department of Public Works",
    "final_address": "LOWERLINE ST & HICKORY ST",
    "address_councildis": "A",
    "status": "Pending",
    "rowid": "1059013",
    "final_x": "3664865.3",
    "final_y": "528587.58",
    "longitude": "-90.12069493345005",
    "latitude": "29.947927064093907",
    "geocoded_column": {
      "latitude": "29.947927064093907",
      "longitude": "-90.12069493345005"
    }
  },
  {
    "service_request": "2024-1059012",
    "request_type": "Trash/Recycling",
    "request_reason": "Request a Large Item Pick Up",
    "date_created": "2024-01-03T15:49:52.000",
    "date_modified": "2024-01-03T15:49:52.000",
    "request_status": "Closed",
    "responsible_agency": "Department of Sanitation",
    "final_address": "8631 Cohn St",
    "address_councildis": "A",
    "status": "Resolved",
    "rowid": "1059012",
    "final_x": "3662152.29402",
    "final_y": "531573.520643",
    "longitude": "-90.12916194524814",
    "latitude": "29.956216108082657",
    "geocoded_column": {
      "latitude": "29.956216108082657",
      "longitude": "-90.12916194524814"
    }
  },
  {
    "service_request": "2024-1059011",
    "request_type": "Roads/Drainage",
    "request_reason": "Pothole",
    "date_created": "2024-01-03T15:47:47.000",
    "date_modified": "2024-01-03T15:47:47.000",
    "request_status": "Pending",
    "responsible_agency": "Department of Public Works",
    "final_address": "1301 Constantinople St",
    "address_councildis": "B",
    "status": "Pending",
    "rowid": "1059011",
    "final_x": "3672430.66305",
    "final_y": "520250.7726",
    "longitude": "-90.09709199725775",
    "latitude": "29.924781230435865",
    "geocoded_column": {
      "latitude": "29.924781230435865",
      "longitude": "-90.09709199725775"
    }
  },
  {
    "service_request": "2024-1059010",
    "request_type": "Trash/Recycling",
    "request_reason": "Request a Large Item Pick Up",
    "date_created": "2024-01-03T15:47:05.000",
    "date_modified": "2024-01-03T15:47:06.000",
    "request_status": "Pending",
    "responsible_agency": "Department of Sanitation",
    "final_address": "2004 Pace Blvd",
    "address_councildis": "C",
    "status": "Assigned to Contractor",
    "contractor": "Richards Disposal",
    "rowid": "1059010",
    "final_x": "3694512.57091",
    "final_y": "523138.229115",
    "longitude": "-90.02728317116328",
    "latitude": "29.932047202276",
    "geocoded_column": {
      "latitude": "29.932047202276",
      "longitude": "-90.02728317116328"
    }
  },
  {
    "service_request": "2024-1059009",
    "request_type": "Trash/Recycling",
    "request_reason": "Request a Large Item Pick Up",
    "date_created": "2024-01-03T15:46:38.000",
    "date_modified": "2024-01-03T15:46:39.000",
    "request_status": "Pending",
    "responsible_agency": "Department of Sanitation",
    "final_address": "1947 Pace Blvd",
    "address_councildis": "C",
    "status": "Assigned to Contractor",
    "contractor": "Richards Disposal",
    "rowid": "1059009",
    "final_x": "3694381.19043",
    "final_y": "523190.721211",
    "longitude": "-90.0276960357981",
    "latitude": "29.93219565459455",
    "geocoded_column": {
      "latitude": "29.93219565459455",
      "longitude": "-90.0276960357981"
    }
  },
  {
    "service_request": "2024-1059008",
    "request_type": "Abandoned Vehicles",
    "request_reason": "Abandoned/Junk Vehicles",
    "date_created": "2024-01-03T15:44:42.000",
    "date_modified": "2024-01-03T15:44:43.000",
    "request_status": "Pending",
    "responsible_agency": "Department of Public Works",
    "final_address": "822 Touro St",
    "address_councildis": "C",
    "status": "Pending",
    "rowid": "1059008",
    "final_x": "3684269.67458",
    "final_y": "535337.265158",
    "longitude": "-90.05919066813446",
    "latitude": "29.965907466560253",
    "geocoded_column": {
      "latitude": "29.965907466560253",
      "longitude": "-90.05919066813446"
    }
  },
  {
    "service_request": "2024-1059007",
    "request_type": "Trash/Recycling",
    "request_reason": "Replace Recycling Cart",
    "date_created": "2024-01-03T15:38:33.000",
    "date_modified": "2024-01-03T15:40:00.000",
    "request_status": "Pending",
    "responsible_agency": "Department of Sanitation",
    "final_address": "4016 Vendome Pl",
    "address_councildis": "B",
    "status": "Pending",
    "rowid": "1059007",
    "final_x": "3668638.65575",
    "final_y": "530002.545281",
    "longitude": "-90.10873315379685",
    "latitude": "29.951707414208155",
    "geocoded_column": {
      "latitude": "29.951707414208155",
      "longitude": "-90.10873315379685"
    }
  },
  {
    "service_request": "2024-1059006",
    "request_type": "Trash/Recycling",
    "request_reason": "Request a Large Item Pick Up",
    "date_created": "2024-01-03T15:35:07.000",
    "date_modified": "2024-01-03T15:35:08.000",
    "request_status": "Pending",
    "responsible_agency": "Department of Sanitation",
    "final_address": "7211 Westhaven Rd",
    "address_councildis": "E",
    "status": "Assigned to Contractor",
    "contractor": "Waste Pro",
    "rowid": "1059006",
    "final_x": "3703629.33335",
    "final_y": "560383.41955",
    "longitude": "-89.9971315770522",
    "latitude": "30.034168841605336",
    "geocoded_column": {
      "latitude": "30.034168841605336",
      "longitude": "-89.9971315770522"
    }
  },
  {
    "service_request": "2024-1059005",
    "request_type": "Trash/Recycling",
    "request_reason": "Missed Trash Pick-Up",
    "date_created": "2024-01-03T15:30:25.000",
    "date_modified": "2024-01-03T15:46:03.000",
    "case_close_date": "2024-01-03T09:46:03.000",
    "request_status": "Closed",
    "responsible_agency": "Department of Sanitation",
    "final_address": "6122 Spain St",
    "address_councildis": "D",
    "status": "Invalid Request",
    "contractor": "IV Waste",
    "contractor_action": "Invalid Request",
    "rowid": "1059005",
    "final_x": "3684490.5261",
    "final_y": "555574.712345",
    "longitude": "-90.05778178864043",
    "latitude": "30.02154646770494",
    "geocoded_column": {
      "latitude": "30.02154646770494",
      "longitude": "-90.05778178864043"
    }
  },
  {
    "service_request": "2024-1059004",
    "request_type": "Mosquito, Termite & Rodent Control",
    "request_reason": "Mosquito Complaint",
    "date_created": "2024-01-03T15:28:01.000",
    "date_modified": "2024-01-03T15:28:02.000",
    "request_status": "Pending",
    "responsible_agency": "Mosquito, Termite & Rodent Control Board",
    "final_address": "5820 Wright Rd",
    "address_councildis": "E",
    "status": "Pending",
    "rowid": "1059004",
    "final_x": "3714037.02047",
    "final_y": "561271.026846",
    "longitude": "-89.96420876710835",
    "latitude": "30.036271584558637",
    "geocoded_column": {
      "latitude": "30.036271584558637",
      "longitude": "-89.96420876710835"
    }
  },
  {
    "service_request": "2024-1059003",
    "request_type": "Trash/Recycling",
    "request_reason": "Missed Trash Pick-Up",
    "date_created": "2024-01-03T15:22:00.000",
    "date_modified": "2024-01-03T15:22:01.000",
    "request_status": "Pending",
    "responsible_agency": "Department of Sanitation",
    "final_address": "4922 Marseille St",
    "address_councildis": "E",
    "status": "Assigned to Contractor",
    "contractor": "Waste Pro",
    "rowid": "1059003",
    "final_x": "3729586.80966",
    "final_y": "562734.412256",
    "longitude": "-89.9150119107995",
    "latitude": "30.039775241386646",
    "geocoded_column": {
      "latitude": "30.039775241386646",
      "longitude": "-89.9150119107995"
    }
  },
  {
    "service_request": "2024-1059002",
    "request_type": "Trash/Recycling",
    "request_reason": "Replace Trash Cart",
    "date_created": "2024-01-03T15:18:28.000",
    "date_modified": "2024-01-03T15:18:29.000",
    "request_status": "Pending",
    "responsible_agency": "Department of Sanitation",
    "final_address": "16 Yellowstone Dr",
    "address_councildis": "C",
    "status": "Assigned to Contractor",
    "contractor": "Richards Disposal",
    "rowid": "1059002",
    "final_x": "3699855.31408",
    "final_y": "517963.996534",
    "longitude": "-90.01060534390935",
    "latitude": "29.91765131032599",
    "geocoded_column": {
      "latitude": "29.91765131032599",
      "longitude": "-90.01060534390935"
    }
  },
  {
    "service_request": "2024-1059001",
    "request_type": "Trash/Recycling",
    "request_reason": "Replace Trash Cart",
    "date_created": "2024-01-03T15:18:24.000",
    "date_modified": "2024-01-03T15:18:25.000",
    "request_status": "Pending",
    "responsible_agency": "Department of Sanitation",
    "final_address": "1712 Delachaise St",
    "address_councildis": "B",
    "status": "Assigned to Contractor",
    "contractor": "Richards Disposal",
    "rowid": "1059001",
    "final_x": "3673576.71188",
    "final_y": "521896.38617",
    "longitude": "-90.09341808361474",
    "latitude": "29.92927208939794",
    "geocoded_column": {
      "latitude": "29.92927208939794",
      "longitude": "-90.09341808361474"
    }
  },
  {
    "service_request": "2024-1059000",
    "request_type": "Trash/Recycling",
    "request_reason": "Request a Large Item Pick Up",
    "date_created": "2024-01-03T15:18:06.000",
    "date_modified": "2024-01-03T15:18:07.000",
    "request_status": "Pending",
    "responsible_agency": "Department of Sanitation",
    "final_address": "7225 W Tamaron Blvd",
    "address_councildis": "E",
    "status": "Assigned to Contractor",
    "contractor": "Waste Pro",
    "rowid": "1059000",
    "final_x": "3717862.09036",
    "final_y": "569513.138022",
    "longitude": "-89.95180689765473",
    "latitude": "30.058807788382246",
    "geocoded_column": {
      "latitude": "30.058807788382246",
      "longitude": "-89.95180689765473"
    }
  },
  {
    "service_request": "2024-1058999",
    "request_type": "Roads/Drainage",
    "request_reason": "Pothole",
    "date_created": "2024-01-03T15:17:26.000",
    "date_modified": "2024-01-03T15:17:26.000",
    "request_status": "Pending",
    "responsible_agency": "Department of Public Works",
    "final_address": "1312 Milan St",
    "address_councildis": "B",
    "status": "Pending",
    "rowid": "1058999",
    "final_x": "3671625.82823",
    "final_y": "520286.919608",
    "longitude": "-90.09963137110304",
    "latitude": "29.92490447494246",
    "geocoded_column": {
      "latitude": "29.92490447494246",
      "longitude": "-90.09963137110304"
    }
  },
  {
    "service_request": "2024-1058998",
    "request_type": "Trash/Recycling",
    "request_reason": "Replace Trash Cart",
    "date_created": "2024-01-03T15:14:57.000",
    "date_modified": "2024-01-03T15:14:58.000",
    "request_status": "Pending",
    "responsible_agency": "Department of Sanitation",
    "final_address": "2801 Wabash St",
    "address_councildis": "C",
    "status": "Assigned to Contractor",
    "contractor": "Richards Disposal",
    "rowid": "1058998",
    "final_x": "3693388.8728",
    "final_y": "521220.618105",
    "longitude": "-90.03089936624434",
    "latitude": "29.926809593218202",
    "geocoded_column": {
      "latitude": "29.926809593218202",
      "longitude": "-90.03089936624434"
    }
  },
  {
    "service_request": "2024-1058997",
    "request_type": "Trash/Recycling",
    "request_reason": "Request a Large Item Pick Up",
    "date_created": "2024-01-03T15:13:25.000",
    "date_modified": "2024-01-03T15:13:26.000",
    "request_status": "Pending",
    "responsible_agency": "Department of Sanitation",
    "final_address": "3315 Second St",
    "address_councildis": "B",
    "status": "Assigned to Contractor",
    "contractor": "Richards Disposal",
    "rowid": "1058997",
    "final_x": "3673313.45307",
    "final_y": "528241.755712",
    "longitude": "-90.09403249343411",
    "latitude": "29.946727619147733",
    "geocoded_column": {
      "latitude": "29.946727619147733",
      "longitude": "-90.09403249343411"
    }
  },
  {
    "service_request": "2024-1058996",
    "request_type": "Trash/Recycling",
    "request_reason": "Request a Large Item Pick Up",
    "date_created": "2024-01-03T15:10:20.000",
    "date_modified": "2024-01-03T15:10:22.000",
    "request_status": "Pending",
    "responsible_agency": "Department of Sanitation",
    "final_address": "5347 Royal St",
    "address_councildis": "E",
    "status": "Assigned to Contractor",
    "contractor": "Waste Pro",
    "rowid": "1058996",
    "final_x": "3696718.73533",
    "final_y": "532543.065092",
    "longitude": "-90.01997826721907",
    "latitude": "29.957837899465613",
    "geocoded_column": {
      "latitude": "29.957837899465613",
      "longitude": "-90.01997826721907"
    }
  },
  {
    "service_request": "2024-1058995",
    "request_type": "Trash/Recycling",
    "request_reason": "Repair Trash Cart",
    "date_created": "2024-01-03T15:06:51.000",
    "date_modified": "2024-01-03T15:06:52.000",
    "request_status": "Pending",
    "responsible_agency": "Department of Sanitation",
    "final_address": "5418 Milne St",
    "address_councildis": "A",
    "status": "Assigned to Contractor",
    "contractor": "IV Waste",
    "rowid": "1058995",
    "final_x": "3666587.46151",
    "final_y": "543630.21211",
    "longitude": "-90.11475225169376",
    "latitude": "29.98923908205756",
    "geocoded_column": {
      "latitude": "29.98923908205756",
      "longitude": "-90.11475225169376"
    }
  },
  {
    "service_request": "2024-1058994",
    "request_type": "Roads/Drainage",
    "request_reason": "Road Shoulder Repair",
    "date_created": "2024-01-03T15:05:51.000",
    "date_modified": "2024-01-03T15:05:51.000",
    "request_status": "Pending",
    "responsible_agency": "Department of Public Works",
    "final_address": "3000 BLK General Collins Ave",
    "address_councildis": "C",
    "status": "Pending",
    "rowid": "1058994",
    "final_x": "3698327.99799",
    "final_y": "519984.72327",
    "longitude": "-90.01535283629698",
    "latitude": "29.923256011624034",
    "geocoded_column": {
      "latitude": "29.923256011624034",
      "longitude": "-90.01535283629698"
    }
  },
  {
    "service_request": "2024-1058993",
    "request_type": "Roads/Drainage",
    "request_reason": "Catch Basin - Clogged",
    "date_created": "2024-01-03T15:04:17.000",
    "date_modified": "2024-01-03T15:04:18.000",
    "request_status": "Pending",
    "responsible_agency": "Department of Public Works",
    "final_address": "5534 Willow St Apt A",
    "address_councildis": "A",
    "status": "Pending",
    "rowid": "1058993",
    "final_x": "3667601.70605",
    "final_y": "525390.607485",
    "longitude": "-90.11216255126764",
    "latitude": "29.939056510528175",
    "geocoded_column": {
      "latitude": "29.939056510528175",
      "longitude": "-90.11216255126764"
    }
  },
  {
    "service_request": "2024-1058992",
    "request_type": "Trash/Recycling",
    "request_reason": "Request a Large Item Pick Up",
    "date_created": "2024-01-03T15:00:58.000",
    "date_modified": "2024-01-03T15:01:18.000",
    "request_status": "Pending",
    "responsible_agency": "Department of Sanitation",
    "final_address": "4739 Laine Ave",
    "address_councildis": "E",
    "status": "Assigned to Contractor",
    "contractor": "Waste Pro",
    "rowid": "1058992",
    "final_x": "3705758.23345",
    "final_y": "555419.798425",
    "longitude": "-89.99058784052347",
    "latitude": "30.020452384460025",
    "geocoded_column": {
      "latitude": "30.020452384460025",
      "longitude": "-89.99058784052347"
    }
  },
  {
    "service_request": "2024-1058991",
    "request_type": "Trash/Recycling",
    "request_reason": "Order Trash Cart",
    "date_created": "2024-01-03T14:57:05.000",
    "date_modified": "2024-01-03T14:57:06.000",
    "request_status": "Pending",
    "responsible_agency": "Department of Sanitation",
    "final_address": "2514 Dubreuil St",
    "address_councildis": "E",
    "status": "Assigned to Contractor",
    "contractor": "Waste Pro",
    "rowid": "1058991",
    "final_x": "3702731.62353",
    "final_y": "537964.839433",
    "longitude": "-90.0007923260991",
    "latitude": "29.972554947071686",
    "geocoded_column": {
      "latitude": "29.972554947071686",
      "longitude": "-90.0007923260991"
    }
  },
  {
    "service_request": "2024-1058990",
    "request_type": "Traffic Signals/Signs/Striping/Streetlights",
    "request_reason": "Street Light Outage/Malfunction",
    "date_created": "2024-01-03T14:54:26.000",
    "date_modified": "2024-01-03T14:54:27.000",
    "request_status": "Pending",
    "responsible_agency": "Department of Public Works",
    "final_address": "11101 Woodvine Ln",
    "address_councildis": "E",
    "status": "Assigned to Contractor",
    "contractor": "Legacy Professional Services",
    "rowid": "1058990",
    "final_x": "3715986.39608",
    "final_y": "559588.679069",
    "longitude": "-89.9581122345788",
    "latitude": "30.03158161491896",
    "geocoded_column": {
      "latitude": "30.03158161491896",
      "longitude": "-89.9581122345788"
    }
  },
  {
    "service_request": "2024-1058989",
    "request_type": "Traffic Signals/Signs/Striping/Streetlights",
    "request_reason": "Street Light Outage/Malfunction",
    "date_created": "2024-01-03T14:54:11.000",
    "date_modified": "2024-01-03T14:54:12.000",
    "request_status": "Pending",
    "responsible_agency": "Department of Public Works",
    "final_address": "FIESTA ST & COMET ST",
    "address_councildis": "C",
    "status": "Assigned to Contractor",
    "contractor": "Legacy Professional Services",
    "rowid": "1058989",
    "final_x": "3699965.5",
    "final_y": "521814.08",
    "longitude": "-90.01011721307832",
    "latitude": "29.928234221924626",
    "geocoded_column": {
      "latitude": "29.928234221924626",
      "longitude": "-90.01011721307832"
    }
  },
  {
    "service_request": "2024-1058988",
    "request_type": "Trash/Recycling",
    "request_reason": "MIssed Recycling Pick-Up",
    "date_created": "2024-01-03T14:53:57.000",
    "date_modified": "2024-01-03T14:53:58.000",
    "request_status": "Pending",
    "responsible_agency": "Department of Sanitation",
    "final_address": "207 Forest Oaks Dr",
    "address_councildis": "C",
    "status": "Assigned to Contractor",
    "contractor": "Richards Disposal",
    "rowid": "1058988",
    "final_x": "3722503.1182",
    "final_y": "511011.329136",
    "longitude": "-89.93938679717633",
    "latitude": "29.897795662329706",
    "geocoded_column": {
      "latitude": "29.897795662329706",
      "longitude": "-89.93938679717633"
    }
  },
  {
    "service_request": "2024-1058987",
    "request_type": "Roads/Drainage",
    "request_reason": "Pothole",
    "date_created": "2024-01-03T14:52:24.000",
    "date_modified": "2024-01-03T14:52:24.000",
    "request_status": "Pending",
    "responsible_agency": "Department of Public Works",
    "final_address": "4931 Copernicus St",
    "address_councildis": "C",
    "status": "Pending",
    "rowid": "1058987",
    "final_x": "3702238.44337",
    "final_y": "522564.785338",
    "longitude": "-90.00291457245032",
    "latitude": "29.93022603227707",
    "geocoded_column": {
      "latitude": "29.93022603227707",
      "longitude": "-90.00291457245032"
    }
  },
  {
    "service_request": "2024-1058986",
    "request_type": "Trash/Recycling",
    "request_reason": "Request a Large Item Pick Up",
    "date_created": "2024-01-03T14:48:27.000",
    "date_modified": "2024-01-03T14:48:28.000",
    "request_status": "Pending",
    "responsible_agency": "Department of Sanitation",
    "final_address": "2551 Wisteria St",
    "address_councildis": "D",
    "status": "Assigned to Contractor",
    "contractor": "IV Waste",
    "rowid": "1058986",
    "final_x": "3686650.99234",
    "final_y": "548399.454226",
    "longitude": "-90.05120899555294",
    "latitude": "30.001750829355423",
    "geocoded_column": {
      "latitude": "30.001750829355423",
      "longitude": "-90.05120899555294"
    }
  },
  {
    "service_request": "2024-1058985",
    "request_type": "Roads/Drainage",
    "request_reason": "Catch Basin - Clogged",
    "date_created": "2024-01-03T14:44:41.000",
    "date_modified": "2024-01-03T14:44:42.000",
    "request_status": "Pending",
    "responsible_agency": "Department of Public Works",
    "final_address": "3100 Octavia St",
    "address_councildis": "A",
    "status": "Pending",
    "rowid": "1058985",
    "final_x": "3668204.12007",
    "final_y": "527085.274047",
    "longitude": "-90.11020354020461",
    "latitude": "29.943698629370232",
    "geocoded_column": {
      "latitude": "29.943698629370232",
      "longitude": "-90.11020354020461"
    }
  },
  {
    "service_request": "2024-1058984",
    "request_type": "Roads/Drainage",
    "request_reason": "Catch Basin - Clogged",
    "date_created": "2024-01-03T14:42:55.000",
    "date_modified": "2024-01-03T16:08:43.000",
    "request_status": "Pending",
    "responsible_agency": "Department of Public Works",
    "final_address": "1822 Allen St",
    "address_councildis": "D",
    "status": "Inspected",
    "rowid": "1058984",
    "final_x": "3682528.38812",
    "final_y": "538864.596361",
    "longitude": "-90.06456624961471",
    "latitude": "29.975659532903084",
    "geocoded_column": {
      "latitude": "29.975659532903084",
      "longitude": "-90.06456624961471"
    }
  },
  {
    "service_request": "2024-1058983",
    "request_type": "Trash/Recycling",
    "request_reason": "Repair Trash Cart",
    "date_created": "2024-01-03T14:42:34.000",
    "date_modified": "2024-01-03T14:42:35.000",
    "request_status": "Pending",
    "responsible_agency": "Department of Sanitation",
    "final_address": "4806 Cleveland Ave",
    "address_councildis": "A",
    "status": "Assigned to Contractor",
    "contractor": "Richards Disposal",
    "rowid": "1058983",
    "final_x": "3668465.76852",
    "final_y": "539734.584138",
    "longitude": "-90.10895069559022",
    "latitude": "29.978472368582352",
    "geocoded_column": {
      "latitude": "29.978472368582352",
      "longitude": "-90.10895069559022"
    }
  },
  {
    "service_request": "2024-1058982",
    "request_type": "Trash/Recycling",
    "request_reason": "Repair Trash Cart",
    "date_created": "2024-01-03T14:33:28.000",
    "date_modified": "2024-01-03T14:33:29.000",
    "request_status": "Pending",
    "responsible_agency": "Department of Sanitation",
    "final_address": "2008 Bodenger Blvd",
    "address_councildis": "C",
    "status": "Assigned to Contractor",
    "contractor": "Richards Disposal",
    "rowid": "1058982",
    "final_x": "3688496.73609",
    "final_y": "524388.890556",
    "longitude": "-90.0462301453908",
    "latitude": "29.935673272682905",
    "geocoded_column": {
      "latitude": "29.935673272682905",
      "longitude": "-90.0462301453908"
    }
  },
  {
    "service_request": "2024-1058981",
    "request_type": "Utility Poles",
    "request_reason": "Utility Pole Leaning",
    "date_created": "2024-01-03T14:30:53.000",
    "date_modified": "2024-01-03T14:30:57.000",
    "request_status": "Pending",
    "responsible_agency": "Utility Company Collective",
    "final_address": "3816 Vincennes Pl",
    "address_councildis": "A",
    "status": "Pending",
    "rowid": "1058981",
    "final_x": "3668222.44717",
    "final_y": "529625.898241",
    "longitude": "-90.11006004143432",
    "latitude": "29.950683982249327",
    "geocoded_column": {
      "latitude": "29.950683982249327",
      "longitude": "-90.11006004143432"
    }
  },
  {
    "service_request": "2024-1058980",
    "request_type": "Abandoned Vehicles",
    "request_reason": "Abandoned/Junk Vehicles",
    "date_created": "2024-01-03T14:25:11.000",
    "date_modified": "2024-01-03T14:26:18.000",
    "request_status": "Pending",
    "responsible_agency": "Department of Public Works",
    "final_address": "ST PHILIP ST & N CLAIBORNE AVE",
    "address_councildis": "D",
    "status": "Pending",
    "rowid": "1058980",
    "final_x": "3680398.3",
    "final_y": "535535.58",
    "longitude": "-90.07140944890652",
    "latitude": "29.96657056553638",
    "geocoded_column": {
      "latitude": "29.96657056553638",
      "longitude": "-90.07140944890652"
    }
  },
  {
    "service_request": "2024-1058979",
    "request_type": "Trash/Recycling",
    "request_reason": "Request a Large Item Pick Up",
    "date_created": "2024-01-03T14:24:56.000",
    "date_modified": "2024-01-03T14:24:57.000",
    "request_status": "Pending",
    "responsible_agency": "Department of Sanitation",
    "final_address": "2519 Eads St",
    "address_councildis": "D",
    "status": "Assigned to Contractor",
    "contractor": "IV Waste",
    "rowid": "1058979",
    "final_x": "3687888.77417",
    "final_y": "541929.73518",
    "longitude": "-90.04752807482915",
    "latitude": "29.983923286388766",
    "geocoded_column": {
      "latitude": "29.983923286388766",
      "longitude": "-90.04752807482915"
    }
  },
  {
    "service_request": "2024-1058978",
    "request_type": "Abandoned Vehicles",
    "request_reason": "Abandoned/Junk Vehicles",
    "date_created": "2024-01-03T14:24:25.000",
    "date_modified": "2024-01-03T14:24:25.000",
    "request_status": "Pending",
    "responsible_agency": "Department of Public Works",
    "final_address": "836 Market St",
    "address_councildis": "B",
    "status": "Pending",
    "rowid": "1058978",
    "final_x": "3680825.91509",
    "final_y": "522472.176058",
    "longitude": "-90.07051370257665",
    "latitude": "29.93063763714587",
    "geocoded_column": {
      "latitude": "29.93063763714587",
      "longitude": "-90.07051370257665"
    }
  },
  {
    "service_request": "2024-1058977",
    "request_type": "Property Maintenance",
    "request_reason": "Property Maintenance",
    "date_created": "2024-01-03T14:24:03.000",
    "date_modified": "2024-01-03T14:24:03.000",
    "request_status": "Pending",
    "responsible_agency": "Department of Code Enforcement",
    "final_address": "918 Bellecastle St",
    "address_councildis": "B",
    "status": "Pending",
    "rowid": "1058977",
    "final_x": "3667663.24225",
    "final_y": "518796.822519",
    "longitude": "-90.11219012821331",
    "latitude": "29.92092389671253",
    "geocoded_column": {
      "latitude": "29.92092389671253",
      "longitude": "-90.11219012821331"
    }
  },
  {
    "service_request": "2024-1058976",
    "request_type": "Trash/Recycling",
    "request_reason": "Missed Trash Pick-Up",
    "date_created": "2024-01-03T14:24:02.000",
    "date_modified": "2024-01-03T14:24:03.000",
    "request_status": "Pending",
    "responsible_agency": "Department of Sanitation",
    "final_address": "8128 Oak St",
    "address_councildis": "A",
    "status": "Assigned to Contractor",
    "contractor": "Richards Disposal",
    "rowid": "1058976",
    "final_x": "3661765.36774",
    "final_y": "528502.808704",
    "longitude": "-90.13048552119332",
    "latitude": "29.947783813050226",
    "geocoded_column": {
      "latitude": "29.947783813050226",
      "longitude": "-90.13048552119332"
    }
  },
  {
    "service_request": "2024-1058975",
    "request_type": "Roads/Drainage",
    "request_reason": "Pothole",
    "date_created": "2024-01-03T14:22:21.000",
    "date_modified": "2024-01-03T14:22:21.000",
    "request_status": "Pending",
    "responsible_agency": "Department of Public Works",
    "final_address": "1000 BLK Arabella St",
    "address_councildis": "A",
    "status": "Pending",
    "rowid": "1058975",
    "final_x": "3666012.5974",
    "final_y": "519768.139713",
    "longitude": "-90.11736794918373",
    "latitude": "29.923642980907395",
    "geocoded_column": {
      "latitude": "29.923642980907395",
      "longitude": "-90.11736794918373"
    }
  },
  {
    "service_request": "2024-1058974",
    "request_type": "Traffic Signals/Signs/Striping/Streetlights",
    "request_reason": "Street Name Sign Damaged or Missing",
    "date_created": "2024-01-03T14:21:03.000",
    "date_modified": "2024-01-03T14:21:03.000",
    "request_status": "Pending",
    "responsible_agency": "Department of Public Works",
    "final_address": "1644 Amelia St",
    "address_councildis": "B",
    "status": "Pending",
    "rowid": "1058974",
    "final_x": "3673020.92846",
    "final_y": "521476.188601",
    "longitude": "-90.09518692317081",
    "latitude": "29.928133206650998",
    "geocoded_column": {
      "latitude": "29.928133206650998",
      "longitude": "-90.09518692317081"
    }
  },
  {
    "service_request": "2024-1058973",
    "request_type": "Trash/Recycling",
    "request_reason": "Illegal Dumping",
    "date_created": "2024-01-03T14:19:31.000",
    "date_modified": "2024-01-03T14:19:31.000",
    "request_status": "Pending",
    "responsible_agency": "Department of Sanitation",
    "final_address": "FLORIDA AVE & GORDON ST",
    "address_councildis": "E",
    "status": "Pending",
    "rowid": "1058973",
    "final_x": "3701471.2",
    "final_y": "539161.78",
    "longitude": "-90.00472911174543",
    "latitude": "29.97588634248546",
    "geocoded_column": {
      "latitude": "29.97588634248546",
      "longitude": "-90.00472911174543"
    }
  },
  {
    "service_request": "2024-1058972",
    "request_type": "Trash/Recycling",
    "request_reason": "Missed Trash Pick-Up",
    "date_created": "2024-01-03T14:19:02.000",
    "date_modified": "2024-01-03T14:19:03.000",
    "request_status": "Pending",
    "responsible_agency": "Department of Sanitation",
    "final_address": "7720 Spruce St",
    "address_councildis": "A",
    "status": "Assigned to Contractor",
    "contractor": "Richards Disposal",
    "rowid": "1058972",
    "final_x": "3664775.48429",
    "final_y": "529563.764545",
    "longitude": "-90.12094590667361",
    "latitude": "29.950613869573143",
    "geocoded_column": {
      "latitude": "29.950613869573143",
      "longitude": "-90.12094590667361"
    }
  },
  {
    "service_request": "2024-1058970",
    "request_type": "Trash/Recycling",
    "request_reason": "Request a Large Item Pick Up",
    "date_created": "2024-01-03T14:15:21.000",
    "date_modified": "2024-01-03T14:15:22.000",
    "request_status": "Pending",
    "responsible_agency": "Department of Sanitation",
    "final_address": "4700 Laine Ave",
    "address_councildis": "E",
    "status": "Assigned to Contractor",
    "contractor": "Waste Pro",
    "rowid": "1058970",
    "final_x": "3705694.32145",
    "final_y": "555116.451737",
    "longitude": "-89.99080101148618",
    "latitude": "30.019620357472657",
    "geocoded_column": {
      "latitude": "30.019620357472657",
      "longitude": "-89.99080101148618"
    }
  },
  {
    "service_request": "2024-1058969",
    "request_type": "Trash/Recycling",
    "request_reason": "Missed Trash Pick-Up",
    "date_created": "2024-01-03T14:14:37.000",
    "date_modified": "2024-01-03T14:14:38.000",
    "request_status": "Pending",
    "responsible_agency": "Department of Sanitation",
    "final_address": "7900 Berg Rd",
    "address_councildis": "E",
    "status": "Assigned to Contractor",
    "contractor": "Waste Pro",
    "rowid": "1058969",
    "final_x": "3711381.44754",
    "final_y": "567510.54602",
    "longitude": "-89.97236661735123",
    "latitude": "30.053514728954802",
    "geocoded_column": {
      "latitude": "30.053514728954802",
      "longitude": "-89.97236661735123"
    }
  },
  {
    "service_request": "2024-1058968",
    "request_type": "Trash/Recycling",
    "request_reason": "Request a Large Item Pick Up",
    "date_created": "2024-01-03T14:14:13.000",
    "date_modified": "2024-01-03T14:14:15.000",
    "request_status": "Pending",
    "responsible_agency": "Department of Sanitation",
    "final_address": "137 N Norman C Francis Prkwy",
    "address_councildis": "B",
    "status": "Assigned to Contractor",
    "contractor": "Richards Disposal",
    "rowid": "1058968",
    "final_x": "3673312.05236",
    "final_y": "537102.60244",
    "longitude": "-90.09373425461202",
    "latitude": "29.971092033030175",
    "geocoded_column": {
      "latitude": "29.971092033030175",
      "longitude": "-90.09373425461202"
    }
  },
  {
    "service_request": "2024-1058967",
    "request_type": "Roads/Drainage",
    "request_reason": "Catch Basin - Clogged",
    "date_created": "2024-01-03T14:14:08.000",
    "date_modified": "2024-01-03T14:14:08.000",
    "request_status": "Pending",
    "responsible_agency": "Department of Public Works",
    "final_address": "2016 Broadway St",
    "address_councildis": "A",
    "status": "Pending",
    "rowid": "1058967",
    "final_x": "3665793.53312",
    "final_y": "529007.625472",
    "longitude": "-90.11775004832693",
    "latitude": "29.94905500935149",
    "geocoded_column": {
      "latitude": "29.94905500935149",
      "longitude": "-90.11775004832693"
    }
  },
  {
    "service_request": "2024-1058966",
    "request_type": "Trash/Recycling",
    "request_reason": "Request a Large Item Pick Up",
    "date_created": "2024-01-03T14:13:36.000",
    "date_modified": "2024-01-03T14:13:37.000",
    "request_status": "Pending",
    "responsible_agency": "Department of Sanitation",
    "final_address": "1421 Thalia St",
    "address_councildis": "B",
    "status": "Assigned to Contractor",
    "contractor": "Richards Disposal",
    "rowid": "1058966",
    "final_x": "3679952.52379",
    "final_y": "525463.820733",
    "longitude": "-90.07316700562718",
    "latitude": "29.938890110901013",
    "geocoded_column": {
      "latitude": "29.938890110901013",
      "longitude": "-90.07316700562718"
    }
  },
  {
    "service_request": "2024-1058965",
    "request_type": "Roads/Drainage",
    "request_reason": "Accessibility Ramps, Curbs and Sidewalk Repair",
    "date_created": "2024-01-03T14:12:04.000",
    "date_modified": "2024-01-03T14:12:04.000",
    "request_status": "Pending",
    "responsible_agency": "Department of Public Works",
    "final_address": "8517 Fordham Ct",
    "address_councildis": "E",
    "status": "Pending",
    "rowid": "1058965",
    "final_x": "3704801.37579",
    "final_y": "560363.794845",
    "longitude": "-89.9934285240372",
    "latitude": "30.03407724861469",
    "geocoded_column": {
      "latitude": "30.03407724861469",
      "longitude": "-89.9934285240372"
    }
  },
  {
    "service_request": "2024-1058964",
    "request_type": "Trash/Recycling",
    "request_reason": "Request a Large Item Pick Up",
    "date_created": "2024-01-03T14:09:35.000",
    "date_modified": "2024-01-03T14:09:36.000",
    "request_status": "Pending",
    "responsible_agency": "Department of Sanitation",
    "final_address": "2016 St Andrew St",
    "address_councildis": "B",
    "status": "Assigned to Contractor",
    "contractor": "Richards Disposal",
    "rowid": "1058964",
    "final_x": "3677099.55829",
    "final_y": "525524.993533",
    "longitude": "-90.08217204149207",
    "latitude": "29.939144281784138",
    "geocoded_column": {
      "latitude": "29.939144281784138",
      "longitude": "-90.08217204149207"
    }
  },
  {
    "service_request": "2024-1058963",
    "request_type": "Trash/Recycling",
    "request_reason": "MIssed Recycling Pick-Up",
    "date_created": "2024-01-03T14:08:33.000",
    "date_modified": "2024-01-03T14:08:34.000",
    "request_status": "Pending",
    "responsible_agency": "Department of Sanitation",
    "final_address": "3315 Baronne St",
    "address_councildis": "B",
    "status": "Assigned to Contractor",
    "contractor": "Richards Disposal",
    "rowid": "1058963",
    "final_x": "3674129.23764",
    "final_y": "522368.906106",
    "longitude": "-90.09165769775515",
    "latitude": "29.93055491483466",
    "geocoded_column": {
      "latitude": "29.93055491483466",
      "longitude": "-90.09165769775515"
    }
  },
  {
    "service_request": "2024-1058962",
    "request_type": "Abandoned Vehicles",
    "request_reason": "Abandoned/Junk Vehicles",
    "date_created": "2024-01-03T14:04:54.000",
    "date_modified": "2024-01-03T14:05:52.000",
    "request_status": "Pending",
    "responsible_agency": "Department of Public Works",
    "final_address": "1600 BLK Dumaine St",
    "address_councildis": "C",
    "status": "Pending",
    "rowid": "1058962",
    "final_x": "3680391.81503",
    "final_y": "535042.741382",
    "longitude": "-90.07144706840043",
    "latitude": "29.965215624356755",
    "geocoded_column": {
      "latitude": "29.965215624356755",
      "longitude": "-90.07144706840043"
    }
  },
  {
    "service_request": "2024-1058961",
    "request_type": "Trash/Recycling",
    "request_reason": "Order Trash Cart",
    "date_created": "2024-01-03T14:00:11.000",
    "date_modified": "2024-01-03T14:00:12.000",
    "request_status": "Pending",
    "responsible_agency": "Department of Sanitation",
    "final_address": "1129 Deslonde St",
    "address_councildis": "E",
    "status": "Assigned to Contractor",
    "contractor": "Waste Pro",
    "rowid": "1058961",
    "final_x": "3695478.09834",
    "final_y": "534639.120006",
    "longitude": "-90.0238201827628",
    "latitude": "29.963640352635004",
    "geocoded_column": {
      "latitude": "29.963640352635004",
      "longitude": "-90.0238201827628"
    }
  },
  {
    "service_request": "2024-1058960",
    "request_type": "Trash/Recycling",
    "request_reason": "Order Trash Cart",
    "date_created": "2024-01-03T13:59:53.000",
    "date_modified": "2024-01-03T13:59:54.000",
    "request_status": "Pending",
    "responsible_agency": "Department of Sanitation",
    "final_address": "1127 Deslonde St",
    "address_councildis": "E",
    "status": "Assigned to Contractor",
    "contractor": "Waste Pro",
    "rowid": "1058960",
    "final_x": "3695473.93309",
    "final_y": "534625.825798",
    "longitude": "-90.02383381590855",
    "latitude": "29.963603929159692",
    "geocoded_column": {
      "latitude": "29.963603929159692",
      "longitude": "-90.02383381590855"
    }
  },
  {
    "service_request": "2024-1058959",
    "request_type": "Trash/Recycling",
    "request_reason": "MIssed Recycling Pick-Up",
    "date_created": "2024-01-03T13:59:16.000",
    "date_modified": "2024-01-03T13:59:17.000",
    "request_status": "Pending",
    "responsible_agency": "Department of Sanitation",
    "final_address": "724 Washington Ave",
    "address_councildis": "B",
    "status": "Assigned to Contractor",
    "contractor": "Richards Disposal",
    "rowid": "1058959",
    "final_x": "3677715.11278",
    "final_y": "519716.385592",
    "longitude": "-90.08042917938418",
    "latitude": "29.923154012712182",
    "geocoded_column": {
      "latitude": "29.923154012712182",
      "longitude": "-90.08042917938418"
    }
  },
  {
    "service_request": "2024-1058958",
    "request_type": "Trash/Recycling",
    "request_reason": "Repair Recycling Cart",
    "date_created": "2024-01-03T13:55:53.000",
    "date_modified": "2024-01-03T13:55:54.000",
    "request_status": "Pending",
    "responsible_agency": "Department of Sanitation",
    "final_address": "11284 Waverly Dr",
    "address_councildis": "E",
    "status": "Pending",
    "rowid": "1058958",
    "final_x": "3717715.23122",
    "final_y": "560279.790749",
    "longitude": "-89.95262278140032",
    "latitude": "30.033424727834564",
    "geocoded_column": {
      "latitude": "30.033424727834564",
      "longitude": "-89.95262278140032"
    }
  },
  {
    "service_request": "2024-1058957",
    "request_type": "Trash/Recycling",
    "request_reason": "Request a Large Item Pick Up",
    "date_created": "2024-01-03T13:55:31.000",
    "date_modified": "2024-01-03T13:55:32.000",
    "request_status": "Pending",
    "responsible_agency": "Department of Sanitation",
    "final_address": "9835 E Rockton Cir",
    "address_councildis": "E",
    "status": "Assigned to Contractor",
    "contractor": "Waste Pro",
    "rowid": "1058957",
    "final_x": "3708535.02936",
    "final_y": "562974.934624",
    "longitude": "-89.98153246172826",
    "latitude": "30.04113626985564",
    "geocoded_column": {
      "latitude": "30.04113626985564",
      "longitude": "-89.98153246172826"
    }
  },
  {
    "service_request": "2024-1058956",
    "request_type": "Trash/Recycling",
    "request_reason": "Replace Trash Cart",
    "date_created": "2024-01-03T13:55:00.000",
    "date_modified": "2024-01-03T13:55:01.000",
    "request_status": "Pending",
    "responsible_agency": "Department of Sanitation",
    "final_address": "4935 Werner Dr",
    "address_councildis": "E",
    "status": "Assigned to Contractor",
    "contractor": "Waste Pro",
    "rowid": "1058956",
    "final_x": "3704710.9315",
    "final_y": "556309.730842",
    "longitude": "-89.99386409971454",
    "latitude": "30.02293305870544",
    "geocoded_column": {
      "latitude": "30.02293305870544",
      "longitude": "-89.99386409971454"
    }
  },
  {
    "service_request": "2024-1058955",
    "request_type": "Trash/Recycling",
    "request_reason": "Request a Large Item Pick Up",
    "date_created": "2024-01-03T13:54:17.000",
    "date_modified": "2024-01-03T13:54:18.000",
    "request_status": "Pending",
    "responsible_agency": "Department of Sanitation",
    "final_address": "13535 N Lemans St",
    "address_councildis": "E",
    "status": "Assigned to Contractor",
    "contractor": "Waste Pro",
    "rowid": "1058955",
    "final_x": "3725703.75488",
    "final_y": "563176.068512",
    "longitude": "-89.92726625273671",
    "latitude": "30.04112120027843",
    "geocoded_column": {
      "latitude": "30.04112120027843",
      "longitude": "-89.92726625273671"
    }
  },
  {
    "service_request": "2024-1058954",
    "request_type": "EMS",
    "request_reason": "EMS Lost & Found",
    "date_created": "2024-01-03T13:53:59.000",
    "date_modified": "2024-01-03T13:54:00.000",
    "request_status": "Pending",
    "responsible_agency": "Emergency Medical Services",
    "final_address": "1430 Annunciation St",
    "address_councildis": "B",
    "status": "Pending",
    "rowid": "1058954",
    "final_x": "3681439.89109",
    "final_y": "524266.269244",
    "longitude": "-90.06851295373069",
    "latitude": "29.935552180059382",
    "geocoded_column": {
      "latitude": "29.935552180059382",
      "longitude": "-90.06851295373069"
    }
  },
  {
    "service_request": "2024-1058953",
    "request_type": "Roads/Drainage",
    "request_reason": "Catch Basin - Broken/Damage",
    "date_created": "2024-01-03T13:52:38.000",
    "date_modified": "2024-01-03T13:52:39.000",
    "request_status": "Pending",
    "responsible_agency": "Department of Public Works",
    "final_address": "4804 Ray Ave",
    "address_councildis": "E",
    "status": "Pending",
    "rowid": "1058953",
    "final_x": "3698632.6152",
    "final_y": "554713.372632",
    "longitude": "-90.01312821385935",
    "latitude": "30.018737654186456",
    "geocoded_column": {
      "latitude": "30.018737654186456",
      "longitude": "-90.01312821385935"
    }
  },
  {
    "service_request": "2024-1058952",
    "request_type": "Trash/Recycling",
    "request_reason": "Missed Trash Pick-Up",
    "date_created": "2024-01-03T13:48:30.000",
    "date_modified": "2024-01-03T13:48:31.000",
    "request_status": "Pending",
    "responsible_agency": "Department of Sanitation",
    "final_address": "3620 Robert St",
    "address_councildis": "A",
    "status": "Assigned to Contractor",
    "contractor": "Richards Disposal",
    "rowid": "1058952",
    "final_x": "3668871.43988",
    "final_y": "528147.671167",
    "longitude": "-90.10806075911495",
    "latitude": "29.94660027277878",
    "geocoded_column": {
      "latitude": "29.94660027277878",
      "longitude": "-90.10806075911495"
    }
  },
  {
    "service_request": "2024-1058951",
    "request_type": "Abandoned Vehicles",
    "request_reason": "Abandoned/Junk Vehicles",
    "date_created": "2024-01-03T13:45:44.000",
    "date_modified": "2024-01-03T13:52:01.000",
    "request_status": "Pending",
    "responsible_agency": "Department of Public Works",
    "final_address": "3419 Louisiana Avenue Prkwy",
    "address_councildis": "B",
    "rowid": "1058951",
    "final_x": "3671753.90951",
    "final_y": "527694.027071",
    "longitude": "-90.09897517854444",
    "latitude": "29.945267832547955",
    "geocoded_column": {
      "latitude": "29.945267832547955",
      "longitude": "-90.09897517854444"
    }
  },
  {
    "service_request": "2024-1058950",
    "request_type": "Roads/Drainage",
    "request_reason": "Catch Basin - Clogged",
    "date_created": "2024-01-03T13:44:30.000",
    "date_modified": "2024-01-03T13:44:31.000",
    "request_status": "Pending",
    "responsible_agency": "Department of Public Works",
    "final_address": "2600 BLK S Galvez St",
    "address_councildis": "B",
    "status": "Pending",
    "rowid": "1058950",
    "final_x": "3672622.73707",
    "final_y": "528366.980783",
    "longitude": "-90.09620906973916",
    "latitude": "29.94709247039382",
    "geocoded_column": {
      "latitude": "29.94709247039382",
      "longitude": "-90.09620906973916"
    }
  },
  {
    "service_request": "2024-1058949",
    "request_type": "Trash/Recycling",
    "request_reason": "Request a Large Item Pick Up",
    "date_created": "2024-01-03T13:44:18.000",
    "date_modified": "2024-01-03T13:44:19.000",
    "request_status": "Pending",
    "responsible_agency": "Department of Sanitation",
    "final_address": "4504 S Miro St",
    "address_councildis": "B",
    "status": "Assigned to Contractor",
    "contractor": "Richards Disposal",
    "rowid": "1058949",
    "final_x": "3669685.47425",
    "final_y": "527729.510719",
    "longitude": "-90.10550470102555",
    "latitude": "29.945426507751026",
    "geocoded_column": {
      "latitude": "29.945426507751026",
      "longitude": "-90.10550470102555"
    }
  },
  {
    "service_request": "2024-1058948",
    "request_type": "Property Maintenance",
    "request_reason": "Property Maintenance",
    "date_created": "2024-01-03T13:37:46.000",
    "date_modified": "2024-01-03T14:14:48.000",
    "request_status": "Pending",
    "responsible_agency": "Department of Code Enforcement",
    "final_address": "1425 Thalia St",
    "address_councildis": "B",
    "status": "Pending",
    "rowid": "1058948",
    "final_x": "3679929.4564",
    "final_y": "525476.562493",
    "longitude": "-90.07323938962124",
    "latitude": "29.93892584405819",
    "geocoded_column": {
      "latitude": "29.93892584405819",
      "longitude": "-90.07323938962124"
    }
  },