[
  {
    "service_request": "2023-1035730",
    "request_type": "Roads/Drainage",
    "request_reason": "Pothole",
    "date_created": "2023-09-16T01:08:30.000",
    "date_modified": "2023-09-16T01:08:30.000",
    "request_status": "Pending",
    "responsible_agency": "Department of Public Works",
    "final_address": "5717 Hurst St",
    "address_councildis": "A",
    "status": "Pending",
    "rowid": "1035730",
    "final_x": "3666238.39418",
    "final_y": "521686.968249",
    "longitude": "-90.11659087061466",
    "latitude": "29.928912562979253",
    "geocoded_column": {
      "latitude": "29.928912562979253",
      "longitude": "-90.11659087061466"
    }
  },
  {
    "service_request": "2023-1035729",
    "request_type": "Roads/Drainage",
    "request_reason": "Pothole",
    "date_created": "2023-09-16T01:07:00.000",
    "date_modified": "2023-09-16T01:07:00.000",
    "request_status": "Pending",
    "responsible_agency": "Department of Public Works",
    "final_address": "1315 Peniston St",
    "address_councildis": "B",
    "status": "Pending",
    "rowid": "1035729",
    "final_x": "3673101.31451",
    "final_y": "520423.11276",
    "longitude": "-90.09496908964098",
    "latitude": "29.925235197927364",
    "geocoded_column": {
      "latitude": "29.925235197927364",
      "longitude": "-90.09496908964098"
    }
  },
  {
    "service_request": "2023-1035728",
    "request_type": "Roads/Drainage",
    "request_reason": "Pothole",
    "date_created": "2023-09-16T00:04:41.000",
    "date_modified": "2023-09-16T00:04:41.000",
    "request_status": "Pending",
    "responsible_agency": "Department of Public Works",
    "final_address": "4216 Chestnut St",
    "address_councildis": "B",
    "status": "Pending",
    "rowid": "1035728",
    "final_x": "3671574.31393",
    "final_y": "519539.203703",
    "longitude": "-90.09981939416457",
    "latitude": "29.922850019854593",
    "geocoded_column": {
      "latitude": "29.922850019854593",
      "longitude": "-90.09981939416457"
    }
  },
  {
    "service_request": "2023-1035727",
    "request_type": "Roads/Drainage",
    "request_reason": "Accessibility Ramps, Curbs and Sidewalk Repair",
    "date_created": "2023-09-16T00:02:37.000",
    "date_modified": "2023-09-16T00:02:37.000",
    "request_status": "Pending",
    "responsible_agency": "Department of Public Works",
    "final_address": "6061 Pitt St",
    "address_councildis": "A",
    "status": "Pending",
    "rowid": "1035727",
    "final_x": "3664964.69159",
    "final_y": "521343.071609",
    "longitude": "-90.12062320038766",
    "latitude": "29.928004084090347",
    "geocoded_column": {
      "latitude": "29.928004084090347",
      "longitude": "-90.12062320038766"
    }
  },
  {
    "service_request": "2023-1035726",
    "request_type": "Roads/Drainage",
    "request_reason": "Pothole",
    "date_created": "2023-09-15T23:54:32.000",
    "date_modified": "2023-09-15T23:54:32.000",
    "request_status": "Pending",
    "responsible_agency": "Department of Public Works",
    "final_address": "1421 Constantinople St",
    "address_councildis": "B",
    "status": "Pending",
    "rowid": "1035726",
    "final_x": "3672433.24257",
    "final_y": "520667.657465",
    "longitude": "-90.09706965638372",
    "latitude": "29.925927453713577",
    "geocoded_column": {
      "latitude": "29.925927453713577",
      "longitude": "-90.09706965638372"
    }
  },
  {
    "service_request": "2023-1035725",
    "request_type": "Roads/Drainage",
    "request_reason": "Pothole",
    "date_created": "2023-09-15T23:46:45.000",
    "date_modified": "2023-09-15T23:46:45.000",
    "request_status": "Pending",
    "responsible_agency": "Department of Public Works",
    "final_address": "1312 Milan St",
    "address_councildis": "B",
    "status": "Pending",
    "rowid": "1035725",
    "final_x": "3671625.82823",
    "final_y": "520286.919608",
    "longitude": "-90.09963137110304",
    "latitude": "29.92490447494246",
    "geocoded_column": {
      "latitude": "29.92490447494246",
      "longitude": "-90.09963137110304"
    }
  },
  {
    "service_request": "2023-1035724",
    "request_type": "Roads/Drainage",
    "request_reason": "Pothole",
    "date_created": "2023-09-15T23:40:40.000",
    "date_modified": "2023-09-15T23:40:40.000",
    "request_status": "Pending",
    "responsible_agency": "Department of Public Works",
    "final_address": "4216 Chestnut St",
    "address_councildis": "B",
    "status": "Pending",
    "rowid": "1035724",
    "final_x": "3671574.31393",
    "final_y": "519539.203703",
    "longitude": "-90.09981939416457",
    "latitude": "29.922850019854593",
    "geocoded_column": {
      "latitude": "29.922850019854593",
      "longitude": "-90.09981939416457"
    }
  },
  {
    "service_request": "2023-1035723",
    "request_type": "Roads/Drainage",
    "request_reason": "Pothole",
    "date_created": "2023-09-15T23:29:54.000",
    "date_modified": "2023-09-15T23:29:54.000",
    "request_status": "Pending",
    "responsible_agency": "Department of Public Works",
    "final_address": "1423 General Pershing St",
    "address_councildis": "B",
    "status": "Pending",
    "rowid": "1035723",
    "final_x": "3671330.69185",
    "final_y": "520571.244024",
    "longitude": "-90.1005533659415",
    "latitude": "29.925695010510914",
    "geocoded_column": {
      "latitude": "29.925695010510914",
      "longitude": "-90.1005533659415"
    }
  },
  {
    "service_request": "2023-1035722",
    "request_type": "Health Related Request",
    "request_reason": "Noise Ordinance Complaint",
    "date_created": "2023-09-15T23:27:59.000",
    "date_modified": "2023-09-15T23:27:59.000",
    "request_status": "Pending",
    "responsible_agency": "Health Department",
    "final_address": "1224 St Bernard Ave",
    "address_councildis": "C",
    "status": "Pending",
    "rowid": "1035722",
    "final_x": "3682916.67836",
    "final_y": "536293.198663",
    "longitude": "-90.06342992731621",
    "latitude": "29.968577253130643",
    "geocoded_column": {
      "latitude": "29.968577253130643",
      "longitude": "-90.06342992731621"
    }
  },
  {
    "service_request": "2023-1035721",
    "request_type": "Roads/Drainage",
    "request_reason": "Pothole",
    "date_created": "2023-09-15T22:57:48.000",
    "date_modified": "2023-09-15T22:57:48.000",
    "request_status": "Pending",
    "responsible_agency": "Department of Public Works",
    "final_address": "1506 Milan St",
    "address_councildis": "B",
    "status": "Pending",
    "rowid": "1035721",
    "final_x": "3671572.56884",
    "final_y": "520709.144377",
    "longitude": "-90.0997851454598",
    "latitude": "29.926067034692668",
    "geocoded_column": {
      "latitude": "29.926067034692668",
      "longitude": "-90.0997851454598"
    }
  },
  {
    "service_request": "2023-1035720",
    "request_type": "Health Related Request",
    "request_reason": "Noise Ordinance Complaint",
    "date_created": "2023-09-15T22:48:50.000",
    "date_modified": "2023-09-15T22:48:50.000",
    "request_status": "Pending",
    "responsible_agency": "Health Department",
    "final_address": "740 Burgundy St, New Orleans, Louisiana, 70116",
    "address_councildis": "C",
    "status": "Pending",
    "rowid": "1035720",
    "final_x": "3681919.1012",
    "final_y": "533357.792004",
    "longitude": "-90.06668280273463",
    "latitude": "29.96053625365705",
    "geocoded_column": {
      "latitude": "29.96053625365705",
      "longitude": "-90.06668280273463"
    }
  },
  {
    "service_request": "2023-1035719",
    "request_type": "Trash/Recycling",
    "request_reason": "Missed Trash Pick-Up",
    "date_created": "2023-09-15T21:59:36.000",
    "date_modified": "2023-09-15T21:59:36.000",
    "request_status": "Pending",
    "responsible_agency": "Department of Sanitation",
    "final_address": "7171 Downman Rd",
    "address_councildis": "D",
    "status": "Assigned to Contractor",
    "contractor": "Waste Pro",
    "rowid": "1035719",
    "final_x": "3695234.87549",
    "final_y": "557024.48393",
    "longitude": "-90.02378034656917",
    "latitude": "30.025199540701447",
    "geocoded_column": {
      "latitude": "30.025199540701447",
      "longitude": "-90.02378034656917"
    }
  },
  {
    "service_request": "2023-1035718",
    "request_type": "Abandoned Vehicles",
    "request_reason": "Abandoned/Junk Vehicles",
    "date_created": "2023-09-15T21:34:25.000",
    "date_modified": "2023-09-15T21:34:25.000",
    "request_status": "Pending",
    "responsible_agency": "Department of Public Works",
    "final_address": "4568 Camelot Dr",
    "address_councildis": "E",
    "status": "Pending",
    "rowid": "1035718",
    "final_x": "3708398.26699",
    "final_y": "554588.764568",
    "longitude": "-89.98227717288793",
    "latitude": "30.01808203458053",
    "geocoded_column": {
      "latitude": "30.01808203458053",
      "longitude": "-89.98227717288793"
    }
  },
  {
    "service_request": "2023-1035717",
    "request_type": "Trash/Recycling",
    "request_reason": "Order Recycling Cart",
    "date_created": "2023-09-15T21:32:25.000",
    "date_modified": "2023-09-15T21:32:25.000",
    "request_status": "Pending",
    "responsible_agency": "Department of Sanitation",
    "final_address": "60 Hawk St",
    "address_councildis": "D",
    "status": "Pending",
    "rowid": "1035717",
    "final_x": "3672748.2427",
    "final_y": "555660.294553",
    "longitude": "-90.09488139793305",
    "latitude": "30.022135980220373",
    "geocoded_column": {
      "latitude": "30.022135980220373",
      "longitude": "-90.09488139793305"
    }
  },
  {
    "service_request": "2023-1035716",
    "request_type": "Abandoned Vehicles",
    "request_reason": "Abandoned/Junk Vehicles",
    "date_created": "2023-09-15T21:17:57.000",
    "date_modified": "2023-09-15T21:17:57.000",
    "request_status": "Pending",
    "responsible_agency": "Department of Public Works",
    "final_address": "4568 Camelot Dr",
    "address_councildis": "E",
    "status": "Pending",
    "rowid": "1035716",
    "final_x": "3708398.26699",
    "final_y": "554588.764568",
    "longitude": "-89.98227717288793",
    "latitude": "30.01808203458053",
    "geocoded_column": {
      "latitude": "30.01808203458053",
      "longitude": "-89.98227717288793"
    }
  },
  {
    "service_request": "2023-1035715",
    "request_type": "Abandoned Vehicles",
    "request_reason": "Abandoned/Junk Vehicles",
    "date_created": "2023-09-15T21:06:55.000",
    "date_modified": "2023-09-15T21:06:55.000",
    "request_status": "Pending",
    "responsible_agency": "Department of Public Works",
    "final_address": "4568 Camelot Dr",
    "address_councildis": "E",
    "status": "Pending",
    "rowid": "1035715",
    "final_x": "3708398.26699",
    "final_y": "554588.764568",
    "longitude": "-89.98227717288793",
    "latitude": "30.01808203458053",
    "geocoded_column": {
      "latitude": "30.01808203458053",
      "longitude": "-89.98227717288793"
    }
  },
  {
    "service_request": "2023-1035714",
    "request_type": "Traffic Signals/Signs/Striping/Streetlights",
    "request_reason": "Street Light Outage/Malfunction",
    "date_created": "2023-09-15T21:03:02.000",
    "date_modified": "2023-09-15T21:03:03.000",
    "request_status": "Pending",
    "responsible_agency": "Department of Public Works",
    "final_address": "200 BLK Dauphine St",
    "address_councildis": "C",
    "status": "Assigned to Contractor",
    "contractor": "Legacy Professional Services",
    "rowid": "1035714",
    "final_x": "3680985.57369",
    "final_y": "531589.421845",
    "longitude": "-90.06969227625548",
    "latitude": "29.95570217854776",
    "geocoded_column": {
      "latitude": "29.95570217854776",
      "longitude": "-90.06969227625548"
    }
  },
  {
    "service_request": "2023-1035712",
    "request_type": "Traffic Signals/Signs/Striping/Streetlights",
    "request_reason": "Street Light Outage/Malfunction",
    "date_created": "2023-09-15T20:15:05.000",
    "date_modified": "2023-09-15T20:15:05.000",
    "request_status": "Pending",
    "responsible_agency": "Department of Public Works",
    "final_address": "5420 S Tonti St",
    "address_councildis": "A",
    "status": "Assigned to Contractor",
    "contractor": "Legacy Professional Services",
    "rowid": "1035712",
    "final_x": "3668606.63354",
    "final_y": "527913.790399",
    "longitude": "-90.10890474122958",
    "latitude": "29.945964960068586",
    "geocoded_column": {
      "latitude": "29.945964960068586",
      "longitude": "-90.10890474122958"
    }
  },
  {
    "service_request": "2023-1035711",
    "request_type": "Property Maintenance",
    "request_reason": "Property Maintenance",
    "date_created": "2023-09-15T20:05:17.000",
    "date_modified": "2023-09-15T20:05:17.000",
    "request_status": "Pending",
    "responsible_agency": "Department of Code Enforcement",
    "final_address": "1820 Harmony St",
    "address_councildis": "B",
    "status": "Pending",
    "rowid": "1035711",
    "final_x": "3674419.71534",
    "final_y": "522648.578234",
    "longitude": "-90.09073112723787",
    "latitude": "29.931315264146356",
    "geocoded_column": {
      "latitude": "29.931315264146356",
      "longitude": "-90.09073112723787"
    }
  },
  {
    "service_request": "2023-1035710",
    "request_type": "Trash/Recycling",
    "request_reason": "Request a Large Item Pick Up",
    "date_created": "2023-09-15T19:47:41.000",
    "date_modified": "2023-09-15T19:47:41.000",
    "request_status": "Pending",
    "responsible_agency": "Department of Sanitation",
    "final_address": "2319 N Galvez St",
    "address_councildis": "D",
    "status": "Assigned to Contractor",
    "contractor": "IV Waste",
    "rowid": "1035710",
    "final_x": "3685634.10236",
    "final_y": "540102.741579",
    "longitude": "-90.05471392442493",
    "latitude": "29.978969074256067",
    "geocoded_column": {
      "latitude": "29.978969074256067",
      "longitude": "-90.05471392442493"
    }
  },
  {
    "service_request": "2023-1035709",
    "request_type": "Roads/Drainage",
    "request_reason": "Pothole",
    "date_created": "2023-09-15T19:29:12.000",
    "date_modified": "2023-09-15T19:29:12.000",
    "request_status": "Pending",
    "responsible_agency": "Department of Public Works",
    "final_address": "2820 Canal St, New Orleans, Louisiana, 70119",
    "address_councildis": "B",
    "status": "Pending",
    "rowid": "1035709",
    "final_x": "3674684.52334",
    "final_y": "535498.125766",
    "longitude": "-90.08945480915236",
    "latitude": "29.966639367900775",
    "geocoded_column": {
      "latitude": "29.966639367900775",
      "longitude": "-90.08945480915236"
    }
  },
  {
    "service_request": "2023-1035708",
    "request_type": "Trash/Recycling",
    "request_reason": "Request a Large Item Pick Up",
    "date_created": "2023-09-15T19:10:42.000",
    "date_modified": "2023-09-15T19:10:43.000",
    "request_status": "Pending",
    "responsible_agency": "Department of Sanitation",
    "final_address": "2257 N Prieur St",
    "address_councildis": "D",
    "status": "Assigned to Contractor",
    "contractor": "IV Waste",
    "rowid": "1035708",
    "final_x": "3685361.83381",
    "final_y": "539352.532682",
    "longitude": "-90.05560027293527",
    "latitude": "29.976914614371722",
    "geocoded_column": {
      "latitude": "29.976914614371722",
      "longitude": "-90.05560027293527"
    }
  },
  {
    "service_request": "2023-1035707",
    "request_type": "Roads/Drainage",
    "request_reason": "Pothole",
    "date_created": "2023-09-15T19:03:23.000",
    "date_modified": "2023-09-15T19:03:23.000",
    "request_status": "Pending",
    "responsible_agency": "Department of Public Works",
    "final_address": "6031 Pitt St",
    "address_councildis": "A",
    "status": "Pending",
    "rowid": "1035707",
    "final_x": "3665074.90548",
    "final_y": "521345.766329",
    "longitude": "-90.12027518893876",
    "latitude": "29.928008285877205",
    "geocoded_column": {
      "latitude": "29.928008285877205",
      "longitude": "-90.12027518893876"
    }
  },
  {
    "service_request": "2023-1035706",
    "request_type": "Trash/Recycling",
    "request_reason": "Missed Trash Pick-Up",
    "date_created": "2023-09-15T18:47:07.000",
    "date_modified": "2023-09-15T18:47:08.000",
    "request_status": "Pending",
    "responsible_agency": "Department of Sanitation",
    "final_address": "808 Washington Ave",
    "address_councildis": "B",
    "status": "Assigned to Contractor",
    "contractor": "Richards Disposal",
    "rowid": "1035706",
    "final_x": "3677561.1149",
    "final_y": "519936.376504",
    "longitude": "-90.08090770171505",
    "latitude": "29.923763545648217",
    "geocoded_column": {
      "latitude": "29.923763545648217",
      "longitude": "-90.08090770171505"
    }
  },
  {
    "service_request": "2023-1035705",
    "request_type": "Trash/Recycling",
    "request_reason": "Missed Trash Pick-Up",
    "date_created": "2023-09-15T18:39:15.000",
    "date_modified": "2023-09-15T18:39:16.000",
    "request_status": "Pending",
    "responsible_agency": "Department of Sanitation",
    "final_address": "6743 Foch Rd",
    "address_councildis": "D",
    "status": "Assigned to Contractor",
    "contractor": "Waste Pro",
    "rowid": "1035705",
    "final_x": "3696790.41335",
    "final_y": "556250.840858",
    "longitude": "-90.0188931546196",
    "latitude": "30.02302334228376",
    "geocoded_column": {
      "latitude": "30.02302334228376",
      "longitude": "-90.0188931546196"
    }
  },
  {
    "service_request": "2023-1035704",
    "request_type": "Trash/Recycling",
    "request_reason": "Missed Trash Pick-Up",
    "date_created": "2023-09-15T18:26:03.000",
    "date_modified": "2023-09-15T18:26:03.000",
    "request_status": "Pending",
    "responsible_agency": "Department of Sanitation",
    "final_address": "4008 America St",
    "address_councildis": "E",
    "status": "Assigned to Contractor",
    "contractor": "Waste Pro",
    "rowid": "1035704",
    "final_x": "3700013.9297",
    "final_y": "551616.106453",
    "longitude": "-90.00887689972433",
    "latitude": "30.01017751302915",
    "geocoded_column": {
      "latitude": "30.01017751302915",
      "longitude": "-90.00887689972433"
    }
  },
  {
    "service_request": "2023-1035703",
    "request_type": "Trash/Recycling",
    "request_reason": "MIssed Recycling Pick-Up",
    "date_created": "2023-09-15T18:24:37.000",
    "date_modified": "2023-09-15T18:24:38.000",
    "request_status": "Pending",
    "responsible_agency": "Department of Sanitation",
    "final_address": "7523 Zimple St",
    "address_councildis": "A",
    "status": "Assigned to Contractor",
    "contractor": "Richards Disposal",
    "rowid": "1035703",
    "final_x": "3663182.41831",
    "final_y": "526841.03091",
    "longitude": "-90.12606659199297",
    "latitude": "29.94317347756813",
    "geocoded_column": {
      "latitude": "29.94317347756813",
      "longitude": "-90.12606659199297"
    }
  },
  {
    "service_request": "2023-1035702",
    "request_type": "Trash/Recycling",
    "request_reason": "Request a Large Item Pick Up",
    "date_created": "2023-09-15T18:17:39.000",
    "date_modified": "2023-09-15T18:17:39.000",
    "request_status": "Pending",
    "responsible_agency": "Department of Sanitation",
    "final_address": "1339 Flood St",
    "address_councildis": "E",
    "status": "Assigned to Contractor",
    "contractor": "Waste Pro",
    "rowid": "1035702",
    "final_x": "3698019.88503",
    "final_y": "534866.373126",
    "longitude": "-90.01578527556948",
    "latitude": "29.96418509937483",
    "geocoded_column": {
      "latitude": "29.96418509937483",
      "longitude": "-90.01578527556948"
    }
  },
  {
    "service_request": "2023-1035701",
    "request_type": "Trash/Recycling",
    "request_reason": "Missed Trash Pick-Up",
    "date_created": "2023-09-15T18:05:45.000",
    "date_modified": "2023-09-15T18:05:45.000",
    "request_status": "Pending",
    "responsible_agency": "Department of Sanitation",
    "final_address": "8058 Driftwood Dr",
    "address_councildis": "E",
    "status": "Assigned to Contractor",
    "contractor": "Waste Pro",
    "rowid": "1035701",
    "final_x": "3702336.83223",
    "final_y": "561883.463711",
    "longitude": "-90.00116090888535",
    "latitude": "30.038334756716264",
    "geocoded_column": {
      "latitude": "30.038334756716264",
      "longitude": "-90.00116090888535"
    }
  },
  {
    "service_request": "2023-1035700",
    "request_type": "Trash/Recycling",
    "request_reason": "Missed Trash Pick-Up",
    "date_created": "2023-09-15T18:05:10.000",
    "date_modified": "2023-09-15T18:05:10.000",
    "request_status": "Pending",
    "responsible_agency": "Department of Sanitation",
    "final_address": "903 Jefferson Ave",
    "address_councildis": "B",
    "status": "Assigned to Contractor",
    "contractor": "Richards Disposal",
    "rowid": "1035700",
    "final_x": "3666843.85409",
    "final_y": "518818.231991",
    "longitude": "-90.11477585578302",
    "latitude": "29.921006751814584",
    "geocoded_column": {
      "latitude": "29.921006751814584",
      "longitude": "-90.11477585578302"
    }
  },
  {
    "service_request": "2023-1035699",
    "request_type": "Property Maintenance",
    "request_reason": "Property Maintenance",
    "date_created": "2023-09-15T18:04:57.000",
    "date_modified": "2023-09-15T18:04:57.000",
    "request_status": "Pending",
    "responsible_agency": "Department of Code Enforcement",
    "final_address": "2300 BLK Fats Domino Ave",
    "address_councildis": "E",
    "status": "Pending",
    "rowid": "1035699",
    "final_x": "3699270.48758",
    "final_y": "538446.75918",
    "longitude": "-90.01170559277736",
    "latitude": "29.97399027410025",
    "geocoded_column": {
      "latitude": "29.97399027410025",
      "longitude": "-90.01170559277736"
    }
  },
  {
    "service_request": "2023-1035698",
    "request_type": "Trash/Recycling",
    "request_reason": "Illegal Dumping",
    "date_created": "2023-09-15T17:46:45.000",
    "date_modified": "2023-09-15T17:46:45.000",
    "request_status": "Pending",
    "responsible_agency": "Department of Sanitation",
    "final_address": "1617 Lesseps St",
    "address_councildis": "D",
    "status": "Pending",
    "rowid": "1035698",
    "final_x": "3693239.4088",
    "final_y": "537090.480904",
    "longitude": "-90.03080170735237",
    "latitude": "29.970450887523267",
    "geocoded_column": {
      "latitude": "29.970450887523267",
      "longitude": "-90.03080170735237"
    }
  },
  {
    "service_request": "2023-1035696",
    "request_type": "Trash/Recycling",
    "request_reason": "Request a Large Item Pick Up",
    "date_created": "2023-09-15T17:36:15.000",
    "date_modified": "2023-09-15T17:36:16.000",
    "request_status": "Pending",
    "responsible_agency": "Department of Sanitation",
    "final_address": "159 Middle Park Pl",
    "address_councildis": "A",
    "status": "Assigned to Contractor",
    "contractor": "IV Waste",
    "rowid": "1035696",
    "final_x": "3670036.73607",
    "final_y": "544732.926287",
    "longitude": "-90.10381959578889",
    "latitude": "29.99216985230402",
    "geocoded_column": {
      "latitude": "29.99216985230402",
      "longitude": "-90.10381959578889"
    }
  },
  {
    "service_request": "2023-1035695",
    "request_type": "Trash/Recycling",
    "request_reason": "Missed Trash Pick-Up",
    "date_created": "2023-09-15T17:25:04.000",
    "date_modified": "2023-09-15T17:25:05.000",
    "request_status": "Pending",
    "responsible_agency": "Department of Sanitation",
    "final_address": "5512 Perrier St",
    "address_councildis": "A",
    "status": "Assigned to Contractor",
    "contractor": "Richards Disposal",
    "rowid": "1035695",
    "final_x": "3666587.49236",
    "final_y": "520134.684984",
    "longitude": "-90.11554091327206",
    "latitude": "29.92463407714813",
    "geocoded_column": {
      "latitude": "29.92463407714813",
      "longitude": "-90.11554091327206"
    }
  },
  {
    "service_request": "2023-1035694",
    "request_type": "Traffic Signals/Signs/Striping/Streetlights",
    "request_reason": "Street Light Outage/Malfunction",
    "date_created": "2023-09-15T17:20:38.000",
    "date_modified": "2023-09-15T17:20:38.000",
    "request_status": "Pending",
    "responsible_agency": "Department of Public Works",
    "final_address": "7292 Canal Blvd",
    "address_councildis": "D",
    "status": "Assigned to Contractor",
    "contractor": "Legacy Professional Services",
    "rowid": "1035694",
    "final_x": "3669072.11207",
    "final_y": "555441.814425",
    "longitude": "-90.10650447790532",
    "latitude": "30.021643975338005",
    "geocoded_column": {
      "latitude": "30.021643975338005",
      "longitude": "-90.10650447790532"
    }
  },
  {
    "service_request": "2023-1035693",
    "request_type": "Trash/Recycling",
    "request_reason": "Replace Trash Cart",
    "date_created": "2023-09-15T17:14:00.000",
    "date_modified": "2023-09-15T17:14:01.000",
    "request_status": "Pending",
    "responsible_agency": "Department of Sanitation",
    "final_address": "4212 Ulloa St",
    "address_councildis": "A",
    "status": "Assigned to Contractor",
    "contractor": "Richards Disposal",
    "rowid": "1035693",
    "final_x": "3669034.62932",
    "final_y": "536917.4002",
    "longitude": "-90.10724922709227",
    "latitude": "29.97070933396198",
    "geocoded_column": {
      "latitude": "29.97070933396198",
      "longitude": "-90.10724922709227"
    }
  },
  {
    "service_request": "2023-1035690",
    "request_type": "Trash/Recycling",
    "request_reason": "Replace Trash Cart",
    "date_created": "2023-09-15T17:11:25.000",
    "date_modified": "2023-09-15T17:11:26.000",
    "request_status": "Pending",
    "responsible_agency": "Department of Sanitation",
    "final_address": "1923 Amelia St",
    "address_councildis": "B",
    "status": "Assigned to Contractor",
    "contractor": "Richards Disposal",
    "rowid": "1035690",
    "final_x": "3672852.42593",
    "final_y": "522439.264634",
    "longitude": "-90.09568601061667",
    "latitude": "29.930786360844895",
    "geocoded_column": {
      "latitude": "29.930786360844895",
      "longitude": "-90.09568601061667"
    }
  },
  {
    "service_request": "2023-1035689",
    "request_type": "Traffic Signals/Signs/Striping/Streetlights",
    "request_reason": "Street Light Outage/Malfunction",
    "date_created": "2023-09-15T17:02:30.000",
    "date_modified": "2023-09-15T17:08:12.000",
    "request_status": "Pending",
    "responsible_agency": "Department of Public Works",
    "status": "Assigned to Contractor",
    "contractor": "Legacy Professional Services",
    "rowid": "1035689",
    "longitude": "0.0",
    "latitude": "0.0",
    "geocoded_column": {
      "latitude": "0.0",
      "longitude": "0.0"
    }
  },
  {
    "service_request": "2023-1035688",
    "request_type": "Traffic Signals/Signs/Striping/Streetlights",
    "request_reason": "Street Light Outage/Malfunction",
    "date_created": "2023-09-15T16:59:00.000",
    "date_modified": "2023-09-15T17:08:05.000",
    "request_status": "Pending",
    "responsible_agency": "Department of Public Works",
    "status": "Assigned to Contractor",
    "contractor": "Legacy Professional Services",
    "rowid": "1035688",
    "longitude": "0.0",
    "latitude": "0.0",
    "geocoded_column": {
      "latitude": "0.0",
      "longitude": "0.0"
    }
  },
  {
    "service_request": "2023-1035687",
    "request_type": "Trash/Recycling",
    "request_reason": "Request a Large Item Pick Up",
    "date_created": "2023-09-15T16:57:34.000",
    "date_modified": "2023-09-15T17:08:03.000",
    "request_status": "Pending",
    "responsible_agency": "Department of Sanitation",
    "final_address": "10122 Lakewood St",
    "address_councildis": "E",
    "status": "Assigned to Contractor",
    "contractor": "Waste Pro",
    "rowid": "1035687",
    "final_x": "3712944.09451",
    "final_y": "556838.583258",
    "longitude": "-89.96782951888777",
    "latitude": "30.0241199883511",
    "geocoded_column": {
      "latitude": "30.0241199883511",
      "longitude": "-89.96782951888777"
    }
  },
  {
    "service_request": "2023-1035686",
    "request_type": "Traffic Signals/Signs/Striping/Streetlights",
    "request_reason": "Street Light Outage/Malfunction",
    "date_created": "2023-09-15T16:55:40.000",
    "date_modified": "2023-09-15T17:08:01.000",
    "request_status": "Pending",
    "responsible_agency": "Department of Public Works",
    "final_address": "347 Opal St",
    "address_councildis": "D",
    "status": "Assigned to Contractor",
    "contractor": "Legacy Professional Services",
    "rowid": "1035686",
    "final_x": "3667759.92186",
    "final_y": "555292.679641",
    "longitude": "-90.11065569276207",
    "latitude": "30.02127247300107",
    "geocoded_column": {
      "latitude": "30.02127247300107",
      "longitude": "-90.11065569276207"
    }
  },
  {
    "service_request": "2023-1035685",
    "request_type": "Abandoned Vehicles",
    "request_reason": "Vehicle Blocking Your Driveway",
    "date_created": "2023-09-15T16:53:50.000",
    "date_modified": "2023-09-15T16:53:50.000",
    "request_status": "Pending",
    "responsible_agency": "Department of Public Works",
    "final_address": "6321 West End Blvd",
    "address_councildis": "A",
    "status": "Pending",
    "rowid": "1035685",
    "final_x": "3666671.42458",
    "final_y": "549629.887059",
    "longitude": "-90.1142854155421",
    "latitude": "30.005733670340742",
    "geocoded_column": {
      "latitude": "30.005733670340742",
      "longitude": "-90.1142854155421"
    }
  },
  {
    "service_request": "2023-1035684",
    "request_type": "Trash/Recycling",
    "request_reason": "Request a Large Item Pick Up",
    "date_created": "2023-09-15T16:51:54.000",
    "date_modified": "2023-09-15T17:06:27.000",
    "request_status": "Pending",
    "responsible_agency": "Department of Sanitation",
    "final_address": "10806 Curran Rd",
    "address_councildis": "E",
    "status": "Assigned to Contractor",
    "contractor": "Waste Pro",
    "rowid": "1035684",
    "final_x": "3709873.36248",
    "final_y": "565633.894562",
    "longitude": "-89.977203444661",
    "latitude": "30.04840386127021",
    "geocoded_column": {
      "latitude": "30.04840386127021",
      "longitude": "-89.977203444661"
    }
  },
  {
    "service_request": "2023-1035683",
    "request_type": "Traffic Signals/Signs/Striping/Streetlights",
    "request_reason": "Street Light Outage/Malfunction",
    "date_created": "2023-09-15T16:51:06.000",
    "date_modified": "2023-09-15T17:05:31.000",
    "request_status": "Pending",
    "responsible_agency": "Department of Public Works",
    "final_address": "214 Topaz St",
    "address_councildis": "D",
    "status": "Assigned to Contractor",
    "contractor": "Legacy Professional Services",
    "rowid": "1035683",
    "final_x": "3667261.50093",
    "final_y": "556309.656346",
    "longitude": "-90.1121963249345",
    "latitude": "30.02408341226659",
    "geocoded_column": {
      "latitude": "30.02408341226659",
      "longitude": "-90.1121963249345"
    }
  },
  {
    "service_request": "2023-1035682",
    "request_type": "Abandoned Vehicles",
    "request_reason": "Abandoned/Junk Vehicles",
    "date_created": "2023-09-15T16:49:49.000",
    "date_modified": "2023-09-15T17:03:57.000",
    "request_status": "Pending",
    "responsible_agency": "Department of Public Works",
    "final_address": "3207 Martin Luther King, Jr. Blvd",
    "address_councildis": "B",
    "status": "Pending",
    "rowid": "1035682",
    "final_x": "3674400.72097",
    "final_y": "528647.710784",
    "longitude": "-90.09058568809746",
    "latitude": "29.947811482081853",
    "geocoded_column": {
      "latitude": "29.947811482081853",
      "longitude": "-90.09058568809746"
    }
  },
  {
    "service_request": "2023-1035681",
    "request_type": "Roads/Drainage",
    "request_reason": "Pothole",
    "date_created": "2023-09-15T16:48:35.000",
    "date_modified": "2023-09-15T16:48:35.000",
    "request_status": "Pending",
    "responsible_agency": "Department of Public Works",
    "final_address": "1525 Eleonore St",
    "address_councildis": "A",
    "status": "Pending",
    "rowid": "1035681",
    "final_x": "3665916.94823",
    "final_y": "521918.417722",
    "longitude": "-90.11759786279285",
    "latitude": "29.929558357498486",
    "geocoded_column": {
      "latitude": "29.929558357498486",
      "longitude": "-90.11759786279285"
    }
  },
  {
    "service_request": "2023-1035680",
    "request_type": "Traffic Signals/Signs/Striping/Streetlights",
    "request_reason": "Street Light Outage/Malfunction",
    "date_created": "2023-09-15T16:48:08.000",
    "date_modified": "2023-09-15T17:01:46.000",
    "request_status": "Pending",
    "responsible_agency": "Department of Public Works",
    "final_address": "TOPAZ ST & GARNET ST",
    "address_councildis": "D",
    "status": "Assigned to Contractor",
    "contractor": "Legacy Professional Services",
    "rowid": "1035680",
    "final_x": "3667394.3",
    "final_y": "556384.58",
    "longitude": "-90.1117741795203",
    "latitude": "30.02428553354619",
    "geocoded_column": {
      "latitude": "30.02428553354619",
      "longitude": "-90.1117741795203"
    }
  },
  {
    "service_request": "2023-1035679",
    "request_type": "Roads/Drainage",
    "request_reason": "Catch Basin - Broken/Damage",
    "date_created": "2023-09-15T16:43:49.000",
    "date_modified": "2023-09-15T16:55:46.000",
    "request_status": "Pending",
    "responsible_agency": "Department of Public Works",
    "final_address": "1609 N Dorgenois St",
    "address_councildis": "D",
    "status": "Pending",
    "rowid": "1035679",
    "final_x": "3679582.45864",
    "final_y": "539912.62177",
    "longitude": "-90.07383393011857",
    "latitude": "29.978630604233135",
    "geocoded_column": {
      "latitude": "29.978630604233135",
      "longitude": "-90.07383393011857"
    }
  },
  {
    "service_request": "2023-1035678",
    "request_type": "Traffic Signals/Signs/Striping/Streetlights",
    "request_reason": "Street Light Outage/Malfunction",
    "date_created": "2023-09-15T16:43:08.000",
    "date_modified": "2023-09-15T16:54:52.000",
    "request_status": "Pending",
    "responsible_agency": "Department of Public Works",
    "final_address": "TOPAZ ST & WEST END BLVD & LAKESHORE PKWY",
    "address_councildis": "D",
    "status": "Assigned to Contractor",
    "contractor": "Legacy Professional Services",
    "rowid": "1035678",
    "final_x": "3667112.7",
    "final_y": "556411.38",
    "longitude": "-90.1126630853449",
    "latitude": "30.024367475656156",
    "geocoded_column": {
      "latitude": "30.024367475656156",
      "longitude": "-90.1126630853449"
    }
  },
  {
    "service_request": "2023-1035677",
    "request_type": "Trash/Recycling",
    "request_reason": "Return Trash Cart",
    "date_created": "2023-09-15T16:37:15.000",
    "date_modified": "2023-09-15T16:46:33.000",
    "request_status": "Pending",
    "responsible_agency": "Department of Sanitation",
    "final_address": "1733 Wagner St",
    "address_councildis": "C",
    "status": "Assigned to Contractor",
    "contractor": "Richards Disposal",
    "rowid": "1035677",
    "final_x": "3690278.9791",
    "final_y": "524409.4183",
    "longitude": "-90.04060286931796",
    "latitude": "29.93567454936575",
    "geocoded_column": {
      "latitude": "29.93567454936575",
      "longitude": "-90.04060286931796"
    }
  },
  {
    "service_request": "2023-1035676",
    "request_type": "Trash/Recycling",
    "request_reason": "Repair Trash Cart",
    "date_created": "2023-09-15T16:36:58.000",
    "date_modified": "2023-09-15T16:46:17.000",
    "request_status": "Pending",
    "responsible_agency": "Department of Sanitation",
    "final_address": "1733 Wagner St",
    "address_councildis": "C",
    "status": "Assigned to Contractor",
    "contractor": "Richards Disposal",
    "rowid": "1035676",
    "final_x": "3690278.9791",
    "final_y": "524409.4183",
    "longitude": "-90.04060286931796",
    "latitude": "29.93567454936575",
    "geocoded_column": {
      "latitude": "29.93567454936575",
      "longitude": "-90.04060286931796"
    }
  },
  {
    "service_request": "2023-1035675",
    "request_type": "Trash/Recycling",
    "request_reason": "Missed Trash Pick-Up",
    "date_created": "2023-09-15T16:33:42.000",
    "date_modified": "2023-09-15T16:41:41.000",
    "request_status": "Pending",
    "responsible_agency": "Department of Sanitation",
    "final_address": "7170 Deanne St",
    "address_councildis": "D",
    "status": "Assigned to Contractor",
    "contractor": "Waste Pro",
    "rowid": "1035675",
    "final_x": "3695346.56285",
    "final_y": "557062.602266",
    "longitude": "-90.02342605642296",
    "latitude": "30.025300841422514",
    "geocoded_column": {
      "latitude": "30.025300841422514",
      "longitude": "-90.02342605642296"
    }
  },
  {
    "service_request": "2023-1035673",
    "request_type": "Trash/Recycling",
    "request_reason": "Start Trash Service",
    "date_created": "2023-09-15T16:29:47.000",
    "date_modified": "2023-09-15T16:36:40.000",
    "request_status": "Pending",
    "responsible_agency": "Department of Sanitation",
    "final_address": "3349 Kabel Dr Ste 101",
    "address_councildis": "C",
    "status": "Assigned to Contractor",
    "contractor": "Richards Disposal",
    "rowid": "1035673",
    "final_x": "3700456.72778",
    "final_y": "518938.565623",
    "longitude": "-90.00867146607102",
    "latitude": "29.920311938688545",
    "geocoded_column": {
      "latitude": "29.920311938688545",
      "longitude": "-90.00867146607102"
    }
  },
  {
    "service_request": "2023-1035672",
    "request_type": "Trash/Recycling",
    "request_reason": "Request a Large Item Pick Up",
    "date_created": "2023-09-15T16:28:09.000",
    "date_modified": "2023-09-15T16:34:27.000",
    "request_status": "Pending",
    "responsible_agency": "Department of Sanitation",
    "status": "Assigned to Contractor",
    "rowid": "1035672",
    "longitude": "0.0",
    "latitude": "0.0",
    "geocoded_column": {
      "latitude": "0.0",
      "longitude": "0.0"
    }
  },
  {
    "service_request": "2023-1035671",
    "request_type": "Property Maintenance",
    "request_reason": "Property Maintenance",
    "date_created": "2023-09-15T16:28:08.000",
    "date_modified": "2023-09-15T16:34:26.000",
    "request_status": "Pending",
    "responsible_agency": "Department of Code Enforcement",
    "final_address": "1479 N Miro St",
    "address_councildis": "D",
    "status": "Pending",
    "rowid": "1035671",
    "final_x": "3679965.21231",
    "final_y": "538461.420105",
    "longitude": "-90.07267547899745",
    "latitude": "29.974628727997985",
    "geocoded_column": {
      "latitude": "29.974628727997985",
      "longitude": "-90.07267547899745"
    }
  },
  {
    "service_request": "2023-1035670",
    "request_type": "Abandoned Vehicles",
    "request_reason": "Abandoned/Junk Vehicles",
    "date_created": "2023-09-15T16:27:49.000",
    "date_modified": "2023-09-15T16:34:02.000",
    "request_status": "Pending",
    "responsible_agency": "Department of Public Works",
    "final_address": "2429 Marengo St",
    "address_councildis": "B",
    "status": "Pending",
    "rowid": "1035670",
    "final_x": "3671695.29287",
    "final_y": "524057.8807",
    "longitude": "-90.09928389285044",
    "latitude": "29.935271348813593",
    "geocoded_column": {
      "latitude": "29.935271348813593",
      "longitude": "-90.09928389285044"
    }
  },
  {
    "service_request": "2023-1035669",
    "request_type": "Roads/Drainage",
    "request_reason": "Pothole",
    "date_created": "2023-09-15T16:27:08.000",
    "date_modified": "2023-09-15T16:32:58.000",
    "request_status": "Pending",
    "responsible_agency": "Department of Public Works",
    "final_address": "3601 Texas Dr",
    "address_councildis": "C",
    "status": "Pending",
    "rowid": "1035669",
    "final_x": "3696443.17898",
    "final_y": "518476.518774",
    "longitude": "-90.02135697321798",
    "latitude": "29.91916843843383",
    "geocoded_column": {
      "latitude": "29.91916843843383",
      "longitude": "-90.02135697321798"
    }
  },
  {
    "service_request": "2023-1035668",
    "request_type": "Trash/Recycling",
    "request_reason": "Missed Trash Pick-Up",
    "date_created": "2023-09-15T16:25:33.000",
    "date_modified": "2023-09-15T16:30:43.000",
    "request_status": "Pending",
    "responsible_agency": "Department of Sanitation",
    "final_address": "7790 Hayne Blvd, New Orleans, Louisiana, 70126",
    "address_councildis": "E",
    "status": "Assigned to Contractor",
    "contractor": "Waste Pro",
    "rowid": "1035668",
    "final_x": "3700932.72337",
    "final_y": "562339.892831",
    "longitude": "-90.00558151813395",
    "latitude": "30.039634569624003",
    "geocoded_column": {
      "latitude": "30.039634569624003",
      "longitude": "-90.00558151813395"
    }
  },
  {
    "service_request": "2023-1035667",
    "request_type": "Trash/Recycling",
    "request_reason": "Request a Large Item Pick Up",
    "date_created": "2023-09-15T16:19:45.000",
    "date_modified": "2023-09-15T16:22:55.000",
    "request_status": "Pending",
    "responsible_agency": "Department of Sanitation",
    "final_address": "4230 Elba St",
    "address_councildis": "B",
    "status": "Assigned to Contractor",
    "contractor": "Richards Disposal",
    "rowid": "1035667",
    "final_x": "3670085.49249",
    "final_y": "530150.711169",
    "longitude": "-90.10415970672007",
    "latitude": "29.95207222475043",
    "geocoded_column": {
      "latitude": "29.95207222475043",
      "longitude": "-90.10415970672007"
    }
  },
  {
    "service_request": "2023-1035666",
    "request_type": "Trash/Recycling",
    "request_reason": "Missed Trash Pick-Up",
    "date_created": "2023-09-15T16:11:44.000",
    "date_modified": "2023-09-15T16:11:44.000",
    "request_status": "Pending",
    "responsible_agency": "Department of Sanitation",
    "final_address": "4542 Flake Ave",
    "address_councildis": "E",
    "status": "Assigned to Contractor",
    "contractor": "Waste Pro",
    "rowid": "1035666",
    "final_x": "3706144.11876",
    "final_y": "554259.578008",
    "longitude": "-89.98941156696183",
    "latitude": "30.01724978715608",
    "geocoded_column": {
      "latitude": "30.01724978715608",
      "longitude": "-89.98941156696183"
    }
  },
  {
    "service_request": "2023-1035663",
    "request_type": "Property Maintenance",
    "request_reason": "Property Maintenance",
    "date_created": "2023-09-15T16:07:10.000",
    "date_modified": "2023-09-15T16:08:40.000",
    "request_status": "Pending",
    "responsible_agency": "Department of Code Enforcement",
    "final_address": "1801 Mazant St",
    "address_councildis": "D",
    "status": "Pending",
    "rowid": "1035663",
    "final_x": "3692807.00381",
    "final_y": "537884.287113",
    "longitude": "-90.03213881734901",
    "latitude": "29.972647081276328",
    "geocoded_column": {
      "latitude": "29.972647081276328",
      "longitude": "-90.03213881734901"
    }
  },
  {
    "service_request": "2023-1035662",
    "request_type": "Trash/Recycling",
    "request_reason": "Missed Trash Pick-Up",
    "date_created": "2023-09-15T16:03:45.000",
    "date_modified": "2023-09-15T16:48:38.000",
    "case_close_date": "2023-09-15T11:48:38.000",
    "request_status": "Closed",
    "responsible_agency": "Department of Sanitation",
    "final_address": "4516 Chantilly Dr",
    "address_councildis": "E",
    "status": "Invalid Request",
    "contractor": "Waste Pro",
    "contractor_action": "Invalid Pick-Up",
    "rowid": "1035662",
    "final_x": "3700914.16778",
    "final_y": "552986.853399",
    "longitude": "-90.00598256577835",
    "latitude": "30.013917905389018",
    "geocoded_column": {
      "latitude": "30.013917905389018",
      "longitude": "-90.00598256577835"
    }
  },
  {
    "service_request": "2023-1035661",
    "request_type": "Trash/Recycling",
    "request_reason": "Request a Large Item Pick Up",
    "date_created": "2023-09-15T16:01:27.000",
    "date_modified": "2023-09-15T16:01:28.000",
    "request_status": "Pending",
    "responsible_agency": "Department of Sanitation",
    "final_address": "5528 Grand Bayou Dr",
    "address_councildis": "E",
    "status": "Assigned to Contractor",
    "contractor": "Waste Pro",
    "rowid": "1035661",
    "final_x": "3725049.98361",
    "final_y": "563891.871777",
    "longitude": "-89.92930465032433",
    "latitude": "30.043111405430725",
    "geocoded_column": {
      "latitude": "30.043111405430725",
      "longitude": "-89.92930465032433"
    }
  },
  {
    "service_request": "2023-1035660",
    "request_type": "Trash/Recycling",
    "request_reason": "Request a Large Item Pick Up",
    "date_created": "2023-09-15T15:55:15.000",
    "date_modified": "2023-09-15T15:55:16.000",
    "request_status": "Pending",
    "responsible_agency": "Department of Sanitation",
    "final_address": "607 Red Allen Way",
    "address_councildis": "C",
    "status": "Assigned to Contractor",
    "contractor": "Richards Disposal",
    "rowid": "1035660",
    "final_x": "3687200.72694",
    "final_y": "528683.825792",
    "longitude": "-90.05016981135509",
    "latitude": "29.947522855726294",
    "geocoded_column": {
      "latitude": "29.947522855726294",
      "longitude": "-90.05016981135509"
    }
  },
  {
    "service_request": "2023-1035659",
    "request_type": "Trash/Recycling",
    "request_reason": "Repair Trash Cart",
    "date_created": "2023-09-15T15:54:30.000",
    "date_modified": "2023-09-15T15:54:31.000",
    "request_status": "Pending",
    "responsible_agency": "Department of Sanitation",
    "final_address": "6930 Coventry St",
    "address_councildis": "E",
    "status": "Assigned to Contractor",
    "contractor": "Waste Pro",
    "rowid": "1035659",
    "final_x": "3698976.10941",
    "final_y": "559726.479389",
    "longitude": "-90.0118602271312",
    "latitude": "30.032510891239415",
    "geocoded_column": {
      "latitude": "30.032510891239415",
      "longitude": "-90.0118602271312"
    }
  },
  {
    "service_request": "2023-1035658",
    "request_type": "Trash/Recycling",
    "request_reason": "Order Recycling Cart",
    "date_created": "2023-09-15T15:53:08.000",
    "date_modified": "2023-09-15T15:53:08.000",
    "request_status": "Pending",
    "responsible_agency": "Department of Sanitation",
    "final_address": "1526 Pine St",
    "address_councildis": "A",
    "status": "Pending",
    "rowid": "1035658",
    "final_x": "3664637.4818",
    "final_y": "527830.573311",
    "longitude": "-90.12143952946141",
    "latitude": "29.945852166921238",
    "geocoded_column": {
      "latitude": "29.945852166921238",
      "longitude": "-90.12143952946141"
    }
  },
  {
    "service_request": "2023-1035657",
    "request_type": "Trash/Recycling",
    "request_reason": "Order Recycling Cart",
    "date_created": "2023-09-15T15:52:52.000",
    "date_modified": "2023-09-15T15:52:52.000",
    "request_status": "Pending",
    "responsible_agency": "Department of Sanitation",
    "final_address": "1524 Hillary St",
    "address_councildis": "A",
    "status": "Pending",
    "rowid": "1035657",
    "final_x": "3664042.71924",
    "final_y": "528124.974783",
    "longitude": "-90.12330758650158",
    "latitude": "29.94667895973529",
    "geocoded_column": {
      "latitude": "29.94667895973529",
      "longitude": "-90.12330758650158"
    }
  },
  {
    "service_request": "2023-1035656",
    "request_type": "Trash/Recycling",
    "request_reason": "Order Recycling Cart",
    "date_created": "2023-09-15T15:52:35.000",
    "date_modified": "2023-09-15T15:52:36.000",
    "request_status": "Pending",
    "responsible_agency": "Department of Sanitation",
    "final_address": "1522 Hillary St",
    "address_councildis": "A",
    "status": "Pending",
    "rowid": "1035656",
    "final_x": "3664042.71924",
    "final_y": "528124.974783",
    "longitude": "-90.12330758650158",
    "latitude": "29.94667895973529",
    "geocoded_column": {
      "latitude": "29.94667895973529",
      "longitude": "-90.12330758650158"
    }
  },
  {
    "service_request": "2023-1035655",
    "request_type": "Trash/Recycling",
    "request_reason": "Repair Recycling Cart",
    "date_created": "2023-09-15T15:50:15.000",
    "date_modified": "2023-09-15T15:50:15.000",
    "request_status": "Pending",
    "responsible_agency": "Department of Sanitation",
    "final_address": "1017 Burdette St",
    "address_councildis": "A",
    "status": "Pending",
    "rowid": "1035655",
    "final_x": "3662461.05242",
    "final_y": "527191.531391",
    "longitude": "-90.12833249823623",
    "latitude": "29.944158120868238",
    "geocoded_column": {
      "latitude": "29.944158120868238",
      "longitude": "-90.12833249823623"
    }
  },
  {
    "service_request": "2023-1035654",
    "request_type": "Trash/Recycling",
    "request_reason": "Order Recycling Cart",
    "date_created": "2023-09-15T15:48:09.000",
    "date_modified": "2023-09-15T15:48:09.000",
    "request_status": "Pending",
    "responsible_agency": "Department of Sanitation",
    "final_address": "4019 Franklin Ave",
    "address_councildis": "D",
    "status": "Pending",
    "rowid": "1035654",
    "final_x": "3687092.93519",
    "final_y": "547676.252114",
    "longitude": "-90.0498384467815",
    "latitude": "29.99974868078166",
    "geocoded_column": {
      "latitude": "29.99974868078166",
      "longitude": "-90.0498384467815"
    }
  },
  {
    "service_request": "2023-1035653",
    "request_type": "Trash/Recycling",
    "request_reason": "Request a Large Item Pick Up",
    "date_created": "2023-09-15T15:48:02.000",
    "date_modified": "2023-09-15T15:48:03.000",
    "request_status": "Pending",
    "responsible_agency": "Department of Sanitation",
    "final_address": "6515 Center St",
    "address_councildis": "A",
    "status": "Assigned to Contractor",
    "contractor": "IV Waste",
    "rowid": "1035653",
    "final_x": "3664983.47028",
    "final_y": "551357.386517",
    "longitude": "-90.11956026307583",
    "latitude": "30.01053296468397",
    "geocoded_column": {
      "latitude": "30.01053296468397",
      "longitude": "-90.11956026307583"
    }
  },
  {
    "service_request": "2023-1035652",
    "request_type": "Traffic Signals/Signs/Striping/Streetlights",
    "request_reason": "Street Light Outage/Malfunction",
    "date_created": "2023-09-15T15:47:26.000",
    "date_modified": "2023-09-15T15:47:27.000",
    "request_status": "Pending",
    "responsible_agency": "Department of Public Works",
    "final_address": "2717 S Prieur St",
    "address_councildis": "B",
    "status": "Assigned to Contractor",
    "contractor": "Legacy Professional Services",
    "rowid": "1035652",
    "final_x": "3672695.90113",
    "final_y": "527708.915519",
    "longitude": "-90.09600049961581",
    "latitude": "29.945280834698035",
    "geocoded_column": {
      "latitude": "29.945280834698035",
      "longitude": "-90.09600049961581"
    }
  },
  {
    "service_request": "2023-1035651",
    "request_type": "Roads/Drainage",
    "request_reason": "Damaged Sidewalk",
    "date_created": "2023-09-15T15:47:09.000",
    "date_modified": "2023-09-15T15:47:09.000",
    "request_status": "Pending",
    "responsible_agency": "Department of Public Works",
    "final_address": "5525 Marcia Ave",
    "address_councildis": "A",
    "status": "Pending",
    "rowid": "1035651",
    "final_x": "3664928.75911",
    "final_y": "544511.042319",
    "longitude": "-90.11996216771992",
    "latitude": "29.99170946578598",
    "geocoded_column": {
      "latitude": "29.99170946578598",
      "longitude": "-90.11996216771992"
    }
  },
  {
    "service_request": "2023-1035650",
    "request_type": "Trash/Recycling",
    "request_reason": "Order Trash Cart",
    "date_created": "2023-09-15T15:44:17.000",
    "date_modified": "2023-09-15T15:44:18.000",
    "request_status": "Pending",
    "responsible_agency": "Department of Sanitation",
    "final_address": "7760 N Coronet Ct",
    "address_councildis": "E",
    "status": "Assigned to Contractor",
    "contractor": "Waste Pro",
    "rowid": "1035650",
    "final_x": "3702695.98666",
    "final_y": "557525.009243",
    "longitude": "-90.00018614857983",
    "latitude": "30.026339217286672",
    "geocoded_column": {
      "latitude": "30.026339217286672",
      "longitude": "-90.00018614857983"
    }
  },
  {
    "service_request": "2023-1035649",
    "request_type": "Trash/Recycling",
    "request_reason": "Missed Trash Pick-Up",
    "date_created": "2023-09-15T15:42:33.000",
    "date_modified": "2023-09-15T15:42:34.000",
    "request_status": "Pending",
    "responsible_agency": "Department of Sanitation",
    "final_address": "4624 Downman Rd",
    "address_councildis": "D",
    "status": "Assigned to Contractor",
    "contractor": "Waste Pro",
    "rowid": "1035649",
    "final_x": "3695877.53334",
    "final_y": "553979.098328",
    "longitude": "-90.02185979603789",
    "latitude": "30.016805671141643",
    "geocoded_column": {
      "latitude": "30.016805671141643",
      "longitude": "-90.02185979603789"
    }
  },
  {
    "service_request": "2023-1035648",
    "request_type": "Trash/Recycling",
    "request_reason": "Order Trash Cart",
    "date_created": "2023-09-15T15:42:16.000",
    "date_modified": "2023-09-15T15:42:17.000",
    "request_status": "Pending",
    "responsible_agency": "Department of Sanitation",
    "final_address": "1223 Andry St",
    "address_councildis": "E",
    "status": "Assigned to Contractor",
    "contractor": "Waste Pro",
    "rowid": "1035648",
    "final_x": "3697360.61872",
    "final_y": "534531.970309",
    "longitude": "-90.01787929406082",
    "latitude": "29.963286438153606",
    "geocoded_column": {
      "latitude": "29.963286438153606",
      "longitude": "-90.01787929406082"
    }
  },
  {
    "service_request": "2023-1035647",
    "request_type": "Traffic Signals/Signs/Striping/Streetlights",
    "request_reason": "Street Light Outage/Malfunction",
    "date_created": "2023-09-15T15:42:00.000",
    "date_modified": "2023-09-15T15:42:01.000",
    "request_status": "Pending",
    "responsible_agency": "Department of Public Works",
    "final_address": "1839 Bordeaux St",
    "address_councildis": "B",
    "status": "Assigned to Contractor",
    "contractor": "Legacy Professional Services",
    "rowid": "1035647",
    "final_x": "3669329.85428",
    "final_y": "521753.37337",
    "longitude": "-90.10682947979618",
    "latitude": "29.92900452881874",
    "geocoded_column": {
      "latitude": "29.92900452881874",
      "longitude": "-90.10682947979618"
    }
  },
  {
    "service_request": "2023-1035646",
    "request_type": "Trash/Recycling",
    "request_reason": "Replace Recycling Cart",
    "date_created": "2023-09-15T15:40:28.000",
    "date_modified": "2023-09-15T15:40:28.000",
    "request_status": "Pending",
    "responsible_agency": "Department of Sanitation",
    "final_address": "2518 St Claude Ave",
    "address_councildis": "C",
    "status": "Pending",
    "rowid": "1035646",
    "final_x": "3687025.39074",
    "final_y": "536434.593351",
    "longitude": "-90.05044942389435",
    "latitude": "29.968840191936767",
    "geocoded_column": {
      "latitude": "29.968840191936767",
      "longitude": "-90.05044942389435"
    }
  },
  {
    "service_request": "2023-1035645",
    "request_type": "Trash/Recycling",
    "request_reason": "Missed Trash Pick-Up",
    "date_created": "2023-09-15T15:39:38.000",
    "date_modified": "2023-09-15T15:39:39.000",
    "request_status": "Pending",
    "responsible_agency": "Department of Sanitation",
    "final_address": "5508 St Charles Ave",
    "address_councildis": "A",
    "status": "Assigned to Contractor",
    "contractor": "Richards Disposal",
    "rowid": "1035645",
    "final_x": "3666915.24013",
    "final_y": "521619.090489",
    "longitude": "-90.1144564755202",
    "latitude": "29.928706140634084",
    "geocoded_column": {
      "latitude": "29.928706140634084",
      "longitude": "-90.1144564755202"
    }
  },
  {
    "service_request": "2023-1035644",
    "request_type": "Roads/Drainage",
    "request_reason": "Street Subsidence (Sinking)",
    "date_created": "2023-09-15T15:38:25.000",
    "date_modified": "2023-09-15T15:38:25.000",
    "request_status": "Pending",
    "responsible_agency": "Department of Public Works",
    "final_address": "GENERAL MEYER AVE & HOLIDAY DR",
    "address_councildis": "C",
    "status": "Pending",
    "rowid": "1035644",
    "final_x": "3699095.7",
    "final_y": "524701.68",
    "longitude": "-90.01275790564911",
    "latitude": "29.936201714675",
    "geocoded_column": {
      "latitude": "29.936201714675",
      "longitude": "-90.01275790564911"
    }
  },
  {
    "service_request": "2023-1035643",
    "request_type": "Trash/Recycling",
    "request_reason": "Replace Trash Cart",
    "date_created": "2023-09-15T15:33:55.000",
    "date_modified": "2023-09-15T15:33:56.000",
    "request_status": "Pending",
    "responsible_agency": "Department of Sanitation",
    "final_address": "607 Red Allen Way",
    "address_councildis": "C",
    "status": "Assigned to Contractor",
    "contractor": "Richards Disposal",
    "rowid": "1035643",
    "final_x": "3687200.72694",
    "final_y": "528683.825792",
    "longitude": "-90.05016981135509",
    "latitude": "29.947522855726294",
    "geocoded_column": {
      "latitude": "29.947522855726294",
      "longitude": "-90.05016981135509"
    }
  },
  {
    "service_request": "2023-1035641",
    "request_type": "Trash/Recycling",
    "request_reason": "Replace Trash Cart",
    "date_created": "2023-09-15T15:24:55.000",
    "date_modified": "2023-09-15T15:24:56.000",
    "request_status": "Pending",
    "responsible_agency": "Department of Sanitation",
    "final_address": "210 S Murat St",
    "address_councildis": "A",
    "status": "Assigned to Contractor",
    "contractor": "Richards Disposal",
    "rowid": "1035641",
    "final_x": "3669410.65018",
    "final_y": "538958.885194",
    "longitude": "-90.10599264573241",
    "latitude": "29.976311662726314",
    "geocoded_column": {
      "latitude": "29.976311662726314",
      "longitude": "-90.10599264573241"
    }
  },
  {
    "service_request": "2023-1035640",
    "request_type": "Abandoned Vehicles",
    "request_reason": "Abandoned/Junk Vehicles",
    "date_created": "2023-09-15T15:23:54.000",
    "date_modified": "2023-09-15T15:23:55.000",
    "request_status": "Pending",
    "responsible_agency": "Department of Public Works",
    "final_address": "14000 BLK Peltier Dr",
    "address_councildis": "E",
    "status": "Pending",
    "rowid": "1035640",
    "final_x": "3729275.85834",
    "final_y": "561968.526769",
    "longitude": "-89.91602453576036",
    "latitude": "30.037679954629784",
    "geocoded_column": {
      "latitude": "30.037679954629784",
      "longitude": "-89.91602453576036"
    }
  },
  {
    "service_request": "2023-1035639",
    "request_type": "Trash/Recycling",
    "request_reason": "Order Trash Cart",
    "date_created": "2023-09-15T15:23:42.000",
    "date_modified": "2023-09-15T15:23:43.000",
    "request_status": "Pending",
    "responsible_agency": "Department of Sanitation",
    "final_address": "1617 Benton St",
    "address_councildis": "E",
    "status": "Assigned to Contractor",
    "contractor": "Waste Pro",
    "rowid": "1035639",
    "final_x": "3699622.60624",
    "final_y": "535465.667014",
    "longitude": "-90.01070220541959",
    "latitude": "29.965782172338503",
    "geocoded_column": {
      "latitude": "29.965782172338503",
      "longitude": "-90.01070220541959"
    }
  },
  {
    "service_request": "2023-1035638",
    "request_type": "Trash/Recycling",
    "request_reason": "Request a Large Item Pick Up",
    "date_created": "2023-09-15T15:18:59.000",
    "date_modified": "2023-09-15T15:19:00.000",
    "request_status": "Pending",
    "responsible_agency": "Department of Sanitation",
    "final_address": "3504 Republic St",
    "address_councildis": "D",
    "status": "Assigned to Contractor",
    "contractor": "IV Waste",
    "rowid": "1035638",
    "final_x": "3680432.64667",
    "final_y": "545290.323791",
    "longitude": "-90.07096159978485",
    "latitude": "29.99339167763523",
    "geocoded_column": {
      "latitude": "29.99339167763523",
      "longitude": "-90.07096159978485"
    }
  },
  {
    "service_request": "2023-1035637",
    "request_type": "Trash/Recycling",
    "request_reason": "Missed Trash Pick-Up",
    "date_created": "2023-09-15T15:18:30.000",
    "date_modified": "2023-09-15T15:18:31.000",
    "request_status": "Pending",
    "responsible_agency": "Department of Sanitation",
    "final_address": "4400 BLK La Salle St",
    "address_councildis": "B",
    "status": "Assigned to Contractor",
    "contractor": "Richards Disposal",
    "rowid": "1035637",
    "final_x": "3670348.78591",
    "final_y": "523672.477377",
    "longitude": "-90.10354788530921",
    "latitude": "29.934251419897045",
    "geocoded_column": {
      "latitude": "29.934251419897045",
      "longitude": "-90.10354788530921"
    }
  },
  {
    "service_request": "2023-1035636",
    "request_type": "Trash/Recycling",
    "request_reason": "Request a Large Item Pick Up",
    "date_created": "2023-09-15T15:17:34.000",
    "date_modified": "2023-09-15T15:17:35.000",
    "request_status": "Pending",
    "responsible_agency": "Department of Sanitation",
    "final_address": "3569 Desaix Blvd",
    "address_councildis": "D",
    "status": "Assigned to Contractor",
    "contractor": "IV Waste",
    "rowid": "1035636",
    "final_x": "3675756.2276",
    "final_y": "543791.089678",
    "longitude": "-90.08578523428007",
    "latitude": "29.989410139750152",
    "geocoded_column": {
      "latitude": "29.989410139750152",
      "longitude": "-90.08578523428007"
    }
  },
  {
    "service_request": "2023-1035635",
    "request_type": "Property Maintenance",
    "request_reason": "Property Maintenance",
    "date_created": "2023-09-15T15:17:11.000",
    "date_modified": "2023-09-15T15:17:11.000",
    "request_status": "Pending",
    "responsible_agency": "Department of Code Enforcement",
    "final_address": "2020 Mediamolle Dr",
    "address_councildis": "C",
    "status": "Pending",
    "rowid": "1035635",
    "final_x": "3699300.22416",
    "final_y": "523850.827771",
    "longitude": "-90.01214319312686",
    "latitude": "29.933855683075233",
    "geocoded_column": {
      "latitude": "29.933855683075233",
      "longitude": "-90.01214319312686"
    }
  },
  {
    "service_request": "2023-1035634",
    "request_type": "Trash/Recycling",
    "request_reason": "Request a Large Item Pick Up",
    "date_created": "2023-09-15T15:16:53.000",
    "date_modified": "2023-09-15T15:16:54.000",
    "request_status": "Pending",
    "responsible_agency": "Department of Sanitation",
    "final_address": "3319 Banks St",
    "address_councildis": "B",
    "status": "Assigned to Contractor",
    "contractor": "Richards Disposal",
    "rowid": "1035634",
    "final_x": "3672749.25524",
    "final_y": "535633.489158",
    "longitude": "-90.09556176548396",
    "latitude": "29.96706919602034",
    "geocoded_column": {
      "latitude": "29.96706919602034",
      "longitude": "-90.09556176548396"
    }
  },
  {
    "service_request": "2023-1035633",
    "request_type": "Trash/Recycling",
    "request_reason": "Request a Large Item Pick Up",
    "date_created": "2023-09-15T15:16:30.000",
    "date_modified": "2023-09-15T15:16:31.000",
    "request_status": "Pending",
    "responsible_agency": "Department of Sanitation",
    "final_address": "1817 N Rampart St",
    "address_councildis": "C",
    "status": "Assigned to Contractor",
    "contractor": "IV Waste",
    "rowid": "1035633",
    "final_x": "3683688.19381",
    "final_y": "535865.974087",
    "longitude": "-90.06100842458105",
    "latitude": "29.96737899979045",
    "geocoded_column": {
      "latitude": "29.96737899979045",
      "longitude": "-90.06100842458105"
    }
  },
  {
    "service_request": "2023-1035632",
    "request_type": "Abandoned Vehicles",
    "request_reason": "Vehicle Blocking Your Driveway",
    "date_created": "2023-09-15T15:11:35.000",
    "date_modified": "2023-09-15T15:11:35.000",
    "request_status": "Pending",
    "responsible_agency": "Department of Public Works",
    "final_address": "6351 West End Blvd",
    "address_councildis": "A",
    "status": "Pending",
    "rowid": "1035632",
    "final_x": "3666668.23521",
    "final_y": "549977.24738",
    "longitude": "-90.11428381647087",
    "latitude": "30.006688883847126",
    "geocoded_column": {
      "latitude": "30.006688883847126",
      "longitude": "-90.11428381647087"
    }
  },
  {
    "service_request": "2023-1035631",
    "request_type": "Trash/Recycling",
    "request_reason": "Order Recycling Cart",
    "date_created": "2023-09-15T15:09:22.000",
    "date_modified": "2023-09-15T15:09:22.000",
    "request_status": "Pending",
    "responsible_agency": "Department of Sanitation",
    "final_address": "713 Burgundy St",
    "address_councildis": "C",
    "status": "Pending",
    "rowid": "1035631",
    "final_x": "3681730.36962",
    "final_y": "533203.416068",
    "longitude": "-90.06728416504679",
    "latitude": "29.960117507768988",
    "geocoded_column": {
      "latitude": "29.960117507768988",
      "longitude": "-90.06728416504679"
    }
  },
  {
    "service_request": "2023-1035630",
    "request_type": "Trash/Recycling",
    "request_reason": "Repair Trash Cart",
    "date_created": "2023-09-15T15:03:21.000",
    "date_modified": "2023-09-15T15:03:22.000",
    "request_status": "Pending",
    "responsible_agency": "Department of Sanitation",
    "final_address": "805 Broadway St",
    "address_councildis": "A",
    "status": "Assigned to Contractor",
    "contractor": "Richards Disposal",
    "rowid": "1035630",
    "final_x": "3663478.04083",
    "final_y": "525351.295869",
    "longitude": "-90.12518282586694",
    "latitude": "29.93906861359304",
    "geocoded_column": {
      "latitude": "29.93906861359304",
      "longitude": "-90.12518282586694"
    }
  },
  {
    "service_request": "2023-1035629",
    "request_type": "Trash/Recycling",
    "request_reason": "Request a Large Item Pick Up",
    "date_created": "2023-09-15T15:00:22.000",
    "date_modified": "2023-09-15T15:00:23.000",
    "request_status": "Pending",
    "responsible_agency": "Department of Sanitation",
    "final_address": "1119 N Prieur St",
    "address_councildis": "D",
    "status": "Assigned to Contractor",
    "contractor": "Richards Disposal",
    "rowid": "1035629",
    "final_x": "3679899.02037",
    "final_y": "536614.106439",
    "longitude": "-90.07294870427998",
    "latitude": "29.969551253559796",
    "geocoded_column": {
      "latitude": "29.969551253559796",
      "longitude": "-90.07294870427998"
    }
  },
  {
    "service_request": "2023-1035628",
    "request_type": "Trash/Recycling",
    "request_reason": "Repair Trash Cart",
    "date_created": "2023-09-15T14:59:57.000",
    "date_modified": "2023-09-15T14:59:58.000",
    "request_status": "Pending",
    "responsible_agency": "Department of Sanitation",
    "final_address": "2439 Joliet St",
    "address_councildis": "A",
    "status": "Assigned to Contractor",
    "contractor": "Richards Disposal",
    "rowid": "1035628",
    "final_x": "3664062.04576",
    "final_y": "532748.798788",
    "longitude": "-90.1230923691593",
    "latitude": "29.959392417018712",
    "geocoded_column": {
      "latitude": "29.959392417018712",
      "longitude": "-90.1230923691593"
    }
  },
  {
    "service_request": "2023-1035627",
    "request_type": "Traffic Signals/Signs/Striping/Streetlights",
    "request_reason": "Street Name Sign Damaged or Missing",
    "date_created": "2023-09-15T14:56:14.000",
    "date_modified": "2023-09-15T14:56:15.000",
    "request_status": "Pending",
    "responsible_agency": "Department of Public Works",
    "final_address": "GENTILLY BLVD & MUSIC ST",
    "address_councildis": "D",
    "status": "Pending",
    "rowid": "1035627",
    "final_x": "3685777.64",
    "final_y": "548744.33",
    "longitude": "-90.05395583632763",
    "latitude": "30.00272595439108",
    "geocoded_column": {
      "latitude": "30.00272595439108",
      "longitude": "-90.05395583632763"
    }
  },
  {
    "service_request": "2023-1035626",
    "request_type": "Trash/Recycling",
    "request_reason": "Replace Trash Cart",
    "date_created": "2023-09-15T14:55:25.000",
    "date_modified": "2023-09-15T14:55:26.000",
    "request_status": "Pending",
    "responsible_agency": "Department of Sanitation",
    "final_address": "5611 Pembrook Dr",
    "address_councildis": "C",
    "status": "Assigned to Contractor",
    "contractor": "Richards Disposal",
    "rowid": "1035626",
    "final_x": "3704337.21623",
    "final_y": "520938.480825",
    "longitude": "-89.99634903705011",
    "latitude": "29.925687089406182",
    "geocoded_column": {
      "latitude": "29.925687089406182",
      "longitude": "-89.99634903705011"
    }
  },
  {
    "service_request": "2023-1035624",
    "request_type": "Trash/Recycling",
    "request_reason": "Request a Large Item Pick Up",
    "date_created": "2023-09-15T14:53:32.000",
    "date_modified": "2023-09-15T14:53:33.000",
    "request_status": "Pending",
    "responsible_agency": "Department of Sanitation",
    "final_address": "1117 N Prieur St",
    "address_councildis": "D",
    "status": "Assigned to Contractor",
    "contractor": "Richards Disposal",
    "rowid": "1035624",
    "final_x": "3679889.64411",
    "final_y": "536602.387271",
    "longitude": "-90.07297872238586",
    "latitude": "29.969519313454008",
    "geocoded_column": {
      "latitude": "29.969519313454008",
      "longitude": "-90.07297872238586"
    }
  },
  {
    "service_request": "2023-1035623",
    "request_type": "Trash/Recycling",
    "request_reason": "Request a Large Item Pick Up",
    "date_created": "2023-09-15T14:44:53.000",
    "date_modified": "2023-09-15T14:44:54.000",
    "request_status": "Pending",
    "responsible_agency": "Department of Sanitation",
    "final_address": "7322 Strathmore Dr",
    "address_councildis": "E",
    "status": "Assigned to Contractor",
    "contractor": "Waste Pro",
    "rowid": "1035623",
    "final_x": "3714469.26085",
    "final_y": "566419.882211",
    "longitude": "-89.96264817510715",
    "latitude": "30.05041464468296",
    "geocoded_column": {
      "latitude": "30.05041464468296",
      "longitude": "-89.96264817510715"
    }
  },
  {
    "service_request": "2023-1035622",
    "request_type": "Roads/Drainage",
    "request_reason": "Pothole",
    "date_created": "2023-09-15T14:42:06.000",
    "date_modified": "2023-09-15T14:42:06.000",
    "request_status": "Pending",
    "responsible_agency": "Department of Public Works",
    "final_address": "1021 N Roman St",
    "address_councildis": "D",
    "status": "Pending",
    "rowid": "1035622",
    "final_x": "3679947.31541",
    "final_y": "536132.416135",
    "longitude": "-90.07281291916581",
    "latitude": "29.96822530965474",
    "geocoded_column": {
      "latitude": "29.96822530965474",
      "longitude": "-90.07281291916581"
    }
  },
  {
    "service_request": "2023-1035621",
    "request_type": "Parks & Parkways",
    "request_reason": "Request Tree Service (Right of Way/Public Property)",
    "date_created": "2023-09-15T14:38:29.000",
    "date_modified": "2023-09-15T14:38:30.000",
    "request_status": "Pending",
    "responsible_agency": "Department of Parks & Parkway",
    "final_address": "3500 Gentilly Blvd",
    "address_councildis": "D",
    "status": "Pending",
    "rowid": "1035621",
    "final_x": "3685410.33685",
    "final_y": "548486.231634",
    "longitude": "-90.05512528996343",
    "latitude": "30.002027548540372",
    "geocoded_column": {
      "latitude": "30.002027548540372",
      "longitude": "-90.05512528996343"
    }
  },
  {
    "service_request": "2023-1035620",
    "request_type": "Roads/Drainage",
    "request_reason": "Service Cut",
    "date_created": "2023-09-15T14:34:27.000",
    "date_modified": "2023-09-15T14:34:27.000",
    "request_status": "Pending",
    "responsible_agency": "Department of Public Works",
    "final_address": "2717 Prancer St",
    "address_councildis": "C",
    "status": "Pending",
    "rowid": "1035620",
    "final_x": "3699522.0376",
    "final_y": "520936.707065",
    "longitude": "-90.01154906588738",
    "latitude": "29.925835821983775",
    "geocoded_column": {
      "latitude": "29.925835821983775",
      "longitude": "-90.01154906588738"
    }
  },
  {
    "service_request": "2023-1035619",
    "request_type": "Trash/Recycling",
    "request_reason": "Replace Trash Cart",
    "date_created": "2023-09-15T14:30:26.000",
    "date_modified": "2023-09-15T14:30:28.000",
    "request_status": "Pending",
    "responsible_agency": "Department of Sanitation",
    "status": "Assigned to Contractor",
    "rowid": "1035619",
    "longitude": "0.0",
    "latitude": "0.0",
    "geocoded_column": {
      "latitude": "0.0",
      "longitude": "0.0"
    }
  },
  {
    "service_request": "2023-1035618",
    "request_type": "Trash/Recycling",
    "request_reason": "Request a Large Item Pick Up",
    "date_created": "2023-09-15T14:30:14.000",
    "date_modified": "2023-09-15T14:54:15.000",
    "request_status": "Pending",
    "responsible_agency": "Department of Sanitation",
    "final_address": "2239 bayou rd",
    "address_councildis": "D",
    "status": "Assigned to Contractor",
    "contractor": "IV Waste",
    "rowid": "1035618",
    "final_x": "3679428.12527",
    "final_y": "538164.706121",
    "longitude": "-90.07438202756605",
    "latitude": "29.97382910373643",
    "geocoded_column": {
      "latitude": "29.97382910373643",
      "longitude": "-90.07438202756605"
    }
  },
  {
    "service_request": "2023-1035617",
    "request_type": "Trash/Recycling",
    "request_reason": "MIssed Recycling Pick-Up",
    "date_created": "2023-09-15T14:27:39.000",
    "date_modified": "2023-09-15T14:27:40.000",
    "request_status": "Pending",
    "responsible_agency": "Department of Sanitation",
    "final_address": "Fig Street & Pine Street",
    "address_councildis": "B",
    "status": "Assigned to Contractor",
    "contractor": "Richards Disposal",
    "rowid": "1035617",
    "final_x": "3667492.47034",
    "final_y": "532054.910339",
    "longitude": "-90.11228321235892",
    "latitude": "29.957384379360537",
    "geocoded_column": {
      "latitude": "29.957384379360537",
      "longitude": "-90.11228321235892"
    }
  },
  {
    "service_request": "2023-1035616",
    "request_type": "Trash/Recycling",
    "request_reason": "Repair Trash Cart",
    "date_created": "2023-09-15T14:27:13.000",
    "date_modified": "2023-09-15T14:27:13.000",
    "request_status": "Pending",
    "responsible_agency": "Department of Sanitation",
    "final_address": "5218 Arts St",
    "address_councildis": "D",
    "status": "Assigned to Contractor",
    "contractor": "IV Waste",
    "rowid": "1035616",
    "final_x": "3685728.71305",
    "final_y": "552291.58863",
    "longitude": "-90.05398528326633",
    "latitude": "30.012481127287916",
    "geocoded_column": {
      "latitude": "30.012481127287916",
      "longitude": "-90.05398528326633"
    }
  },
  {
    "service_request": "2023-1035615",
    "request_type": "Trash/Recycling",
    "request_reason": "MIssed Recycling Pick-Up",
    "date_created": "2023-09-15T14:25:25.000",
    "date_modified": "2023-09-15T14:25:26.000",
    "request_status": "Pending",
    "responsible_agency": "Department of Sanitation",
    "final_address": "6310 Fontainebleau Dr",
    "address_councildis": "A",
    "status": "Assigned to Contractor",
    "contractor": "Richards Disposal",
    "rowid": "1035615",
    "final_x": "3667846.57057",
    "final_y": "529999.568705",
    "longitude": "-90.11123428734047",
    "latitude": "29.951722482568357",
    "geocoded_column": {
      "latitude": "29.951722482568357",
      "longitude": "-90.11123428734047"
    }
  },
  {
    "service_request": "2023-1035614",
    "request_type": "Trash/Recycling",
    "request_reason": "Repair Recycling Cart",
    "date_created": "2023-09-15T14:25:15.000",
    "date_modified": "2023-09-15T14:25:15.000",
    "request_status": "Pending",
    "responsible_agency": "Department of Sanitation",
    "final_address": "5218 Arts St",
    "address_councildis": "D",
    "status": "Pending",
    "rowid": "1035614",
    "final_x": "3685728.71305",
    "final_y": "552291.58863",
    "longitude": "-90.05398528326633",
    "latitude": "30.012481127287916",
    "geocoded_column": {
      "latitude": "30.012481127287916",
      "longitude": "-90.05398528326633"
    }
  },
  {
    "service_request": "2023-1035613",
    "request_type": "Traffic Signals/Signs/Striping/Streetlights",
    "request_reason": "Striping/Road Surface Markings",
    "date_created": "2023-09-15T14:23:18.000",
    "date_modified": "2023-09-15T14:23:18.000",
    "request_status": "Pending",
    "responsible_agency": "Department of Public Works",
    "final_address": "MOSS ST & BELL ST",
    "address_councildis": "A",
    "status": "Pending",
    "rowid": "1035613",
    "final_x": "3675110.2",
    "final_y": "539792.88",
    "longitude": "-90.08796311482591",
    "latitude": "29.978435767000978",
    "geocoded_column": {
      "latitude": "29.978435767000978",
      "longitude": "-90.08796311482591"
    }
  },
  {
    "service_request": "2023-1035612",
    "request_type": "Trash/Recycling",
    "request_reason": "MIssed Recycling Pick-Up",
    "date_created": "2023-09-15T14:21:49.000",
    "date_modified": "2023-09-15T14:21:49.000",
    "request_status": "Pending",
    "responsible_agency": "Department of Sanitation",
    "final_address": "7103 Freret St, New Orleans, Louisiana, 70118",
    "address_councildis": "A",
    "status": "Assigned to Contractor",
    "contractor": "Richards Disposal",
    "rowid": "1035612",
    "final_x": "3663998.43578",
    "final_y": "525792.939517",
    "longitude": "-90.12352514740162",
    "latitude": "29.940267895288557",
    "geocoded_column": {
      "latitude": "29.940267895288557",
      "longitude": "-90.12352514740162"
    }
  },
  {
    "service_request": "2023-1035611",
    "request_type": "Parks & Parkways",
    "request_reason": "Request Tree Service (Right of Way/Public Property)",
    "date_created": "2023-09-15T14:18:52.000",
    "date_modified": "2023-09-15T14:18:52.000",
    "request_status": "Pending",
    "responsible_agency": "Department of Parks & Parkway",
    "final_address": "4433 St Ann St",
    "address_councildis": "A",
    "status": "Pending",
    "rowid": "1035611",
    "final_x": "3671371.21543",
    "final_y": "541468.771916",
    "longitude": "-90.09971523831742",
    "latitude": "29.983155108403864",
    "geocoded_column": {
      "latitude": "29.983155108403864",
      "longitude": "-90.09971523831742"
    }
  },
  {
    "service_request": "2023-1035610",
    "request_type": "Traffic Signals/Signs/Striping/Streetlights",
    "request_reason": "Additional signage",
    "date_created": "2023-09-15T14:07:31.000",
    "date_modified": "2023-09-15T14:07:32.000",
    "request_status": "Pending",
    "responsible_agency": "Department of Public Works",
    "final_address": "2506 Jena St",
    "address_councildis": "B",
    "status": "Pending",
    "rowid": "1035610",
    "final_x": "3670086.9554",
    "final_y": "524074.015868",
    "longitude": "-90.1043608819218",
    "latitude": "29.935363245807558",
    "geocoded_column": {
      "latitude": "29.935363245807558",
      "longitude": "-90.1043608819218"
    }
  },
  {
    "service_request": "2023-1035609",
    "request_type": "Parks & Parkways",
    "request_reason": "Request Tree Service (Right of Way/Public Property)",
    "date_created": "2023-09-15T14:07:24.000",
    "date_modified": "2023-09-15T14:07:25.000",
    "request_status": "Pending",
    "responsible_agency": "Department of Parks & Parkway",
    "final_address": "4617 Mirabeau Ave",
    "address_councildis": "D",
    "status": "Pending",
    "rowid": "1035609",
    "final_x": "3691074.33795",
    "final_y": "551835.281302",
    "longitude": "-90.0371124509863",
    "latitude": "30.011061256471482",
    "geocoded_column": {
      "latitude": "30.011061256471482",
      "longitude": "-90.0371124509863"
    }
  },
  {
    "service_request": "2023-1035608",
    "request_type": "Trash/Recycling",
    "request_reason": "Missed Trash Pick-Up",
    "date_created": "2023-09-15T14:02:25.000",
    "date_modified": "2023-09-15T14:02:26.000",
    "request_status": "Pending",
    "responsible_agency": "Department of Sanitation",
    "final_address": "3620 Robert St, New Orleans, Louisiana, 70125",
    "address_councildis": "A",
    "status": "Assigned to Contractor",
    "contractor": "Richards Disposal",
    "rowid": "1035608",
    "final_x": "3668871.43988",
    "final_y": "528147.671167",
    "longitude": "-90.10806075911495",
    "latitude": "29.94660027277878",
    "geocoded_column": {
      "latitude": "29.94660027277878",
      "longitude": "-90.10806075911495"
    }
  },
  {
    "service_request": "2023-1035607",
    "request_type": "Roads/Drainage",
    "request_reason": "Pothole",
    "date_created": "2023-09-15T14:00:46.000",
    "date_modified": "2023-09-15T14:00:47.000",
    "request_status": "Pending",
    "responsible_agency": "Department of Public Works",
    "final_address": "2824 St Andrew St",
    "address_councildis": "B",
    "status": "Pending",
    "rowid": "1035607",
    "final_x": "3675304.15093",
    "final_y": "527524.975103",
    "longitude": "-90.08777173222545",
    "latitude": "29.944697356801704",
    "geocoded_column": {
      "latitude": "29.944697356801704",
      "longitude": "-90.08777173222545"
    }
  },
  {
    "service_request": "2023-1035606",
    "request_type": "Property Maintenance",
    "request_reason": "Property Maintenance",
    "date_created": "2023-09-15T13:59:10.000",
    "date_modified": "2023-09-15T13:59:11.000",
    "request_status": "Pending",
    "responsible_agency": "Department of Code Enforcement",
    "final_address": "11028 Dreux Ave",
    "address_councildis": "E",
    "status": "Pending",
    "rowid": "1035606",
    "final_x": "3716202.14738",
    "final_y": "556268.163226",
    "longitude": "-89.95755644364235",
    "latitude": "30.022444399501964",
    "geocoded_column": {
      "latitude": "30.022444399501964",
      "longitude": "-89.95755644364235"
    }
  },
  {
    "service_request": "2023-1035605",
    "request_type": "Traffic Signals/Signs/Striping/Streetlights",
    "request_reason": "Request for Stop Sign",
    "date_created": "2023-09-15T13:57:27.000",
    "date_modified": "2023-09-15T13:57:27.000",
    "request_status": "Pending",
    "responsible_agency": "Department of Public Works",
    "final_address": "RACE ST & ANNUNCIATION ST",
    "address_councildis": "B",
    "status": "Pending",
    "rowid": "1035605",
    "final_x": "3680861.5",
    "final_y": "523680.78",
    "longitude": "-90.07035931215667",
    "latitude": "29.933959820878734",
    "geocoded_column": {
      "latitude": "29.933959820878734",
      "longitude": "-90.07035931215667"
    }
  },
  {
    "service_request": "2023-1035604",
    "request_type": "Abandoned Vehicles",
    "request_reason": "Abandoned/Junk Vehicles",
    "date_created": "2023-09-15T13:56:36.000",
    "date_modified": "2023-09-15T13:56:45.000",
    "request_status": "Pending",
    "responsible_agency": "Department of Public Works",
    "final_address": "1137 Baronne St",
    "address_councildis": "B",
    "status": "Inspected",
    "rowid": "1035604",
    "final_x": "3678926.30741",
    "final_y": "526902.102398",
    "longitude": "-90.07635707620054",
    "latitude": "29.942875901846065",
    "geocoded_column": {
      "latitude": "29.942875901846065",
      "longitude": "-90.07635707620054"
    }
  },
  {
    "service_request": "2023-1035603",
    "request_type": "Parks & Parkways",
    "request_reason": "Request Tree Service (Right of Way/Public Property)",
    "date_created": "2023-09-15T13:56:09.000",
    "date_modified": "2023-09-15T13:56:10.000",
    "request_status": "Pending",
    "responsible_agency": "Department of Parks & Parkway",
    "final_address": "4511 Paris Ave",
    "address_councildis": "D",
    "status": "Pending",
    "rowid": "1035603",
    "final_x": "3679518.01263",
    "final_y": "549106.819283",
    "longitude": "-90.07371825404854",
    "latitude": "30.00391336146993",
    "geocoded_column": {
      "latitude": "30.00391336146993",
      "longitude": "-90.07371825404854"
    }
  },
  {
    "service_request": "2023-1035602",
    "request_type": "Roads/Drainage",
    "request_reason": "Pothole",
    "date_created": "2023-09-15T13:55:22.000",
    "date_modified": "2023-09-15T13:55:22.000",
    "request_status": "Pending",
    "responsible_agency": "Department of Public Works",
    "final_address": "ANNUNCIATION ST & RACE ST",
    "address_councildis": "B",
    "status": "Pending",
    "rowid": "1035602",
    "final_x": "3680982.1",
    "final_y": "523663.18",
    "longitude": "-90.06997919575852",
    "latitude": "29.933907771054976",
    "geocoded_column": {
      "latitude": "29.933907771054976",
      "longitude": "-90.06997919575852"
    }
  },
  {
    "service_request": "2023-1035601",
    "request_type": "Trash/Recycling",
    "request_reason": "MIssed Recycling Pick-Up",
    "date_created": "2023-09-15T13:54:44.000",
    "date_modified": "2023-09-15T13:54:45.000",
    "request_status": "Pending",
    "responsible_agency": "Department of Sanitation",
    "final_address": "7103 Freret St Apt 101",
    "address_councildis": "A",
    "status": "Assigned to Contractor",
    "contractor": "Richards Disposal",
    "rowid": "1035601",
    "final_x": "3664003.76192",
    "final_y": "525801.901309",
    "longitude": "-90.12350803312154",
    "latitude": "29.940292382729165",
    "geocoded_column": {
      "latitude": "29.940292382729165",
      "longitude": "-90.12350803312154"
    }
  },
  {
    "service_request": "2023-1035600",
    "request_type": "Traffic Signals/Signs/Striping/Streetlights",
    "request_reason": "Street Light Outage/Malfunction",
    "date_created": "2023-09-15T13:50:37.000",
    "date_modified": "2023-09-15T13:50:38.000",
    "request_status": "Pending",
    "responsible_agency": "Department of Public Works",
    "final_address": "1941 Magazine St",
    "address_councildis": "B",
    "status": "Assigned to Contractor",
    "contractor": "Legacy Professional Services",
    "rowid": "1035600",
    "final_x": "3679583.87746",
    "final_y": "522706.84665",
    "longitude": "-90.07442649382664",
    "latitude": "29.931320484329103",
    "geocoded_column": {
      "latitude": "29.931320484329103",
      "longitude": "-90.07442649382664"
    }
  },
  {
    "service_request": "2023-1035599",
    "request_type": "Traffic Signals/Signs/Striping/Streetlights",
    "request_reason": "Street Light Outage/Malfunction",
    "date_created": "2023-09-15T13:45:31.000",
    "date_modified": "2023-09-15T13:45:32.000",
    "request_status": "Pending",
    "responsible_agency": "Department of Public Works",
    "final_address": "214 Royal St",
    "address_councildis": "C",
    "status": "Assigned to Contractor",
    "contractor": "Legacy Professional Services",
    "rowid": "1035599",
    "final_x": "3681611.07157",
    "final_y": "531183.872066",
    "longitude": "-90.06773132081467",
    "latitude": "29.95456807206019",
    "geocoded_column": {
      "latitude": "29.95456807206019",
      "longitude": "-90.06773132081467"
    }
  },
  {
    "service_request": "2023-1035598",
    "request_type": "Trash/Recycling",
    "request_reason": "Request a Large Item Pick Up",
    "date_created": "2023-09-15T13:43:55.000",
    "date_modified": "2023-09-15T13:43:56.000",
    "request_status": "Pending",
    "responsible_agency": "Department of Sanitation",
    "final_address": "1226 St Andrew St",
    "address_councildis": "B",
    "status": "Assigned to Contractor",
    "contractor": "Richards Disposal",
    "rowid": "1035598",
    "final_x": "3679110.18703",
    "final_y": "523019.530171",
    "longitude": "-90.07591104315095",
    "latitude": "29.932194563053883",
    "geocoded_column": {
      "latitude": "29.932194563053883",
      "longitude": "-90.07591104315095"
    }
  },
  {
    "service_request": "2023-1035597",
    "request_type": "Roads/Drainage",
    "request_reason": "Pothole",
    "date_created": "2023-09-15T13:43:38.000",
    "date_modified": "2023-09-15T13:44:02.000",
    "case_close_date": "2023-09-15T08:44:02.000",
    "request_status": "Closed",
    "responsible_agency": "Department of Public Works",
    "final_address": "6222 Louis Xiv St",
    "address_councildis": "A",
    "status": "Resolved",
    "rowid": "1035597",
    "final_x": "3668127.24557",
    "final_y": "548893.754579",
    "longitude": "-90.10971096135876",
    "latitude": "30.003666894385635",
    "geocoded_column": {
      "latitude": "30.003666894385635",
      "longitude": "-90.10971096135876"
    }
  },
  {
    "service_request": "2023-1035596",
    "request_type": "Roads/Drainage",
    "request_reason": "Pothole",
    "date_created": "2023-09-15T13:42:13.000",
    "date_modified": "2023-09-15T13:42:36.000",
    "case_close_date": "2023-09-15T08:42:36.000",
    "request_status": "Closed",
    "responsible_agency": "Department of Public Works",
    "final_address": "201 Polk St",
    "address_councildis": "A",
    "status": "Resolved",
    "rowid": "1035596",
    "final_x": "3666843.64045",
    "final_y": "547669.562066",
    "longitude": "-90.11380725781531",
    "latitude": "30.0003384162859",
    "geocoded_column": {
      "latitude": "30.0003384162859",
      "longitude": "-90.11380725781531"
    }
  },
  {
    "service_request": "2023-1035595",
    "request_type": "Traffic Signals/Signs/Striping/Streetlights",
    "request_reason": "Street Light Outage/Malfunction",
    "date_created": "2023-09-15T13:40:18.000",
    "date_modified": "2023-09-15T13:40:19.000",
    "request_status": "Pending",
    "responsible_agency": "Department of Public Works",
    "final_address": "441 Audubon St, New Orleans, Louisiana, 70118",
    "address_councildis": "A",
    "status": "Assigned to Contractor",
    "contractor": "Legacy Professional Services",
    "rowid": "1035595",
    "final_x": "3662365.72871",
    "final_y": "523172.159099",
    "longitude": "-90.1287668705638",
    "latitude": "29.93310887776141",
    "geocoded_column": {
      "latitude": "29.93310887776141",
      "longitude": "-90.1287668705638"
    }
  },
  {
    "service_request": "2023-1035594",
    "request_type": "Roads/Drainage",
    "request_reason": "Pothole",
    "date_created": "2023-09-15T13:39:33.000",
    "date_modified": "2023-09-15T13:40:02.000",
    "case_close_date": "2023-09-15T08:40:02.000",
    "request_status": "Closed",
    "responsible_agency": "Department of Public Works",
    "final_address": "2305 Gordon St",
    "address_councildis": "E",
    "status": "Resolved",
    "rowid": "1035594",
    "final_x": "3700938.4714",
    "final_y": "537772.618312",
    "longitude": "-90.0064624143904",
    "latitude": "29.97208362590377",
    "geocoded_column": {
      "latitude": "29.97208362590377",
      "longitude": "-90.0064624143904"
    }
  },
  {
    "service_request": "2023-1035593",
    "request_type": "Property Maintenance",
    "request_reason": "Property Maintenance",
    "date_created": "2023-09-15T13:37:58.000",
    "date_modified": "2023-09-15T14:39:57.000",
    "request_status": "Pending",
    "responsible_agency": "Department of Code Enforcement",
    "final_address": "7500 BLK Gannon Rd",
    "address_councildis": "E",
    "rowid": "1035593",
    "final_x": "3716756.29119",
    "final_y": "569377.880717",
    "longitude": "-89.95530733177476",
    "latitude": "30.058472499532908",
    "geocoded_column": {
      "latitude": "30.058472499532908",
      "longitude": "-89.95530733177476"
    }
  },
  {
    "service_request": "2023-1035592",
    "request_type": "Roads/Drainage",
    "request_reason": "Pothole",
    "date_created": "2023-09-15T13:37:23.000",
    "date_modified": "2023-09-15T13:37:41.000",
    "case_close_date": "2023-09-15T08:37:41.000",
    "request_status": "Closed",
    "responsible_agency": "Department of Public Works",
    "final_address": "1500 BLK N Robertson St",
    "address_councildis": "C",
    "status": "Resolved",
    "rowid": "1035592",
    "final_x": "3682144.50936",
    "final_y": "537092.180196",
    "longitude": "-90.06584056529817",
    "latitude": "29.97079768482332",
    "geocoded_column": {
      "latitude": "29.97079768482332",
      "longitude": "-90.06584056529817"
    }
  },
  {
    "service_request": "2023-1035591",
    "request_type": "Property Maintenance",
    "request_reason": "Property Maintenance",
    "date_created": "2023-09-15T13:37:11.000",
    "date_modified": "2023-09-15T13:37:11.000",
    "request_status": "Pending",
    "responsible_agency": "Department of Code Enforcement",
    "final_address": "CONSTITUTION PL & FRANKLIN AVE",
    "address_councildis": "D",
    "status": "Pending",
    "rowid": "1035591",
    "final_x": "3687388.6",
    "final_y": "542941.58",
    "longitude": "-90.04907207052086",
    "latitude": "29.986720923064713",
    "geocoded_column": {
      "latitude": "29.986720923064713",
      "longitude": "-90.04907207052086"
    }
  },
  {
    "service_request": "2023-1035590",
    "request_type": "Traffic Signals/Signs/Striping/Streetlights",
    "request_reason": "Request for Stop Sign",
    "date_created": "2023-09-15T13:36:19.000",
    "date_modified": "2023-09-15T13:36:19.000",
    "request_status": "Pending",
    "responsible_agency": "Department of Public Works",
    "final_address": "RANSOM ST & RAY AVE",
    "address_councildis": "E",
    "status": "Pending",
    "rowid": "1035590",
    "final_x": "3698911.1",
    "final_y": "553011.78",
    "longitude": "-90.01231029080078",
    "latitude": "30.01405009368162",
    "geocoded_column": {
      "latitude": "30.01405009368162",
      "longitude": "-90.01231029080078"
    }
  },
  {
    "service_request": "2023-1035589",
    "request_type": "Trash/Recycling",
    "request_reason": "Illegal Dumping",
    "date_created": "2023-09-15T13:33:44.000",
    "date_modified": "2023-09-15T13:33:44.000",
    "request_status": "Pending",
    "responsible_agency": "Department of Sanitation",
    "final_address": "8201 Edinburgh St",
    "address_councildis": "A",
    "status": "Pending",
    "rowid": "1035589",
    "final_x": "3667223.19265",
    "final_y": "534724.903366",
    "longitude": "-90.1130437250619",
    "latitude": "29.964733867916205",
    "geocoded_column": {
      "latitude": "29.964733867916205",
      "longitude": "-90.1130437250619"
    }
  },
  {
    "service_request": "2023-1035588",
    "request_type": "Abandoned Vehicles",
    "request_reason": "Abandoned/Junk Vehicles",
    "date_created": "2023-09-15T13:32:34.000",
    "date_modified": "2023-09-15T13:32:34.000",
    "request_status": "Pending",
    "responsible_agency": "Department of Public Works",
    "final_address": "REYNES ST & RANSOM ST",
    "address_councildis": "E",
    "status": "Pending",
    "rowid": "1035588",
    "final_x": "3699331.0",
    "final_y": "553051.18",
    "longitude": "-90.01098219108034",
    "latitude": "30.01414511121033",
    "geocoded_column": {
      "latitude": "30.01414511121033",
      "longitude": "-90.01098219108034"
    }
  },
  {
    "service_request": "2023-1035587",
    "request_type": "Trash/Recycling",
    "request_reason": "Repair Trash Cart",
    "date_created": "2023-09-15T13:30:54.000",
    "date_modified": "2023-09-15T13:30:55.000",
    "request_status": "Pending",
    "responsible_agency": "Department of Sanitation",
    "final_address": "7508 Burthe St",
    "address_councildis": "A",
    "status": "Assigned to Contractor",
    "contractor": "Richards Disposal",
    "rowid": "1035587",
    "final_x": "3662705.84154",
    "final_y": "526229.05459",
    "longitude": "-90.12759160312136",
    "latitude": "29.941504535951506",
    "geocoded_column": {
      "latitude": "29.941504535951506",
      "longitude": "-90.12759160312136"
    }
  },
  {
    "service_request": "2023-1035586",
    "request_type": "Roads/Drainage",
    "request_reason": "Pothole",
    "date_created": "2023-09-15T13:30:37.000",
    "date_modified": "2023-09-15T13:31:04.000",
    "case_close_date": "2023-09-15T08:31:04.000",
    "request_status": "Closed",
    "responsible_agency": "Department of Public Works",
    "final_address": "FLOOD ST & DAUPHINE ST",
    "address_councildis": "E",
    "status": "Resolved",
    "rowid": "1035586",
    "final_x": "3697397.7",
    "final_y": "532708.28",
    "longitude": "-90.01782831355281",
    "latitude": "29.95827076605518",
    "geocoded_column": {
      "latitude": "29.95827076605518",
      "longitude": "-90.01782831355281"
    }
  },
  {
    "service_request": "2023-1035585",
    "request_type": "Traffic Signals/Signs/Striping/Streetlights",
    "request_reason": "Request for Stop Sign",
    "date_created": "2023-09-15T13:29:21.000",
    "date_modified": "2023-09-15T13:29:21.000",
    "request_status": "Pending",
    "responsible_agency": "Department of Public Works",
    "final_address": "DESIRE PKWY & HIGGINS BLVD",
    "address_councildis": "D",
    "status": "Pending",
    "rowid": "1035585",
    "final_x": "3692639.9",
    "final_y": "545975.78",
    "longitude": "-90.0323764218781",
    "latitude": "29.994900992640382",
    "geocoded_column": {
      "latitude": "29.994900992640382",
      "longitude": "-90.0323764218781"
    }
  },
  {
    "service_request": "2023-1035584",
    "request_type": "Roads/Drainage",
    "request_reason": "Pothole",
    "date_created": "2023-09-15T13:25:06.000",
    "date_modified": "2023-09-15T13:25:49.000",
    "case_close_date": "2023-09-15T08:25:49.000",
    "request_status": "Closed",
    "responsible_agency": "Department of Public Works",
    "final_address": "500 BLK Andry St",
    "address_councildis": "E",
    "status": "Resolved",
    "rowid": "1035584",
    "final_x": "3696615.48731",
    "final_y": "531982.693368",
    "longitude": "-90.02032456962375",
    "latitude": "29.956300328398118",
    "geocoded_column": {
      "latitude": "29.956300328398118",
      "longitude": "-90.02032456962375"
    }
  },