[
  {
    "service_request": "2024-1123287",
    "request_type": "Parks & Parkways",
    "request_reason": "Request Tree Service (Right of Way/Public Property)",
    "date_created": "2024-08-19T23:26:55.000",
    "date_modified": "2024-08-19T23:26:55.000",
    "request_status": "Pending",
    "responsible_agency": "Department of Parks & Parkway",
    "final_address": "3837 Macarthur Blvd",
    "address_councildis": "C",
    "status": "Pending",
    "rowid": "1123287",
    "final_x": "3697872.54083",
    "final_y": "520389.109368",
    "longitude": "-90.01677586649876",
    "latitude": "29.92438233249017",
    "geocoded_column": {
      "latitude": "29.92438233249017",
      "longitude": "-90.01677586649876"
    }
  },
  {
    "service_request": "2024-1123286",
    "request_type": "Property Maintenance",
    "request_reason": "Property Maintenance",
    "date_created": "2024-08-19T23:26:26.000",
    "date_modified": "2024-08-19T23:26:26.000",
    "request_status": "Pending",
    "responsible_agency": "Department of Code Enforcement",
    "final_address": "7340 Canterbury St",
    "address_councildis": "E",
    "status": "Pending",
    "rowid": "1123286",
    "final_x": "3698803.2554",
    "final_y": "559243.028124",
    "longitude": "-90.01242406766383",
    "latitude": "30.031187066897726",
    "geocoded_column": {
      "latitude": "30.031187066897726",
      "longitude": "-90.01242406766383"
    }
  },
  {
    "service_request": "2024-1123285",
    "request_type": "Trash/Recycling",
    "request_reason": "Order Recycling Cart",
    "date_created": "2024-08-19T23:09:52.000",
    "date_modified": "2024-08-19T23:09:52.000",
    "request_status": "Pending",
    "responsible_agency": "Department of Sanitation",
    "final_address": "2250 Mercedes Blvd",
    "address_councildis": "C",
    "status": "Pending",
    "rowid": "1123285",
    "final_x": "3698141.9128",
    "final_y": "522622.19833",
    "longitude": "-90.0158445065114",
    "latitude": "29.930514048357605",
    "geocoded_column": {
      "latitude": "29.930514048357605",
      "longitude": "-90.0158445065114"
    }
  },
  {
    "service_request": "2024-1123284",
    "request_type": "Trash/Recycling",
    "request_reason": "Replace Trash Cart",
    "date_created": "2024-08-19T23:07:13.000",
    "date_modified": "2024-08-19T23:07:14.000",
    "request_status": "Pending",
    "responsible_agency": "Department of Sanitation",
    "final_address": "2250 Mercedes Blvd",
    "address_councildis": "C",
    "status": "Assigned to Contractor",
    "contractor": "Richards Disposal",
    "rowid": "1123284",
    "final_x": "3698141.9128",
    "final_y": "522622.19833",
    "longitude": "-90.0158445065114",
    "latitude": "29.930514048357605",
    "geocoded_column": {
      "latitude": "29.930514048357605",
      "longitude": "-90.0158445065114"
    }
  },
  {
    "service_request": "2024-1123283",
    "request_type": "Traffic Signals/Signs/Striping/Streetlights",
    "request_reason": "Street Light Outage/Malfunction",
    "date_created": "2024-08-19T23:01:46.000",
    "date_modified": "2024-08-19T23:01:47.000",
    "request_status": "Pending",
    "responsible_agency": "Department of Public Works",
    "final_address": "2316 Camp St",
    "address_councildis": "B",
    "status": "Assigned to Contractor",
    "contractor": "Legacy Professional Services",
    "rowid": "1123283",
    "final_x": "3678203.65384",
    "final_y": "522012.930362",
    "longitude": "-90.0788076727196",
    "latitude": "29.929454065795714",
    "geocoded_column": {
      "latitude": "29.929454065795714",
      "longitude": "-90.0788076727196"
    }
  },
  {
    "service_request": "2024-1123282",
    "request_type": "Parks & Parkways",
    "request_reason": "Request Tree Service (Right of Way/Public Property)",
    "date_created": "2024-08-19T22:56:48.000",
    "date_modified": "2024-08-19T22:56:48.000",
    "request_status": "Pending",
    "responsible_agency": "Department of Parks & Parkway",
    "final_address": "2250 Mercedes Blvd",
    "address_councildis": "C",
    "status": "Pending",
    "rowid": "1123282",
    "final_x": "3698141.9128",
    "final_y": "522622.19833",
    "longitude": "-90.0158445065114",
    "latitude": "29.930514048357605",
    "geocoded_column": {
      "latitude": "29.930514048357605",
      "longitude": "-90.0158445065114"
    }
  },
  {
    "service_request": "2024-1123281",
    "request_type": "Trash/Recycling",
    "request_reason": "Request a Large Item Pick Up",
    "date_created": "2024-08-19T22:43:43.000",
    "date_modified": "2024-08-19T22:43:44.000",
    "request_status": "Pending",
    "responsible_agency": "Department of Sanitation",
    "final_address": "8121 Zimple St",
    "address_councildis": "A",
    "status": "Assigned to Contractor",
    "contractor": "IV Waste",
    "rowid": "1123281",
    "final_x": "3661617.28358",
    "final_y": "528270.96448",
    "longitude": "-90.1309607653579",
    "latitude": "29.947150589155818",
    "geocoded_column": {
      "latitude": "29.947150589155818",
      "longitude": "-90.1309607653579"
    }
  },
  {
    "service_request": "2024-1123280",
    "request_type": "Trash/Recycling",
    "request_reason": "Return Trash Cart",
    "date_created": "2024-08-19T22:16:55.000",
    "date_modified": "2024-08-19T22:16:56.000",
    "request_status": "Pending",
    "responsible_agency": "Department of Sanitation",
    "final_address": "5 Swan St",
    "address_councildis": "D",
    "status": "Assigned to Contractor",
    "contractor": "IV Waste",
    "rowid": "1123280",
    "final_x": "3672557.97857",
    "final_y": "557536.127003",
    "longitude": "-90.09541855174885",
    "latitude": "30.02729949678429",
    "geocoded_column": {
      "latitude": "30.02729949678429",
      "longitude": "-90.09541855174885"
    }
  },
  {
    "service_request": "2024-1123279",
    "request_type": "Parks & Parkways",
    "request_reason": "Request Tree Service (Right of Way/Public Property)",
    "date_created": "2024-08-19T21:48:32.000",
    "date_modified": "2024-08-19T21:48:32.000",
    "request_status": "Pending",
    "responsible_agency": "Department of Parks & Parkway",
    "final_address": "HARCOURT DR & PERLITA ST",
    "address_councildis": "D",
    "status": "Pending",
    "rowid": "1123279",
    "final_x": "3678805.5",
    "final_y": "548521.28",
    "longitude": "-90.07598950301563",
    "latitude": "30.002324854547574",
    "geocoded_column": {
      "latitude": "30.002324854547574",
      "longitude": "-90.07598950301563"
    }
  },
  {
    "service_request": "2024-1123278",
    "request_type": "Roads/Drainage",
    "request_reason": "Catch Basin - Clogged",
    "date_created": "2024-08-19T21:43:39.000",
    "date_modified": "2024-08-19T21:43:39.000",
    "request_status": "Pending",
    "responsible_agency": "Department of Public Works",
    "final_address": "HARCOURT DR & PERLITA ST",
    "address_councildis": "D",
    "status": "Pending",
    "rowid": "1123278",
    "final_x": "3678805.5",
    "final_y": "548521.28",
    "longitude": "-90.07598950301563",
    "latitude": "30.002324854547574",
    "geocoded_column": {
      "latitude": "30.002324854547574",
      "longitude": "-90.07598950301563"
    }
  },
  {
    "service_request": "2024-1123277",
    "request_type": "Traffic Signals/Signs/Striping/Streetlights",
    "request_reason": "Street Light Outage/Malfunction",
    "date_created": "2024-08-19T21:38:54.000",
    "date_modified": "2024-08-19T21:38:55.000",
    "request_status": "Pending",
    "responsible_agency": "Department of Public Works",
    "final_address": "HARCOURT DR & PERLITA ST",
    "address_councildis": "D",
    "status": "Assigned to Contractor",
    "contractor": "Legacy Professional Services",
    "rowid": "1123277",
    "final_x": "3678805.5",
    "final_y": "548521.28",
    "longitude": "-90.07598950301563",
    "latitude": "30.002324854547574",
    "geocoded_column": {
      "latitude": "30.002324854547574",
      "longitude": "-90.07598950301563"
    }
  },
  {
    "service_request": "2024-1123276",
    "request_type": "Trash/Recycling",
    "request_reason": "Replace Trash Cart",
    "date_created": "2024-08-19T21:29:36.000",
    "date_modified": "2024-08-19T21:29:37.000",
    "request_status": "Pending",
    "responsible_agency": "Department of Sanitation",
    "final_address": "2950 Maurepas St",
    "address_councildis": "A",
    "status": "Assigned to Contractor",
    "contractor": "IV Waste",
    "rowid": "1123276",
    "final_x": "3677297.17672",
    "final_y": "540688.947467",
    "longitude": "-90.08102490737714",
    "latitude": "29.980834104403485",
    "geocoded_column": {
      "latitude": "29.980834104403485",
      "longitude": "-90.08102490737714"
    }
  },
  {
    "service_request": "2024-1123275",
    "request_type": "Property Maintenance",
    "request_reason": "Property Maintenance",
    "date_created": "2024-08-19T21:22:32.000",
    "date_modified": "2024-08-19T21:22:32.000",
    "request_status": "Pending",
    "responsible_agency": "Department of Code Enforcement",
    "final_address": "8933 Forshey St",
    "address_councildis": "A",
    "status": "Pending",
    "rowid": "1123275",
    "final_x": "3664714.61421",
    "final_y": "536056.254471",
    "longitude": "-90.1209211939863",
    "latitude": "29.968467865280882",
    "geocoded_column": {
      "latitude": "29.968467865280882",
      "longitude": "-90.1209211939863"
    }
  },
  {
    "service_request": "2024-1123274",
    "request_type": "Property Maintenance",
    "request_reason": "Property Maintenance",
    "date_created": "2024-08-19T21:21:34.000",
    "date_modified": "2024-08-19T21:21:34.000",
    "request_status": "Pending",
    "responsible_agency": "Department of Code Enforcement",
    "final_address": "8931 Forshey St",
    "address_councildis": "A",
    "status": "Pending",
    "rowid": "1123274",
    "final_x": "3664736.88858",
    "final_y": "536035.914951",
    "longitude": "-90.12085152979147",
    "latitude": "29.96841129024832",
    "geocoded_column": {
      "latitude": "29.96841129024832",
      "longitude": "-90.12085152979147"
    }
  },
  {
    "service_request": "2024-1123273",
    "request_type": "Utility Poles",
    "request_reason": "Utility Pole Leaning",
    "date_created": "2024-08-19T21:19:02.000",
    "date_modified": "2024-08-19T21:19:06.000",
    "request_status": "Pending",
    "responsible_agency": "Utility Company Collective",
    "final_address": "SIMON BOLIVAR AVE & JACKSON AVE",
    "address_councildis": "B",
    "status": "Pending",
    "rowid": "1123273",
    "final_x": "3676268.4",
    "final_y": "525468.48",
    "longitude": "-90.08479805655436",
    "latitude": "29.93901381672783",
    "geocoded_column": {
      "latitude": "29.93901381672783",
      "longitude": "-90.08479805655436"
    }
  },
  {
    "service_request": "2024-1123272",
    "request_type": "Traffic Signals/Signs/Striping/Streetlights",
    "request_reason": "Street Light Outage/Malfunction",
    "date_created": "2024-08-19T21:08:14.000",
    "date_modified": "2024-08-19T21:08:15.000",
    "request_status": "Pending",
    "responsible_agency": "Department of Public Works",
    "final_address": "14000 BLK Chef Menteur Hwy",
    "address_councildis": "E",
    "status": "Assigned to Contractor",
    "contractor": "Legacy Professional Services",
    "rowid": "1123272",
    "final_x": "3729358.52156",
    "final_y": "561020.470594",
    "longitude": "-89.91580036892081",
    "latitude": "30.035070382241795",
    "geocoded_column": {
      "latitude": "30.035070382241795",
      "longitude": "-89.91580036892081"
    }
  },
  {
    "service_request": "2024-1123271",
    "request_type": "Roads/Drainage",
    "request_reason": "Street Flooding / Drainage",
    "date_created": "2024-08-19T20:52:35.000",
    "date_modified": "2024-08-19T20:52:35.000",
    "request_status": "Pending",
    "responsible_agency": "Department of Public Works",
    "final_address": "PORTEOUS ST & GENERAL DIAZ ST",
    "address_councildis": "A",
    "status": "Pending",
    "rowid": "1123271",
    "final_x": "3669879.5",
    "final_y": "551265.48",
    "longitude": "-90.10409490517027",
    "latitude": "30.010136740706447",
    "geocoded_column": {
      "latitude": "30.010136740706447",
      "longitude": "-90.10409490517027"
    }
  },
  {
    "service_request": "2024-1123270",
    "request_type": "Roads/Drainage",
    "request_reason": "Accessibility Ramps, Curbs and Sidewalk Repair",
    "date_created": "2024-08-19T20:15:25.000",
    "date_modified": "2024-08-19T20:15:25.000",
    "request_status": "Pending",
    "responsible_agency": "Department of Public Works",
    "final_address": "ANNUNCIATION ST & SORAPARU ST",
    "address_councildis": "B",
    "status": "Pending",
    "rowid": "1123270",
    "final_x": "3678923.4",
    "final_y": "520742.78",
    "longitude": "-90.07657954372107",
    "latitude": "29.925939879665453",
    "geocoded_column": {
      "latitude": "29.925939879665453",
      "longitude": "-90.07657954372107"
    }
  },
  {
    "service_request": "2024-1123269",
    "request_type": "Traffic Signals/Signs/Striping/Streetlights",
    "request_reason": "Street Light Outage/Malfunction",
    "date_created": "2024-08-19T20:14:35.000",
    "date_modified": "2024-08-19T20:14:36.000",
    "request_status": "Pending",
    "responsible_agency": "Department of Public Works",
    "final_address": "717 Soraparu St",
    "address_councildis": "B",
    "status": "Assigned to Contractor",
    "contractor": "Legacy Professional Services",
    "rowid": "1123269",
    "final_x": "3679070.61775",
    "final_y": "520598.305528",
    "longitude": "-90.07611982460998",
    "latitude": "29.925538181307875",
    "geocoded_column": {
      "latitude": "29.925538181307875",
      "longitude": "-90.07611982460998"
    }
  },
  {
    "service_request": "2024-1123268",
    "request_type": "Roads/Drainage",
    "request_reason": "Accessibility Ramps, Curbs and Sidewalk Repair",
    "date_created": "2024-08-19T20:12:48.000",
    "date_modified": "2024-08-19T20:12:48.000",
    "request_status": "Pending",
    "responsible_agency": "Department of Public Works",
    "final_address": "700 BLK Soraparu St",
    "address_councildis": "B",
    "status": "Pending",
    "rowid": "1123268",
    "final_x": "3679031.56808",
    "final_y": "520603.124592",
    "longitude": "-90.07624292551633",
    "latitude": "29.925552610208975",
    "geocoded_column": {
      "latitude": "29.925552610208975",
      "longitude": "-90.07624292551633"
    }
  },
  {
    "service_request": "2024-1123267",
    "request_type": "Property Maintenance",
    "request_reason": "Property Maintenance",
    "date_created": "2024-08-19T20:01:54.000",
    "date_modified": "2024-08-19T20:01:54.000",
    "request_status": "Pending",
    "responsible_agency": "Department of Code Enforcement",
    "final_address": "2343 Lizardi St",
    "address_councildis": "E",
    "status": "Pending",
    "rowid": "1123267",
    "final_x": "3697915.67888",
    "final_y": "538941.559114",
    "longitude": "-90.01596639281776",
    "latitude": "29.975393693459193",
    "geocoded_column": {
      "latitude": "29.975393693459193",
      "longitude": "-90.01596639281776"
    }
  },
  {
    "service_request": "2024-1123266",
    "request_type": "Property Maintenance",
    "request_reason": "Property Maintenance",
    "date_created": "2024-08-19T19:59:12.000",
    "date_modified": "2024-08-19T19:59:12.000",
    "request_status": "Pending",
    "responsible_agency": "Department of Code Enforcement",
    "final_address": "5001 N Galvez St",
    "address_councildis": "E",
    "status": "Pending",
    "rowid": "1123266",
    "final_x": "3697086.03978",
    "final_y": "538076.482953",
    "longitude": "-90.0186179503298",
    "latitude": "29.973041246146543",
    "geocoded_column": {
      "latitude": "29.973041246146543",
      "longitude": "-90.0186179503298"
    }
  },
  {
    "service_request": "2024-1123265",
    "request_type": "Property Maintenance",
    "request_reason": "Property Maintenance",
    "date_created": "2024-08-19T19:57:03.000",
    "date_modified": "2024-08-19T19:57:03.000",
    "request_status": "Pending",
    "responsible_agency": "Department of Code Enforcement",
    "final_address": "2102 Lizardi St",
    "address_councildis": "E",
    "status": "Pending",
    "rowid": "1123265",
    "final_x": "3697556.47312",
    "final_y": "537914.964233",
    "longitude": "-90.01713809792794",
    "latitude": "29.97258227766873",
    "geocoded_column": {
      "latitude": "29.97258227766873",
      "longitude": "-90.01713809792794"
    }
  },
  {
    "service_request": "2024-1123264",
    "request_type": "Property Maintenance",
    "request_reason": "Property Maintenance",
    "date_created": "2024-08-19T19:54:02.000",
    "date_modified": "2024-08-19T19:54:02.000",
    "request_status": "Pending",
    "responsible_agency": "Department of Code Enforcement",
    "final_address": "2340 Fats Domino Ave",
    "address_councildis": "E",
    "status": "Pending",
    "rowid": "1123264",
    "final_x": "3699271.97412",
    "final_y": "538598.281481",
    "longitude": "-90.01169537838493",
    "latitude": "29.974406858491655",
    "geocoded_column": {
      "latitude": "29.974406858491655",
      "longitude": "-90.01169537838493"
    }
  },
  {
    "service_request": "2024-1123263",
    "request_type": "Parks & Parkways",
    "request_reason": "Request Tree Service (Right of Way/Public Property)",
    "date_created": "2024-08-19T19:23:11.000",
    "date_modified": "2024-08-19T19:23:11.000",
    "request_status": "Pending",
    "responsible_agency": "Department of Parks & Parkway",
    "final_address": "411 Florida Blvd",
    "address_councildis": "A",
    "status": "Pending",
    "rowid": "1123263",
    "final_x": "3667438.07783",
    "final_y": "545594.743376",
    "longitude": "-90.11199925145698",
    "latitude": "29.9946159699061",
    "geocoded_column": {
      "latitude": "29.9946159699061",
      "longitude": "-90.11199925145698"
    }
  },
  {
    "service_request": "2024-1123262",
    "request_type": "Trash/Recycling",
    "request_reason": "Request a Large Item Pick Up",
    "date_created": "2024-08-19T19:12:57.000",
    "date_modified": "2024-08-19T19:12:58.000",
    "request_status": "Pending",
    "responsible_agency": "Department of Sanitation",
    "final_address": "7334 Cameo St",
    "address_councildis": "D",
    "status": "Assigned to Contractor",
    "contractor": "IV Waste",
    "rowid": "1123262",
    "final_x": "3667718.67847",
    "final_y": "555553.056793",
    "longitude": "-90.11077723284939",
    "latitude": "30.021989627782137",
    "geocoded_column": {
      "latitude": "30.021989627782137",
      "longitude": "-90.11077723284939"
    }
  },
  {
    "service_request": "2024-1123261",
    "request_type": "Roads/Drainage",
    "request_reason": "Street Subsidence (Sinking)",
    "date_created": "2024-08-19T19:06:45.000",
    "date_modified": "2024-08-19T19:06:45.000",
    "request_status": "Pending",
    "responsible_agency": "Department of Public Works",
    "final_address": "5000 BLK Canal Blvd",
    "address_councildis": "A",
    "status": "Pending",
    "rowid": "1123261",
    "final_x": "3667881.86794",
    "final_y": "541397.379919",
    "longitude": "-90.11073883906256",
    "latitude": "29.983061638092252",
    "geocoded_column": {
      "latitude": "29.983061638092252",
      "longitude": "-90.11073883906256"
    }
  },
  {
    "service_request": "2024-1123260",
    "request_type": "Property Maintenance",
    "request_reason": "Property Maintenance",
    "date_created": "2024-08-19T19:01:52.000",
    "date_modified": "2024-08-19T19:01:52.000",
    "request_status": "Pending",
    "responsible_agency": "Department of Code Enforcement",
    "final_address": "2030 St Andrew St",
    "address_councildis": "B",
    "status": "Pending",
    "rowid": "1123260",
    "final_x": "3677041.24635",
    "final_y": "525595.622461",
    "longitude": "-90.08235370510992",
    "latitude": "29.939340238714504",
    "geocoded_column": {
      "latitude": "29.939340238714504",
      "longitude": "-90.08235370510992"
    }
  },
  {
    "service_request": "2024-1123259",
    "request_type": "Property Maintenance",
    "request_reason": "Property Maintenance",
    "date_created": "2024-08-19T18:59:02.000",
    "date_modified": "2024-08-19T18:59:02.000",
    "request_status": "Pending",
    "responsible_agency": "Department of Code Enforcement",
    "final_address": "2100 BLK Saint Andrew St",
    "address_councildis": "B",
    "status": "Pending",
    "rowid": "1123259",
    "final_x": "3676928.02012",
    "final_y": "525771.499754",
    "longitude": "-90.08270511467884",
    "latitude": "29.939827241889642",
    "geocoded_column": {
      "latitude": "29.939827241889642",
      "longitude": "-90.08270511467884"
    }
  },
  {
    "service_request": "2024-1123258",
    "request_type": "Property Maintenance",
    "request_reason": "Property Maintenance",
    "date_created": "2024-08-19T18:56:32.000",
    "date_modified": "2024-08-19T18:56:32.000",
    "request_status": "Pending",
    "responsible_agency": "Department of Code Enforcement",
    "final_address": "2021 S Saratoga St",
    "address_councildis": "B",
    "status": "Pending",
    "rowid": "1123258",
    "final_x": "3676873.79157",
    "final_y": "525561.198269",
    "longitude": "-90.08288356782877",
    "latitude": "29.939250609399448",
    "geocoded_column": {
      "latitude": "29.939250609399448",
      "longitude": "-90.08288356782877"
    }
  },
  {
    "service_request": "2024-1123257",
    "request_type": "Parks & Parkways",
    "request_reason": "Request Tree Service (Right of Way/Public Property)",
    "date_created": "2024-08-19T18:45:22.000",
    "date_modified": "2024-08-19T18:45:22.000",
    "request_status": "Pending",
    "responsible_agency": "Department of Parks & Parkway",
    "final_address": "1424 Jefferson Ave",
    "address_councildis": "A",
    "status": "Pending",
    "rowid": "1123257",
    "final_x": "3667039.37044",
    "final_y": "520545.672376",
    "longitude": "-90.11410067649942",
    "latitude": "29.925750949461484",
    "geocoded_column": {
      "latitude": "29.925750949461484",
      "longitude": "-90.11410067649942"
    }
  },
  {
    "service_request": "2024-1123256",
    "request_type": "Trash/Recycling",
    "request_reason": "Request a Large Item Pick Up",
    "date_created": "2024-08-19T18:43:59.000",
    "date_modified": "2024-08-19T18:44:00.000",
    "request_status": "Pending",
    "responsible_agency": "Department of Sanitation",
    "final_address": "7096 W Tamaron Blvd",
    "address_councildis": "E",
    "status": "Assigned to Contractor",
    "contractor": "Waste Pro",
    "rowid": "1123256",
    "final_x": "3718385.59852",
    "final_y": "568615.327333",
    "longitude": "-89.95018641116356",
    "latitude": "30.056321815939263",
    "geocoded_column": {
      "latitude": "30.056321815939263",
      "longitude": "-89.95018641116356"
    }
  },
  {
    "service_request": "2024-1123255",
    "request_type": "Roads/Drainage",
    "request_reason": "Pothole",
    "date_created": "2024-08-19T18:40:27.000",
    "date_modified": "2024-08-19T18:40:27.000",
    "request_status": "Pending",
    "responsible_agency": "Department of Public Works",
    "final_address": "7109 Warfield St",
    "address_councildis": "E",
    "status": "Pending",
    "rowid": "1123255",
    "final_x": "3701464.9073",
    "final_y": "553139.451479",
    "longitude": "-90.00423692970146",
    "latitude": "30.01431993846624",
    "geocoded_column": {
      "latitude": "30.01431993846624",
      "longitude": "-90.00423692970146"
    }
  },
  {
    "service_request": "2024-1123254",
    "request_type": "Roads/Drainage",
    "request_reason": "Catch Basin - Clogged",
    "date_created": "2024-08-19T18:40:23.000",
    "date_modified": "2024-08-19T18:40:24.000",
    "request_status": "Pending",
    "responsible_agency": "Department of Public Works",
    "final_address": "2200 BLK Julia St",
    "address_councildis": "B",
    "status": "Pending",
    "rowid": "1123254",
    "final_x": "3674571.12523",
    "final_y": "531311.351863",
    "longitude": "-90.08995639280664",
    "latitude": "29.955130528334",
    "geocoded_column": {
      "latitude": "29.955130528334",
      "longitude": "-90.08995639280664"
    }
  },
  {
    "service_request": "2024-1123253",
    "request_type": "Trash/Recycling",
    "request_reason": "Illegal Dumping",
    "date_created": "2024-08-19T18:40:11.000",
    "date_modified": "2024-08-19T18:40:11.000",
    "request_status": "Pending",
    "responsible_agency": "Department of Sanitation",
    "final_address": "4347 Ray Ave",
    "address_councildis": "E",
    "status": "Pending",
    "rowid": "1123253",
    "final_x": "3699030.26077",
    "final_y": "552286.350742",
    "longitude": "-90.01196023637583",
    "latitude": "30.012051659150007",
    "geocoded_column": {
      "latitude": "30.012051659150007",
      "longitude": "-90.01196023637583"
    }
  },
  {
    "service_request": "2024-1123252",
    "request_type": "Roads/Drainage",
    "request_reason": "Catch Basin - Clogged",
    "date_created": "2024-08-19T18:34:21.000",
    "date_modified": "2024-08-19T18:34:22.000",
    "request_status": "Pending",
    "responsible_agency": "Department of Public Works",
    "final_address": "745 S Galvez St",
    "address_councildis": "B",
    "status": "Pending",
    "rowid": "1123252",
    "final_x": "3674801.13192",
    "final_y": "531405.902467",
    "longitude": "-90.08922687460388",
    "latitude": "29.955383646205135",
    "geocoded_column": {
      "latitude": "29.955383646205135",
      "longitude": "-90.08922687460388"
    }
  },
  {
    "service_request": "2024-1123251",
    "request_type": "Property Maintenance",
    "request_reason": "Property Maintenance",
    "date_created": "2024-08-19T18:33:08.000",
    "date_modified": "2024-08-19T18:33:08.000",
    "request_status": "Pending",
    "responsible_agency": "Department of Code Enforcement",
    "final_address": "830 Deslonde St",
    "address_councildis": "E",
    "status": "Pending",
    "rowid": "1123251",
    "final_x": "3695096.40342",
    "final_y": "533527.162116",
    "longitude": "-90.02506562237743",
    "latitude": "29.960594850123556",
    "geocoded_column": {
      "latitude": "29.960594850123556",
      "longitude": "-90.02506562237743"
    }
  },
  {
    "service_request": "2024-1123249",
    "request_type": "Trash/Recycling",
    "request_reason": "Request a Large Item Pick Up",
    "date_created": "2024-08-19T18:27:03.000",
    "date_modified": "2024-08-19T18:27:04.000",
    "request_status": "Pending",
    "responsible_agency": "Department of Sanitation",
    "final_address": "7810 Sandpiper Dr",
    "address_councildis": "E",
    "status": "Assigned to Contractor",
    "contractor": "Waste Pro",
    "rowid": "1123249",
    "final_x": "3715482.12952",
    "final_y": "570157.726567",
    "longitude": "-89.95930522611017",
    "latitude": "30.060658825395677",
    "geocoded_column": {
      "latitude": "30.060658825395677",
      "longitude": "-89.95930522611017"
    }
  },
  {
    "service_request": "2024-1123248",
    "request_type": "Trash/Recycling",
    "request_reason": "Order Recycling Cart",
    "date_created": "2024-08-19T18:23:50.000",
    "date_modified": "2024-08-19T18:23:50.000",
    "request_status": "Pending",
    "responsible_agency": "Department of Sanitation",
    "final_address": "620 Tchoupitoulas St",
    "address_councildis": "B",
    "status": "Pending",
    "rowid": "1123248",
    "final_x": "3681812.75624",
    "final_y": "528441.010496",
    "longitude": "-90.06719018166646",
    "latitude": "29.947020001787692",
    "geocoded_column": {
      "latitude": "29.947020001787692",
      "longitude": "-90.06719018166646"
    }
  },
  {
    "service_request": "2024-1123247",
    "request_type": "Roads/Drainage",
    "request_reason": "Catch Basin - Clogged",
    "date_created": "2024-08-19T18:18:34.000",
    "date_modified": "2024-08-19T18:25:32.000",
    "request_status": "Pending",
    "responsible_agency": "Department of Public Works",
    "final_address": "745 S Galvez St",
    "address_councildis": "B",
    "status": "Pending",
    "rowid": "1123247",
    "final_x": "3674801.13192",
    "final_y": "531405.902467",
    "longitude": "-90.08922687460388",
    "latitude": "29.955383646205135",
    "geocoded_column": {
      "latitude": "29.955383646205135",
      "longitude": "-90.08922687460388"
    }
  },
  {
    "service_request": "2024-1123246",
    "request_type": "Trash/Recycling",
    "request_reason": "Order Recycling Cart",
    "date_created": "2024-08-19T18:12:17.000",
    "date_modified": "2024-08-19T18:12:17.000",
    "request_status": "Pending",
    "responsible_agency": "Department of Sanitation",
    "final_address": "815 Alix St",
    "address_councildis": "C",
    "status": "Pending",
    "rowid": "1123246",
    "final_x": "3688010.75689",
    "final_y": "530289.452097",
    "longitude": "-90.04755535259278",
    "latitude": "29.95191281107817",
    "geocoded_column": {
      "latitude": "29.95191281107817",
      "longitude": "-90.04755535259278"
    }
  },
  {
    "service_request": "2024-1123245",
    "request_type": "Roads/Drainage",
    "request_reason": "Street Flooding / Drainage",
    "date_created": "2024-08-19T18:09:42.000",
    "date_modified": "2024-08-19T18:09:42.000",
    "request_status": "Pending",
    "responsible_agency": "Department of Public Works",
    "final_address": "1710 Lakeshore Dr, New Orleans, Louisiana, 70122",
    "address_councildis": "D",
    "status": "Pending",
    "rowid": "1123245",
    "final_x": "3678200.92354",
    "final_y": "558006.585819",
    "longitude": "-90.07757103606485",
    "latitude": "30.028424250645944",
    "geocoded_column": {
      "latitude": "30.028424250645944",
      "longitude": "-90.07757103606485"
    }
  },
  {
    "service_request": "2024-1123244",
    "request_type": "Roads/Drainage",
    "request_reason": "Service Cut",
    "date_created": "2024-08-19T17:59:07.000",
    "date_modified": "2024-08-19T17:59:07.000",
    "request_status": "Pending",
    "responsible_agency": "Department of Public Works",
    "final_address": "4222 Rayne Dr",
    "address_councildis": "D",
    "status": "Pending",
    "rowid": "1123244",
    "final_x": "3679777.25506",
    "final_y": "547580.015442",
    "longitude": "-90.07295231856841",
    "latitude": "29.999707356318268",
    "geocoded_column": {
      "latitude": "29.999707356318268",
      "longitude": "-90.07295231856841"
    }
  },
  {
    "service_request": "2024-1123243",
    "request_type": "Roads/Drainage",
    "request_reason": "Street Flooding / Drainage",
    "date_created": "2024-08-19T17:58:32.000",
    "date_modified": "2024-08-19T17:58:32.000",
    "request_status": "Pending",
    "responsible_agency": "Department of Public Works",
    "final_address": "6101 Elysian Fields Ave",
    "address_councildis": "D",
    "status": "Pending",
    "rowid": "1123243",
    "final_x": "3683644.72847",
    "final_y": "555428.070169",
    "longitude": "-90.06045942538982",
    "latitude": "30.02116911755832",
    "geocoded_column": {
      "latitude": "30.02116911755832",
      "longitude": "-90.06045942538982"
    }
  },
  {
    "service_request": "2024-1123242",
    "request_type": "Roads/Drainage",
    "request_reason": "Street Flooding / Drainage",
    "date_created": "2024-08-19T17:50:34.000",
    "date_modified": "2024-08-19T17:50:34.000",
    "request_status": "Pending",
    "responsible_agency": "Department of Public Works",
    "final_address": "6101 Elysian Fields Ave",
    "address_councildis": "D",
    "status": "Pending",
    "rowid": "1123242",
    "final_x": "3683644.72847",
    "final_y": "555428.070169",
    "longitude": "-90.06045942538982",
    "latitude": "30.02116911755832",
    "geocoded_column": {
      "latitude": "30.02116911755832",
      "longitude": "-90.06045942538982"
    }
  },
  {
    "service_request": "2024-1123241",
    "request_type": "Trash/Recycling",
    "request_reason": "Request a Large Item Pick Up",
    "date_created": "2024-08-19T17:45:22.000",
    "date_modified": "2024-08-19T17:45:23.000",
    "request_status": "Pending",
    "responsible_agency": "Department of Sanitation",
    "final_address": "2610 Dauphine St",
    "address_councildis": "C",
    "status": "Assigned to Contractor",
    "contractor": "IV Waste",
    "rowid": "1123241",
    "final_x": "3686921.11548",
    "final_y": "535276.37415",
    "longitude": "-90.05081967097989",
    "latitude": "29.965658702160038",
    "geocoded_column": {
      "latitude": "29.965658702160038",
      "longitude": "-90.05081967097989"
    }
  },
  {
    "service_request": "2024-1123240",
    "request_type": "Traffic Signals/Signs/Striping/Streetlights",
    "request_reason": "Street Light Outage/Malfunction",
    "date_created": "2024-08-19T17:39:27.000",
    "date_modified": "2024-08-19T17:39:28.000",
    "request_status": "Pending",
    "responsible_agency": "Department of Public Works",
    "final_address": "4222 Rayne Dr",
    "address_councildis": "D",
    "status": "Assigned to Contractor",
    "contractor": "Legacy Professional Services",
    "rowid": "1123240",
    "final_x": "3679777.25506",
    "final_y": "547580.015442",
    "longitude": "-90.07295231856841",
    "latitude": "29.999707356318268",
    "geocoded_column": {
      "latitude": "29.999707356318268",
      "longitude": "-90.07295231856841"
    }
  },
  {
    "service_request": "2024-1123239",
    "request_type": "Trash/Recycling",
    "request_reason": "MIssed Recycling Pick-Up",
    "date_created": "2024-08-19T17:38:23.000",
    "date_modified": "2024-08-19T17:38:23.000",
    "request_status": "Pending",
    "responsible_agency": "Department of Sanitation",
    "final_address": "2611 Chelsea Dr",
    "address_councildis": "C",
    "status": "Assigned to Contractor",
    "contractor": "Richards Disposal",
    "rowid": "1123239",
    "final_x": "3704169.61482",
    "final_y": "521513.776121",
    "longitude": "-89.99685691815226",
    "latitude": "29.927274327557303",
    "geocoded_column": {
      "latitude": "29.927274327557303",
      "longitude": "-89.99685691815226"
    }
  },
  {
    "service_request": "2024-1123238",
    "request_type": "Roads/Drainage",
    "request_reason": "Damaged Sidewalk",
    "date_created": "2024-08-19T17:38:06.000",
    "date_modified": "2024-08-19T17:38:06.000",
    "request_status": "Pending",
    "responsible_agency": "Department of Public Works",
    "final_address": "2224 Thalia St",
    "address_councildis": "B",
    "status": "Pending",
    "rowid": "1123238",
    "final_x": "3677252.64526",
    "final_y": "527077.745854",
    "longitude": "-90.08163517568008",
    "latitude": "29.943409240792533",
    "geocoded_column": {
      "latitude": "29.943409240792533",
      "longitude": "-90.08163517568008"
    }
  },
  {
    "service_request": "2024-1123237",
    "request_type": "Roads/Drainage",
    "request_reason": "Damaged Sidewalk",
    "date_created": "2024-08-19T17:37:30.000",
    "date_modified": "2024-08-19T17:37:30.000",
    "request_status": "Pending",
    "responsible_agency": "Department of Public Works",
    "final_address": "1401 Simon Bolivar Ave",
    "address_councildis": "B",
    "status": "Pending",
    "rowid": "1123237",
    "final_x": "3677343.08424",
    "final_y": "526954.159358",
    "longitude": "-90.08135389975078",
    "latitude": "29.943066702013905",
    "geocoded_column": {
      "latitude": "29.943066702013905",
      "longitude": "-90.08135389975078"
    }
  },
  {
    "service_request": "2024-1123236",
    "request_type": "Property Maintenance",
    "request_reason": "Property Maintenance",
    "date_created": "2024-08-19T17:31:44.000",
    "date_modified": "2024-08-19T17:31:44.000",
    "request_status": "Pending",
    "responsible_agency": "Department of Code Enforcement",
    "final_address": "1250 N Claiborne Ave",
    "address_councildis": "D",
    "status": "Pending",
    "rowid": "1123236",
    "final_x": "3681279.45864",
    "final_y": "536396.580935",
    "longitude": "-90.06859674849626",
    "latitude": "29.96891130936739",
    "geocoded_column": {
      "latitude": "29.96891130936739",
      "longitude": "-90.06859674849626"
    }
  },
  {
    "service_request": "2024-1123235",
    "request_type": "Trash/Recycling",
    "request_reason": "Order Recycling Cart",
    "date_created": "2024-08-19T17:22:12.000",
    "date_modified": "2024-08-19T17:22:12.000",
    "request_status": "Pending",
    "responsible_agency": "Department of Sanitation",
    "final_address": "2745 Prentiss Ave",
    "address_councildis": "D",
    "status": "Pending",
    "rowid": "1123235",
    "final_x": "3687633.48815",
    "final_y": "554237.924504",
    "longitude": "-90.04789828362192",
    "latitude": "30.017774219173084",
    "geocoded_column": {
      "latitude": "30.017774219173084",
      "longitude": "-90.04789828362192"
    }
  },
  {
    "service_request": "2024-1123234",
    "request_type": "Trash/Recycling",
    "request_reason": "Request a Large Item Pick Up",
    "date_created": "2024-08-19T17:19:33.000",
    "date_modified": "2024-08-19T17:31:35.000",
    "case_close_date": "2024-08-19T12:31:36.000",
    "request_status": "Closed",
    "responsible_agency": "Department of Sanitation",
    "final_address": "4711 Robin Hood Dr",
    "address_councildis": "E",
    "status": "Duplicate Request",
    "contractor": "Waste Pro",
    "contractor_action": "Duplicate",
    "rowid": "1123234",
    "final_x": "3717581.00453",
    "final_y": "556880.380314",
    "longitude": "-89.95317633921175",
    "latitude": "30.02408215890947",
    "geocoded_column": {
      "latitude": "30.02408215890947",
      "longitude": "-89.95317633921175"
    }
  },
  {
    "service_request": "2024-1123233",
    "request_type": "Abandoned Vehicles",
    "request_reason": "Abandoned/Junk Vehicles",
    "date_created": "2024-08-19T17:18:15.000",
    "date_modified": "2024-08-19T17:18:15.000",
    "request_status": "Pending",
    "responsible_agency": "Department of Public Works",
    "final_address": "5017 Wilton Dr",
    "address_councildis": "D",
    "status": "Pending",
    "rowid": "1123233",
    "final_x": "3681927.4653",
    "final_y": "551097.309845",
    "longitude": "-90.06603683498896",
    "latitude": "30.00931344397407",
    "geocoded_column": {
      "latitude": "30.00931344397407",
      "longitude": "-90.06603683498896"
    }
  },
  {
    "service_request": "2024-1123232",
    "request_type": "Trash/Recycling",
    "request_reason": "Request a Large Item Pick Up",
    "date_created": "2024-08-19T17:14:46.000",
    "date_modified": "2024-08-19T17:14:47.000",
    "request_status": "Pending",
    "responsible_agency": "Department of Sanitation",
    "final_address": "4711 Robin Hood Dr",
    "address_councildis": "E",
    "status": "Assigned to Contractor",
    "contractor": "Waste Pro",
    "rowid": "1123232",
    "final_x": "3717581.00453",
    "final_y": "556880.380314",
    "longitude": "-89.95317633921175",
    "latitude": "30.02408215890947",
    "geocoded_column": {
      "latitude": "30.02408215890947",
      "longitude": "-89.95317633921175"
    }
  },
  {
    "service_request": "2024-1123231",
    "request_type": "Traffic Signals/Signs/Striping/Streetlights",
    "request_reason": "Street Light Outage/Malfunction",
    "date_created": "2024-08-19T17:08:27.000",
    "date_modified": "2024-08-19T17:08:28.000",
    "request_status": "Pending",
    "responsible_agency": "Department of Public Works",
    "final_address": "2809 Third St",
    "address_councildis": "B",
    "status": "Assigned to Contractor",
    "contractor": "Legacy Professional Services",
    "rowid": "1123231",
    "final_x": "3674088.85032",
    "final_y": "526535.630462",
    "longitude": "-90.09164265418381",
    "latitude": "29.94201325289607",
    "geocoded_column": {
      "latitude": "29.94201325289607",
      "longitude": "-90.09164265418381"
    }
  },
  {
    "service_request": "2024-1123229",
    "request_type": "Trash/Recycling",
    "request_reason": "Request a Large Item Pick Up",
    "date_created": "2024-08-19T16:55:15.000",
    "date_modified": "2024-08-19T16:55:16.000",
    "request_status": "Pending",
    "responsible_agency": "Department of Sanitation",
    "final_address": "7231 Boston Dr",
    "address_councildis": "E",
    "status": "Assigned to Contractor",
    "contractor": "Waste Pro",
    "rowid": "1123229",
    "final_x": "3706081.2915",
    "final_y": "561501.200671",
    "longitude": "-89.98934170116867",
    "latitude": "30.037163451446105",
    "geocoded_column": {
      "latitude": "30.037163451446105",
      "longitude": "-89.98934170116867"
    }
  },
  {
    "service_request": "2024-1123228",
    "request_type": "Trash/Recycling",
    "request_reason": "Request a Large Item Pick Up",
    "date_created": "2024-08-19T16:51:48.000",
    "date_modified": "2024-08-19T16:51:49.000",
    "request_status": "Pending",
    "responsible_agency": "Department of Sanitation",
    "final_address": "6001 Eastover Dr",
    "address_councildis": "E",
    "status": "Assigned to Contractor",
    "contractor": "Waste Pro",
    "rowid": "1123228",
    "final_x": "3718852.70764",
    "final_y": "565261.171426",
    "longitude": "-89.9488380760335",
    "latitude": "30.047083759291052",
    "geocoded_column": {
      "latitude": "30.047083759291052",
      "longitude": "-89.9488380760335"
    }
  },
  {
    "service_request": "2024-1123227",
    "request_type": "Trash/Recycling",
    "request_reason": "Request a Large Item Pick Up",
    "date_created": "2024-08-19T16:50:59.000",
    "date_modified": "2024-08-19T16:51:00.000",
    "request_status": "Pending",
    "responsible_agency": "Department of Sanitation",
    "final_address": "8828 Stroelitz St",
    "address_councildis": "A",
    "status": "Assigned to Contractor",
    "contractor": "IV Waste",
    "rowid": "1123227",
    "final_x": "3665924.41863",
    "final_y": "536750.517319",
    "longitude": "-90.11707728297503",
    "latitude": "29.970341604157703",
    "geocoded_column": {
      "latitude": "29.970341604157703",
      "longitude": "-90.11707728297503"
    }
  },
  {
    "service_request": "2024-1123226",
    "request_type": "Trash/Recycling",
    "request_reason": "Request a Large Item Pick Up",
    "date_created": "2024-08-19T16:50:10.000",
    "date_modified": "2024-08-19T16:50:11.000",
    "request_status": "Pending",
    "responsible_agency": "Department of Sanitation",
    "final_address": "8820 Stroelitz St",
    "address_councildis": "A",
    "status": "Assigned to Contractor",
    "contractor": "IV Waste",
    "rowid": "1123226",
    "final_x": "3665964.0425",
    "final_y": "536713.997959",
    "longitude": "-90.11695337027624",
    "latitude": "29.970240031509373",
    "geocoded_column": {
      "latitude": "29.970240031509373",
      "longitude": "-90.11695337027624"
    }
  },
  {
    "service_request": "2024-1123225",
    "request_type": "Trash/Recycling",
    "request_reason": "Repair Trash Cart",
    "date_created": "2024-08-19T16:49:06.000",
    "date_modified": "2024-08-19T16:49:07.000",
    "request_status": "Pending",
    "responsible_agency": "Department of Sanitation",
    "final_address": "968 S Telemachus St",
    "address_councildis": "B",
    "status": "Assigned to Contractor",
    "contractor": "IV Waste",
    "rowid": "1123225",
    "final_x": "3669899.94817",
    "final_y": "534027.647749",
    "longitude": "-90.10461430047121",
    "latitude": "29.962737991561422",
    "geocoded_column": {
      "latitude": "29.962737991561422",
      "longitude": "-90.10461430047121"
    }
  },
  {
    "service_request": "2024-1123224",
    "request_type": "Trash/Recycling",
    "request_reason": "Repair Trash Cart",
    "date_created": "2024-08-19T16:48:26.000",
    "date_modified": "2024-08-19T16:48:27.000",
    "request_status": "Pending",
    "responsible_agency": "Department of Sanitation",
    "final_address": "970 S Telemachus St",
    "address_councildis": "B",
    "status": "Assigned to Contractor",
    "contractor": "IV Waste",
    "rowid": "1123224",
    "final_x": "3669891.02529",
    "final_y": "534014.670149",
    "longitude": "-90.10464291728424",
    "latitude": "29.96270257056602",
    "geocoded_column": {
      "latitude": "29.96270257056602",
      "longitude": "-90.10464291728424"
    }
  },
  {
    "service_request": "2024-1123223",
    "request_type": "Traffic Signals/Signs/Striping/Streetlights",
    "request_reason": "Street Light Outage/Malfunction",
    "date_created": "2024-08-19T16:47:09.000",
    "date_modified": "2024-08-19T16:47:10.000",
    "request_status": "Pending",
    "responsible_agency": "Department of Public Works",
    "final_address": "5120 St Ferdinand Dr",
    "address_councildis": "D",
    "status": "Assigned to Contractor",
    "contractor": "Legacy Professional Services",
    "rowid": "1123223",
    "final_x": "3689013.34063",
    "final_y": "552205.817366",
    "longitude": "-90.04361076765944",
    "latitude": "30.012144040499052",
    "geocoded_column": {
      "latitude": "30.012144040499052",
      "longitude": "-90.04361076765944"
    }
  },
  {
    "service_request": "2024-1123221",
    "request_type": "Trash/Recycling",
    "request_reason": "Change Size of Trash Cart",
    "date_created": "2024-08-19T16:40:14.000",
    "date_modified": "2024-08-19T16:40:15.000",
    "request_status": "Pending",
    "responsible_agency": "Department of Sanitation",
    "final_address": "209 Elmira Ave",
    "address_councildis": "C",
    "status": "Assigned to Contractor",
    "contractor": "Richards Disposal",
    "rowid": "1123221",
    "final_x": "3688218.96751",
    "final_y": "531097.519426",
    "longitude": "-90.04686927760743",
    "latitude": "29.954128292501537",
    "geocoded_column": {
      "latitude": "29.954128292501537",
      "longitude": "-90.04686927760743"
    }
  },
  {
    "service_request": "2024-1123220",
    "request_type": "Trash/Recycling",
    "request_reason": "Change Size of Trash Cart",
    "date_created": "2024-08-19T16:36:37.000",
    "date_modified": "2024-08-19T16:36:38.000",
    "request_status": "Pending",
    "responsible_agency": "Department of Sanitation",
    "final_address": "411 Natchez St",
    "address_councildis": "B",
    "status": "Assigned to Contractor",
    "contractor": "Empire Services",
    "rowid": "1123220",
    "final_x": "3681844.61109",
    "final_y": "529330.553473",
    "longitude": "-90.06705856595816",
    "latitude": "29.949464977641632",
    "geocoded_column": {
      "latitude": "29.949464977641632",
      "longitude": "-90.06705856595816"
    }
  },
  {
    "service_request": "2024-1123219",
    "request_type": "Trash/Recycling",
    "request_reason": "Request a Large Item Pick Up",
    "date_created": "2024-08-19T16:33:48.000",
    "date_modified": "2024-08-19T16:33:49.000",
    "request_status": "Pending",
    "responsible_agency": "Department of Sanitation",
    "final_address": "2721 Baronne St",
    "address_councildis": "B",
    "status": "Assigned to Contractor",
    "contractor": "IV Waste",
    "rowid": "1123219",
    "final_x": "3675597.2187",
    "final_y": "523240.372667",
    "longitude": "-90.08699357150044",
    "latitude": "29.93290734208012",
    "geocoded_column": {
      "latitude": "29.93290734208012",
      "longitude": "-90.08699357150044"
    }
  },
  {
    "service_request": "2024-1123217",
    "request_type": "Trash/Recycling",
    "request_reason": "Request a Large Item Pick Up",
    "date_created": "2024-08-19T16:33:22.000",
    "date_modified": "2024-08-19T16:33:23.000",
    "request_status": "Pending",
    "responsible_agency": "Department of Sanitation",
    "final_address": "4826 Stemway Dr",
    "address_councildis": "D",
    "status": "Assigned to Contractor",
    "contractor": "Waste Pro",
    "rowid": "1123217",
    "final_x": "3696802.33955",
    "final_y": "554625.842904",
    "longitude": "-90.01891437108576",
    "latitude": "30.018554837545157",
    "geocoded_column": {
      "latitude": "30.018554837545157",
      "longitude": "-90.01891437108576"
    }
  },
  {
    "service_request": "2024-1123218",
    "request_type": "Trash/Recycling",
    "request_reason": "Request a Large Item Pick Up",
    "date_created": "2024-08-19T16:33:22.000",
    "date_modified": "2024-08-19T16:33:23.000",
    "request_status": "Pending",
    "responsible_agency": "Department of Sanitation",
    "final_address": "714 Topaz St",
    "address_councildis": "D",
    "status": "Assigned to Contractor",
    "contractor": "IV Waste",
    "rowid": "1123218",
    "final_x": "3669815.16257",
    "final_y": "556361.307738",
    "longitude": "-90.1041254617434",
    "latitude": "30.024150357313196",
    "geocoded_column": {
      "latitude": "30.024150357313196",
      "longitude": "-90.1041254617434"
    }
  },
  {
    "service_request": "2024-1123216",
    "request_type": "Property Maintenance",
    "request_reason": "Property Maintenance",
    "date_created": "2024-08-19T16:31:20.000",
    "date_modified": "2024-08-19T16:31:20.000",
    "request_status": "Pending",
    "responsible_agency": "Department of Code Enforcement",
    "final_address": "7313 Chef Menteur Hwy",
    "address_councildis": "E",
    "status": "Pending",
    "rowid": "1123216",
    "final_x": "3702132.30871",
    "final_y": "552491.597206",
    "longitude": "-90.00215206828244",
    "latitude": "30.012517282782703",
    "geocoded_column": {
      "latitude": "30.012517282782703",
      "longitude": "-90.00215206828244"
    }
  },
  {
    "service_request": "2024-1123215",
    "request_type": "Abandoned Vehicles",
    "request_reason": "Abandoned/Junk Vehicles",
    "date_created": "2024-08-19T16:30:05.000",
    "date_modified": "2024-08-19T16:30:05.000",
    "request_status": "Pending",
    "responsible_agency": "Department of Public Works",
    "final_address": "3871 Gentilly Blvd",
    "address_councildis": "D",
    "status": "Pending",
    "rowid": "1123215",
    "final_x": "3688254.92284",
    "final_y": "548866.702803",
    "longitude": "-90.04612544413837",
    "latitude": "30.002986147721362",
    "geocoded_column": {
      "latitude": "30.002986147721362",
      "longitude": "-90.04612544413837"
    }
  },
  {
    "service_request": "2024-1123214",
    "request_type": "Property Maintenance",
    "request_reason": "Property Maintenance",
    "date_created": "2024-08-19T16:28:15.000",
    "date_modified": "2024-08-19T16:28:15.000",
    "request_status": "Pending",
    "responsible_agency": "Department of Code Enforcement",
    "final_address": "5611 Read Blvd",
    "address_councildis": "E",
    "status": "Pending",
    "rowid": "1123214",
    "final_x": "3711940.79518",
    "final_y": "559236.923292",
    "longitude": "-89.97090961711362",
    "latitude": "30.03074731271116",
    "geocoded_column": {
      "latitude": "30.03074731271116",
      "longitude": "-89.97090961711362"
    }
  },
  {
    "service_request": "2024-1123213",
    "request_type": "Abandoned Vehicles",
    "request_reason": "Abandoned/Junk Vehicles",
    "date_created": "2024-08-19T16:25:08.000",
    "date_modified": "2024-08-19T16:25:08.000",
    "request_status": "Pending",
    "responsible_agency": "Department of Public Works",
    "final_address": "3900 St Bernard Ave",
    "address_councildis": "D",
    "status": "Pending",
    "rowid": "1123213",
    "final_x": "3677593.07842",
    "final_y": "546518.145041",
    "longitude": "-90.07988891714871",
    "latitude": "29.996853467281106",
    "geocoded_column": {
      "latitude": "29.996853467281106",
      "longitude": "-90.07988891714871"
    }
  },
  {
    "service_request": "2024-1123212",
    "request_type": "Property Maintenance",
    "request_reason": "Property Maintenance",
    "date_created": "2024-08-19T16:24:34.000",
    "date_modified": "2024-08-19T16:24:34.000",
    "request_status": "Pending",
    "responsible_agency": "Department of Code Enforcement",
    "final_address": "8654 Chef Menteur Hwy",
    "address_councildis": "E",
    "status": "Pending",
    "rowid": "1123212",
    "final_x": "3707561.37931",
    "final_y": "553211.248855",
    "longitude": "-89.9849726144283",
    "latitude": "30.01432150470112",
    "geocoded_column": {
      "latitude": "30.01432150470112",
      "longitude": "-89.9849726144283"
    }
  },
  {
    "service_request": "2024-1123211",
    "request_type": "Property Maintenance",
    "request_reason": "Property Maintenance",
    "date_created": "2024-08-19T16:24:20.000",
    "date_modified": "2024-08-19T16:24:21.000",
    "request_status": "Pending",
    "responsible_agency": "Department of Code Enforcement",
    "final_address": "2623 Jasmine St",
    "address_councildis": "D",
    "status": "Pending",
    "rowid": "1123211",
    "final_x": "3687220.17231",
    "final_y": "548143.775442",
    "longitude": "-90.04941995159851",
    "latitude": "30.001030281232538",
    "geocoded_column": {
      "latitude": "30.001030281232538",
      "longitude": "-90.04941995159851"
    }
  },
  {
    "service_request": "2024-1123210",
    "request_type": "Trash/Recycling",
    "request_reason": "Illegal Dumping",
    "date_created": "2024-08-19T16:21:46.000",
    "date_modified": "2024-08-19T16:21:47.000",
    "request_status": "Pending",
    "responsible_agency": "Department of Sanitation",
    "final_address": "9710 Chef Menteur Hwy",
    "address_councildis": "E",
    "status": "Pending",
    "rowid": "1123210",
    "final_x": "3711488.6291",
    "final_y": "554229.7926",
    "longitude": "-89.97252636777125",
    "latitude": "30.016994447898952",
    "geocoded_column": {
      "latitude": "30.016994447898952",
      "longitude": "-89.97252636777125"
    }
  },
  {
    "service_request": "2024-1123209",
    "request_type": "Property Maintenance",
    "request_reason": "Property Maintenance",
    "date_created": "2024-08-19T16:21:04.000",
    "date_modified": "2024-08-19T16:21:04.000",
    "request_status": "Pending",
    "responsible_agency": "Department of Code Enforcement",
    "final_address": "8337 Cohn St",
    "address_councildis": "A",
    "status": "Pending",
    "rowid": "1123209",
    "final_x": "3662905.50074",
    "final_y": "530902.01197",
    "longitude": "-90.12680588802839",
    "latitude": "29.9543478901814",
    "geocoded_column": {
      "latitude": "29.9543478901814",
      "longitude": "-90.12680588802839"
    }
  },
  {
    "service_request": "2024-1123208",
    "request_type": "Healthy Homes",
    "request_reason": "Healthy Homes",
    "date_created": "2024-08-19T16:18:39.000",
    "date_modified": "2024-08-19T16:19:51.000",
    "request_status": "Pending",
    "responsible_agency": "Department of Code Enforcement",
    "final_address": "8335 Hickory St",
    "address_councildis": "A",
    "status": "Pending",
    "rowid": "1123208",
    "final_x": "3662661.89805",
    "final_y": "530643.60493",
    "longitude": "-90.1275836786205",
    "latitude": "29.953644405092493",
    "geocoded_column": {
      "latitude": "29.953644405092493",
      "longitude": "-90.1275836786205"
    }
  },
  {
    "service_request": "2024-1123207",
    "request_type": "Trash/Recycling",
    "request_reason": "Request a Large Item Pick Up",
    "date_created": "2024-08-19T16:17:51.000",
    "date_modified": "2024-08-19T16:17:52.000",
    "request_status": "Pending",
    "responsible_agency": "Department of Sanitation",
    "final_address": "7434 Pitt St",
    "address_councildis": "A",
    "status": "Assigned to Contractor",
    "contractor": "IV Waste",
    "rowid": "1123207",
    "final_x": "3661109.15795",
    "final_y": "523554.669883",
    "longitude": "-90.13272114701914",
    "latitude": "29.934196924830378",
    "geocoded_column": {
      "latitude": "29.934196924830378",
      "longitude": "-90.13272114701914"
    }
  },
  {
    "service_request": "2024-1123206",
    "request_type": "Trash/Recycling",
    "request_reason": "Repair Trash Cart",
    "date_created": "2024-08-19T16:17:50.000",
    "date_modified": "2024-08-19T16:17:51.000",
    "request_status": "Pending",
    "responsible_agency": "Department of Sanitation",
    "final_address": "410 N White St",
    "address_councildis": "B",
    "status": "Assigned to Contractor",
    "contractor": "IV Waste",
    "rowid": "1123206",
    "final_x": "3675684.61909",
    "final_y": "536455.459399",
    "longitude": "-90.08626360746564",
    "latitude": "29.969241820820294",
    "geocoded_column": {
      "latitude": "29.969241820820294",
      "longitude": "-90.08626360746564"
    }
  },
  {
    "service_request": "2024-1123205",
    "request_type": "Traffic Signals/Signs/Striping/Streetlights",
    "request_reason": "Additional signage",
    "date_created": "2024-08-19T16:14:43.000",
    "date_modified": "2024-08-19T16:14:43.000",
    "request_status": "Pending",
    "responsible_agency": "Department of Public Works",
    "final_address": "1741 Elysian Fields Ave",
    "address_councildis": "D",
    "status": "Pending",
    "rowid": "1123205",
    "final_x": "3684913.93378",
    "final_y": "538859.868041",
    "longitude": "-90.05703221259067",
    "latitude": "29.97557368478291",
    "geocoded_column": {
      "latitude": "29.97557368478291",
      "longitude": "-90.05703221259067"
    }
  },
  {
    "service_request": "2024-1123204",
    "request_type": "Traffic Signals/Signs/Striping/Streetlights",
    "request_reason": "Street Light Outage/Malfunction",
    "date_created": "2024-08-19T16:11:08.000",
    "date_modified": "2024-08-19T16:11:09.000",
    "request_status": "Pending",
    "responsible_agency": "Department of Public Works",
    "final_address": "3424 Camphor St",
    "address_councildis": "A",
    "status": "Assigned to Contractor",
    "contractor": "Legacy Professional Services",
    "rowid": "1123204",
    "final_x": "3663591.35405",
    "final_y": "537934.015241",
    "longitude": "-90.12440595694639",
    "latitude": "29.973663719264934",
    "geocoded_column": {
      "latitude": "29.973663719264934",
      "longitude": "-90.12440595694639"
    }
  },
  {
    "service_request": "2024-1123203",
    "request_type": "Parks & Parkways",
    "request_reason": "Tree Stump (removal, grind)",
    "date_created": "2024-08-19T16:11:04.000",
    "date_modified": "2024-08-19T16:11:04.000",
    "request_status": "Pending",
    "responsible_agency": "Department of Parks & Parkway",
    "final_address": "2115 Camp St",
    "address_councildis": "B",
    "status": "Pending",
    "rowid": "1123203",
    "final_x": "3678820.88757",
    "final_y": "522558.56569",
    "longitude": "-90.07684029102525",
    "latitude": "29.930935788141213",
    "geocoded_column": {
      "latitude": "29.930935788141213",
      "longitude": "-90.07684029102525"
    }
  },
  {
    "service_request": "2024-1123202",
    "request_type": "Trash/Recycling",
    "request_reason": "Replace Trash Cart",
    "date_created": "2024-08-19T16:10:11.000",
    "date_modified": "2024-08-19T16:10:12.000",
    "request_status": "Pending",
    "responsible_agency": "Department of Sanitation",
    "final_address": "1735 Elysian Fields Ave",
    "address_councildis": "D",
    "status": "Assigned to Contractor",
    "contractor": "IV Waste",
    "rowid": "1123202",
    "final_x": "3684928.13173",
    "final_y": "538824.229833",
    "longitude": "-90.05698862537942",
    "latitude": "29.975475257326682",
    "geocoded_column": {
      "latitude": "29.975475257326682",
      "longitude": "-90.05698862537942"
    }
  },
  {
    "service_request": "2024-1123201",
    "request_type": "Trash/Recycling",
    "request_reason": "Replace Trash Cart",
    "date_created": "2024-08-19T16:07:29.000",
    "date_modified": "2024-08-19T16:07:30.000",
    "request_status": "Pending",
    "responsible_agency": "Department of Sanitation",
    "final_address": "801 Carondelet St",
    "address_councildis": "B",
    "status": "Assigned to Contractor",
    "contractor": "Empire Services",
    "rowid": "1123201",
    "final_x": "3679948.12296",
    "final_y": "528079.049279",
    "longitude": "-90.07309009028124",
    "latitude": "29.946081251945472",
    "geocoded_column": {
      "latitude": "29.946081251945472",
      "longitude": "-90.07309009028124"
    }
  },
  {
    "service_request": "2024-1123200",
    "request_type": "Traffic Signals/Signs/Striping/Streetlights",
    "request_reason": "Street Light Outage/Malfunction",
    "date_created": "2024-08-19T16:06:37.000",
    "date_modified": "2024-08-19T16:06:38.000",
    "request_status": "Pending",
    "responsible_agency": "Department of Public Works",
    "final_address": "7201 General Haig St",
    "address_councildis": "D",
    "status": "Assigned to Contractor",
    "contractor": "Legacy Professional Services",
    "rowid": "1123200",
    "final_x": "3671311.55681",
    "final_y": "554609.405528",
    "longitude": "-90.0994567334929",
    "latitude": "30.019289029285687",
    "geocoded_column": {
      "latitude": "30.019289029285687",
      "longitude": "-90.0994567334929"
    }
  },
  {
    "service_request": "2024-1123199",
    "request_type": "Trash/Recycling",
    "request_reason": "Request a Large Item Pick Up",
    "date_created": "2024-08-19T16:03:51.000",
    "date_modified": "2024-08-19T16:03:52.000",
    "request_status": "Pending",
    "responsible_agency": "Department of Sanitation",
    "final_address": "4801 Savoie Ct",
    "address_councildis": "E",
    "status": "Assigned to Contractor",
    "contractor": "Waste Pro",
    "rowid": "1123199",
    "final_x": "3725478.71225",
    "final_y": "560831.549406",
    "longitude": "-89.9280683261349",
    "latitude": "30.0346823308011",
    "geocoded_column": {
      "latitude": "30.0346823308011",
      "longitude": "-89.9280683261349"
    }
  },
  {
    "service_request": "2024-1123197",
    "request_type": "Trash/Recycling",
    "request_reason": "Request a Large Item Pick Up",
    "date_created": "2024-08-19T15:57:37.000",
    "date_modified": "2024-08-19T15:57:38.000",
    "request_status": "Pending",
    "responsible_agency": "Department of Sanitation",
    "final_address": "5360 Chestnut St",
    "address_councildis": "B",
    "status": "Assigned to Contractor",
    "contractor": "IV Waste",
    "rowid": "1123197",
    "final_x": "3667092.52199",
    "final_y": "519384.759735",
    "longitude": "-90.11397189037513",
    "latitude": "29.922557250929447",
    "geocoded_column": {
      "latitude": "29.922557250929447",
      "longitude": "-90.11397189037513"
    }
  },
  {
    "service_request": "2024-1123196",
    "request_type": "Trash/Recycling",
    "request_reason": "Replace Trash Cart",
    "date_created": "2024-08-19T15:56:16.000",
    "date_modified": "2024-08-19T15:56:17.000",
    "request_status": "Pending",
    "responsible_agency": "Department of Sanitation",
    "final_address": "801 Carondelet St",
    "address_councildis": "B",
    "status": "Assigned to Contractor",
    "contractor": "Empire Services",
    "rowid": "1123196",
    "final_x": "3679948.12296",
    "final_y": "528079.049279",
    "longitude": "-90.07309009028124",
    "latitude": "29.946081251945472",
    "geocoded_column": {
      "latitude": "29.946081251945472",
      "longitude": "-90.07309009028124"
    }
  },
  {
    "service_request": "2024-1123195",
    "request_type": "Property Maintenance",
    "request_reason": "Property Maintenance",
    "date_created": "2024-08-19T15:54:31.000",
    "date_modified": "2024-08-19T15:54:31.000",
    "request_status": "Pending",
    "responsible_agency": "Department of Code Enforcement",
    "final_address": "1102 Valence St, New Orleans, Louisiana, 70115",
    "address_councildis": "B",
    "status": "Pending",
    "rowid": "1123195",
    "final_x": "3669814.65114",
    "final_y": "519454.991735",
    "longitude": "-90.10537682290095",
    "latitude": "29.922670433598512",
    "geocoded_column": {
      "latitude": "29.922670433598512",
      "longitude": "-90.10537682290095"
    }
  },
  {
    "service_request": "2024-1123194",
    "request_type": "Trash/Recycling",
    "request_reason": "Repair Trash Cart",
    "date_created": "2024-08-19T15:54:20.000",
    "date_modified": "2024-08-19T15:54:21.000",
    "request_status": "Pending",
    "responsible_agency": "Department of Sanitation",
    "final_address": "8920 Apricot St",
    "address_councildis": "A",
    "status": "Assigned to Contractor",
    "contractor": "IV Waste",
    "rowid": "1123194",
    "final_x": "3663593.82778",
    "final_y": "534611.03175",
    "longitude": "-90.12450886014419",
    "latitude": "29.964526538558847",
    "geocoded_column": {
      "latitude": "29.964526538558847",
      "longitude": "-90.12450886014419"
    }
  },
  {
    "service_request": "2024-1123193",
    "request_type": "Abandoned Vehicles",
    "request_reason": "Abandoned/Junk Vehicles",
    "date_created": "2024-08-19T15:53:38.000",
    "date_modified": "2024-08-19T15:57:39.000",
    "request_status": "Pending",
    "responsible_agency": "Department of Public Works",
    "final_address": "2601 Calhoun St",
    "address_councildis": "A",
    "status": "Pending",
    "rowid": "1123193",
    "final_x": "3666374.15777",
    "final_y": "526372.882942",
    "longitude": "-90.11600513664193",
    "latitude": "29.941793368244124",
    "geocoded_column": {
      "latitude": "29.941793368244124",
      "longitude": "-90.11600513664193"
    }
  },
  {
    "service_request": "2024-1123192",
    "request_type": "Traffic Signals/Signs/Striping/Streetlights",
    "request_reason": "Street Light Outage/Malfunction",
    "date_created": "2024-08-19T15:50:57.000",
    "date_modified": "2024-08-19T15:50:58.000",
    "request_status": "Pending",
    "responsible_agency": "Department of Public Works",
    "final_address": "5327 Eastern St",
    "address_councildis": "D",
    "status": "Assigned to Contractor",
    "contractor": "Legacy Professional Services",
    "rowid": "1123192",
    "final_x": "3687908.11113",
    "final_y": "552539.991702",
    "longitude": "-90.04709080558497",
    "latitude": "30.013097056540513",
    "geocoded_column": {
      "latitude": "30.013097056540513",
      "longitude": "-90.04709080558497"
    }
  },
  {
    "service_request": "2024-1123191",
    "request_type": "Abandoned Vehicles",
    "request_reason": "Abandoned/Junk Vehicles",
    "date_created": "2024-08-19T15:48:34.000",
    "date_modified": "2024-08-19T15:48:34.000",
    "request_status": "Pending",
    "responsible_agency": "Department of Public Works",
    "final_address": "3637 General De Gaulle Dr",
    "address_councildis": "C",
    "status": "Pending",
    "rowid": "1123191",
    "final_x": "3696723.93213",
    "final_y": "520216.56172",
    "longitude": "-90.02040785008792",
    "latitude": "29.92394412366856",
    "geocoded_column": {
      "latitude": "29.92394412366856",
      "longitude": "-90.02040785008792"
    }
  },
  {
    "service_request": "2024-1123190",
    "request_type": "Traffic Signals/Signs/Striping/Streetlights",
    "request_reason": "Street Light Outage/Malfunction",
    "date_created": "2024-08-19T15:48:12.000",
    "date_modified": "2024-08-19T15:48:12.000",
    "request_status": "Pending",
    "responsible_agency": "Department of Public Works",
    "final_address": "5327 Eastern St",
    "address_councildis": "D",
    "status": "Assigned to Contractor",
    "contractor": "Legacy Professional Services",
    "rowid": "1123190",
    "final_x": "3687908.11113",
    "final_y": "552539.991702",
    "longitude": "-90.04709080558497",
    "latitude": "30.013097056540513",
    "geocoded_column": {
      "latitude": "30.013097056540513",
      "longitude": "-90.04709080558497"
    }
  },
  {
    "service_request": "2024-1123189",
    "request_type": "Trash/Recycling",
    "request_reason": "Order Recycling Cart",
    "date_created": "2024-08-19T15:46:25.000",
    "date_modified": "2024-08-19T15:46:25.000",
    "request_status": "Pending",
    "responsible_agency": "Department of Sanitation",
    "final_address": "2825 St Thomas St",
    "address_councildis": "B",
    "status": "Pending",
    "rowid": "1123189",
    "final_x": "3677810.36149",
    "final_y": "519263.320503",
    "longitude": "-90.0801441569464",
    "latitude": "29.921905366347342",
    "geocoded_column": {
      "latitude": "29.921905366347342",
      "longitude": "-90.0801441569464"
    }
  },
  {
    "service_request": "2024-1123188",
    "request_type": "Trash/Recycling",
    "request_reason": "Request a Large Item Pick Up",
    "date_created": "2024-08-19T15:45:32.000",
    "date_modified": "2024-08-19T15:45:33.000",
    "request_status": "Pending",
    "responsible_agency": "Department of Sanitation",
    "final_address": "13221 Lemans St",
    "address_councildis": "E",
    "status": "Assigned to Contractor",
    "contractor": "Waste Pro",
    "rowid": "1123188",
    "final_x": "3724638.03136",
    "final_y": "562923.684384",
    "longitude": "-89.93064402878481",
    "latitude": "30.040463163294447",
    "geocoded_column": {
      "latitude": "30.040463163294447",
      "longitude": "-89.93064402878481"
    }
  },
  {
    "service_request": "2024-1123187",
    "request_type": "Traffic Signals/Signs/Striping/Streetlights",
    "request_reason": "Street Light Outage/Malfunction",
    "date_created": "2024-08-19T15:44:55.000",
    "date_modified": "2024-08-19T15:44:56.000",
    "request_status": "Pending",
    "responsible_agency": "Department of Public Works",
    "final_address": "5327 Eastern St",
    "address_councildis": "D",
    "status": "Assigned to Contractor",
    "contractor": "Legacy Professional Services",
    "rowid": "1123187",
    "final_x": "3687908.11113",
    "final_y": "552539.991702",
    "longitude": "-90.04709080558497",
    "latitude": "30.013097056540513",
    "geocoded_column": {
      "latitude": "30.013097056540513",
      "longitude": "-90.04709080558497"
    }
  },
  {
    "service_request": "2024-1123186",
    "request_type": "Trash/Recycling",
    "request_reason": "Request a Large Item Pick Up",
    "date_created": "2024-08-19T15:42:37.000",
    "date_modified": "2024-08-19T15:42:38.000",
    "request_status": "Pending",
    "responsible_agency": "Department of Sanitation",
    "final_address": "38 Vivian Ct",
    "address_councildis": "C",
    "status": "Assigned to Contractor",
    "contractor": "Richards Disposal",
    "rowid": "1123186",
    "final_x": "3702168.44266",
    "final_y": "521008.574969",
    "longitude": "-90.00319258063631",
    "latitude": "29.925949227839972",
    "geocoded_column": {
      "latitude": "29.925949227839972",
      "longitude": "-90.00319258063631"
    }
  },
  {
    "service_request": "2024-1123185",
    "request_type": "Trash/Recycling",
    "request_reason": "Order Recycling Cart",
    "date_created": "2024-08-19T15:42:24.000",
    "date_modified": "2024-08-19T15:42:25.000",
    "request_status": "Pending",
    "responsible_agency": "Department of Sanitation",
    "final_address": "2336 Lark St",
    "address_councildis": "D",
    "status": "Pending",
    "rowid": "1123185",
    "final_x": "3684371.95593",
    "final_y": "557771.429211",
    "longitude": "-90.05807918824961",
    "latitude": "30.027590255128235",
    "geocoded_column": {
      "latitude": "30.027590255128235",
      "longitude": "-90.05807918824961"
    }
  },
  {
    "service_request": "2024-1123184",
    "request_type": "Trash/Recycling",
    "request_reason": "Order Trash Cart",
    "date_created": "2024-08-19T15:41:59.000",
    "date_modified": "2024-08-19T15:42:00.000",
    "request_status": "Pending",
    "responsible_agency": "Department of Sanitation",
    "final_address": "2336 Lark St",
    "address_councildis": "D",
    "status": "Assigned to Contractor",
    "contractor": "IV Waste",
    "rowid": "1123184",
    "final_x": "3684371.95593",
    "final_y": "557771.429211",
    "longitude": "-90.05807918824961",
    "latitude": "30.027590255128235",
    "geocoded_column": {
      "latitude": "30.027590255128235",
      "longitude": "-90.05807918824961"
    }
  },
  {
    "service_request": "2024-1123183",
    "request_type": "Trash/Recycling",
    "request_reason": "Illegal Dumping",
    "date_created": "2024-08-19T15:40:43.000",
    "date_modified": "2024-08-19T15:40:43.000",
    "request_status": "Pending",
    "responsible_agency": "Department of Sanitation",
    "final_address": "CYPRESS ACRES DR & WESTPARK CT",
    "address_councildis": "C",
    "status": "Pending",
    "rowid": "1123183",
    "final_x": "3696199.6",
    "final_y": "522367.18",
    "longitude": "-90.02198527719017",
    "latitude": "29.929874099909103",
    "geocoded_column": {
      "latitude": "29.929874099909103",
      "longitude": "-90.02198527719017"
    }
  },
  {
    "service_request": "2024-1123182",
    "request_type": "Trash/Recycling",
    "request_reason": "Illegal Dumping",
    "date_created": "2024-08-19T15:37:56.000",
    "date_modified": "2024-08-19T15:37:56.000",
    "request_status": "Pending",
    "responsible_agency": "Department of Sanitation",
    "final_address": "JO ANN PL & MURL ST",
    "address_councildis": "C",
    "status": "Pending",
    "rowid": "1123182",
    "final_x": "3695164.7",
    "final_y": "523168.28",
    "longitude": "-90.02522339316565",
    "latitude": "29.932109377307587",
    "geocoded_column": {
      "latitude": "29.932109377307587",
      "longitude": "-90.02522339316565"
    }
  },
  {
    "service_request": "2024-1123181",
    "request_type": "Trash/Recycling",
    "request_reason": "Order Trash Cart",
    "date_created": "2024-08-19T15:37:36.000",
    "date_modified": "2024-08-19T15:37:37.000",
    "request_status": "Pending",
    "responsible_agency": "Department of Sanitation",
    "final_address": "637 Lizardi St",
    "address_councildis": "E",
    "status": "Assigned to Contractor",
    "contractor": "Waste Pro",
    "rowid": "1123181",
    "final_x": "3696128.41782",
    "final_y": "532592.611012",
    "longitude": "-90.02184052064892",
    "latitude": "29.957992724758384",
    "geocoded_column": {
      "latitude": "29.957992724758384",
      "longitude": "-90.02184052064892"
    }
  },
  {
    "service_request": "2024-1123180",
    "request_type": "Roads/Drainage",
    "request_reason": "Pothole",
    "date_created": "2024-08-19T15:34:26.000",
    "date_modified": "2024-08-19T15:34:26.000",
    "request_status": "Pending",
    "responsible_agency": "Department of Public Works",
    "final_address": "MURL ST & LAWRENCE ST",
    "address_councildis": "C",
    "status": "Pending",
    "rowid": "1123180",
    "final_x": "3695379.0",
    "final_y": "525516.28",
    "longitude": "-90.02446220258732",
    "latitude": "29.938558842401033",
    "geocoded_column": {
      "latitude": "29.938558842401033",
      "longitude": "-90.02446220258732"
    }
  },
  {
    "service_request": "2024-1123179",
    "request_type": "Trash/Recycling",
    "request_reason": "Illegal Dumping",
    "date_created": "2024-08-19T15:32:50.000",
    "date_modified": "2024-08-19T15:32:50.000",
    "request_status": "Pending",
    "responsible_agency": "Department of Sanitation",
    "final_address": "5327 Eastern St",
    "address_councildis": "D",
    "status": "Pending",
    "rowid": "1123179",
    "final_x": "3687908.11113",
    "final_y": "552539.991702",
    "longitude": "-90.04709080558497",
    "latitude": "30.013097056540513",
    "geocoded_column": {
      "latitude": "30.013097056540513",
      "longitude": "-90.04709080558497"
    }
  },
  {
    "service_request": "2024-1123178",
    "request_type": "Abandoned Vehicles",
    "request_reason": "Abandoned/Junk Vehicles",
    "date_created": "2024-08-19T15:31:27.000",
    "date_modified": "2024-08-19T15:31:27.000",
    "request_status": "Pending",
    "responsible_agency": "Department of Public Works",
    "final_address": "JO ANN PL & MURL ST",
    "address_councildis": "C",
    "status": "Pending",
    "rowid": "1123178",
    "final_x": "3695164.7",
    "final_y": "523168.28",
    "longitude": "-90.02522339316565",
    "latitude": "29.932109377307587",
    "geocoded_column": {
      "latitude": "29.932109377307587",
      "longitude": "-90.02522339316565"
    }
  },
  {
    "service_request": "2024-1123177",
    "request_type": "Utility Poles",
    "request_reason": "Utility Pole Leaning",
    "date_created": "2024-08-19T15:31:01.000",
    "date_modified": "2024-08-19T15:35:59.000",
    "request_status": "Pending",
    "responsible_agency": "Utility Company Collective",
    "final_address": "1401 Behrman Ave",
    "address_councildis": "C",
    "status": "Pending",
    "rowid": "1123177",
    "final_x": "3691315.67113",
    "final_y": "526226.773182",
    "longitude": "-90.0372651352375",
    "latitude": "29.940639455275797",
    "geocoded_column": {
      "latitude": "29.940639455275797",
      "longitude": "-90.0372651352375"
    }
  },
  {
    "service_request": "2024-1123176",
    "request_type": "Abandoned Vehicles",
    "request_reason": "Abandoned/Junk Vehicles",
    "date_created": "2024-08-19T15:31:00.000",
    "date_modified": "2024-08-19T15:31:00.000",
    "request_status": "Pending",
    "responsible_agency": "Department of Public Works",
    "final_address": "JO ANN PL & MURL ST",
    "address_councildis": "C",
    "status": "Pending",
    "rowid": "1123176",
    "final_x": "3695164.7",
    "final_y": "523168.28",
    "longitude": "-90.02522339316565",
    "latitude": "29.932109377307587",
    "geocoded_column": {
      "latitude": "29.932109377307587",
      "longitude": "-90.02522339316565"
    }
  },
  {
    "service_request": "2024-1123175",
    "request_type": "Traffic Signals/Signs/Striping/Streetlights",
    "request_reason": "Street Light Outage/Malfunction",
    "date_created": "2024-08-19T15:27:28.000",
    "date_modified": "2024-08-19T15:27:29.000",
    "request_status": "Pending",
    "responsible_agency": "Department of Public Works",
    "final_address": "3015 Frenchmen St",
    "address_councildis": "D",
    "status": "Assigned to Contractor",
    "contractor": "Legacy Professional Services",
    "rowid": "1123175",
    "final_x": "3684032.09199",
    "final_y": "543791.564878",
    "longitude": "-90.05964417238299",
    "latitude": "29.98916109486121",
    "geocoded_column": {
      "latitude": "29.98916109486121",
      "longitude": "-90.05964417238299"
    }
  },
  {
    "service_request": "2024-1123174",
    "request_type": "Roads/Drainage",
    "request_reason": "Pothole",
    "date_created": "2024-08-19T15:27:18.000",
    "date_modified": "2024-08-19T15:27:18.000",
    "request_status": "Pending",
    "responsible_agency": "Department of Public Works",
    "final_address": "COPERNICUS ST & MURL ST",
    "address_councildis": "C",
    "status": "Pending",
    "rowid": "1123174",
    "final_x": "3695397.6",
    "final_y": "524168.58",
    "longitude": "-90.02445208311913",
    "latitude": "29.934852546596982",
    "geocoded_column": {
      "latitude": "29.934852546596982",
      "longitude": "-90.02445208311913"
    }
  },
  {
    "service_request": "2024-1123173",
    "request_type": "Roads/Drainage",
    "request_reason": "Pothole",
    "date_created": "2024-08-19T15:24:53.000",
    "date_modified": "2024-08-19T15:24:53.000",
    "request_status": "Pending",
    "responsible_agency": "Department of Public Works",
    "final_address": "3011 Sandra Dr",
    "address_councildis": "C",
    "status": "Pending",
    "rowid": "1123173",
    "final_x": "3695299.44227",
    "final_y": "521715.040505",
    "longitude": "-90.02485041652142",
    "latitude": "29.92810923444482",
    "geocoded_column": {
      "latitude": "29.92810923444482",
      "longitude": "-90.02485041652142"
    }
  },
  {
    "service_request": "2024-1123172",
    "request_type": "Abandoned Vehicles",
    "request_reason": "Abandoned/Junk Vehicles",
    "date_created": "2024-08-19T15:24:07.000",
    "date_modified": "2024-08-19T15:24:08.000",
    "request_status": "Pending",
    "responsible_agency": "Department of Public Works",
    "final_address": "1020 Reynes St",
    "address_councildis": "E",
    "status": "Pending",
    "rowid": "1123172",
    "final_x": "3695847.58998",
    "final_y": "534034.089477",
    "longitude": "-90.02267522643442",
    "latitude": "29.961965116792644",
    "geocoded_column": {
      "latitude": "29.961965116792644",
      "longitude": "-90.02267522643442"
    }
  },
  {
    "service_request": "2024-1123170",
    "request_type": "Trash/Recycling",
    "request_reason": "Request a Large Item Pick Up",
    "date_created": "2024-08-19T15:15:48.000",
    "date_modified": "2024-08-19T15:15:49.000",
    "request_status": "Pending",
    "responsible_agency": "Department of Sanitation",
    "final_address": "4850 Gabriel Dr",
    "address_councildis": "E",
    "status": "Assigned to Contractor",
    "contractor": "Waste Pro",
    "rowid": "1123170",
    "final_x": "3708756.32318",
    "final_y": "556442.491162",
    "longitude": "-89.98107673968784",
    "latitude": "30.02316744748321",
    "geocoded_column": {
      "latitude": "30.02316744748321",
      "longitude": "-89.98107673968784"
    }
  },
  {
    "service_request": "2024-1123169",
    "request_type": "Trash/Recycling",
    "request_reason": "Request a Large Item Pick Up",
    "date_created": "2024-08-19T15:15:11.000",
    "date_modified": "2024-08-19T15:28:54.000",
    "request_status": "Pending",
    "responsible_agency": "Department of Sanitation",
    "final_address": "6123 Marigny St",
    "address_councildis": "D",
    "status": "Assigned to Contractor",
    "contractor": "IV Waste",
    "rowid": "1123169",
    "final_x": "3683964.3325",
    "final_y": "555568.842585",
    "longitude": "-90.05944462276713",
    "latitude": "30.021546423777597",
    "geocoded_column": {
      "latitude": "30.021546423777597",
      "longitude": "-90.05944462276713"
    }
  },
  {
    "service_request": "2024-1123168",
    "request_type": "Trash/Recycling",
    "request_reason": "Request a Large Item Pick Up",
    "date_created": "2024-08-19T15:14:23.000",
    "date_modified": "2024-08-19T15:14:24.000",
    "request_status": "Pending",
    "responsible_agency": "Department of Sanitation",
    "final_address": "7717 Edward St",
    "address_councildis": "E",
    "status": "Assigned to Contractor",
    "contractor": "Waste Pro",
    "rowid": "1123168",
    "final_x": "3700993.3265",
    "final_y": "561272.282974",
    "longitude": "-90.00542909566802",
    "latitude": "30.03669712824314",
    "geocoded_column": {
      "latitude": "30.03669712824314",
      "longitude": "-90.00542909566802"
    }
  },
  {
    "service_request": "2024-1123167",
    "request_type": "Roads/Drainage",
    "request_reason": "Pothole",
    "date_created": "2024-08-19T15:14:02.000",
    "date_modified": "2024-08-19T15:14:02.000",
    "request_status": "Pending",
    "responsible_agency": "Department of Public Works",
    "final_address": "3015 Frenchmen St",
    "address_councildis": "D",
    "status": "Pending",
    "rowid": "1123167",
    "final_x": "3684032.09199",
    "final_y": "543791.564878",
    "longitude": "-90.05964417238299",
    "latitude": "29.98916109486121",
    "geocoded_column": {
      "latitude": "29.98916109486121",
      "longitude": "-90.05964417238299"
    }
  },
  {
    "service_request": "2024-1123166",
    "request_type": "Traffic Signals/Signs/Striping/Streetlights",
    "request_reason": "Street Light Outage/Malfunction",
    "date_created": "2024-08-19T15:13:38.000",
    "date_modified": "2024-08-19T15:13:39.000",
    "request_status": "Pending",
    "responsible_agency": "Department of Public Works",
    "final_address": "560 Lowerline St",
    "address_councildis": "A",
    "status": "Assigned to Contractor",
    "contractor": "Legacy Professional Services",
    "rowid": "1123166",
    "final_x": "3662366.36307",
    "final_y": "524946.884413",
    "longitude": "-90.12870596652317",
    "latitude": "29.937988793254945",
    "geocoded_column": {
      "latitude": "29.937988793254945",
      "longitude": "-90.12870596652317"
    }
  },
  {
    "service_request": "2024-1123165",
    "request_type": "Trash/Recycling",
    "request_reason": "Request a Large Item Pick Up",
    "date_created": "2024-08-19T15:09:53.000",
    "date_modified": "2024-08-19T15:09:54.000",
    "request_status": "Pending",
    "responsible_agency": "Department of Sanitation",
    "final_address": "7015 Lake Willow Dr",
    "address_councildis": "E",
    "status": "Assigned to Contractor",
    "contractor": "Waste Pro",
    "rowid": "1123165",
    "final_x": "3702522.84855",
    "final_y": "558959.186396",
    "longitude": "-90.00068053410376",
    "latitude": "30.030288186723276",
    "geocoded_column": {
      "latitude": "30.030288186723276",
      "longitude": "-90.00068053410376"
    }
  },
  {
    "service_request": "2024-1123163",
    "request_type": "Traffic Signals/Signs/Striping/Streetlights",
    "request_reason": "Traffic Sign Missing/Damaged",
    "date_created": "2024-08-19T15:05:13.000",
    "date_modified": "2024-08-19T15:05:13.000",
    "request_status": "Pending",
    "responsible_agency": "Department of Public Works",
    "final_address": "3014 Frenchmen St",
    "address_councildis": "D",
    "status": "Pending",
    "rowid": "1123163",
    "final_x": "3683926.91932",
    "final_y": "543753.614094",
    "longitude": "-90.05997771355025",
    "latitude": "29.989059957782388",
    "geocoded_column": {
      "latitude": "29.989059957782388",
      "longitude": "-90.05997771355025"
    }
  },
  {
    "service_request": "2024-1123164",
    "request_type": "Trash/Recycling",
    "request_reason": "Request a Large Item Pick Up",
    "date_created": "2024-08-19T15:05:13.000",
    "date_modified": "2024-08-19T15:05:49.000",
    "request_status": "Pending",
    "responsible_agency": "Department of Sanitation",
    "final_address": "1407 Napoleon Ave Apt 1",
    "address_councildis": "B",
    "status": "Assigned to Contractor",
    "contractor": "IV Waste",
    "rowid": "1123164",
    "final_x": "3670983.43854",
    "final_y": "520446.53644",
    "longitude": "-90.10165377376308",
    "latitude": "29.925362372718226",
    "geocoded_column": {
      "latitude": "29.925362372718226",
      "longitude": "-90.10165377376308"
    }
  },
  {
    "service_request": "2024-1123162",
    "request_type": "Parks & Parkways",
    "request_reason": "Request Tree Service (Right of Way/Public Property)",
    "date_created": "2024-08-19T15:02:52.000",
    "date_modified": "2024-08-19T15:02:54.000",
    "request_status": "Pending",
    "responsible_agency": "Department of Parks & Parkway",
    "final_address": "UPPERLINE ST & CARONDELET ST",
    "address_councildis": "B",
    "status": "Pending",
    "rowid": "1123162",
    "final_x": "3669070.8",
    "final_y": "521066.78",
    "longitude": "-90.10767044963337",
    "latitude": "29.9271242378925",
    "geocoded_column": {
      "latitude": "29.9271242378925",
      "longitude": "-90.10767044963337"
    }
  },
  {
    "service_request": "2024-1123161",
    "request_type": "Roads/Drainage",
    "request_reason": "Street Flooding / Drainage",
    "date_created": "2024-08-19T15:02:10.000",
    "date_modified": "2024-08-19T15:02:10.000",
    "request_status": "Pending",
    "responsible_agency": "Department of Public Works",
    "final_address": "3651 Rue Delphine",
    "address_councildis": "C",
    "status": "Pending",
    "rowid": "1123161",
    "final_x": "3702975.40465",
    "final_y": "517120.951925",
    "longitude": "-90.00078797501861",
    "latitude": "29.915233822022515",
    "geocoded_column": {
      "latitude": "29.915233822022515",
      "longitude": "-90.00078797501861"
    }
  },
  {
    "service_request": "2024-1123160",
    "request_type": "Mosquito, Termite & Rodent Control",
    "request_reason": "Mosquito Complaint",
    "date_created": "2024-08-19T14:59:15.000",
    "date_modified": "2024-08-19T15:00:55.000",
    "request_status": "Pending",
    "responsible_agency": "Mosquito, Termite & Rodent Control Board",
    "final_address": "2608 Fourth St",
    "address_councildis": "B",
    "status": "Pending",
    "rowid": "1123160",
    "final_x": "3674108.93307",
    "final_y": "525785.346941",
    "longitude": "-90.09160491892345",
    "latitude": "29.93994962050034",
    "geocoded_column": {
      "latitude": "29.93994962050034",
      "longitude": "-90.09160491892345"
    }
  },
  {
    "service_request": "2024-1123159",
    "request_type": "Trash/Recycling",
    "request_reason": "Repair Trash Cart",
    "date_created": "2024-08-19T14:58:52.000",
    "date_modified": "2024-08-19T14:58:53.000",
    "request_status": "Pending",
    "responsible_agency": "Department of Sanitation",
    "final_address": "4750 Read Blvd",
    "address_councildis": "E",
    "status": "Assigned to Contractor",
    "contractor": "Waste Pro",
    "rowid": "1123159",
    "final_x": "3712659.25381",
    "final_y": "556254.207834",
    "longitude": "-89.96875154276063",
    "latitude": "30.022522516677444",
    "geocoded_column": {
      "latitude": "30.022522516677444",
      "longitude": "-89.96875154276063"
    }
  },
  {
    "service_request": "2024-1123158",
    "request_type": "Trash/Recycling",
    "request_reason": "Request a Large Item Pick Up",
    "date_created": "2024-08-19T14:57:07.000",
    "date_modified": "2024-08-19T14:57:08.000",
    "request_status": "Pending",
    "responsible_agency": "Department of Sanitation",
    "final_address": "4502 Wilson Ave",
    "address_councildis": "E",
    "status": "Assigned to Contractor",
    "contractor": "Waste Pro",
    "rowid": "1123158",
    "final_x": "3703087.76503",
    "final_y": "553591.631959",
    "longitude": "-89.99909290959688",
    "latitude": "30.01551140307732",
    "geocoded_column": {
      "latitude": "30.01551140307732",
      "longitude": "-89.99909290959688"
    }
  },
  {
    "service_request": "2024-1123156",
    "request_type": "Parks & Parkways",
    "request_reason": "Request Tree Service (Right of Way/Public Property)",
    "date_created": "2024-08-19T14:53:23.000",
    "date_modified": "2024-08-19T14:53:23.000",
    "request_status": "Pending",
    "responsible_agency": "Department of Parks & Parkway",
    "final_address": "908 Fern St",
    "address_councildis": "A",
    "status": "Pending",
    "rowid": "1123156",
    "final_x": "3661854.66298",
    "final_y": "527171.849215",
    "longitude": "-90.13024770251916",
    "latitude": "29.944121521820318",
    "geocoded_column": {
      "latitude": "29.944121521820318",
      "longitude": "-90.13024770251916"
    }
  },
  {
    "service_request": "2024-1123155",
    "request_type": "Abandoned Vehicles",
    "request_reason": "Vehicle Blocking Your Driveway",
    "date_created": "2024-08-19T14:52:34.000",
    "date_modified": "2024-08-19T14:52:35.000",
    "request_status": "Pending",
    "responsible_agency": "Department of Public Works",
    "final_address": "2718 Milan St",
    "address_councildis": "B",
    "status": "Pending",
    "rowid": "1123155",
    "final_x": "3671157.69185",
    "final_y": "524958.322685",
    "longitude": "-90.10095052942285",
    "latitude": "29.937763182334972",
    "geocoded_column": {
      "latitude": "29.937763182334972",
      "longitude": "-90.10095052942285"
    }
  },
  {
    "service_request": "2024-1123154",
    "request_type": "Property Maintenance",
    "request_reason": "Property Maintenance",
    "date_created": "2024-08-19T14:47:46.000",
    "date_modified": "2024-08-19T14:47:47.000",
    "request_status": "Pending",
    "responsible_agency": "Department of Code Enforcement",
    "final_address": "TOLEDANO ST & S DORGENOIS ST",
    "address_councildis": "B",
    "status": "Pending",
    "rowid": "1123154",
    "final_x": "3671412.8",
    "final_y": "529135.98",
    "longitude": "-90.10000316844427",
    "latitude": "29.949242830231714",
    "geocoded_column": {
      "latitude": "29.949242830231714",
      "longitude": "-90.10000316844427"
    }
  },
  {
    "service_request": "2024-1123153",
    "request_type": "Abandoned Vehicles",
    "request_reason": "Abandoned/Junk Vehicles",
    "date_created": "2024-08-19T14:47:09.000",
    "date_modified": "2024-08-19T14:47:10.000",
    "request_status": "Pending",
    "responsible_agency": "Department of Public Works",
    "final_address": "2340 Constance St",
    "address_councildis": "B",
    "status": "Pending",
    "rowid": "1123153",
    "final_x": "3678509.87899",
    "final_y": "521311.979065",
    "longitude": "-90.07786522082498",
    "latitude": "29.927517456207898",
    "geocoded_column": {
      "latitude": "29.927517456207898",
      "longitude": "-90.07786522082498"
    }
  },
  {
    "service_request": "2024-1123152",
    "request_type": "Traffic Signals/Signs/Striping/Streetlights",
    "request_reason": "Street Light Outage/Malfunction",
    "date_created": "2024-08-19T14:44:33.000",
    "date_modified": "2024-08-19T14:44:35.000",
    "request_status": "Pending",
    "responsible_agency": "Department of Public Works",
    "final_address": "3931 Louisiana Avenue Prkwy",
    "address_councildis": "B",
    "status": "Assigned to Contractor",
    "contractor": "Legacy Professional Services",
    "rowid": "1123152",
    "final_x": "3671165.69748",
    "final_y": "529259.999553",
    "longitude": "-90.1007791700258",
    "latitude": "29.949591154267402",
    "geocoded_column": {
      "latitude": "29.949591154267402",
      "longitude": "-90.1007791700258"
    }
  },
  {
    "service_request": "2024-1123151",
    "request_type": "Trash/Recycling",
    "request_reason": "Repair Trash Cart",
    "date_created": "2024-08-19T14:44:02.000",
    "date_modified": "2024-08-19T14:44:03.000",
    "request_status": "Pending",
    "responsible_agency": "Department of Sanitation",
    "final_address": "4458 Arts St",
    "address_councildis": "D",
    "status": "Assigned to Contractor",
    "contractor": "IV Waste",
    "rowid": "1123151",
    "final_x": "3685970.1773",
    "final_y": "549295.908115",
    "longitude": "-90.0533281208928",
    "latitude": "30.00423668195531",
    "geocoded_column": {
      "latitude": "30.00423668195531",
      "longitude": "-90.0533281208928"
    }
  },
  {
    "service_request": "2024-1123150",
    "request_type": "Property Maintenance",
    "request_reason": "Property Maintenance",
    "date_created": "2024-08-19T14:43:33.000",
    "date_modified": "2024-08-19T14:43:34.000",
    "request_status": "Pending",
    "responsible_agency": "Department of Code Enforcement",
    "final_address": "8919 Forshey St",
    "address_councildis": "A",
    "status": "Pending",
    "rowid": "1123150",
    "final_x": "3664803.75936",
    "final_y": "535975.359751",
    "longitude": "-90.12064237164958",
    "latitude": "29.968242837626313",
    "geocoded_column": {
      "latitude": "29.968242837626313",
      "longitude": "-90.12064237164958"
    }
  },
  {
    "service_request": "2024-1123149",
    "request_type": "Parks & Parkways",
    "request_reason": "Request Tree Service (Right of Way/Public Property)",
    "date_created": "2024-08-19T14:42:47.000",
    "date_modified": "2024-08-19T14:42:47.000",
    "request_status": "Pending",
    "responsible_agency": "Department of Parks & Parkway",
    "final_address": "2506 State St",
    "address_councildis": "A",
    "status": "Pending",
    "rowid": "1123149",
    "final_x": "3666764.6258",
    "final_y": "525833.862077",
    "longitude": "-90.11479044170633",
    "latitude": "29.94029982196915",
    "geocoded_column": {
      "latitude": "29.94029982196915",
      "longitude": "-90.11479044170633"
    }
  },
  {
    "service_request": "2024-1123148",
    "request_type": "Trash/Recycling",
    "request_reason": "Change Size of Trash Cart",
    "date_created": "2024-08-19T14:42:07.000",
    "date_modified": "2024-08-19T14:42:08.000",
    "request_status": "Pending",
    "responsible_agency": "Department of Sanitation",
    "final_address": "2639 Elder St",
    "address_councildis": "D",
    "status": "Assigned to Contractor",
    "contractor": "IV Waste",
    "rowid": "1123148",
    "final_x": "3687578.97762",
    "final_y": "545847.0756",
    "longitude": "-90.04836782328536",
    "latitude": "29.994704126673",
    "geocoded_column": {
      "latitude": "29.994704126673",
      "longitude": "-90.04836782328536"
    }
  },
  {
    "service_request": "2024-1123147",
    "request_type": "Abandoned Vehicles",
    "request_reason": "Abandoned/Junk Vehicles",
    "date_created": "2024-08-19T14:37:25.000",
    "date_modified": "2024-08-19T14:38:47.000",
    "request_status": "Pending",
    "responsible_agency": "Department of Public Works",
    "final_address": "5737 Pasteur Blvd",
    "address_councildis": "D",
    "status": "Pending",
    "rowid": "1123147",
    "final_x": "3682913.96348",
    "final_y": "554246.623256",
    "longitude": "-90.06280982745463",
    "latitude": "30.017942872380015",
    "geocoded_column": {
      "latitude": "30.017942872380015",
      "longitude": "-90.06280982745463"
    }
  },
  {
    "service_request": "2024-1123146",
    "request_type": "Trash/Recycling",
    "request_reason": "Illegal Dumping",
    "date_created": "2024-08-19T14:33:02.000",
    "date_modified": "2024-08-19T14:33:03.000",
    "request_status": "Pending",
    "responsible_agency": "Department of Sanitation",
    "final_address": "MONTICELLO AVE & PRITCHARD PL",
    "address_councildis": "A",
    "status": "Pending",
    "rowid": "1123146",
    "final_x": "3662609.3",
    "final_y": "536032.98",
    "longitude": "-90.12757068855134",
    "latitude": "29.968464952479756",
    "geocoded_column": {
      "latitude": "29.968464952479756",
      "longitude": "-90.12757068855134"
    }
  },
  {
    "service_request": "2024-1123145",
    "request_type": "Abandoned Vehicles",
    "request_reason": "Abandoned/Junk Vehicles",
    "date_created": "2024-08-19T14:31:04.000",
    "date_modified": "2024-08-19T14:31:04.000",
    "request_status": "Pending",
    "responsible_agency": "Department of Public Works",
    "final_address": "400 BLK Mandeville St",
    "address_councildis": "C",
    "status": "Inspected",
    "rowid": "1123145",
    "final_x": "3685960.74484",
    "final_y": "534072.871931",
    "longitude": "-90.05389491563949",
    "latitude": "29.962379009340307",
    "geocoded_column": {
      "latitude": "29.962379009340307",
      "longitude": "-90.05389491563949"
    }
  },
  {
    "service_request": "2024-1123144",
    "request_type": "Trash/Recycling",
    "request_reason": "Illegal Dumping",
    "date_created": "2024-08-19T14:29:34.000",
    "date_modified": "2024-08-19T14:29:34.000",
    "request_status": "Pending",
    "responsible_agency": "Department of Sanitation",
    "final_address": "WINSTON ST & BARBER ST",
    "address_councildis": "C",
    "status": "Pending",
    "rowid": "1123144",
    "final_x": "3711180.0",
    "final_y": "519091.78",
    "longitude": "-89.97481777333465",
    "latitude": "29.92038799956783",
    "geocoded_column": {
      "latitude": "29.92038799956783",
      "longitude": "-89.97481777333465"
    }
  },