[
  {
    "service_request": "2022-883030",
    "request_type": "Traffic Signals/Signs/Striping/Streetlights",
    "request_reason": "Street Light Outage/Malfunction",
    "date_created": "2022-05-14T00:50:49.000",
    "date_modified": "2022-05-14T00:50:50.000",
    "request_status": "Pending",
    "responsible_agency": "Department of Public Works",
    "final_address": "1505 Marais St",
    "address_councildis": "C",
    "status": "Pending",
    "contractor": "Royal Engineering",
    "rowid": "883030",
    "final_x": "3682696.47708",
    "final_y": "536447.320711",
    "longitude": "-90.0641199427684",
    "latitude": "29.969007744058885",
    "geocoded_column": {
      "latitude": "29.969007744058885",
      "longitude": "-90.0641199427684"
    }
  },
  {
    "service_request": "2022-883029",
    "request_type": "Traffic Signals/Signs/Striping/Streetlights",
    "request_reason": "Street Light Outage/Malfunction",
    "date_created": "2022-05-14T00:20:25.000",
    "date_modified": "2022-05-14T00:20:26.000",
    "request_status": "Pending",
    "responsible_agency": "Department of Public Works",
    "final_address": "4047 S Carrollton Ave",
    "address_councildis": "A",
    "status": "Pending",
    "contractor": "Royal Engineering",
    "rowid": "883029",
    "final_x": "3669005.90439",
    "final_y": "536217.497991",
    "longitude": "-90.10736359369758",
    "latitude": "29.968785682007738",
    "geocoded_column": {
      "latitude": "29.968785682007738",
      "longitude": "-90.10736359369758"
    }
  },
  {
    "service_request": "2022-883028",
    "request_type": "Traffic Signals/Signs/Striping/Streetlights",
    "request_reason": "Street Light Outage/Malfunction",
    "date_created": "2022-05-14T00:18:53.000",
    "date_modified": "2022-05-14T00:18:54.000",
    "request_status": "Pending",
    "responsible_agency": "Department of Public Works",
    "final_address": "4047 S Carrollton Ave",
    "address_councildis": "A",
    "status": "Pending",
    "contractor": "Royal Engineering",
    "rowid": "883028",
    "final_x": "3669005.90439",
    "final_y": "536217.497991",
    "longitude": "-90.10736359369758",
    "latitude": "29.968785682007738",
    "geocoded_column": {
      "latitude": "29.968785682007738",
      "longitude": "-90.10736359369758"
    }
  },
  {
    "service_request": "2022-883027",
    "request_type": "Traffic Signals/Signs/Striping/Streetlights",
    "request_reason": "Street Light Outage/Malfunction",
    "date_created": "2022-05-14T00:16:36.000",
    "date_modified": "2022-05-14T00:16:37.000",
    "request_status": "Pending",
    "responsible_agency": "Department of Public Works",
    "final_address": "4047 S Carrollton Ave",
    "address_councildis": "A",
    "status": "Pending",
    "contractor": "Royal Engineering",
    "rowid": "883027",
    "final_x": "3669005.90439",
    "final_y": "536217.497991",
    "longitude": "-90.10736359369758",
    "latitude": "29.968785682007738",
    "geocoded_column": {
      "latitude": "29.968785682007738",
      "longitude": "-90.10736359369758"
    }
  },
  {
    "service_request": "2022-883026",
    "request_type": "Traffic Signals/Signs/Striping/Streetlights",
    "request_reason": "Street Light Outage/Malfunction",
    "date_created": "2022-05-14T00:14:06.000",
    "date_modified": "2022-05-14T00:14:07.000",
    "request_status": "Pending",
    "responsible_agency": "Department of Public Works",
    "final_address": "4047 S Carrollton Ave",
    "address_councildis": "A",
    "status": "Pending",
    "contractor": "Royal Engineering",
    "rowid": "883026",
    "final_x": "3669005.90439",
    "final_y": "536217.497991",
    "longitude": "-90.10736359369758",
    "latitude": "29.968785682007738",
    "geocoded_column": {
      "latitude": "29.968785682007738",
      "longitude": "-90.10736359369758"
    }
  },
  {
    "service_request": "2022-883025",
    "request_type": "Traffic Signals/Signs/Striping/Streetlights",
    "request_reason": "Street Light Outage/Malfunction",
    "date_created": "2022-05-14T00:11:12.000",
    "date_modified": "2022-05-14T00:11:13.000",
    "request_status": "Pending",
    "responsible_agency": "Department of Public Works",
    "final_address": "4047 S Carrollton Ave",
    "address_councildis": "A",
    "status": "Pending",
    "contractor": "Royal Engineering",
    "rowid": "883025",
    "final_x": "3669005.90439",
    "final_y": "536217.497991",
    "longitude": "-90.10736359369758",
    "latitude": "29.968785682007738",
    "geocoded_column": {
      "latitude": "29.968785682007738",
      "longitude": "-90.10736359369758"
    }
  },
  {
    "service_request": "2022-883024",
    "request_type": "Traffic Signals/Signs/Striping/Streetlights",
    "request_reason": "Street Light Outage/Malfunction",
    "date_created": "2022-05-14T00:02:48.000",
    "date_modified": "2022-05-14T00:02:49.000",
    "request_status": "Pending",
    "responsible_agency": "Department of Public Works",
    "final_address": "4047 S Carrollton Ave",
    "address_councildis": "A",
    "status": "Pending",
    "contractor": "Royal Engineering",
    "rowid": "883024",
    "final_x": "3669005.90439",
    "final_y": "536217.497991",
    "longitude": "-90.10736359369758",
    "latitude": "29.968785682007738",
    "geocoded_column": {
      "latitude": "29.968785682007738",
      "longitude": "-90.10736359369758"
    }
  },
  {
    "service_request": "2022-883023",
    "request_type": "Traffic Signals/Signs/Striping/Streetlights",
    "request_reason": "Street Light Outage/Malfunction",
    "date_created": "2022-05-13T23:59:54.000",
    "date_modified": "2022-05-13T23:59:54.000",
    "request_status": "Pending",
    "responsible_agency": "Department of Public Works",
    "final_address": "4047 S Carrollton Ave",
    "address_councildis": "A",
    "status": "Pending",
    "contractor": "Royal Engineering",
    "rowid": "883023",
    "final_x": "3669005.90439",
    "final_y": "536217.497991",
    "longitude": "-90.10736359369758",
    "latitude": "29.968785682007738",
    "geocoded_column": {
      "latitude": "29.968785682007738",
      "longitude": "-90.10736359369758"
    }
  },
  {
    "service_request": "2022-883022",
    "request_type": "Traffic Signals/Signs/Striping/Streetlights",
    "request_reason": "Street Light Outage/Malfunction",
    "date_created": "2022-05-13T23:56:23.000",
    "date_modified": "2022-05-13T23:56:24.000",
    "request_status": "Pending",
    "responsible_agency": "Department of Public Works",
    "final_address": "4047 S Carrollton Ave",
    "address_councildis": "A",
    "status": "Pending",
    "contractor": "Royal Engineering",
    "rowid": "883022",
    "final_x": "3669005.90439",
    "final_y": "536217.497991",
    "longitude": "-90.10736359369758",
    "latitude": "29.968785682007738",
    "geocoded_column": {
      "latitude": "29.968785682007738",
      "longitude": "-90.10736359369758"
    }
  },
  {
    "service_request": "2022-883021",
    "request_type": "Traffic Signals/Signs/Striping/Streetlights",
    "request_reason": "Street Light Outage/Malfunction",
    "date_created": "2022-05-13T23:53:38.000",
    "date_modified": "2022-05-13T23:53:38.000",
    "request_status": "Pending",
    "responsible_agency": "Department of Public Works",
    "final_address": "4047 S Carrollton Ave",
    "address_councildis": "A",
    "status": "Pending",
    "contractor": "Royal Engineering",
    "rowid": "883021",
    "final_x": "3669005.90439",
    "final_y": "536217.497991",
    "longitude": "-90.10736359369758",
    "latitude": "29.968785682007738",
    "geocoded_column": {
      "latitude": "29.968785682007738",
      "longitude": "-90.10736359369758"
    }
  },
  {
    "service_request": "2022-883020",
    "request_type": "Traffic Signals/Signs/Striping/Streetlights",
    "request_reason": "Street Light Outage/Malfunction",
    "date_created": "2022-05-13T23:51:01.000",
    "date_modified": "2022-05-13T23:51:02.000",
    "request_status": "Pending",
    "responsible_agency": "Department of Public Works",
    "final_address": "4047 S Carrollton Ave",
    "address_councildis": "A",
    "status": "Pending",
    "contractor": "Royal Engineering",
    "rowid": "883020",
    "final_x": "3669005.90439",
    "final_y": "536217.497991",
    "longitude": "-90.10736359369758",
    "latitude": "29.968785682007738",
    "geocoded_column": {
      "latitude": "29.968785682007738",
      "longitude": "-90.10736359369758"
    }
  },
  {
    "service_request": "2022-883019",
    "request_type": "Traffic Signals/Signs/Striping/Streetlights",
    "request_reason": "Street Light Outage/Malfunction",
    "date_created": "2022-05-13T23:48:27.000",
    "date_modified": "2022-05-13T23:48:28.000",
    "request_status": "Pending",
    "responsible_agency": "Department of Public Works",
    "final_address": "4047 S Carrollton Ave",
    "address_councildis": "A",
    "status": "Pending",
    "contractor": "Royal Engineering",
    "rowid": "883019",
    "final_x": "3669005.90439",
    "final_y": "536217.497991",
    "longitude": "-90.10736359369758",
    "latitude": "29.968785682007738",
    "geocoded_column": {
      "latitude": "29.968785682007738",
      "longitude": "-90.10736359369758"
    }
  },
  {
    "service_request": "2022-883018",
    "request_type": "Traffic Signals/Signs/Striping/Streetlights",
    "request_reason": "Street Light Outage/Malfunction",
    "date_created": "2022-05-13T23:45:57.000",
    "date_modified": "2022-05-13T23:45:58.000",
    "request_status": "Pending",
    "responsible_agency": "Department of Public Works",
    "final_address": "4047 S Carrollton Ave",
    "address_councildis": "A",
    "status": "Pending",
    "contractor": "Royal Engineering",
    "rowid": "883018",
    "final_x": "3669005.90439",
    "final_y": "536217.497991",
    "longitude": "-90.10736359369758",
    "latitude": "29.968785682007738",
    "geocoded_column": {
      "latitude": "29.968785682007738",
      "longitude": "-90.10736359369758"
    }
  },
  {
    "service_request": "2022-883016",
    "request_type": "Trash/Recycling",
    "request_reason": "Missed Trash Pick-Up",
    "date_created": "2022-05-13T23:31:17.000",
    "date_modified": "2022-05-13T23:31:18.000",
    "request_status": "Pending",
    "responsible_agency": "Department of Sanitation",
    "final_address": "609 Eleonore St",
    "address_councildis": "A",
    "status": "Assigned to Contractor",
    "contractor": "Richards Disposal",
    "rowid": "883016",
    "final_x": "3665134.981",
    "final_y": "518484.693558",
    "longitude": "-90.12018116679658",
    "latitude": "29.920139485356092",
    "geocoded_column": {
      "latitude": "29.920139485356092",
      "longitude": "-90.12018116679658"
    }
  },
  {
    "service_request": "2022-883014",
    "request_type": "Trash/Recycling",
    "request_reason": "MIssed Recycling Pick-Up",
    "date_created": "2022-05-13T23:11:36.000",
    "date_modified": "2022-05-13T23:11:37.000",
    "request_status": "Pending",
    "responsible_agency": "Department of Sanitation",
    "final_address": "3108 College Ct",
    "address_councildis": "B",
    "status": "Assigned to Contractor",
    "contractor": "Richards Disposal",
    "rowid": "883014",
    "final_x": "3668438.72218",
    "final_y": "531824.666499",
    "longitude": "-90.10930299017294",
    "latitude": "29.956723524055274",
    "geocoded_column": {
      "latitude": "29.956723524055274",
      "longitude": "-90.10930299017294"
    }
  },
  {
    "service_request": "2022-883013",
    "request_type": "Trash/Recycling",
    "request_reason": "Repair Trash Cart",
    "date_created": "2022-05-13T22:44:37.000",
    "date_modified": "2022-05-13T22:44:38.000",
    "request_status": "Pending",
    "responsible_agency": "Department of Sanitation",
    "final_address": "1223 Philip St",
    "address_councildis": "B",
    "status": "Assigned to Contractor",
    "contractor": "Richards Disposal",
    "rowid": "883013",
    "final_x": "3678211.73205",
    "final_y": "522329.680826",
    "longitude": "-90.07877122329332",
    "latitude": "29.93032478286037",
    "geocoded_column": {
      "latitude": "29.93032478286037",
      "longitude": "-90.07877122329332"
    }
  },
  {
    "service_request": "2022-883012",
    "request_type": "Trash/Recycling",
    "request_reason": "Missed Trash Pick-Up",
    "date_created": "2022-05-13T22:07:52.000",
    "date_modified": "2022-05-13T22:07:52.000",
    "request_status": "Pending",
    "responsible_agency": "Department of Sanitation",
    "final_address": "1632 Seventh St",
    "address_councildis": "B",
    "status": "Assigned to Contractor",
    "contractor": "Richards Disposal",
    "rowid": "883012",
    "final_x": "3675048.90824",
    "final_y": "522314.828538",
    "longitude": "-90.08875628537346",
    "latitude": "29.930378784072836",
    "geocoded_column": {
      "latitude": "29.930378784072836",
      "longitude": "-90.08875628537346"
    }
  },
  {
    "service_request": "2022-883011",
    "request_type": "Abandoned Vehicles",
    "request_reason": "Abandoned/Junk Vehicles",
    "date_created": "2022-05-13T21:51:31.000",
    "date_modified": "2022-05-13T21:51:31.000",
    "request_status": "Pending",
    "responsible_agency": "Department of Public Works",
    "final_address": "2800 BLK Carondelet St",
    "address_councildis": "B",
    "status": "Pending",
    "rowid": "883011",
    "final_x": "3675598.8548",
    "final_y": "522783.267213",
    "longitude": "-90.08700410246728",
    "latitude": "29.931650401941333",
    "geocoded_column": {
      "latitude": "29.931650401941333",
      "longitude": "-90.08700410246728"
    }
  },
  {
    "service_request": "2022-883010",
    "request_type": "Roads/Drainage",
    "request_reason": "Pothole",
    "date_created": "2022-05-13T21:50:59.000",
    "date_modified": "2022-05-13T21:50:59.000",
    "request_status": "Pending",
    "responsible_agency": "Department of Public Works",
    "final_address": "1908 Broadway St",
    "address_councildis": "A",
    "status": "Pending",
    "rowid": "883010",
    "final_x": "3665564.6064",
    "final_y": "528667.898112",
    "longitude": "-90.1184842454623",
    "latitude": "29.948127544852507",
    "geocoded_column": {
      "latitude": "29.948127544852507",
      "longitude": "-90.1184842454623"
    }
  },
  {
    "service_request": "2022-883009",
    "request_type": "Safety & Permits",
    "request_reason": "Licenses & Permits",
    "date_created": "2022-05-13T21:43:00.000",
    "date_modified": "2022-05-13T21:43:01.000",
    "request_status": "Pending",
    "responsible_agency": "Safety and Permits",
    "final_address": "1903 Royal St",
    "address_councildis": "C",
    "status": "Pending",
    "rowid": "883009",
    "final_x": "3684246.69743",
    "final_y": "534726.581894",
    "longitude": "-90.05928467216059",
    "latitude": "29.964229000844334",
    "geocoded_column": {
      "latitude": "29.964229000844334",
      "longitude": "-90.05928467216059"
    }
  },
  {
    "service_request": "2022-883008",
    "request_type": "Mayor's Request",
    "request_reason": "Entergy Bill Payment Assistance",
    "date_created": "2022-05-13T21:37:52.000",
    "date_modified": "2022-05-13T21:37:52.000",
    "request_status": "Pending",
    "responsible_agency": "Executive Office of the Mayor",
    "status": "Pending",
    "rowid": "883008",
    "longitude": "0.0",
    "latitude": "0.0",
    "geocoded_column": {
      "latitude": "0.0",
      "longitude": "0.0"
    }
  },
  {
    "service_request": "2022-883007",
    "request_type": "Abandoned Vehicles",
    "request_reason": "Abandoned/Junk Vehicles",
    "date_created": "2022-05-13T21:34:36.000",
    "date_modified": "2022-05-13T21:34:36.000",
    "request_status": "Pending",
    "responsible_agency": "Department of Public Works",
    "final_address": "1413 Melpomene St",
    "address_councildis": "B",
    "status": "Pending",
    "rowid": "883007",
    "final_x": "3679912.8052",
    "final_y": "525129.102397",
    "longitude": "-90.07330402227942",
    "latitude": "29.93797094741907",
    "geocoded_column": {
      "latitude": "29.93797094741907",
      "longitude": "-90.07330402227942"
    }
  },
  {
    "service_request": "2022-883006",
    "request_type": "Health Related Questions",
    "request_reason": "Noise Ordinance Complaint",
    "date_created": "2022-05-13T21:31:36.000",
    "date_modified": "2022-05-13T21:31:36.000",
    "request_status": "Pending",
    "responsible_agency": "Health Department",
    "final_address": "2108 Third St",
    "address_councildis": "B",
    "status": "Pending",
    "rowid": "883006",
    "final_x": "3675385.15675",
    "final_y": "524412.670844",
    "longitude": "-90.08762280179653",
    "latitude": "29.93613712044748",
    "geocoded_column": {
      "latitude": "29.93613712044748",
      "longitude": "-90.08762280179653"
    }
  },
  {
    "service_request": "2022-883005",
    "request_type": "Health Related Questions",
    "request_reason": "Noise Ordinance Complaint",
    "date_created": "2022-05-13T21:28:15.000",
    "date_modified": "2022-05-13T21:28:15.000",
    "request_status": "Pending",
    "responsible_agency": "Health Department",
    "final_address": "2108 Third St",
    "address_councildis": "B",
    "status": "Pending",
    "rowid": "883005",
    "final_x": "3675385.15675",
    "final_y": "524412.670844",
    "longitude": "-90.08762280179653",
    "latitude": "29.93613712044748",
    "geocoded_column": {
      "latitude": "29.93613712044748",
      "longitude": "-90.08762280179653"
    }
  },
  {
    "service_request": "2022-883004",
    "request_type": "Property Maintenance",
    "request_reason": "Property Maintenance",
    "date_created": "2022-05-13T21:17:15.000",
    "date_modified": "2022-05-13T21:17:16.000",
    "request_status": "Pending",
    "responsible_agency": "Department of Code Enforcement",
    "final_address": "1526 N Villere St",
    "address_councildis": "C",
    "status": "Pending",
    "rowid": "883004",
    "final_x": "3682450.19509",
    "final_y": "536923.517128",
    "longitude": "-90.06488106932802",
    "latitude": "29.970324618474038",
    "geocoded_column": {
      "latitude": "29.970324618474038",
      "longitude": "-90.06488106932802"
    }
  },
  {
    "service_request": "2022-883003",
    "request_type": "Traffic Signals/Signs/Striping/Streetlights",
    "request_reason": "Street Light Outage/Malfunction",
    "date_created": "2022-05-13T21:00:02.000",
    "date_modified": "2022-05-13T21:00:03.000",
    "request_status": "Pending",
    "responsible_agency": "Department of Public Works",
    "final_address": "6251 Caldwell Dr",
    "address_councildis": "D",
    "status": "Pending",
    "contractor": "Royal Engineering",
    "rowid": "883003",
    "final_x": "3679422.70075",
    "final_y": "556415.425498",
    "longitude": "-90.073765552702",
    "latitude": "30.024012269263725",
    "geocoded_column": {
      "latitude": "30.024012269263725",
      "longitude": "-90.073765552702"
    }
  },
  {
    "service_request": "2022-883002",
    "request_type": "Traffic Signals/Signs/Striping/Streetlights",
    "request_reason": "Street Light Outage/Malfunction",
    "date_created": "2022-05-13T20:25:09.000",
    "date_modified": "2022-05-13T20:25:10.000",
    "request_status": "Pending",
    "responsible_agency": "Department of Public Works",
    "final_address": "7600 Hansbrough Ave",
    "address_councildis": "E",
    "status": "Pending",
    "contractor": "Royal Engineering",
    "rowid": "883002",
    "final_x": "3707645.44203",
    "final_y": "564377.540257",
    "longitude": "-89.9842916576798",
    "latitude": "30.045021703279385",
    "geocoded_column": {
      "latitude": "30.045021703279385",
      "longitude": "-89.9842916576798"
    }
  },
  {
    "service_request": "2022-883001",
    "request_type": "Property Maintenance",
    "request_reason": "Property Maintenance",
    "date_created": "2022-05-13T20:23:22.000",
    "date_modified": "2022-05-13T20:23:22.000",
    "request_status": "Pending",
    "responsible_agency": "Department of Code Enforcement",
    "final_address": "6515 Fleur-De-Lis Dr",
    "address_councildis": "A",
    "status": "Pending",
    "rowid": "883001",
    "final_x": "3665453.69383",
    "final_y": "551505.050389",
    "longitude": "-90.11806969310103",
    "latitude": "30.010925284494622",
    "geocoded_column": {
      "latitude": "30.010925284494622",
      "longitude": "-90.11806969310103"
    }
  },
  {
    "service_request": "2022-883000",
    "request_type": "Trash/Recycling",
    "request_reason": "Missed Trash Pick-Up",
    "date_created": "2022-05-13T20:19:49.000",
    "date_modified": "2022-05-13T20:19:50.000",
    "request_status": "Pending",
    "responsible_agency": "Department of Sanitation",
    "final_address": "1310 State St",
    "address_councildis": "A",
    "status": "Assigned to Contractor",
    "contractor": "Richards Disposal",
    "rowid": "883000",
    "final_x": "3665176.10893",
    "final_y": "520950.159353",
    "longitude": "-90.11996893590921",
    "latitude": "29.926917545026498",
    "geocoded_column": {
      "latitude": "29.926917545026498",
      "longitude": "-90.11996893590921"
    }
  },
  {
    "service_request": "2022-882999",
    "request_type": "Trash/Recycling",
    "request_reason": "Missed Trash Pick-Up",
    "date_created": "2022-05-13T20:18:48.000",
    "date_modified": "2022-05-13T20:18:48.000",
    "request_status": "Pending",
    "responsible_agency": "Department of Sanitation",
    "final_address": "628 Nashville Ave",
    "address_councildis": "A",
    "status": "Assigned to Contractor",
    "contractor": "Richards Disposal",
    "rowid": "882999",
    "final_x": "3665346.56525",
    "final_y": "518597.104887",
    "longitude": "-90.11950953497882",
    "latitude": "29.920442419987424",
    "geocoded_column": {
      "latitude": "29.920442419987424",
      "longitude": "-90.11950953497882"
    }
  },
  {
    "service_request": "2022-882998",
    "request_type": "Trash/Recycling",
    "request_reason": "Missed Trash Pick-Up",
    "date_created": "2022-05-13T19:35:10.000",
    "date_modified": "2022-05-13T19:35:11.000",
    "request_status": "Pending",
    "responsible_agency": "Department of Sanitation",
    "final_address": "6128 Benjamin St",
    "address_councildis": "A",
    "status": "Assigned to Contractor",
    "contractor": "Richards Disposal",
    "rowid": "882998",
    "final_x": "3665062.43994",
    "final_y": "522312.49625",
    "longitude": "-90.12028223242636",
    "latitude": "29.93066685065344",
    "geocoded_column": {
      "latitude": "29.93066685065344",
      "longitude": "-90.12028223242636"
    }
  },
  {
    "service_request": "2022-882997",
    "request_type": "Trash/Recycling",
    "request_reason": "MIssed Recycling Pick-Up",
    "date_created": "2022-05-13T19:31:50.000",
    "date_modified": "2022-05-13T19:31:51.000",
    "request_status": "Pending",
    "responsible_agency": "Department of Sanitation",
    "final_address": "1710 Fern St, New Orleans, Louisiana, 70118",
    "address_councildis": "A",
    "status": "Assigned to Contractor",
    "contractor": "Richards Disposal",
    "rowid": "882997",
    "final_x": "3663755.6016",
    "final_y": "529245.784577",
    "longitude": "-90.12417678116493",
    "latitude": "29.949769159889648",
    "geocoded_column": {
      "latitude": "29.949769159889648",
      "longitude": "-90.12417678116493"
    }
  },
  {
    "service_request": "2022-882996",
    "request_type": "Trash/Recycling",
    "request_reason": "MIssed Recycling Pick-Up",
    "date_created": "2022-05-13T19:09:29.000",
    "date_modified": "2022-05-13T19:09:29.000",
    "request_status": "Pending",
    "responsible_agency": "Department of Sanitation",
    "final_address": "4133 General Pershing St",
    "address_councildis": "B",
    "status": "Assigned to Contractor",
    "contractor": "Richards Disposal",
    "rowid": "882996",
    "final_x": "3670028.04846",
    "final_y": "529492.805889",
    "longitude": "-90.10436336924452",
    "latitude": "29.95026489527118",
    "geocoded_column": {
      "latitude": "29.95026489527118",
      "longitude": "-90.10436336924452"
    }
  },
  {
    "service_request": "2022-882995",
    "request_type": "Trash/Recycling",
    "request_reason": "Order Trash Cart",
    "date_created": "2022-05-13T19:03:04.000",
    "date_modified": "2022-05-13T19:03:04.000",
    "request_status": "Pending",
    "responsible_agency": "Department of Sanitation",
    "final_address": "22 Tennyson Pl",
    "address_councildis": "C",
    "status": "Assigned to Contractor",
    "contractor": "Richards Disposal",
    "rowid": "882995",
    "final_x": "3705253.45867",
    "final_y": "517830.350134",
    "longitude": "-89.99357147953206",
    "latitude": "29.917111380289263",
    "geocoded_column": {
      "latitude": "29.917111380289263",
      "longitude": "-89.99357147953206"
    }
  },
  {
    "service_request": "2022-882994",
    "request_type": "Trash/Recycling",
    "request_reason": "Missed Trash Pick-Up",
    "date_created": "2022-05-13T18:52:33.000",
    "date_modified": "2022-05-13T18:52:33.000",
    "request_status": "Pending",
    "responsible_agency": "Department of Sanitation",
    "final_address": "914 Pleasant St",
    "address_councildis": "B",
    "status": "Assigned to Contractor",
    "contractor": "Richards Disposal",
    "rowid": "882994",
    "final_x": "3675790.90683",
    "final_y": "519311.832951",
    "longitude": "-90.08651706221367",
    "latitude": "29.92209933617099",
    "geocoded_column": {
      "latitude": "29.92209933617099",
      "longitude": "-90.08651706221367"
    }
  },
  {
    "service_request": "2022-882993",
    "request_type": "Trash/Recycling",
    "request_reason": "MIssed Recycling Pick-Up",
    "date_created": "2022-05-13T18:45:48.000",
    "date_modified": "2022-05-13T18:45:49.000",
    "request_status": "Pending",
    "responsible_agency": "Department of Sanitation",
    "final_address": "127 Alvin Callender St",
    "address_councildis": "A",
    "status": "Assigned to Contractor",
    "contractor": "Richards Disposal",
    "rowid": "882993",
    "final_x": "3661079.35078",
    "final_y": "523318.053627",
    "longitude": "-90.13282307405838",
    "latitude": "29.933547163249973",
    "geocoded_column": {
      "latitude": "29.933547163249973",
      "longitude": "-90.13282307405838"
    }
  },
  {
    "service_request": "2022-882992",
    "request_type": "Trash/Recycling",
    "request_reason": "Request a Large Item Pick Up",
    "date_created": "2022-05-13T18:42:01.000",
    "date_modified": "2022-05-13T18:42:02.000",
    "request_status": "Pending",
    "responsible_agency": "Department of Sanitation",
    "final_address": "3064 St Ann St",
    "address_councildis": "A",
    "status": "Assigned to Contractor",
    "contractor": "Richards Disposal",
    "rowid": "882992",
    "final_x": "3675469.58753",
    "final_y": "538280.125257",
    "longitude": "-90.0868800098404",
    "latitude": "29.974265464018007",
    "geocoded_column": {
      "latitude": "29.974265464018007",
      "longitude": "-90.0868800098404"
    }
  },
  {
    "service_request": "2022-882989",
    "request_type": "Taxi Issues",
    "request_reason": "Taxi Complaint",
    "date_created": "2022-05-13T18:30:45.000",
    "date_modified": "2022-05-13T18:30:46.000",
    "request_status": "Pending",
    "responsible_agency": "Ground Transportation Bureau",
    "final_address": "1728 Amelia St",
    "address_councildis": "B",
    "status": "Pending",
    "rowid": "882989",
    "final_x": "3672963.77345",
    "final_y": "521702.840057",
    "longitude": "-90.09535961879918",
    "latitude": "29.92875812323761",
    "geocoded_column": {
      "latitude": "29.92875812323761",
      "longitude": "-90.09535961879918"
    }
  },
  {
    "service_request": "2022-882988",
    "request_type": "Traffic Signals/Signs/Striping/Streetlights",
    "request_reason": "Street Light Outage/Malfunction",
    "date_created": "2022-05-13T18:15:48.000",
    "date_modified": "2022-05-13T18:15:48.000",
    "request_status": "Pending",
    "responsible_agency": "Department of Public Works",
    "final_address": "5961 Magazine St",
    "address_councildis": "A",
    "status": "Pending",
    "contractor": "Royal Engineering",
    "rowid": "882988",
    "final_x": "3664757.69831",
    "final_y": "519229.135159",
    "longitude": "-90.1213472178742",
    "latitude": "29.922197445052415",
    "geocoded_column": {
      "latitude": "29.922197445052415",
      "longitude": "-90.1213472178742"
    }
  },
  {
    "service_request": "2022-882987",
    "request_type": "Property Maintenance",
    "request_reason": "Property Maintenance",
    "date_created": "2022-05-13T18:15:16.000",
    "date_modified": "2022-05-13T18:16:24.000",
    "request_status": "Pending",
    "responsible_agency": "Department of Code Enforcement",
    "final_address": "2425 St Philip St",
    "address_councildis": "D",
    "status": "Pending",
    "rowid": "882987",
    "final_x": "3678347.84277",
    "final_y": "537166.7554",
    "longitude": "-90.07782833228136",
    "latitude": "29.971117673680713",
    "geocoded_column": {
      "latitude": "29.971117673680713",
      "longitude": "-90.07782833228136"
    }
  },
  {
    "service_request": "2022-882986",
    "request_type": "Roads/Drainage",
    "request_reason": "Catch Basin - Broken/Damage",
    "date_created": "2022-05-13T18:13:14.000",
    "date_modified": "2022-05-13T18:13:14.000",
    "request_status": "Pending",
    "responsible_agency": "Department of Public Works",
    "final_address": "4702 St Claude Ave",
    "address_councildis": "E",
    "status": "Pending",
    "rowid": "882986",
    "final_x": "3694685.70134",
    "final_y": "534525.550917",
    "longitude": "-90.02632657024841",
    "latitude": "29.963352954410013",
    "geocoded_column": {
      "latitude": "29.963352954410013",
      "longitude": "-90.02632657024841"
    }
  },
  {
    "service_request": "2022-882985",
    "request_type": "Property Maintenance",
    "request_reason": "Property Maintenance",
    "date_created": "2022-05-13T18:10:13.000",
    "date_modified": "2022-05-13T18:10:13.000",
    "request_status": "Pending",
    "responsible_agency": "Department of Code Enforcement",
    "final_address": "4702 St Claude Ave",
    "address_councildis": "E",
    "status": "Pending",
    "rowid": "882985",
    "final_x": "3694685.70134",
    "final_y": "534525.550917",
    "longitude": "-90.02632657024841",
    "latitude": "29.963352954410013",
    "geocoded_column": {
      "latitude": "29.963352954410013",
      "longitude": "-90.02632657024841"
    }
  },
  {
    "service_request": "2022-882984",
    "request_type": "Trash/Recycling",
    "request_reason": "Missed Trash Pick-Up",
    "date_created": "2022-05-13T18:09:28.000",
    "date_modified": "2022-05-13T18:09:29.000",
    "request_status": "Pending",
    "responsible_agency": "Department of Sanitation",
    "final_address": "2231 Wirth Pl",
    "address_councildis": "A",
    "status": "Assigned to Contractor",
    "contractor": "Richards Disposal",
    "rowid": "882984",
    "final_x": "3667151.38125",
    "final_y": "524461.921532",
    "longitude": "-90.11361549587174",
    "latitude": "29.936516110759136",
    "geocoded_column": {
      "latitude": "29.936516110759136",
      "longitude": "-90.11361549587174"
    }
  },
  {
    "service_request": "2022-882983",
    "request_type": "Property Maintenance",
    "request_reason": "Property Maintenance",
    "date_created": "2022-05-13T18:06:38.000",
    "date_modified": "2022-05-13T18:06:39.000",
    "request_status": "Pending",
    "responsible_agency": "Department of Code Enforcement",
    "final_address": "2425 St Philip St",
    "address_councildis": "D",
    "status": "Pending",
    "rowid": "882983",
    "final_x": "3678347.84277",
    "final_y": "537166.7554",
    "longitude": "-90.07782833228136",
    "latitude": "29.971117673680713",
    "geocoded_column": {
      "latitude": "29.971117673680713",
      "longitude": "-90.07782833228136"
    }
  },
  {
    "service_request": "2022-882982",
    "request_type": "Trash/Recycling",
    "request_reason": "Request a Large Item Pick Up",
    "date_created": "2022-05-13T18:03:35.000",
    "date_modified": "2022-05-13T18:03:35.000",
    "request_status": "Pending",
    "responsible_agency": "Department of Sanitation",
    "final_address": "5520 Loyola Ave",
    "address_councildis": "A",
    "status": "Assigned to Contractor",
    "contractor": "Richards Disposal",
    "rowid": "882982",
    "final_x": "3667174.68513",
    "final_y": "522958.915131",
    "longitude": "-90.11359243520104",
    "latitude": "29.932382641153424",
    "geocoded_column": {
      "latitude": "29.932382641153424",
      "longitude": "-90.11359243520104"
    }
  },
  {
    "service_request": "2022-882981",
    "request_type": "Trash/Recycling",
    "request_reason": "Missed Trash Pick-Up",
    "date_created": "2022-05-13T17:56:32.000",
    "date_modified": "2022-05-13T17:56:33.000",
    "request_status": "Pending",
    "responsible_agency": "Department of Sanitation",
    "final_address": "6220 Freret St",
    "address_councildis": "A",
    "status": "Assigned to Contractor",
    "contractor": "Richards Disposal",
    "rowid": "882981",
    "final_x": "3665733.71892",
    "final_y": "524645.390204",
    "longitude": "-90.11808498670464",
    "latitude": "29.93706200929093",
    "geocoded_column": {
      "latitude": "29.93706200929093",
      "longitude": "-90.11808498670464"
    }
  },
  {
    "service_request": "2022-882980",
    "request_type": "Roads/Drainage",
    "request_reason": "Man hole cover issue",
    "date_created": "2022-05-13T17:52:18.000",
    "date_modified": "2022-05-13T17:52:18.000",
    "request_status": "Pending",
    "responsible_agency": "Department of Public Works",
    "final_address": "900 Perdido St",
    "address_councildis": "B",
    "status": "Pending",
    "rowid": "882980",
    "final_x": "3679904.90651",
    "final_y": "529938.874689",
    "longitude": "-90.07316195918962",
    "latitude": "29.951196455396516",
    "geocoded_column": {
      "latitude": "29.951196455396516",
      "longitude": "-90.07316195918962"
    }
  },
  {
    "service_request": "2022-882979",
    "request_type": "Trash/Recycling",
    "request_reason": "MIssed Recycling Pick-Up",
    "date_created": "2022-05-13T17:50:41.000",
    "date_modified": "2022-05-13T17:50:41.000",
    "request_status": "Pending",
    "responsible_agency": "Department of Sanitation",
    "final_address": "7224 Walmsley Ave",
    "address_councildis": "B",
    "status": "Assigned to Contractor",
    "contractor": "Richards Disposal",
    "rowid": "882979",
    "final_x": "3667133.42746",
    "final_y": "531347.688962",
    "longitude": "-90.11344074122005",
    "latitude": "29.955450267875644",
    "geocoded_column": {
      "latitude": "29.955450267875644",
      "longitude": "-90.11344074122005"
    }
  },
  {
    "service_request": "2022-882978",
    "request_type": "Trash/Recycling",
    "request_reason": "Missed Trash Pick-Up",
    "date_created": "2022-05-13T17:49:10.000",
    "date_modified": "2022-05-13T17:49:11.000",
    "request_status": "Pending",
    "responsible_agency": "Department of Sanitation",
    "final_address": "5826 Clara St",
    "address_councildis": "A",
    "status": "Assigned to Contractor",
    "contractor": "Richards Disposal",
    "rowid": "882978",
    "final_x": "3666914.57978",
    "final_y": "525225.735933",
    "longitude": "-90.11433743670578",
    "latitude": "29.938623284611396",
    "geocoded_column": {
      "latitude": "29.938623284611396",
      "longitude": "-90.11433743670578"
    }
  },
  {
    "service_request": "2022-882977",
    "request_type": "Property Maintenance",
    "request_reason": "Property Maintenance",
    "date_created": "2022-05-13T17:49:10.000",
    "date_modified": "2022-05-13T17:49:10.000",
    "request_status": "Pending",
    "responsible_agency": "Department of Code Enforcement",
    "final_address": "3500 Garden Oaks Dr",
    "address_councildis": "C",
    "status": "Pending",
    "rowid": "882977",
    "final_x": "3696387.36522",
    "final_y": "518384.165366",
    "longitude": "-90.02153648523758",
    "latitude": "29.918916254902577",
    "geocoded_column": {
      "latitude": "29.918916254902577",
      "longitude": "-90.02153648523758"
    }
  },
  {
    "service_request": "2022-882976",
    "request_type": "Trash/Recycling",
    "request_reason": "MIssed Recycling Pick-Up",
    "date_created": "2022-05-13T17:47:50.000",
    "date_modified": "2022-05-13T17:47:51.000",
    "request_status": "Pending",
    "responsible_agency": "Department of Sanitation",
    "final_address": "2035 Adams St",
    "address_councildis": "A",
    "status": "Assigned to Contractor",
    "contractor": "Richards Disposal",
    "rowid": "882976",
    "final_x": "3665158.45076",
    "final_y": "529635.989697",
    "longitude": "-90.11973427521349",
    "latitude": "29.950801317916802",
    "geocoded_column": {
      "latitude": "29.950801317916802",
      "longitude": "-90.11973427521349"
    }
  },
  {
    "service_request": "2022-882975",
    "request_type": "Trash/Recycling",
    "request_reason": "Missed Trash Pick-Up",
    "date_created": "2022-05-13T17:46:37.000",
    "date_modified": "2022-05-13T17:46:37.000",
    "request_status": "Pending",
    "responsible_agency": "Department of Sanitation",
    "final_address": "2035 Adams St",
    "address_councildis": "A",
    "status": "Assigned to Contractor",
    "contractor": "Richards Disposal",
    "rowid": "882975",
    "final_x": "3665158.45076",
    "final_y": "529635.989697",
    "longitude": "-90.11973427521349",
    "latitude": "29.950801317916802",
    "geocoded_column": {
      "latitude": "29.950801317916802",
      "longitude": "-90.11973427521349"
    }
  },
  {
    "service_request": "2022-882974",
    "request_type": "Trash/Recycling",
    "request_reason": "Missed Trash Pick-Up",
    "date_created": "2022-05-13T17:44:19.000",
    "date_modified": "2022-05-13T17:44:20.000",
    "request_status": "Pending",
    "responsible_agency": "Department of Sanitation",
    "final_address": "6030 Hurst St",
    "address_councildis": "A",
    "status": "Assigned to Contractor",
    "contractor": "Richards Disposal",
    "rowid": "882974",
    "final_x": "3665256.5074",
    "final_y": "521786.983866",
    "longitude": "-90.11968715854152",
    "latitude": "29.92921620713637",
    "geocoded_column": {
      "latitude": "29.92921620713637",
      "longitude": "-90.11968715854152"
    }
  },
  {
    "service_request": "2022-882973",
    "request_type": "Trash/Recycling",
    "request_reason": "Missed Trash Pick-Up",
    "date_created": "2022-05-13T17:35:00.000",
    "date_modified": "2022-05-13T17:35:01.000",
    "request_status": "Pending",
    "responsible_agency": "Department of Sanitation",
    "final_address": "6300 Laurel St",
    "address_councildis": "A",
    "status": "Assigned to Contractor",
    "contractor": "Richards Disposal",
    "rowid": "882973",
    "final_x": "3662937.88295",
    "final_y": "518747.005495",
    "longitude": "-90.12710767134647",
    "latitude": "29.920924540863524",
    "geocoded_column": {
      "latitude": "29.920924540863524",
      "longitude": "-90.12710767134647"
    }
  },
  {
    "service_request": "2022-882972",
    "request_type": "Trash/Recycling",
    "request_reason": "Missed Trash Pick-Up",
    "date_created": "2022-05-13T17:33:14.000",
    "date_modified": "2022-05-13T17:33:14.000",
    "request_status": "Pending",
    "responsible_agency": "Department of Sanitation",
    "final_address": "840 Valence St",
    "address_councildis": "B",
    "status": "Assigned to Contractor",
    "contractor": "Richards Disposal",
    "rowid": "882972",
    "final_x": "3669897.02119",
    "final_y": "518634.810871",
    "longitude": "-90.1051445632408",
    "latitude": "29.920412768731616",
    "geocoded_column": {
      "latitude": "29.920412768731616",
      "longitude": "-90.1051445632408"
    }
  },
  {
    "service_request": "2022-882971",
    "request_type": "Property Maintenance",
    "request_reason": "Property Maintenance",
    "date_created": "2022-05-13T17:31:49.000",
    "date_modified": "2022-05-13T17:31:49.000",
    "request_status": "Pending",
    "responsible_agency": "Department of Code Enforcement",
    "final_address": "4716 St Claude Ave",
    "address_councildis": "E",
    "status": "Pending",
    "rowid": "882971",
    "final_x": "3694784.07261",
    "final_y": "534510.740421",
    "longitude": "-90.0260164598441",
    "latitude": "29.963309145093454",
    "geocoded_column": {
      "latitude": "29.963309145093454",
      "longitude": "-90.0260164598441"
    }
  },
  {
    "service_request": "2022-882970",
    "request_type": "Trash/Recycling",
    "request_reason": "Missed Trash Pick-Up",
    "date_created": "2022-05-13T17:29:40.000",
    "date_modified": "2022-05-13T17:29:40.000",
    "request_status": "Pending",
    "responsible_agency": "Department of Sanitation",
    "final_address": "923 Arabella St",
    "address_councildis": "A",
    "status": "Assigned to Contractor",
    "contractor": "Richards Disposal",
    "rowid": "882970",
    "final_x": "3665983.9161",
    "final_y": "519442.389943",
    "longitude": "-90.11746939698402",
    "latitude": "29.922748108338315",
    "geocoded_column": {
      "latitude": "29.922748108338315",
      "longitude": "-90.11746939698402"
    }
  },
  {
    "service_request": "2022-882969",
    "request_type": "Trash/Recycling",
    "request_reason": "MIssed Recycling Pick-Up",
    "date_created": "2022-05-13T17:29:35.000",
    "date_modified": "2022-05-13T17:29:36.000",
    "request_status": "Pending",
    "responsible_agency": "Department of Sanitation",
    "final_address": "2419 Broadway St",
    "address_councildis": "A",
    "status": "Assigned to Contractor",
    "contractor": "Richards Disposal",
    "rowid": "882969",
    "final_x": "3666743.89703",
    "final_y": "530228.138689",
    "longitude": "-90.11470833899538",
    "latitude": "29.952383267244098",
    "geocoded_column": {
      "latitude": "29.952383267244098",
      "longitude": "-90.11470833899538"
    }
  },
  {
    "service_request": "2022-882968",
    "request_type": "Trash/Recycling",
    "request_reason": "Missed Trash Pick-Up",
    "date_created": "2022-05-13T17:28:28.000",
    "date_modified": "2022-05-13T17:28:28.000",
    "request_status": "Pending",
    "responsible_agency": "Department of Sanitation",
    "final_address": "2015 State St",
    "address_councildis": "A",
    "status": "Assigned to Contractor",
    "contractor": "Richards Disposal",
    "rowid": "882968",
    "final_x": "3666393.45767",
    "final_y": "524150.65478",
    "longitude": "-90.11601873945807",
    "latitude": "29.935682388949466",
    "geocoded_column": {
      "latitude": "29.935682388949466",
      "longitude": "-90.11601873945807"
    }
  },
  {
    "service_request": "2022-882967",
    "request_type": "Property Maintenance",
    "request_reason": "Property Maintenance",
    "date_created": "2022-05-13T17:20:38.000",
    "date_modified": "2022-05-13T17:20:38.000",
    "request_status": "Pending",
    "responsible_agency": "Department of Code Enforcement",
    "final_address": "2423 Pauger St",
    "address_councildis": "D",
    "status": "Pending",
    "rowid": "882967",
    "final_x": "3683711.25218",
    "final_y": "538621.665801",
    "longitude": "-90.06083896163213",
    "latitude": "29.974955491611535",
    "geocoded_column": {
      "latitude": "29.974955491611535",
      "longitude": "-90.06083896163213"
    }
  },
  {
    "service_request": "2022-882966",
    "request_type": "Trash/Recycling",
    "request_reason": "Request a Large Item Pick Up",
    "date_created": "2022-05-13T17:14:04.000",
    "date_modified": "2022-05-13T17:14:05.000",
    "request_status": "Pending",
    "responsible_agency": "Department of Sanitation",
    "final_address": "235 S Olympia St",
    "address_councildis": "A",
    "status": "Assigned to Contractor",
    "contractor": "Richards Disposal",
    "rowid": "882966",
    "final_x": "3668909.87111",
    "final_y": "539103.661386",
    "longitude": "-90.10756936906948",
    "latitude": "29.97672448807579",
    "geocoded_column": {
      "latitude": "29.97672448807579",
      "longitude": "-90.10756936906948"
    }
  },
  {
    "service_request": "2022-882965",
    "request_type": "Trash/Recycling",
    "request_reason": "Missed Trash Pick-Up",
    "date_created": "2022-05-13T17:13:10.000",
    "date_modified": "2022-05-13T17:13:11.000",
    "request_status": "Pending",
    "responsible_agency": "Department of Sanitation",
    "final_address": "2831 Audubon St",
    "address_councildis": "B",
    "status": "Assigned to Contractor",
    "contractor": "Richards Disposal",
    "rowid": "882965",
    "final_x": "3667694.17434",
    "final_y": "531295.870018",
    "longitude": "-90.11167184375363",
    "latitude": "29.955291355719048",
    "geocoded_column": {
      "latitude": "29.955291355719048",
      "longitude": "-90.11167184375363"
    }
  },
  {
    "service_request": "2022-882964",
    "request_type": "Trash/Recycling",
    "request_reason": "Request a Large Item Pick Up",
    "date_created": "2022-05-13T17:12:47.000",
    "date_modified": "2022-05-13T17:12:47.000",
    "request_status": "Pending",
    "responsible_agency": "Department of Sanitation",
    "final_address": "520 N Salcedo St",
    "address_councildis": "A",
    "status": "Assigned to Contractor",
    "contractor": "Richards Disposal",
    "rowid": "882964",
    "final_x": "3675129.11259",
    "final_y": "537389.872264",
    "longitude": "-90.08798586862079",
    "latitude": "29.971827751089823",
    "geocoded_column": {
      "latitude": "29.971827751089823",
      "longitude": "-90.08798586862079"
    }
  },
  {
    "service_request": "2022-882963",
    "request_type": "Trash/Recycling",
    "request_reason": "MIssed Recycling Pick-Up",
    "date_created": "2022-05-13T17:12:27.000",
    "date_modified": "2022-05-13T17:12:28.000",
    "request_status": "Pending",
    "responsible_agency": "Department of Sanitation",
    "final_address": "721 Short St",
    "address_councildis": "A",
    "status": "Assigned to Contractor",
    "contractor": "Richards Disposal",
    "rowid": "882963",
    "final_x": "3661288.63936",
    "final_y": "526885.025342",
    "longitude": "-90.13204430114482",
    "latitude": "29.943349176632033",
    "geocoded_column": {
      "latitude": "29.943349176632033",
      "longitude": "-90.13204430114482"
    }
  },
  {
    "service_request": "2022-882962",
    "request_type": "Trash/Recycling",
    "request_reason": "MIssed Recycling Pick-Up",
    "date_created": "2022-05-13T17:12:16.000",
    "date_modified": "2022-05-13T17:12:17.000",
    "request_status": "Pending",
    "responsible_agency": "Department of Sanitation",
    "final_address": "2831 Audubon St",
    "address_councildis": "B",
    "status": "Assigned to Contractor",
    "contractor": "Richards Disposal",
    "rowid": "882962",
    "final_x": "3667694.17434",
    "final_y": "531295.870018",
    "longitude": "-90.11167184375363",
    "latitude": "29.955291355719048",
    "geocoded_column": {
      "latitude": "29.955291355719048",
      "longitude": "-90.11167184375363"
    }
  },
  {
    "service_request": "2022-882961",
    "request_type": "Safety & Permits",
    "request_reason": "Licenses & Permits",
    "date_created": "2022-05-13T17:10:38.000",
    "date_modified": "2022-05-13T17:10:38.000",
    "request_status": "Pending",
    "responsible_agency": "Safety and Permits",
    "status": "Pending",
    "rowid": "882961",
    "longitude": "0.0",
    "latitude": "0.0",
    "geocoded_column": {
      "latitude": "0.0",
      "longitude": "0.0"
    }
  },
  {
    "service_request": "2022-882960",
    "request_type": "Trash/Recycling",
    "request_reason": "Missed Trash Pick-Up",
    "date_created": "2022-05-13T17:08:31.000",
    "date_modified": "2022-05-13T17:08:32.000",
    "request_status": "Pending",
    "responsible_agency": "Department of Sanitation",
    "final_address": "3313 Calhoun St",
    "address_councildis": "A",
    "status": "Assigned to Contractor",
    "contractor": "Richards Disposal",
    "rowid": "882960",
    "final_x": "3667519.58849",
    "final_y": "528905.733888",
    "longitude": "-90.11230354803385",
    "latitude": "29.948724378191386",
    "geocoded_column": {
      "latitude": "29.948724378191386",
      "longitude": "-90.11230354803385"
    }
  },
  {
    "service_request": "2022-882958",
    "request_type": "Trash/Recycling",
    "request_reason": "Missed Trash Pick-Up",
    "date_created": "2022-05-13T17:01:05.000",
    "date_modified": "2022-05-13T17:01:06.000",
    "request_status": "Pending",
    "responsible_agency": "Department of Sanitation",
    "final_address": "2521 Cleveland Ave",
    "address_councildis": "B",
    "status": "Assigned to Contractor",
    "contractor": "Richards Disposal",
    "rowid": "882958",
    "final_x": "3675759.95995",
    "final_y": "534311.368645",
    "longitude": "-90.08609937887577",
    "latitude": "29.963344042171773",
    "geocoded_column": {
      "latitude": "29.963344042171773",
      "longitude": "-90.08609937887577"
    }
  },
  {
    "service_request": "2022-882957",
    "request_type": "Trash/Recycling",
    "request_reason": "MIssed Recycling Pick-Up",
    "date_created": "2022-05-13T16:58:20.000",
    "date_modified": "2022-05-13T16:58:20.000",
    "request_status": "Pending",
    "responsible_agency": "Department of Sanitation",
    "final_address": "7438 Dominican St",
    "address_councildis": "A",
    "status": "Assigned to Contractor",
    "contractor": "Richards Disposal",
    "rowid": "882957",
    "final_x": "3661750.72205",
    "final_y": "524702.19046",
    "longitude": "-90.13065771663658",
    "latitude": "29.93733374452837",
    "geocoded_column": {
      "latitude": "29.93733374452837",
      "longitude": "-90.13065771663658"
    }
  },
  {
    "service_request": "2022-882956",
    "request_type": "Property Maintenance",
    "request_reason": "Property Maintenance",
    "date_created": "2022-05-13T16:51:48.000",
    "date_modified": "2022-05-13T16:51:49.000",
    "request_status": "Pending",
    "responsible_agency": "Department of Code Enforcement",
    "final_address": "2000 Cypress Acres Dr",
    "address_councildis": "C",
    "status": "Pending",
    "rowid": "882956",
    "final_x": "3696306.96963",
    "final_y": "522361.68185",
    "longitude": "-90.02164653006311",
    "latitude": "29.929855602695806",
    "geocoded_column": {
      "latitude": "29.929855602695806",
      "longitude": "-90.02164653006311"
    }
  },
  {
    "service_request": "2022-882955",
    "request_type": "Abandoned Vehicles",
    "request_reason": "Abandoned/Junk Vehicles",
    "date_created": "2022-05-13T16:47:44.000",
    "date_modified": "2022-05-13T16:50:22.000",
    "request_status": "Pending",
    "responsible_agency": "Department of Public Works",
    "final_address": "2361 Cypress Acres Dr",
    "address_councildis": "C",
    "status": "Pending",
    "rowid": "882955",
    "final_x": "3696124.14864",
    "final_y": "521894.709626",
    "longitude": "-90.02224052911556",
    "latitude": "29.928577341965664",
    "geocoded_column": {
      "latitude": "29.928577341965664",
      "longitude": "-90.02224052911556"
    }
  },
  {
    "service_request": "2022-882954",
    "request_type": "Property Maintenance",
    "request_reason": "Property Maintenance",
    "date_created": "2022-05-13T16:41:34.000",
    "date_modified": "2022-05-13T16:43:21.000",
    "request_status": "Pending",
    "responsible_agency": "Department of Code Enforcement",
    "final_address": "SPAIN ST & VIENNA ST",
    "address_councildis": "D",
    "status": "Pending",
    "rowid": "882954",
    "final_x": "3684633.9",
    "final_y": "555054.48",
    "longitude": "-90.05734707137643",
    "latitude": "30.020111631180946",
    "geocoded_column": {
      "latitude": "30.020111631180946",
      "longitude": "-90.05734707137643"
    }
  },
  {
    "service_request": "2022-882953",
    "request_type": "Trash/Recycling",
    "request_reason": "Missed Trash Pick-Up",
    "date_created": "2022-05-13T16:41:23.000",
    "date_modified": "2022-05-13T16:41:24.000",
    "request_status": "Pending",
    "responsible_agency": "Department of Sanitation",
    "final_address": "700 Block of Jefferson Ave, New Orleans, Louisiana, 70115",
    "status": "Assigned to Contractor",
    "rowid": "882953",
    "longitude": "0.0",
    "latitude": "0.0",
    "geocoded_column": {
      "latitude": "0.0",
      "longitude": "0.0"
    }
  },
  {
    "service_request": "2022-882952",
    "request_type": "Safety & Permits",
    "request_reason": "Licenses & Permits",
    "date_created": "2022-05-13T16:41:17.000",
    "date_modified": "2022-05-13T16:41:17.000",
    "request_status": "Pending",
    "responsible_agency": "Safety and Permits",
    "status": "Pending",
    "rowid": "882952",
    "longitude": "0.0",
    "latitude": "0.0",
    "geocoded_column": {
      "latitude": "0.0",
      "longitude": "0.0"
    }
  },
  {
    "service_request": "2022-882951",
    "request_type": "Trash/Recycling",
    "request_reason": "Missed Trash Pick-Up",
    "date_created": "2022-05-13T16:41:14.000",
    "date_modified": "2022-05-13T16:41:15.000",
    "request_status": "Pending",
    "responsible_agency": "Department of Sanitation",
    "final_address": "737 Henry Clay Ave",
    "address_councildis": "A",
    "status": "Assigned to Contractor",
    "contractor": "Richards Disposal",
    "rowid": "882951",
    "final_x": "3663819.66938",
    "final_y": "519511.581751",
    "longitude": "-90.12429879359725",
    "latitude": "29.923001333316105",
    "geocoded_column": {
      "latitude": "29.923001333316105",
      "longitude": "-90.12429879359725"
    }
  },
  {
    "service_request": "2022-882950",
    "request_type": "Trash/Recycling",
    "request_reason": "Illegal Dumping",
    "date_created": "2022-05-13T16:41:02.000",
    "date_modified": "2022-05-13T16:41:02.000",
    "request_status": "Pending",
    "responsible_agency": "Department of Sanitation",
    "final_address": "NORMAN C FRANCIS OVERPASS & I 10 W",
    "address_councildis": "B",
    "status": "Pending",
    "rowid": "882950",
    "final_x": "3671150.26",
    "final_y": "533969.45",
    "longitude": "-90.10066794695159",
    "latitude": "29.962541041904803",
    "geocoded_column": {
      "latitude": "29.962541041904803",
      "longitude": "-90.10066794695159"
    }
  },
  {
    "service_request": "2022-882949",
    "request_type": "Trash/Recycling",
    "request_reason": "Missed Trash Pick-Up",
    "date_created": "2022-05-13T16:33:57.000",
    "date_modified": "2022-05-13T16:33:58.000",
    "request_status": "Pending",
    "responsible_agency": "Department of Sanitation",
    "final_address": "814 Octavia St",
    "address_councildis": "A",
    "status": "Assigned to Contractor",
    "contractor": "Richards Disposal",
    "rowid": "882949",
    "final_x": "3666432.08417",
    "final_y": "518955.776119",
    "longitude": "-90.11607102038178",
    "latitude": "29.921396989432477",
    "geocoded_column": {
      "latitude": "29.921396989432477",
      "longitude": "-90.11607102038178"
    }
  },
  {
    "service_request": "2022-882948",
    "request_type": "Trash/Recycling",
    "request_reason": "Order Trash Cart",
    "date_created": "2022-05-13T16:32:59.000",
    "date_modified": "2022-05-13T16:33:00.000",
    "request_status": "Pending",
    "responsible_agency": "Department of Sanitation",
    "final_address": "7868 S Coronet Ct Apt A",
    "address_councildis": "E",
    "status": "Assigned to Contractor",
    "contractor": "Metro Disposal",
    "rowid": "882948",
    "final_x": "3703503.98602",
    "final_y": "557336.628827",
    "longitude": "-89.99763992331125",
    "latitude": "30.025795370623246",
    "geocoded_column": {
      "latitude": "30.025795370623246",
      "longitude": "-89.99763992331125"
    }
  },
  {
    "service_request": "2022-882947",
    "request_type": "Property Maintenance",
    "request_reason": "Property Maintenance",
    "date_created": "2022-05-13T16:32:58.000",
    "date_modified": "2022-05-13T16:32:58.000",
    "request_status": "Pending",
    "responsible_agency": "Department of Code Enforcement",
    "final_address": "1205 Elysian Fields Ave",
    "address_councildis": "C",
    "status": "Pending",
    "rowid": "882947",
    "final_x": "3685092.35637",
    "final_y": "536725.209799",
    "longitude": "-90.0565438289897",
    "latitude": "29.96969865338815",
    "geocoded_column": {
      "latitude": "29.96969865338815",
      "longitude": "-90.0565438289897"
    }
  },
  {
    "service_request": "2022-882946",
    "request_type": "Trash/Recycling",
    "request_reason": "Repair Trash Cart",
    "date_created": "2022-05-13T16:32:23.000",
    "date_modified": "2022-05-13T16:32:23.000",
    "request_status": "Pending",
    "responsible_agency": "Department of Sanitation",
    "final_address": "815 Eleonore St Apt A",
    "address_councildis": "A",
    "status": "Assigned to Contractor",
    "contractor": "Richards Disposal",
    "rowid": "882946",
    "final_x": "3665285.20532",
    "final_y": "519190.017207",
    "longitude": "-90.11968339726343",
    "latitude": "29.922074530346872",
    "geocoded_column": {
      "latitude": "29.922074530346872",
      "longitude": "-90.11968339726343"
    }
  },
  {
    "service_request": "2022-882945",
    "request_type": "Abandoned Vehicles",
    "request_reason": "Abandoned/Junk Vehicles",
    "date_created": "2022-05-13T16:26:49.000",
    "date_modified": "2022-05-13T16:30:30.000",
    "request_status": "Pending",
    "responsible_agency": "Department of Public Works",
    "final_address": "10811 Willowbrae Dr",
    "address_councildis": "E",
    "status": "Pending",
    "rowid": "882945",
    "final_x": "3710910.98872",
    "final_y": "564312.014433",
    "longitude": "-89.97397353840098",
    "latitude": "30.044735416040048",
    "geocoded_column": {
      "latitude": "30.044735416040048",
      "longitude": "-89.97397353840098"
    }
  },
  {
    "service_request": "2022-882944",
    "request_type": "Trash/Recycling",
    "request_reason": "Missed Trash Pick-Up",
    "date_created": "2022-05-13T16:26:24.000",
    "date_modified": "2022-05-13T16:26:24.000",
    "request_status": "Pending",
    "responsible_agency": "Department of Sanitation",
    "final_address": "7501 Zimple St",
    "address_councildis": "A",
    "status": "Assigned to Contractor",
    "contractor": "Richards Disposal",
    "rowid": "882944",
    "final_x": "3663300.02714",
    "final_y": "526734.362814",
    "longitude": "-90.12569881916124",
    "latitude": "29.942876766641657",
    "geocoded_column": {
      "latitude": "29.942876766641657",
      "longitude": "-90.12569881916124"
    }
  },
  {
    "service_request": "2022-882943",
    "request_type": "Trash/Recycling",
    "request_reason": "Order Trash Cart",
    "date_created": "2022-05-13T16:24:37.000",
    "date_modified": "2022-05-13T16:24:38.000",
    "request_status": "Pending",
    "responsible_agency": "Department of Sanitation",
    "final_address": "5344 Pasteur Blvd",
    "address_councildis": "D",
    "status": "Assigned to Contractor",
    "contractor": "Metro Disposal",
    "rowid": "882943",
    "final_x": "3682809.96552",
    "final_y": "552768.326934",
    "longitude": "-90.0631901963248",
    "latitude": "30.013881267198876",
    "geocoded_column": {
      "latitude": "30.013881267198876",
      "longitude": "-90.0631901963248"
    }
  },
  {
    "service_request": "2022-882942",
    "request_type": "Trash/Recycling",
    "request_reason": "Order Recycling Cart",
    "date_created": "2022-05-13T16:22:14.000",
    "date_modified": "2022-05-13T16:22:15.000",
    "request_status": "Pending",
    "responsible_agency": "Department of Sanitation",
    "final_address": "407 Tricou St",
    "address_councildis": "E",
    "status": "Pending",
    "rowid": "882942",
    "final_x": "3699245.41943",
    "final_y": "530748.714626",
    "longitude": "-90.01206510598439",
    "latitude": "29.952824197371704",
    "geocoded_column": {
      "latitude": "29.952824197371704",
      "longitude": "-90.01206510598439"
    }
  },
  {
    "service_request": "2022-882941",
    "request_type": "Trash/Recycling",
    "request_reason": "Missed Trash Pick-Up",
    "date_created": "2022-05-13T16:21:05.000",
    "date_modified": "2022-05-13T16:21:06.000",
    "request_status": "Pending",
    "responsible_agency": "Department of Sanitation",
    "final_address": "1907 Josephine St",
    "address_councildis": "B",
    "status": "Assigned to Contractor",
    "contractor": "Richards Disposal",
    "rowid": "882941",
    "final_x": "3677089.31426",
    "final_y": "525070.114173",
    "longitude": "-90.08222006368352",
    "latitude": "29.93789382077544",
    "geocoded_column": {
      "latitude": "29.93789382077544",
      "longitude": "-90.08222006368352"
    }
  },
  {
    "service_request": "2022-882940",
    "request_type": "Roads/Drainage",
    "request_reason": "Leaking Hydrant",
    "date_created": "2022-05-13T16:21:02.000",
    "date_modified": "2022-05-13T16:23:24.000",
    "case_close_date": "2022-05-13T11:23:24.000",
    "request_status": "Closed",
    "responsible_agency": "Department of Public Works",
    "final_address": "4600 Press Dr",
    "address_councildis": "D",
    "status": "Referred to External Agency",
    "rowid": "882940",
    "final_x": "3689676.64188",
    "final_y": "550077.66178",
    "longitude": "-90.04159091736464",
    "latitude": "30.006271850134308",
    "geocoded_column": {
      "latitude": "30.006271850134308",
      "longitude": "-90.04159091736464"
    }
  },
  {
    "service_request": "2022-882939",
    "request_type": "Trash/Recycling",
    "request_reason": "Missed Trash Pick-Up",
    "date_created": "2022-05-13T16:19:12.000",
    "date_modified": "2022-05-13T16:19:13.000",
    "request_status": "Pending",
    "responsible_agency": "Department of Sanitation",
    "final_address": "5411 Mckenna St",
    "address_councildis": "A",
    "status": "Assigned to Contractor",
    "contractor": "Richards Disposal",
    "rowid": "882939",
    "final_x": "3668863.69914",
    "final_y": "529055.638528",
    "longitude": "-90.10805454419828",
    "latitude": "29.949097114830185",
    "geocoded_column": {
      "latitude": "29.949097114830185",
      "longitude": "-90.10805454419828"
    }
  },
  {
    "service_request": "2022-882938",
    "request_type": "Trash/Recycling",
    "request_reason": "MIssed Recycling Pick-Up",
    "date_created": "2022-05-13T16:15:33.000",
    "date_modified": "2022-05-13T16:15:33.000",
    "request_status": "Pending",
    "responsible_agency": "Department of Sanitation",
    "final_address": "5827 Magnolia St",
    "address_councildis": "A",
    "status": "Assigned to Contractor",
    "contractor": "Richards Disposal",
    "rowid": "882938",
    "final_x": "3666841.47911",
    "final_y": "525000.547517",
    "longitude": "-90.11457578599395",
    "latitude": "29.93800622681478",
    "geocoded_column": {
      "latitude": "29.93800622681478",
      "longitude": "-90.11457578599395"
    }
  },
  {
    "service_request": "2022-882937",
    "request_type": "Abandoned Vehicles",
    "request_reason": "Abandoned/Junk Vehicles",
    "date_created": "2022-05-13T16:11:42.000",
    "date_modified": "2022-05-13T16:11:43.000",
    "request_status": "Pending",
    "responsible_agency": "Department of Public Works",
    "final_address": "3518 Banks St",
    "address_councildis": "B",
    "status": "Pending",
    "rowid": "882937",
    "final_x": "3671959.05787",
    "final_y": "536086.966663",
    "longitude": "-90.09804178022306",
    "latitude": "29.968339554125222",
    "geocoded_column": {
      "latitude": "29.968339554125222",
      "longitude": "-90.09804178022306"
    }
  },
  {
    "service_request": "2022-882936",
    "request_type": "Trash/Recycling",
    "request_reason": "Replace Trash Cart",
    "date_created": "2022-05-13T16:11:35.000",
    "date_modified": "2022-05-13T16:11:35.000",
    "request_status": "Pending",
    "responsible_agency": "Department of Sanitation",
    "final_address": "6030 Chestnut St",
    "address_councildis": "A",
    "status": "Assigned to Contractor",
    "contractor": "Richards Disposal",
    "rowid": "882936",
    "final_x": "3664661.37773",
    "final_y": "519852.51884",
    "longitude": "-90.1216304547064",
    "latitude": "29.923914355909606",
    "geocoded_column": {
      "latitude": "29.923914355909606",
      "longitude": "-90.1216304547064"
    }
  },
  {
    "service_request": "2022-882935",
    "request_type": "Trash/Recycling",
    "request_reason": "Missed Trash Pick-Up",
    "date_created": "2022-05-13T16:10:45.000",
    "date_modified": "2022-05-13T16:10:45.000",
    "request_status": "Pending",
    "responsible_agency": "Department of Sanitation",
    "final_address": "2800 BLK Coliseum St",
    "address_councildis": "B",
    "status": "Assigned to Contractor",
    "contractor": "Richards Disposal",
    "rowid": "882935",
    "final_x": "3676264.96928",
    "final_y": "521549.629589",
    "longitude": "-90.08494368334651",
    "latitude": "29.928238360606404",
    "geocoded_column": {
      "latitude": "29.928238360606404",
      "longitude": "-90.08494368334651"
    }
  },
  {
    "service_request": "2022-882934",
    "request_type": "Trash/Recycling",
    "request_reason": "Illegal Dumping",
    "date_created": "2022-05-13T16:08:35.000",
    "date_modified": "2022-05-13T16:53:06.000",
    "case_close_date": "2022-05-13T11:53:06.000",
    "request_status": "Closed",
    "responsible_agency": "Department of Sanitation",
    "final_address": "3018 Second St",
    "address_councildis": "B",
    "status": "Duplicate Request",
    "rowid": "882934",
    "final_x": "3673766.16596",
    "final_y": "527392.555839",
    "longitude": "-90.09263214444043",
    "latitude": "29.944379127608492",
    "geocoded_column": {
      "latitude": "29.944379127608492",
      "longitude": "-90.09263214444043"
    }
  },
  {
    "service_request": "2022-882933",
    "request_type": "Trash/Recycling",
    "request_reason": "Request a Large Item Pick Up",
    "date_created": "2022-05-13T16:04:50.000",
    "date_modified": "2022-05-13T16:04:50.000",
    "request_status": "Pending",
    "responsible_agency": "Department of Sanitation",
    "final_address": "903 Elysian Fields Ave",
    "address_councildis": "C",
    "status": "Assigned to Contractor",
    "contractor": "Metro Disposal",
    "rowid": "882933",
    "final_x": "3685153.56777",
    "final_y": "535633.141766",
    "longitude": "-90.05638895280732",
    "latitude": "29.966693969748434",
    "geocoded_column": {
      "latitude": "29.966693969748434",
      "longitude": "-90.05638895280732"
    }
  },
  {
    "service_request": "2022-882932",
    "request_type": "Roads/Drainage",
    "request_reason": "Leaking Hydrant",
    "date_created": "2022-05-13T16:01:53.000",
    "date_modified": "2022-05-13T16:01:53.000",
    "request_status": "Pending",
    "responsible_agency": "Department of Public Works",
    "final_address": "1101 Florida Ave, New Orleans, Louisiana, 70119",
    "address_councildis": "D",
    "status": "Pending",
    "rowid": "882932",
    "final_x": "3675585.71221",
    "final_y": "544695.474063",
    "longitude": "-90.0862927541675",
    "latitude": "29.99190198558156",
    "geocoded_column": {
      "latitude": "29.99190198558156",
      "longitude": "-90.0862927541675"
    }
  },
  {
    "service_request": "2022-882931",
    "request_type": "Trash/Recycling",
    "request_reason": "Request a Large Item Pick Up",
    "date_created": "2022-05-13T15:56:34.000",
    "date_modified": "2022-05-13T15:56:34.000",
    "request_status": "Pending",
    "responsible_agency": "Department of Sanitation",
    "final_address": "5649 Hawthorne Pl",
    "address_councildis": "A",
    "status": "Assigned to Contractor",
    "contractor": "Metro Disposal",
    "rowid": "882931",
    "final_x": "3667962.79137",
    "final_y": "545042.371215",
    "longitude": "-90.11036036308083",
    "latitude": "29.993081747268572",
    "geocoded_column": {
      "latitude": "29.993081747268572",
      "longitude": "-90.11036036308083"
    }
  },
  {
    "service_request": "2022-882930",
    "request_type": "Trash/Recycling",
    "request_reason": "Order Recycling Cart",
    "date_created": "2022-05-13T15:53:36.000",
    "date_modified": "2022-05-13T15:53:36.000",
    "request_status": "Pending",
    "responsible_agency": "Department of Sanitation",
    "final_address": "5326 Camp St, New Orleans, Louisiana, 70115",
    "address_councildis": "B",
    "status": "Pending",
    "rowid": "882930",
    "final_x": "3667303.07962",
    "final_y": "519009.853559",
    "longitude": "-90.11331984257329",
    "latitude": "29.92152021424602",
    "geocoded_column": {
      "latitude": "29.92152021424602",
      "longitude": "-90.11331984257329"
    }
  },
  {
    "service_request": "2022-882929",
    "request_type": "Property Maintenance",
    "request_reason": "Property Maintenance",
    "date_created": "2022-05-13T15:49:09.000",
    "date_modified": "2022-05-13T15:49:10.000",
    "request_status": "Pending",
    "responsible_agency": "Department of Code Enforcement",
    "final_address": "1926 Shalett St",
    "address_councildis": "C",
    "status": "Pending",
    "rowid": "882929",
    "final_x": "3694275.3937",
    "final_y": "523267.829371",
    "longitude": "-90.02802725124896",
    "latitude": "29.93241099004536",
    "geocoded_column": {
      "latitude": "29.93241099004536",
      "longitude": "-90.02802725124896"
    }
  },
  {
    "service_request": "2022-882928",
    "request_type": "Trash/Recycling",
    "request_reason": "Illegal Dumping",
    "date_created": "2022-05-13T15:48:05.000",
    "date_modified": "2022-05-13T15:48:05.000",
    "request_status": "Pending",
    "responsible_agency": "Department of Sanitation",
    "final_address": "1926 Shalett St",
    "address_councildis": "C",
    "status": "Pending",
    "rowid": "882928",
    "final_x": "3694275.3937",
    "final_y": "523267.829371",
    "longitude": "-90.02802725124896",
    "latitude": "29.93241099004536",
    "geocoded_column": {
      "latitude": "29.93241099004536",
      "longitude": "-90.02802725124896"
    }
  },
  {
    "service_request": "2022-882927",
    "request_type": "Trash/Recycling",
    "request_reason": "Replace Trash Cart",
    "date_created": "2022-05-13T15:48:03.000",
    "date_modified": "2022-05-13T15:48:03.000",
    "request_status": "Pending",
    "responsible_agency": "Department of Sanitation",
    "final_address": "2501 Verbena St",
    "address_councildis": "D",
    "status": "Assigned to Contractor",
    "contractor": "Metro Disposal",
    "rowid": "882927",
    "final_x": "3686312.97897",
    "final_y": "547785.283538",
    "longitude": "-90.05229850417207",
    "latitude": "30.00007247718775",
    "geocoded_column": {
      "latitude": "30.00007247718775",
      "longitude": "-90.05229850417207"
    }
  },
  {
    "service_request": "2022-882926",
    "request_type": "Trash/Recycling",
    "request_reason": "Request a Large Item Pick Up",
    "date_created": "2022-05-13T15:46:29.000",
    "date_modified": "2022-05-13T15:46:30.000",
    "request_status": "Pending",
    "responsible_agency": "Department of Sanitation",
    "final_address": "3800 Nashville Ave",
    "address_councildis": "A",
    "status": "Assigned to Contractor",
    "contractor": "Richards Disposal",
    "rowid": "882926",
    "final_x": "3668388.79975",
    "final_y": "529494.494657",
    "longitude": "-90.10953921484419",
    "latitude": "29.95031778098187",
    "geocoded_column": {
      "latitude": "29.95031778098187",
      "longitude": "-90.10953921484419"
    }
  },
  {
    "service_request": "2022-882925",
    "request_type": "Property Maintenance",
    "request_reason": "Property Maintenance",
    "date_created": "2022-05-13T15:44:11.000",
    "date_modified": "2022-05-13T15:47:24.000",
    "request_status": "Pending",
    "responsible_agency": "Department of Code Enforcement",
    "final_address": "624 Egania St",
    "address_councildis": "E",
    "status": "Pending",
    "rowid": "882925",
    "final_x": "3696314.52765",
    "final_y": "532517.103492",
    "longitude": "-90.02125557145092",
    "latitude": "29.95777924719802",
    "geocoded_column": {
      "latitude": "29.95777924719802",
      "longitude": "-90.02125557145092"
    }
  },
  {
    "service_request": "2022-882924",
    "request_type": "Trash/Recycling",
    "request_reason": "Order Trash Cart",
    "date_created": "2022-05-13T15:44:01.000",
    "date_modified": "2022-05-13T15:44:02.000",
    "request_status": "Pending",
    "responsible_agency": "Department of Sanitation",
    "final_address": "2501 Verbena St",
    "address_councildis": "D",
    "status": "Assigned to Contractor",
    "contractor": "Metro Disposal",
    "rowid": "882924",
    "final_x": "3686312.97897",
    "final_y": "547785.283538",
    "longitude": "-90.05229850417207",
    "latitude": "30.00007247718775",
    "geocoded_column": {
      "latitude": "30.00007247718775",
      "longitude": "-90.05229850417207"
    }
  },
  {
    "service_request": "2022-882922",
    "request_type": "Trash/Recycling",
    "request_reason": "Return Trash Cart",
    "date_created": "2022-05-13T15:41:51.000",
    "date_modified": "2022-05-13T15:41:51.000",
    "request_status": "Pending",
    "responsible_agency": "Department of Sanitation",
    "final_address": "2546 Dumaine St",
    "address_councildis": "D",
    "status": "Assigned to Contractor",
    "contractor": "Richards Disposal",
    "rowid": "882922",
    "final_x": "3677637.75342",
    "final_y": "537106.053896",
    "longitude": "-90.08007298761224",
    "latitude": "29.97097213989023",
    "geocoded_column": {
      "latitude": "29.97097213989023",
      "longitude": "-90.08007298761224"
    }
  },
  {
    "service_request": "2022-882921",
    "request_type": "Trash/Recycling",
    "request_reason": "Missed Trash Pick-Up",
    "date_created": "2022-05-13T15:39:47.000",
    "date_modified": "2022-05-13T15:39:47.000",
    "request_status": "Pending",
    "responsible_agency": "Department of Sanitation",
    "final_address": "343 Eleonore St",
    "address_councildis": "A",
    "status": "Assigned to Contractor",
    "contractor": "Richards Disposal",
    "rowid": "882921",
    "final_x": "3664945.26701",
    "final_y": "517638.475894",
    "longitude": "-90.12080827122699",
    "latitude": "29.917818172483525",
    "geocoded_column": {
      "latitude": "29.917818172483525",
      "longitude": "-90.12080827122699"
    }
  },
  {
    "service_request": "2022-882920",
    "request_type": "Trash/Recycling",
    "request_reason": "Illegal Dumping",
    "date_created": "2022-05-13T15:38:08.000",
    "date_modified": "2022-05-13T15:38:08.000",
    "request_status": "Pending",
    "responsible_agency": "Department of Sanitation",
    "final_address": "8433 Apple St",
    "address_councildis": "A",
    "status": "Pending",
    "rowid": "882920",
    "final_x": "3664443.92167",
    "final_y": "533070.175812",
    "longitude": "-90.12187576068729",
    "latitude": "29.960265002824215",
    "geocoded_column": {
      "latitude": "29.960265002824215",
      "longitude": "-90.12187576068729"
    }
  },
  {
    "service_request": "2022-882919",
    "request_type": "Trash/Recycling",
    "request_reason": "Missed Trash Pick-Up",
    "date_created": "2022-05-13T15:34:38.000",
    "date_modified": "2022-05-13T15:34:39.000",
    "request_status": "Pending",
    "responsible_agency": "Department of Sanitation",
    "final_address": "6016 St Charles Ave",
    "address_councildis": "A",
    "status": "Assigned to Contractor",
    "contractor": "Richards Disposal",
    "rowid": "882919",
    "final_x": "3665536.5257",
    "final_y": "522450.08089",
    "longitude": "-90.11878100278054",
    "latitude": "29.931031355859783",
    "geocoded_column": {
      "latitude": "29.931031355859783",
      "longitude": "-90.11878100278054"
    }
  },
  {
    "service_request": "2022-882918",
    "request_type": "Trash/Recycling",
    "request_reason": "MIssed Recycling Pick-Up",
    "date_created": "2022-05-13T15:32:54.000",
    "date_modified": "2022-05-13T15:52:10.000",
    "request_status": "Pending",
    "responsible_agency": "Department of Sanitation",
    "final_address": "New Orleans,LA",
    "address_councildis": "A",
    "status": "Assigned to Contractor",
    "contractor": "Richards Disposal",
    "rowid": "882918",
    "final_x": "3668413.95636",
    "final_y": "539611.715274",
    "longitude": "-90.10911848402496",
    "latitude": "29.978136042854363",
    "geocoded_column": {
      "latitude": "29.978136042854363",
      "longitude": "-90.10911848402496"
    }
  },
  {
    "service_request": "2022-882917",
    "request_type": "Trash/Recycling",
    "request_reason": "Missed Trash Pick-Up",
    "date_created": "2022-05-13T15:31:24.000",
    "date_modified": "2022-05-13T15:31:24.000",
    "request_status": "Pending",
    "responsible_agency": "Department of Sanitation",
    "final_address": "5830 Tchoupitoulas St",
    "address_councildis": "A",
    "status": "Assigned to Contractor",
    "contractor": "Richards Disposal",
    "rowid": "882917",
    "final_x": "3664880.47783",
    "final_y": "517276.375605",
    "longitude": "-90.12102486831586",
    "latitude": "29.916824394481672",
    "geocoded_column": {
      "latitude": "29.916824394481672",
      "longitude": "-90.12102486831586"
    }
  },
  {
    "service_request": "2022-882916",
    "request_type": "Trash/Recycling",
    "request_reason": "Order Trash Cart",
    "date_created": "2022-05-13T15:31:04.000",
    "date_modified": "2022-05-13T15:31:05.000",
    "request_status": "Pending",
    "responsible_agency": "Department of Sanitation",
    "final_address": "5431 Chatham Dr",
    "address_councildis": "D",
    "status": "Assigned to Contractor",
    "contractor": "Metro Disposal",
    "rowid": "882916",
    "final_x": "3679842.76757",
    "final_y": "552520.384918",
    "longitude": "-90.07257364132137",
    "latitude": "30.013289620437753",
    "geocoded_column": {
      "latitude": "30.013289620437753",
      "longitude": "-90.07257364132137"
    }
  },
  {
    "service_request": "2022-882915",
    "request_type": "Trash/Recycling",
    "request_reason": "MIssed Recycling Pick-Up",
    "date_created": "2022-05-13T15:30:57.000",
    "date_modified": "2022-05-13T15:30:58.000",
    "request_status": "Pending",
    "responsible_agency": "Department of Sanitation",
    "final_address": "4207 Fontainebleau Dr",
    "address_councildis": "B",
    "status": "Assigned to Contractor",
    "contractor": "Richards Disposal",
    "rowid": "882915",
    "final_x": "3669750.23566",
    "final_y": "529292.706625",
    "longitude": "-90.10524733011454",
    "latitude": "29.949722877987668",
    "geocoded_column": {
      "latitude": "29.949722877987668",
      "longitude": "-90.10524733011454"
    }
  },
  {
    "service_request": "2022-882914",
    "request_type": "Abandoned Vehicles",
    "request_reason": "Abandoned/Junk Vehicles",
    "date_created": "2022-05-13T15:25:28.000",
    "date_modified": "2022-05-13T15:25:28.000",
    "request_status": "Pending",
    "responsible_agency": "Department of Public Works",
    "final_address": "2111 S Gayoso St",
    "address_councildis": "A",
    "status": "Pending",
    "rowid": "882914",
    "final_x": "3669668.59054",
    "final_y": "529088.619072",
    "longitude": "-90.10551202685355",
    "latitude": "29.94916410981376",
    "geocoded_column": {
      "latitude": "29.94916410981376",
      "longitude": "-90.10551202685355"
    }
  },
  {
    "service_request": "2022-882913",
    "request_type": "Trash/Recycling",
    "request_reason": "Order Trash Cart",
    "date_created": "2022-05-13T15:24:07.000",
    "date_modified": "2022-05-13T15:24:08.000",
    "request_status": "Pending",
    "responsible_agency": "Department of Sanitation",
    "final_address": "18 Rosa Park",
    "address_councildis": "A",
    "status": "Assigned to Contractor",
    "contractor": "Richards Disposal",
    "rowid": "882913",
    "final_x": "3666155.97453",
    "final_y": "522980.727355",
    "longitude": "-90.11680769302035",
    "latitude": "29.93247239632632",
    "geocoded_column": {
      "latitude": "29.93247239632632",
      "longitude": "-90.11680769302035"
    }
  },
  {
    "service_request": "2022-882912",
    "request_type": "Abandoned Vehicles",
    "request_reason": "Abandoned/Junk Vehicles",
    "date_created": "2022-05-13T15:23:04.000",
    "date_modified": "2022-05-13T15:23:04.000",
    "request_status": "Pending",
    "responsible_agency": "Department of Public Works",
    "final_address": "6777 Downman Rd",
    "address_councildis": "D",
    "status": "Pending",
    "rowid": "882912",
    "final_x": "3695649.93616",
    "final_y": "555736.464857",
    "longitude": "-90.02251538427285",
    "latitude": "30.021644926814947",
    "geocoded_column": {
      "latitude": "30.021644926814947",
      "longitude": "-90.02251538427285"
    }
  },
  {
    "service_request": "2022-882911",
    "request_type": "Trash/Recycling",
    "request_reason": "Replace Trash Cart",
    "date_created": "2022-05-13T15:22:44.000",
    "date_modified": "2022-05-13T15:22:46.000",
    "request_status": "Pending",
    "responsible_agency": "Department of Sanitation",
    "final_address": "2512 Pine St",
    "address_councildis": "A",
    "status": "Assigned to Contractor",
    "contractor": "Richards Disposal",
    "rowid": "882911",
    "final_x": "3666591.8377",
    "final_y": "530699.751042",
    "longitude": "-90.11517264318184",
    "latitude": "29.953684493354455",
    "geocoded_column": {
      "latitude": "29.953684493354455",
      "longitude": "-90.11517264318184"
    }
  },
  {
    "service_request": "2022-882910",
    "request_type": "Trash/Recycling",
    "request_reason": "Missed Trash Pick-Up",
    "date_created": "2022-05-13T15:21:07.000",
    "date_modified": "2022-05-13T15:21:07.000",
    "request_status": "Pending",
    "responsible_agency": "Department of Sanitation",
    "final_address": "1634 Washington Ave",
    "address_councildis": "B",
    "status": "Assigned to Contractor",
    "contractor": "Richards Disposal",
    "rowid": "882910",
    "final_x": "3675698.78638",
    "final_y": "522792.117178",
    "longitude": "-90.08668832560726",
    "latitude": "29.931671747318152",
    "geocoded_column": {
      "latitude": "29.931671747318152",
      "longitude": "-90.08668832560726"
    }
  },
  {
    "service_request": "2022-882909",
    "request_type": "Trash/Recycling",
    "request_reason": "Missed Trash Pick-Up",
    "date_created": "2022-05-13T15:20:34.000",
    "date_modified": "2022-05-13T15:20:34.000",
    "request_status": "Pending",
    "responsible_agency": "Department of Sanitation",
    "final_address": "2512 Pine St",
    "address_councildis": "A",
    "status": "Assigned to Contractor",
    "contractor": "Richards Disposal",
    "rowid": "882909",
    "final_x": "3666591.8377",
    "final_y": "530699.751042",
    "longitude": "-90.11517264318184",
    "latitude": "29.953684493354455",
    "geocoded_column": {
      "latitude": "29.953684493354455",
      "longitude": "-90.11517264318184"
    }
  },
  {
    "service_request": "2022-882908",
    "request_type": "Roads/Drainage",
    "request_reason": "Accessibility Ramps, Curbs and Sidewalk Repair",
    "date_created": "2022-05-13T15:19:23.000",
    "date_modified": "2022-05-13T15:19:23.000",
    "request_status": "Pending",
    "responsible_agency": "Department of Public Works",
    "final_address": "13954 My-Viet Dr",
    "address_councildis": "E",
    "status": "Pending",
    "rowid": "882908",
    "final_x": "3728000.10035",
    "final_y": "563214.294368",
    "longitude": "-89.92000761763823",
    "latitude": "30.041148625328905",
    "geocoded_column": {
      "latitude": "30.041148625328905",
      "longitude": "-89.92000761763823"
    }
  },
  {
    "service_request": "2022-882907",
    "request_type": "Trash/Recycling",
    "request_reason": "Missed Trash Pick-Up",
    "date_created": "2022-05-13T15:19:18.000",
    "date_modified": "2022-05-13T15:19:18.000",
    "request_status": "Pending",
    "responsible_agency": "Department of Sanitation",
    "final_address": "18 Rosa Park",
    "address_councildis": "A",
    "status": "Assigned to Contractor",
    "contractor": "Richards Disposal",
    "rowid": "882907",
    "final_x": "3666155.97453",
    "final_y": "522980.727355",
    "longitude": "-90.11680769302035",
    "latitude": "29.93247239632632",
    "geocoded_column": {
      "latitude": "29.93247239632632",
      "longitude": "-90.11680769302035"
    }
  },
  {
    "service_request": "2022-882906",
    "request_type": "Trash/Recycling",
    "request_reason": "Missed Trash Pick-Up",
    "date_created": "2022-05-13T15:18:03.000",
    "date_modified": "2022-05-13T15:18:04.000",
    "request_status": "Pending",
    "responsible_agency": "Department of Sanitation",
    "final_address": "300 BLK Henry Clay Ave",
    "address_councildis": "A",
    "status": "Assigned to Contractor",
    "contractor": "Richards Disposal",
    "rowid": "882906",
    "final_x": "3663189.92194",
    "final_y": "518088.939004",
    "longitude": "-90.1263339757166",
    "latitude": "29.919107764813354",
    "geocoded_column": {
      "latitude": "29.919107764813354",
      "longitude": "-90.1263339757166"
    }
  },
  {
    "service_request": "2022-882905",
    "request_type": "Trash/Recycling",
    "request_reason": "Request a Large Item Pick Up",
    "date_created": "2022-05-13T15:17:50.000",
    "date_modified": "2022-05-13T15:17:51.000",
    "request_status": "Pending",
    "responsible_agency": "Department of Sanitation",
    "final_address": "1429 Pine St",
    "address_councildis": "A",
    "status": "Assigned to Contractor",
    "contractor": "Richards Disposal",
    "rowid": "882905",
    "final_x": "3664519.608",
    "final_y": "527401.731455",
    "longitude": "-90.12182601409023",
    "latitude": "29.944676417058286",
    "geocoded_column": {
      "latitude": "29.944676417058286",
      "longitude": "-90.12182601409023"
    }
  },
  {
    "service_request": "2022-882904",
    "request_type": "Trash/Recycling",
    "request_reason": "Missed Trash Pick-Up",
    "date_created": "2022-05-13T15:15:33.000",
    "date_modified": "2022-05-13T15:16:07.000",
    "request_status": "Pending",
    "responsible_agency": "Department of Sanitation",
    "final_address": "418 Octavia St",
    "address_councildis": "A",
    "status": "Assigned to Contractor",
    "contractor": "Richards Disposal",
    "rowid": "882904",
    "final_x": "3666149.11386",
    "final_y": "517726.964086",
    "longitude": "-90.11700541134857",
    "latitude": "29.918026404079118",
    "geocoded_column": {
      "latitude": "29.918026404079118",
      "longitude": "-90.11700541134857"
    }
  },
  {
    "service_request": "2022-882903",
    "request_type": "Trash/Recycling",
    "request_reason": "Illegal Dumping",
    "date_created": "2022-05-13T15:10:43.000",
    "date_modified": "2022-05-13T15:12:11.000",
    "request_status": "Pending",
    "responsible_agency": "Department of Sanitation",
    "final_address": "2300 BLK Cypress Acres Dr",
    "address_councildis": "C",
    "rowid": "882903",
    "final_x": "3696206.25388",
    "final_y": "522493.457754",
    "longitude": "-90.02195970988217",
    "latitude": "29.93022111114132",
    "geocoded_column": {
      "latitude": "29.93022111114132",
      "longitude": "-90.02195970988217"
    }
  },
  {
    "service_request": "2022-882902",
    "request_type": "Trash/Recycling",
    "request_reason": "Missed Trash Pick-Up",
    "date_created": "2022-05-13T15:03:07.000",
    "date_modified": "2022-05-13T15:03:08.000",
    "request_status": "Pending",
    "responsible_agency": "Department of Sanitation",
    "final_address": "6203 S Rocheblave St",
    "address_councildis": "A",
    "status": "Assigned to Contractor",
    "contractor": "Richards Disposal",
    "rowid": "882902",
    "final_x": "3667642.84884",
    "final_y": "528734.782912",
    "longitude": "-90.11192011495264",
    "latitude": "29.948250706343114",
    "geocoded_column": {
      "latitude": "29.948250706343114",
      "longitude": "-90.11192011495264"
    }
  },
  {
    "service_request": "2022-882901",
    "request_type": "Trash/Recycling",
    "request_reason": "Replace Trash Cart",
    "date_created": "2022-05-13T15:01:45.000",
    "date_modified": "2022-05-13T15:01:45.000",
    "request_status": "Pending",
    "responsible_agency": "Department of Sanitation",
    "final_address": "2821 Saint Peter St, New Orleans, Louisiana, 70119",
    "status": "Assigned to Contractor",
    "rowid": "882901",
    "longitude": "0.0",
    "latitude": "0.0",
    "geocoded_column": {
      "latitude": "0.0",
      "longitude": "0.0"
    }
  },
  {
    "service_request": "2022-882900",
    "request_type": "Trash/Recycling",
    "request_reason": "Missed Trash Pick-Up",
    "date_created": "2022-05-13T15:00:45.000",
    "date_modified": "2022-05-13T15:00:46.000",
    "request_status": "Pending",
    "responsible_agency": "Department of Sanitation",
    "final_address": "1800 Toledano St",
    "address_councildis": "B",
    "status": "Assigned to Contractor",
    "contractor": "Richards Disposal",
    "rowid": "882900",
    "final_x": "3674202.63412",
    "final_y": "522433.574586",
    "longitude": "-90.09142378300939",
    "latitude": "29.930730545055415",
    "geocoded_column": {
      "latitude": "29.930730545055415",
      "longitude": "-90.09142378300939"
    }
  },
  {
    "service_request": "2022-882899",
    "request_type": "Traffic Signals/Signs/Striping/Streetlights",
    "request_reason": "Street Light Outage/Malfunction",
    "date_created": "2022-05-13T14:58:39.000",
    "date_modified": "2022-05-13T14:58:40.000",
    "request_status": "Pending",
    "responsible_agency": "Department of Public Works",
    "final_address": "4600 St Anthony Ave",
    "address_councildis": "D",
    "status": "Pending",
    "contractor": "Royal Engineering",
    "rowid": "882899",
    "final_x": "3682325.87452",
    "final_y": "549473.354835",
    "longitude": "-90.06483492297932",
    "latitude": "30.004836031371",
    "geocoded_column": {
      "latitude": "30.004836031371",
      "longitude": "-90.06483492297932"
    }
  },
  {
    "service_request": "2022-882898",
    "request_type": "Trash/Recycling",
    "request_reason": "Missed Trash Pick-Up",
    "date_created": "2022-05-13T14:53:00.000",
    "date_modified": "2022-05-13T14:53:01.000",
    "request_status": "Pending",
    "responsible_agency": "Department of Sanitation",
    "final_address": "2233 Washington Ave",
    "address_councildis": "B",
    "status": "Assigned to Contractor",
    "contractor": "Richards Disposal",
    "rowid": "882898",
    "final_x": "3674625.65736",
    "final_y": "524567.716476",
    "longitude": "-90.09001525431059",
    "latitude": "29.936586127445302",
    "geocoded_column": {
      "latitude": "29.936586127445302",
      "longitude": "-90.09001525431059"
    }
  },
  {
    "service_request": "2022-882896",
    "request_type": "Trash/Recycling",
    "request_reason": "Missed Trash Pick-Up",
    "date_created": "2022-05-13T14:47:50.000",
    "date_modified": "2022-05-13T14:47:51.000",
    "request_status": "Pending",
    "responsible_agency": "Department of Sanitation",
    "final_address": "723 St James St",
    "address_councildis": "B",
    "status": "Assigned to Contractor",
    "contractor": "Richards Disposal",
    "rowid": "882896",
    "final_x": "3681166.93365",
    "final_y": "522112.086522",
    "longitude": "-90.06944969612299",
    "latitude": "29.929637170934036",
    "geocoded_column": {
      "latitude": "29.929637170934036",
      "longitude": "-90.06944969612299"
    }
  },
  {
    "service_request": "2022-882895",
    "request_type": "Trash/Recycling",
    "request_reason": "Request a Large Item Pick Up",
    "date_created": "2022-05-13T14:46:27.000",
    "date_modified": "2022-05-13T14:46:28.000",
    "request_status": "Pending",
    "responsible_agency": "Department of Sanitation",
    "final_address": "2219 Cadiz St",
    "address_councildis": "B",
    "status": "Assigned to Contractor",
    "contractor": "Richards Disposal",
    "rowid": "882895",
    "final_x": "3669914.03476",
    "final_y": "523076.238459",
    "longitude": "-90.10494056372946",
    "latitude": "29.93262477728612",
    "geocoded_column": {
      "latitude": "29.93262477728612",
      "longitude": "-90.10494056372946"
    }
  },
  {
    "service_request": "2022-882894",
    "request_type": "Trash/Recycling",
    "request_reason": "Missed Trash Pick-Up",
    "date_created": "2022-05-13T14:46:02.000",
    "date_modified": "2022-05-13T14:46:03.000",
    "request_status": "Pending",
    "responsible_agency": "Department of Sanitation",
    "final_address": "725 St James St",
    "address_councildis": "B",
    "status": "Assigned to Contractor",
    "contractor": "Richards Disposal",
    "rowid": "882894",
    "final_x": "3681137.01122",
    "final_y": "522120.590458",
    "longitude": "-90.06954385976285",
    "latitude": "29.92966146145437",
    "geocoded_column": {
      "latitude": "29.92966146145437",
      "longitude": "-90.06954385976285"
    }
  },
  {
    "service_request": "2022-882893",
    "request_type": "Trash/Recycling",
    "request_reason": "Missed Trash Pick-Up",
    "date_created": "2022-05-13T14:42:21.000",
    "date_modified": "2022-05-13T14:42:21.000",
    "request_status": "Pending",
    "responsible_agency": "Department of Sanitation",
    "final_address": "5800 BLK S Galvez St",
    "address_councildis": "A",
    "status": "Assigned to Contractor",
    "contractor": "Richards Disposal",
    "rowid": "882893",
    "final_x": "3667703.83647",
    "final_y": "527525.431942",
    "longitude": "-90.1117682589795",
    "latitude": "29.944923595736462",
    "geocoded_column": {
      "latitude": "29.944923595736462",
      "longitude": "-90.1117682589795"
    }
  },
  {
    "service_request": "2022-882892",
    "request_type": "Trash/Recycling",
    "request_reason": "Request a Large Item Pick Up",
    "date_created": "2022-05-13T14:41:38.000",
    "date_modified": "2022-05-13T14:41:39.000",
    "request_status": "Pending",
    "responsible_agency": "Department of Sanitation",
    "final_address": "7543 Stonewood St",
    "address_councildis": "E",
    "status": "Assigned to Contractor",
    "contractor": "Metro Disposal",
    "rowid": "882892",
    "final_x": "3719923.90623",
    "final_y": "572283.380137",
    "longitude": "-89.9451836816156",
    "latitude": "30.06635628038725",
    "geocoded_column": {
      "latitude": "30.06635628038725",
      "longitude": "-89.9451836816156"
    }
  },
  {
    "service_request": "2022-882891",
    "request_type": "Traffic Signals/Signs/Striping/Streetlights",
    "request_reason": "Traffic Sign Missing/Damaged",
    "date_created": "2022-05-13T14:40:21.000",
    "date_modified": "2022-05-13T14:40:21.000",
    "request_status": "Pending",
    "responsible_agency": "Department of Public Works",
    "final_address": "WISNER BLVD & FILMORE AVE",
    "address_councildis": "A",
    "status": "Pending",
    "rowid": "882891",
    "final_x": "3675579.2",
    "final_y": "551717.58",
    "longitude": "-90.08607187783004",
    "latitude": "30.011210494966498",
    "geocoded_column": {
      "latitude": "30.011210494966498",
      "longitude": "-90.08607187783004"
    }
  },
  {
    "service_request": "2022-882890",
    "request_type": "Trash/Recycling",
    "request_reason": "Request a Large Item Pick Up",
    "date_created": "2022-05-13T14:40:11.000",
    "date_modified": "2022-05-13T14:54:37.000",
    "case_close_date": "2022-05-13T09:54:37.000",
    "request_status": "Closed",
    "responsible_agency": "Department of Sanitation",
    "final_address": "5318 N Roman St",
    "address_councildis": "E",
    "status": "Canceled By Citizen",
    "contractor": "Metro Disposal",
    "rowid": "882890",
    "final_x": "3697667.97392",
    "final_y": "536524.026247",
    "longitude": "-90.01683643100368",
    "latitude": "29.96875417510839",
    "geocoded_column": {
      "latitude": "29.96875417510839",
      "longitude": "-90.01683643100368"
    }
  },
  {
    "service_request": "2022-882888",
    "request_type": "Trash/Recycling",
    "request_reason": "Missed Trash Pick-Up",
    "date_created": "2022-05-13T14:35:46.000",
    "date_modified": "2022-05-13T14:35:47.000",
    "request_status": "Pending",
    "responsible_agency": "Department of Sanitation",
    "final_address": "2722 Upperline St",
    "address_councildis": "B",
    "status": "Assigned to Contractor",
    "contractor": "Richards Disposal",
    "rowid": "882888",
    "final_x": "3669151.62183",
    "final_y": "524815.945532",
    "longitude": "-90.10728867942048",
    "latitude": "29.937430865056115",
    "geocoded_column": {
      "latitude": "29.937430865056115",
      "longitude": "-90.10728867942048"
    }
  },
  {
    "service_request": "2022-882887",
    "request_type": "Trash/Recycling",
    "request_reason": "Missed Trash Pick-Up",
    "date_created": "2022-05-13T14:32:27.000",
    "date_modified": "2022-05-13T14:32:28.000",
    "request_status": "Pending",
    "responsible_agency": "Department of Sanitation",
    "final_address": "1118 Euterpe St",
    "address_councildis": "B",
    "status": "Assigned to Contractor",
    "contractor": "Richards Disposal",
    "rowid": "882887",
    "final_x": "3680125.73659",
    "final_y": "524214.96742",
    "longitude": "-90.07266353206109",
    "latitude": "29.935450938605573",
    "geocoded_column": {
      "latitude": "29.935450938605573",
      "longitude": "-90.07266353206109"
    }
  },
  {
    "service_request": "2022-882886",
    "request_type": "Trash/Recycling",
    "request_reason": "Request a Large Item Pick Up",
    "date_created": "2022-05-13T14:31:39.000",
    "date_modified": "2022-05-13T14:31:40.000",
    "request_status": "Pending",
    "responsible_agency": "Department of Sanitation",
    "final_address": "1400 Governor Nicholls St",
    "address_councildis": "C",
    "status": "Assigned to Contractor",
    "contractor": "Richards Disposal",
    "rowid": "882886",
    "final_x": "3681649.47573",
    "final_y": "535486.706694",
    "longitude": "-90.06745995603487",
    "latitude": "29.96639823303778",
    "geocoded_column": {
      "latitude": "29.96639823303778",
      "longitude": "-90.06745995603487"
    }
  },
  {
    "service_request": "2022-882885",
    "request_type": "Trash/Recycling",
    "request_reason": "MIssed Recycling Pick-Up",
    "date_created": "2022-05-13T14:30:35.000",
    "date_modified": "2022-05-13T14:30:35.000",
    "request_status": "Pending",
    "responsible_agency": "Department of Sanitation",
    "final_address": "1333 Sumner St, New Orleans, Louisiana, 70114",
    "address_councildis": "C",
    "status": "Assigned to Contractor",
    "contractor": "Richards Disposal",
    "rowid": "882885",
    "final_x": "3690998.53308",
    "final_y": "526387.798974",
    "longitude": "-90.03826064435573",
    "latitude": "29.94109208090437",
    "geocoded_column": {
      "latitude": "29.94109208090437",
      "longitude": "-90.03826064435573"
    }
  },