[
  {
    "service_request": "2022-941427",
    "request_type": "Trash/Recycling",
    "request_reason": "Order Recycling Cart",
    "date_created": "2022-11-10T01:06:58.000",
    "date_modified": "2022-11-10T01:06:58.000",
    "request_status": "Pending",
    "responsible_agency": "Department of Sanitation",
    "final_address": "2327 Loyola Ave",
    "address_councildis": "B",
    "status": "Pending",
    "rowid": "941427",
    "final_x": "3675810.44846",
    "final_y": "525061.717693",
    "longitude": "-90.08625784186661",
    "latitude": "29.937909066552734",
    "geocoded_column": {
      "latitude": "29.937909066552734",
      "longitude": "-90.08625784186661"
    }
  },
  {
    "service_request": "2022-941426",
    "request_type": "Abandoned Vehicles",
    "request_reason": "Abandoned/Junk Vehicles",
    "date_created": "2022-11-10T01:00:28.000",
    "date_modified": "2022-11-10T01:00:28.000",
    "request_status": "Pending",
    "responsible_agency": "Department of Public Works",
    "final_address": "173 Mary Jane Ln",
    "address_councildis": "E",
    "status": "Pending",
    "rowid": "941426",
    "final_x": "3718207.3566",
    "final_y": "571185.478376",
    "longitude": "-89.95065176774742",
    "latitude": "30.063394577249248",
    "geocoded_column": {
      "latitude": "30.063394577249248",
      "longitude": "-89.95065176774742"
    }
  },
  {
    "service_request": "2022-941425",
    "request_type": "Trash/Recycling",
    "request_reason": "Order Recycling Cart",
    "date_created": "2022-11-10T00:03:54.000",
    "date_modified": "2022-11-10T00:03:54.000",
    "request_status": "Pending",
    "responsible_agency": "Department of Sanitation",
    "final_address": "54 Dove St",
    "address_councildis": "D",
    "status": "Pending",
    "rowid": "941425",
    "final_x": "3673589.12072",
    "final_y": "555184.602457",
    "longitude": "-90.09224070937559",
    "latitude": "30.020802981386602",
    "geocoded_column": {
      "latitude": "30.020802981386602",
      "longitude": "-90.09224070937559"
    }
  },
  {
    "service_request": "2022-941424",
    "request_type": "Trash/Recycling",
    "request_reason": "Order Recycling Cart",
    "date_created": "2022-11-09T23:41:08.000",
    "date_modified": "2022-11-09T23:41:08.000",
    "request_status": "Pending",
    "responsible_agency": "Department of Sanitation",
    "final_address": "1237 Gordon St",
    "address_councildis": "E",
    "status": "Pending",
    "rowid": "941424",
    "final_x": "3699437.48842",
    "final_y": "534041.923845",
    "longitude": "-90.01133867069906",
    "latitude": "29.961873261976496",
    "geocoded_column": {
      "latitude": "29.961873261976496",
      "longitude": "-90.01133867069906"
    }
  },
  {
    "service_request": "2022-941423",
    "request_type": "Trash/Recycling",
    "request_reason": "Request a Large Item Pick Up",
    "date_created": "2022-11-09T23:29:40.000",
    "date_modified": "2022-11-09T23:29:40.000",
    "request_status": "Pending",
    "responsible_agency": "Department of Sanitation",
    "final_address": "3917 N Claiborne Ave",
    "address_councildis": "D",
    "status": "Assigned to Contractor",
    "contractor": "IV Waste",
    "rowid": "941423",
    "final_x": "3692119.82307",
    "final_y": "537248.518152",
    "longitude": "-90.03433181362814",
    "latitude": "29.970920380979553",
    "geocoded_column": {
      "latitude": "29.970920380979553",
      "longitude": "-90.03433181362814"
    }
  },
  {
    "service_request": "2022-941420",
    "request_type": "Trash/Recycling",
    "request_reason": "Order Recycling Cart",
    "date_created": "2022-11-09T22:58:57.000",
    "date_modified": "2022-11-09T22:58:57.000",
    "request_status": "Pending",
    "responsible_agency": "Department of Sanitation",
    "final_address": "2453 Jay St",
    "address_councildis": "D",
    "status": "Pending",
    "rowid": "941420",
    "final_x": "3685106.67477",
    "final_y": "557501.603995",
    "longitude": "-90.05576704412084",
    "latitude": "30.0268258319024",
    "geocoded_column": {
      "latitude": "30.0268258319024",
      "longitude": "-90.05576704412084"
    }
  },
  {
    "service_request": "2022-941419",
    "request_type": "Trash/Recycling",
    "request_reason": "Order Recycling Cart",
    "date_created": "2022-11-09T22:29:51.000",
    "date_modified": "2022-11-09T22:29:51.000",
    "request_status": "Pending",
    "responsible_agency": "Department of Sanitation",
    "final_address": "2502 Annette St, New Orleans, Louisiana, 70119",
    "address_councildis": "D",
    "status": "Pending",
    "rowid": "941419",
    "final_x": "3682682.04008",
    "final_y": "541351.975052",
    "longitude": "-90.06399394918265",
    "latitude": "29.982494276309637",
    "geocoded_column": {
      "latitude": "29.982494276309637",
      "longitude": "-90.06399394918265"
    }
  },
  {
    "service_request": "2022-941418",
    "request_type": "Trash/Recycling",
    "request_reason": "Order Recycling Cart",
    "date_created": "2022-11-09T22:29:32.000",
    "date_modified": "2022-11-09T22:29:32.000",
    "request_status": "Pending",
    "responsible_agency": "Department of Sanitation",
    "final_address": "7431 Fieldston Rd",
    "address_councildis": "E",
    "status": "Pending",
    "rowid": "941418",
    "final_x": "3700746.96177",
    "final_y": "560141.722205",
    "longitude": "-90.00624903438703",
    "latitude": "30.033596373831262",
    "geocoded_column": {
      "latitude": "30.033596373831262",
      "longitude": "-90.00624903438703"
    }
  },
  {
    "service_request": "2022-941417",
    "request_type": "Trash/Recycling",
    "request_reason": "Order Recycling Cart",
    "date_created": "2022-11-09T22:22:19.000",
    "date_modified": "2022-11-09T22:22:19.000",
    "request_status": "Pending",
    "responsible_agency": "Department of Sanitation",
    "final_address": "11131 Woodvine Ln",
    "address_councildis": "E",
    "status": "Pending",
    "rowid": "941417",
    "final_x": "3716143.64888",
    "final_y": "559693.850269",
    "longitude": "-89.95761132360735",
    "latitude": "30.03186560317619",
    "geocoded_column": {
      "latitude": "30.03186560317619",
      "longitude": "-89.95761132360735"
    }
  },
  {
    "service_request": "2022-941416",
    "request_type": "Trash/Recycling",
    "request_reason": "Order Recycling Cart",
    "date_created": "2022-11-09T22:07:42.000",
    "date_modified": "2022-11-09T22:07:42.000",
    "request_status": "Pending",
    "responsible_agency": "Department of Sanitation",
    "final_address": "5811 Waterford Blvd",
    "address_councildis": "E",
    "status": "Pending",
    "rowid": "941416",
    "final_x": "3713949.79992",
    "final_y": "561090.784862",
    "longitude": "-89.96449120279799",
    "latitude": "30.03577885665061",
    "geocoded_column": {
      "latitude": "30.03577885665061",
      "longitude": "-89.96449120279799"
    }
  },
  {
    "service_request": "2022-941415",
    "request_type": "Trash/Recycling",
    "request_reason": "Replace Trash Cart",
    "date_created": "2022-11-09T22:03:51.000",
    "date_modified": "2022-11-09T22:03:52.000",
    "request_status": "Pending",
    "responsible_agency": "Department of Sanitation",
    "final_address": "5811 Waterford Blvd",
    "address_councildis": "E",
    "status": "Assigned to Contractor",
    "contractor": "Waste Pro",
    "rowid": "941415",
    "final_x": "3713949.79992",
    "final_y": "561090.784862",
    "longitude": "-89.96449120279799",
    "latitude": "30.03577885665061",
    "geocoded_column": {
      "latitude": "30.03577885665061",
      "longitude": "-89.96449120279799"
    }
  },
  {
    "service_request": "2022-941414",
    "request_type": "Abandoned Vehicles",
    "request_reason": "Abandoned/Junk Vehicles",
    "date_created": "2022-11-09T22:00:23.000",
    "date_modified": "2022-11-09T22:00:24.000",
    "request_status": "Pending",
    "responsible_agency": "Department of Public Works",
    "final_address": "AMELIA ST & MAGAZINE ST",
    "address_councildis": "B",
    "status": "Pending",
    "rowid": "941414",
    "final_x": "3673659.5",
    "final_y": "519129.98",
    "longitude": "-90.09325124965032",
    "latitude": "29.921662898165362",
    "geocoded_column": {
      "latitude": "29.921662898165362",
      "longitude": "-90.09325124965032"
    }
  },
  {
    "service_request": "2022-941413",
    "request_type": "Trash/Recycling",
    "request_reason": "Repair Recycling Cart",
    "date_created": "2022-11-09T21:39:11.000",
    "date_modified": "2022-11-09T21:39:11.000",
    "request_status": "Pending",
    "responsible_agency": "Department of Sanitation",
    "final_address": "7160 E Tamaron Blvd",
    "address_councildis": "E",
    "status": "Pending",
    "rowid": "941413",
    "final_x": "3718289.69036",
    "final_y": "569196.475238",
    "longitude": "-89.9504673882969",
    "latitude": "30.05792291461093",
    "geocoded_column": {
      "latitude": "30.05792291461093",
      "longitude": "-89.9504673882969"
    }
  },
  {
    "service_request": "2022-941412",
    "request_type": "Trash/Recycling",
    "request_reason": "Illegal Dumping",
    "date_created": "2022-11-09T21:32:32.000",
    "date_modified": "2022-11-09T21:32:32.000",
    "request_status": "Pending",
    "responsible_agency": "Department of Sanitation",
    "final_address": "3715 Marais St",
    "address_councildis": "D",
    "status": "Pending",
    "rowid": "941412",
    "final_x": "3691192.0038",
    "final_y": "535906.723527",
    "longitude": "-90.03730990451253",
    "latitude": "29.967259808139577",
    "geocoded_column": {
      "latitude": "29.967259808139577",
      "longitude": "-90.03730990451253"
    }
  },
  {
    "service_request": "2022-941411",
    "request_type": "Trash/Recycling",
    "request_reason": "Replace Trash Cart",
    "date_created": "2022-11-09T21:30:09.000",
    "date_modified": "2022-11-09T21:30:10.000",
    "request_status": "Pending",
    "responsible_agency": "Department of Sanitation",
    "final_address": "110 Pinehurst Ct",
    "address_councildis": "E",
    "status": "Assigned to Contractor",
    "contractor": "Waste Pro",
    "rowid": "941411",
    "final_x": "3720086.9575",
    "final_y": "564679.984546",
    "longitude": "-89.94495948667388",
    "latitude": "30.045444671123985",
    "geocoded_column": {
      "latitude": "30.045444671123985",
      "longitude": "-89.94495948667388"
    }
  },
  {
    "service_request": "2022-941410",
    "request_type": "Trash/Recycling",
    "request_reason": "Illegal Dumping",
    "date_created": "2022-11-09T21:28:50.000",
    "date_modified": "2022-11-09T21:28:50.000",
    "request_status": "Pending",
    "responsible_agency": "Department of Sanitation",
    "final_address": "2776 Dreux Ave",
    "address_councildis": "D",
    "status": "Pending",
    "rowid": "941410",
    "final_x": "3688006.84265",
    "final_y": "552296.080982",
    "longitude": "-90.04678752035544",
    "latitude": "30.0124233440232",
    "geocoded_column": {
      "latitude": "30.0124233440232",
      "longitude": "-90.04678752035544"
    }
  },
  {
    "service_request": "2022-941409",
    "request_type": "Trash/Recycling",
    "request_reason": "Order Trash Cart",
    "date_created": "2022-11-09T21:26:52.000",
    "date_modified": "2022-11-09T21:26:53.000",
    "request_status": "Pending",
    "responsible_agency": "Department of Sanitation",
    "final_address": "6624 Louis Xiv St",
    "address_councildis": "A",
    "status": "Assigned to Contractor",
    "contractor": "IV Waste",
    "rowid": "941409",
    "final_x": "3668381.11316",
    "final_y": "551712.510037",
    "longitude": "-90.10881378541849",
    "latitude": "30.011410030390028",
    "geocoded_column": {
      "latitude": "30.011410030390028",
      "longitude": "-90.10881378541849"
    }
  },
  {
    "service_request": "2022-941407",
    "request_type": "Trash/Recycling",
    "request_reason": "Order Recycling Cart",
    "date_created": "2022-11-09T21:21:06.000",
    "date_modified": "2022-11-09T21:21:06.000",
    "request_status": "Pending",
    "responsible_agency": "Department of Sanitation",
    "final_address": "414 12Th St",
    "address_councildis": "A",
    "status": "Pending",
    "rowid": "941407",
    "final_x": "3664643.549",
    "final_y": "547812.99637",
    "longitude": "-90.12075271241835",
    "latitude": "30.000797012919758",
    "geocoded_column": {
      "latitude": "30.000797012919758",
      "longitude": "-90.12075271241835"
    }
  },
  {
    "service_request": "2022-941406",
    "request_type": "Trash/Recycling",
    "request_reason": "Order Recycling Cart",
    "date_created": "2022-11-09T21:19:36.000",
    "date_modified": "2022-11-09T21:19:36.000",
    "request_status": "Pending",
    "responsible_agency": "Department of Sanitation",
    "final_address": "4834 Brittany Ct",
    "address_councildis": "E",
    "status": "Pending",
    "rowid": "941406",
    "final_x": "3726822.65357",
    "final_y": "561569.660191",
    "longitude": "-89.9237926450722",
    "latitude": "30.036666442762993",
    "geocoded_column": {
      "latitude": "30.036666442762993",
      "longitude": "-89.9237926450722"
    }
  },
  {
    "service_request": "2022-941405",
    "request_type": "Trash/Recycling",
    "request_reason": "Order Recycling Cart",
    "date_created": "2022-11-09T21:13:11.000",
    "date_modified": "2022-11-09T21:13:11.000",
    "request_status": "Pending",
    "responsible_agency": "Department of Sanitation",
    "final_address": "1335 Mandeville St",
    "address_councildis": "C",
    "status": "Pending",
    "rowid": "941405",
    "final_x": "3685728.6198",
    "final_y": "537400.226888",
    "longitude": "-90.05451066454557",
    "latitude": "29.971535205357178",
    "geocoded_column": {
      "latitude": "29.971535205357178",
      "longitude": "-90.05451066454557"
    }
  },
  {
    "service_request": "2022-941404",
    "request_type": "Trash/Recycling",
    "request_reason": "Order Recycling Cart",
    "date_created": "2022-11-09T21:00:25.000",
    "date_modified": "2022-11-09T21:00:25.000",
    "request_status": "Pending",
    "responsible_agency": "Department of Sanitation",
    "final_address": "1020 Music St",
    "address_councildis": "C",
    "status": "Pending",
    "rowid": "941404",
    "final_x": "3686824.17468",
    "final_y": "536280.714375",
    "longitude": "-90.05109031332998",
    "latitude": "29.968423271342054",
    "geocoded_column": {
      "latitude": "29.968423271342054",
      "longitude": "-90.05109031332998"
    }
  },
  {
    "service_request": "2022-941403",
    "request_type": "Trash/Recycling",
    "request_reason": "Order Recycling Cart",
    "date_created": "2022-11-09T20:50:00.000",
    "date_modified": "2022-11-09T20:50:00.000",
    "request_status": "Pending",
    "responsible_agency": "Department of Sanitation",
    "final_address": "7300 Morrison Rd",
    "address_councildis": "E",
    "status": "Pending",
    "rowid": "941403",
    "final_x": "3700403.04509",
    "final_y": "559212.498332",
    "longitude": "-90.00736982328631",
    "latitude": "30.031052315707075",
    "geocoded_column": {
      "latitude": "30.031052315707075",
      "longitude": "-90.00736982328631"
    }
  },
  {
    "service_request": "2022-941402",
    "request_type": "Trash/Recycling",
    "request_reason": "MIssed Recycling Pick-Up",
    "date_created": "2022-11-09T20:35:03.000",
    "date_modified": "2022-11-09T20:35:03.000",
    "request_status": "Pending",
    "responsible_agency": "Department of Sanitation",
    "final_address": "1553 Athis St",
    "address_councildis": "D",
    "status": "Assigned to Contractor",
    "contractor": "IV Waste",
    "rowid": "941402",
    "final_x": "3678792.42478",
    "final_y": "553846.030231",
    "longitude": "-90.07584620353903",
    "latitude": "30.01696640158391",
    "geocoded_column": {
      "latitude": "30.01696640158391",
      "longitude": "-90.07584620353903"
    }
  },
  {
    "service_request": "2022-941401",
    "request_type": "Trash/Recycling",
    "request_reason": "Replace Recycling Cart",
    "date_created": "2022-11-09T20:28:03.000",
    "date_modified": "2022-11-09T20:28:03.000",
    "request_status": "Pending",
    "responsible_agency": "Department of Sanitation",
    "final_address": "714 Touro St",
    "address_councildis": "C",
    "status": "Pending",
    "rowid": "941401",
    "final_x": "3684301.40284",
    "final_y": "534932.39431",
    "longitude": "-90.05910468970768",
    "latitude": "29.96479324136741",
    "geocoded_column": {
      "latitude": "29.96479324136741",
      "longitude": "-90.05910468970768"
    }
  },
  {
    "service_request": "2022-941400",
    "request_type": "Trash/Recycling",
    "request_reason": "Order Recycling Cart",
    "date_created": "2022-11-09T20:23:40.000",
    "date_modified": "2022-11-09T20:23:40.000",
    "request_status": "Pending",
    "responsible_agency": "Department of Sanitation",
    "final_address": "4060 Clermont Dr",
    "address_councildis": "D",
    "status": "Pending",
    "rowid": "941400",
    "final_x": "3684794.81474",
    "final_y": "547439.401809",
    "longitude": "-90.05710662414494",
    "latitude": "29.9991680088125",
    "geocoded_column": {
      "latitude": "29.9991680088125",
      "longitude": "-90.05710662414494"
    }
  },
  {
    "service_request": "2022-941399",
    "request_type": "Trash/Recycling",
    "request_reason": "Request a Large Item Pick Up",
    "date_created": "2022-11-09T20:22:04.000",
    "date_modified": "2022-11-09T20:22:05.000",
    "request_status": "Pending",
    "responsible_agency": "Department of Sanitation",
    "final_address": "4315 S Derbigny St",
    "address_councildis": "B",
    "status": "Assigned to Contractor",
    "contractor": "Richards Disposal",
    "rowid": "941399",
    "final_x": "3670572.56795",
    "final_y": "526321.31411",
    "longitude": "-90.10275160340542",
    "latitude": "29.94152825818461",
    "geocoded_column": {
      "latitude": "29.94152825818461",
      "longitude": "-90.10275160340542"
    }
  },
  {
    "service_request": "2022-941398",
    "request_type": "Trash/Recycling",
    "request_reason": "Repair Trash Cart",
    "date_created": "2022-11-09T20:21:37.000",
    "date_modified": "2022-11-09T20:21:38.000",
    "request_status": "Pending",
    "responsible_agency": "Department of Sanitation",
    "final_address": "1226 St Andrew St",
    "address_councildis": "B",
    "status": "Assigned to Contractor",
    "contractor": "Richards Disposal",
    "rowid": "941398",
    "final_x": "3679110.18703",
    "final_y": "523019.530171",
    "longitude": "-90.07591104315095",
    "latitude": "29.932194563053883",
    "geocoded_column": {
      "latitude": "29.932194563053883",
      "longitude": "-90.07591104315095"
    }
  },
  {
    "service_request": "2022-941397",
    "request_type": "Trash/Recycling",
    "request_reason": "Order Recycling Cart",
    "date_created": "2022-11-09T20:19:33.000",
    "date_modified": "2022-11-09T20:19:33.000",
    "request_status": "Pending",
    "responsible_agency": "Department of Sanitation",
    "final_address": "3700 S Liberty St",
    "address_councildis": "B",
    "status": "Pending",
    "rowid": "941397",
    "final_x": "3672505.96673",
    "final_y": "523552.462267",
    "longitude": "-90.09674181003618",
    "latitude": "29.933857580015424",
    "geocoded_column": {
      "latitude": "29.933857580015424",
      "longitude": "-90.09674181003618"
    }
  },
  {
    "service_request": "2022-941396",
    "request_type": "Trash/Recycling",
    "request_reason": "Order Recycling Cart",
    "date_created": "2022-11-09T20:17:34.000",
    "date_modified": "2022-11-09T20:17:34.000",
    "request_status": "Pending",
    "responsible_agency": "Department of Sanitation",
    "final_address": "11420 Maxine Dr",
    "address_councildis": "E",
    "status": "Pending",
    "rowid": "941396",
    "final_x": "3718652.18719",
    "final_y": "560666.855262",
    "longitude": "-89.94964716630983",
    "latitude": "30.034457921998914",
    "geocoded_column": {
      "latitude": "30.034457921998914",
      "longitude": "-89.94964716630983"
    }
  },
  {
    "service_request": "2022-941395",
    "request_type": "Trash/Recycling",
    "request_reason": "Order Trash Cart",
    "date_created": "2022-11-09T20:16:39.000",
    "date_modified": "2022-11-09T20:16:39.000",
    "request_status": "Pending",
    "responsible_agency": "Department of Sanitation",
    "final_address": "2917 Hamilton St",
    "address_councildis": "A",
    "status": "Assigned to Contractor",
    "contractor": "Richards Disposal",
    "rowid": "941395",
    "final_x": "3663585.31488",
    "final_y": "535344.656454",
    "longitude": "-90.12451130261263",
    "latitude": "29.966544012576186",
    "geocoded_column": {
      "latitude": "29.966544012576186",
      "longitude": "-90.12451130261263"
    }
  },
  {
    "service_request": "2022-941394",
    "request_type": "Trash/Recycling",
    "request_reason": "Order Recycling Cart",
    "date_created": "2022-11-09T20:15:21.000",
    "date_modified": "2022-11-09T20:15:21.000",
    "request_status": "Pending",
    "responsible_agency": "Department of Sanitation",
    "final_address": "4754 Dodt Ave",
    "address_councildis": "E",
    "status": "Pending",
    "rowid": "941394",
    "final_x": "3705375.98443",
    "final_y": "555463.432921",
    "longitude": "-89.99179400735721",
    "latitude": "30.02058467350095",
    "geocoded_column": {
      "latitude": "30.02058467350095",
      "longitude": "-89.99179400735721"
    }
  },
  {
    "service_request": "2022-941393",
    "request_type": "Trash/Recycling",
    "request_reason": "Request a Large Item Pick Up",
    "date_created": "2022-11-09T20:10:50.000",
    "date_modified": "2022-11-09T20:10:51.000",
    "request_status": "Pending",
    "responsible_agency": "Department of Sanitation",
    "final_address": "1331 Poland Ave",
    "address_councildis": "D",
    "status": "Assigned to Contractor",
    "contractor": "IV Waste",
    "rowid": "941393",
    "final_x": "3693365.04349",
    "final_y": "536012.072135",
    "longitude": "-90.03044366573775",
    "latitude": "29.967481718080315",
    "geocoded_column": {
      "latitude": "29.967481718080315",
      "longitude": "-90.03044366573775"
    }
  },
  {
    "service_request": "2022-941392",
    "request_type": "Trash/Recycling",
    "request_reason": "Replace Trash Cart",
    "date_created": "2022-11-09T20:09:21.000",
    "date_modified": "2022-11-09T20:09:22.000",
    "request_status": "Pending",
    "responsible_agency": "Department of Sanitation",
    "final_address": "2901 Upperline St",
    "address_councildis": "B",
    "status": "Assigned to Contractor",
    "contractor": "Richards Disposal",
    "rowid": "941392",
    "final_x": "3669253.41742",
    "final_y": "525363.675645",
    "longitude": "-90.10694879507726",
    "latitude": "29.938933950873043",
    "geocoded_column": {
      "latitude": "29.938933950873043",
      "longitude": "-90.10694879507726"
    }
  },
  {
    "service_request": "2022-941391",
    "request_type": "Trash/Recycling",
    "request_reason": "Order Recycling Cart",
    "date_created": "2022-11-09T20:08:16.000",
    "date_modified": "2022-11-09T20:08:16.000",
    "request_status": "Pending",
    "responsible_agency": "Department of Sanitation",
    "final_address": "2901 Upperline St",
    "address_councildis": "B",
    "status": "Pending",
    "rowid": "941391",
    "final_x": "3669253.41742",
    "final_y": "525363.675645",
    "longitude": "-90.10694879507726",
    "latitude": "29.938933950873043",
    "geocoded_column": {
      "latitude": "29.938933950873043",
      "longitude": "-90.10694879507726"
    }
  },
  {
    "service_request": "2022-941390",
    "request_type": "Trash/Recycling",
    "request_reason": "Order Recycling Cart",
    "date_created": "2022-11-09T20:04:07.000",
    "date_modified": "2022-11-09T20:04:07.000",
    "request_status": "Pending",
    "responsible_agency": "Department of Sanitation",
    "final_address": "4901 Gilbert St",
    "address_councildis": "E",
    "status": "Pending",
    "rowid": "941390",
    "final_x": "3729480.87622",
    "final_y": "562539.457696",
    "longitude": "-89.9153543121769",
    "latitude": "30.039242802606747",
    "geocoded_column": {
      "latitude": "30.039242802606747",
      "longitude": "-89.9153543121769"
    }
  },
  {
    "service_request": "2022-941389",
    "request_type": "Trash/Recycling",
    "request_reason": "Order Recycling Cart",
    "date_created": "2022-11-09T20:03:04.000",
    "date_modified": "2022-11-09T20:03:04.000",
    "request_status": "Pending",
    "responsible_agency": "Department of Sanitation",
    "final_address": "4903 Gilbert St",
    "address_councildis": "E",
    "status": "Pending",
    "rowid": "941389",
    "final_x": "3729472.54285",
    "final_y": "562565.152096",
    "longitude": "-89.91537964278278",
    "latitude": "30.039313735051078",
    "geocoded_column": {
      "latitude": "30.039313735051078",
      "longitude": "-89.91537964278278"
    }
  },
  {
    "service_request": "2022-941388",
    "request_type": "Trash/Recycling",
    "request_reason": "Order Recycling Cart",
    "date_created": "2022-11-09T20:00:15.000",
    "date_modified": "2022-11-09T20:00:15.000",
    "request_status": "Pending",
    "responsible_agency": "Department of Sanitation",
    "final_address": "6385 Louis Xiv St",
    "address_councildis": "A",
    "status": "Pending",
    "rowid": "941388",
    "final_x": "3668400.94542",
    "final_y": "550017.097556",
    "longitude": "-90.10880837036417",
    "latitude": "30.006747656740856",
    "geocoded_column": {
      "latitude": "30.006747656740856",
      "longitude": "-90.10880837036417"
    }
  },
  {
    "service_request": "2022-941387",
    "request_type": "Trash/Recycling",
    "request_reason": "Order Recycling Cart",
    "date_created": "2022-11-09T19:56:09.000",
    "date_modified": "2022-11-09T19:56:09.000",
    "request_status": "Pending",
    "responsible_agency": "Department of Sanitation",
    "final_address": "4719 Louisa Dr",
    "address_councildis": "D",
    "status": "Pending",
    "rowid": "941387",
    "final_x": "3690962.19376",
    "final_y": "551066.792405",
    "longitude": "-90.03749421592853",
    "latitude": "30.008951683532665",
    "geocoded_column": {
      "latitude": "30.008951683532665",
      "longitude": "-90.03749421592853"
    }
  },
  {
    "service_request": "2022-941386",
    "request_type": "Tax and Revenue",
    "request_reason": "Hotel/Motel",
    "date_created": "2022-11-09T19:53:28.000",
    "date_modified": "2022-11-09T19:53:28.000",
    "request_status": "Pending",
    "responsible_agency": "Bureau of Revenue",
    "status": "Pending",
    "rowid": "941386",
    "longitude": "0.0",
    "latitude": "0.0",
    "geocoded_column": {
      "latitude": "0.0",
      "longitude": "0.0"
    }
  },
  {
    "service_request": "2022-941385",
    "request_type": "Trash/Recycling",
    "request_reason": "Order Recycling Cart",
    "date_created": "2022-11-09T19:48:13.000",
    "date_modified": "2022-11-09T19:48:13.000",
    "request_status": "Pending",
    "responsible_agency": "Department of Sanitation",
    "final_address": "5821 Marshal Foch St",
    "address_councildis": "A",
    "status": "Pending",
    "rowid": "941385",
    "final_x": "3669807.14868",
    "final_y": "546018.136208",
    "longitude": "-90.10450128098238",
    "latitude": "29.99571050829986",
    "geocoded_column": {
      "latitude": "29.99571050829986",
      "longitude": "-90.10450128098238"
    }
  },
  {
    "service_request": "2022-941384",
    "request_type": "Trash/Recycling",
    "request_reason": "MIssed Recycling Pick-Up",
    "date_created": "2022-11-09T19:46:58.000",
    "date_modified": "2022-11-09T19:46:59.000",
    "request_status": "Pending",
    "responsible_agency": "Department of Sanitation",
    "final_address": "324 N Lopez St",
    "address_councildis": "B",
    "status": "Assigned to Contractor",
    "contractor": "Richards Disposal",
    "rowid": "941384",
    "final_x": "3674516.97198",
    "final_y": "537005.445064",
    "longitude": "-90.08993228187892",
    "latitude": "29.970788986061788",
    "geocoded_column": {
      "latitude": "29.970788986061788",
      "longitude": "-90.08993228187892"
    }
  },
  {
    "service_request": "2022-941383",
    "request_type": "Trash/Recycling",
    "request_reason": "Order Recycling Cart",
    "date_created": "2022-11-09T19:37:00.000",
    "date_modified": "2022-11-09T19:37:00.000",
    "request_status": "Pending",
    "responsible_agency": "Department of Sanitation",
    "final_address": "4344 Duplessis St",
    "address_councildis": "D",
    "status": "Pending",
    "rowid": "941383",
    "final_x": "3678197.67982",
    "final_y": "548377.748434",
    "longitude": "-90.07791464986758",
    "latitude": "30.001948518956524",
    "geocoded_column": {
      "latitude": "30.001948518956524",
      "longitude": "-90.07791464986758"
    }
  },
  {
    "service_request": "2022-941382",
    "request_type": "Trash/Recycling",
    "request_reason": "Order Recycling Cart",
    "date_created": "2022-11-09T19:34:06.000",
    "date_modified": "2022-11-09T19:34:06.000",
    "request_status": "Pending",
    "responsible_agency": "Department of Sanitation",
    "final_address": "4808 St Anthony Ave",
    "address_councildis": "D",
    "status": "Pending",
    "rowid": "941382",
    "final_x": "3682307.62908",
    "final_y": "550260.53186",
    "longitude": "-90.06486503402151",
    "latitude": "30.007001040060846",
    "geocoded_column": {
      "latitude": "30.007001040060846",
      "longitude": "-90.06486503402151"
    }
  },
  {
    "service_request": "2022-941381",
    "request_type": "Trash/Recycling",
    "request_reason": "Request a Large Item Pick Up",
    "date_created": "2022-11-09T19:31:47.000",
    "date_modified": "2022-11-09T19:33:44.000",
    "request_status": "Pending",
    "responsible_agency": "Department of Sanitation",
    "final_address": "7624 Ebbtide Dr",
    "address_councildis": "E",
    "status": "Assigned to Contractor",
    "contractor": "Waste Pro",
    "rowid": "941381",
    "final_x": "3702117.06276",
    "final_y": "561471.925791",
    "longitude": "-90.0018705458201",
    "latitude": "30.03721021208366",
    "geocoded_column": {
      "latitude": "30.03721021208366",
      "longitude": "-90.0018705458201"
    }
  },
  {
    "service_request": "2022-941380",
    "request_type": "Trash/Recycling",
    "request_reason": "Order Trash Cart",
    "date_created": "2022-11-09T19:31:09.000",
    "date_modified": "2022-11-09T19:31:10.000",
    "request_status": "Pending",
    "responsible_agency": "Department of Sanitation",
    "final_address": "5928 Campus Blvd",
    "address_councildis": "D",
    "status": "Assigned to Contractor",
    "contractor": "IV Waste",
    "rowid": "941380",
    "final_x": "3688506.31734",
    "final_y": "555224.625753",
    "longitude": "-90.04510544020805",
    "latitude": "30.020460329154933",
    "geocoded_column": {
      "latitude": "30.020460329154933",
      "longitude": "-90.04510544020805"
    }
  },
  {
    "service_request": "2022-941379",
    "request_type": "Trash/Recycling",
    "request_reason": "Order Trash Cart",
    "date_created": "2022-11-09T19:29:45.000",
    "date_modified": "2022-11-09T19:29:46.000",
    "request_status": "Pending",
    "responsible_agency": "Department of Sanitation",
    "final_address": "2677 Gladiolus St",
    "address_councildis": "D",
    "status": "Assigned to Contractor",
    "contractor": "IV Waste",
    "rowid": "941379",
    "final_x": "3687689.18646",
    "final_y": "547628.912978",
    "longitude": "-90.04795654719149",
    "latitude": "29.999600137470505",
    "geocoded_column": {
      "latitude": "29.999600137470505",
      "longitude": "-90.04795654719149"
    }
  },
  {
    "service_request": "2022-941378",
    "request_type": "Trash/Recycling",
    "request_reason": "Order Recycling Cart",
    "date_created": "2022-11-09T19:27:48.000",
    "date_modified": "2022-11-09T19:27:48.000",
    "request_status": "Pending",
    "responsible_agency": "Department of Sanitation",
    "final_address": "2613 Deers St",
    "address_councildis": "D",
    "status": "Pending",
    "rowid": "941378",
    "final_x": "3688255.35369",
    "final_y": "542291.114829",
    "longitude": "-90.04635740186127",
    "latitude": "29.98490563571773",
    "geocoded_column": {
      "latitude": "29.98490563571773",
      "longitude": "-90.04635740186127"
    }
  },
  {
    "service_request": "2022-941377",
    "request_type": "Trash/Recycling",
    "request_reason": "Replace Trash Cart",
    "date_created": "2022-11-09T19:26:29.000",
    "date_modified": "2022-11-09T19:26:30.000",
    "request_status": "Pending",
    "responsible_agency": "Department of Sanitation",
    "final_address": "2613 Deers St",
    "address_councildis": "D",
    "status": "Assigned to Contractor",
    "contractor": "IV Waste",
    "rowid": "941377",
    "final_x": "3688255.35369",
    "final_y": "542291.114829",
    "longitude": "-90.04635740186127",
    "latitude": "29.98490563571773",
    "geocoded_column": {
      "latitude": "29.98490563571773",
      "longitude": "-90.04635740186127"
    }
  },
  {
    "service_request": "2022-941376",
    "request_type": "Trash/Recycling",
    "request_reason": "Order Recycling Cart",
    "date_created": "2022-11-09T19:09:47.000",
    "date_modified": "2022-11-09T19:09:47.000",
    "request_status": "Pending",
    "responsible_agency": "Department of Sanitation",
    "final_address": "1422 Lizardi St",
    "address_councildis": "E",
    "status": "Pending",
    "rowid": "941376",
    "final_x": "3696865.63914",
    "final_y": "535462.294854",
    "longitude": "-90.01940868671616",
    "latitude": "29.965860115338526",
    "geocoded_column": {
      "latitude": "29.965860115338526",
      "longitude": "-90.01940868671616"
    }
  },
  {
    "service_request": "2022-941375",
    "request_type": "Roads/Drainage",
    "request_reason": "Pothole",
    "date_created": "2022-11-09T19:05:55.000",
    "date_modified": "2022-11-09T19:05:55.000",
    "request_status": "Pending",
    "responsible_agency": "Department of Public Works",
    "final_address": "2016 Broadway St",
    "address_councildis": "A",
    "status": "Pending",
    "rowid": "941375",
    "final_x": "3665793.53312",
    "final_y": "529007.625472",
    "longitude": "-90.11775004832693",
    "latitude": "29.94905500935149",
    "geocoded_column": {
      "latitude": "29.94905500935149",
      "longitude": "-90.11775004832693"
    }
  },
  {
    "service_request": "2022-941374",
    "request_type": "Trash/Recycling",
    "request_reason": "Order Recycling Cart",
    "date_created": "2022-11-09T18:57:20.000",
    "date_modified": "2022-11-09T18:57:20.000",
    "request_status": "Pending",
    "responsible_agency": "Department of Sanitation",
    "final_address": "4921 Robin Hood Dr",
    "address_councildis": "E",
    "status": "Pending",
    "rowid": "941374",
    "final_x": "3717491.64364",
    "final_y": "557787.464667",
    "longitude": "-89.95342418231756",
    "latitude": "30.026579237822908",
    "geocoded_column": {
      "latitude": "30.026579237822908",
      "longitude": "-89.95342418231756"
    }
  },
  {
    "service_request": "2022-941373",
    "request_type": "Traffic Signals/Signs/Striping/Streetlights",
    "request_reason": "Request for Traffic Calming due to Speeding",
    "date_created": "2022-11-09T18:44:22.000",
    "date_modified": "2022-11-09T18:44:22.000",
    "request_status": "Pending",
    "responsible_agency": "Department of Public Works",
    "final_address": "5400 Edenboro Rd",
    "address_councildis": "E",
    "status": "Pending",
    "rowid": "941373",
    "final_x": "3708240.01355",
    "final_y": "557661.909659",
    "longitude": "-89.98266273235349",
    "latitude": "30.02653711565628",
    "geocoded_column": {
      "latitude": "30.02653711565628",
      "longitude": "-89.98266273235349"
    }
  },
  {
    "service_request": "2022-941372",
    "request_type": "Abandoned Vehicles",
    "request_reason": "Abandoned/Junk Vehicles",
    "date_created": "2022-11-09T18:43:58.000",
    "date_modified": "2022-11-09T18:43:59.000",
    "request_status": "Pending",
    "responsible_agency": "Department of Public Works",
    "final_address": "2225 Chartres St",
    "address_councildis": "C",
    "status": "Pending",
    "rowid": "941372",
    "final_x": "3685427.13129",
    "final_y": "534562.120325",
    "longitude": "-90.05556275948645",
    "latitude": "29.963740645971228",
    "geocoded_column": {
      "latitude": "29.963740645971228",
      "longitude": "-90.05556275948645"
    }
  },
  {
    "service_request": "2022-941371",
    "request_type": "Property Maintenance",
    "request_reason": "Property Maintenance",
    "date_created": "2022-11-09T18:41:09.000",
    "date_modified": "2022-11-09T18:41:09.000",
    "request_status": "Pending",
    "responsible_agency": "Department of Code Enforcement",
    "final_address": "5501 Edenboro Rd",
    "address_councildis": "E",
    "status": "Pending",
    "rowid": "941371",
    "final_x": "3708222.78052",
    "final_y": "558086.456859",
    "longitude": "-89.98270137350146",
    "latitude": "30.027705012642564",
    "geocoded_column": {
      "latitude": "30.027705012642564",
      "longitude": "-89.98270137350146"
    }
  },
  {
    "service_request": "2022-941370",
    "request_type": "Trash/Recycling",
    "request_reason": "Order Recycling Cart",
    "date_created": "2022-11-09T18:39:55.000",
    "date_modified": "2022-11-09T18:39:55.000",
    "request_status": "Pending",
    "responsible_agency": "Department of Sanitation",
    "final_address": "4409 Dreux Ave",
    "address_councildis": "D",
    "status": "Pending",
    "rowid": "941370",
    "final_x": "3690006.33321",
    "final_y": "552906.737495",
    "longitude": "-90.04044849727012",
    "latitude": "30.014040542123023",
    "geocoded_column": {
      "latitude": "30.014040542123023",
      "longitude": "-90.04044849727012"
    }
  },
  {
    "service_request": "2022-941369",
    "request_type": "Mosquito, Termite & Rodent Control",
    "request_reason": "Rodent Complaint (Rats)",
    "date_created": "2022-11-09T18:36:56.000",
    "date_modified": "2022-11-09T18:37:23.000",
    "request_status": "Pending",
    "responsible_agency": "Mosquito, Termite & Rodent Control Board",
    "final_address": "2300 New York St",
    "address_councildis": "D",
    "status": "Pending",
    "rowid": "941369",
    "final_x": "3684209.83765",
    "final_y": "556555.468314",
    "longitude": "-90.05863421312304",
    "latitude": "30.024251773216537",
    "geocoded_column": {
      "latitude": "30.024251773216537",
      "longitude": "-90.05863421312304"
    }
  },
  {
    "service_request": "2022-941368",
    "request_type": "Trash/Recycling",
    "request_reason": "Order Recycling Cart",
    "date_created": "2022-11-09T18:31:59.000",
    "date_modified": "2022-11-09T18:31:59.000",
    "request_status": "Pending",
    "responsible_agency": "Department of Sanitation",
    "final_address": "13081 Cherbourg St",
    "address_councildis": "E",
    "status": "Pending",
    "rowid": "941368",
    "final_x": "3724351.5278",
    "final_y": "561179.562142",
    "longitude": "-89.93161689017259",
    "latitude": "30.03567718521097",
    "geocoded_column": {
      "latitude": "30.03567718521097",
      "longitude": "-89.93161689017259"
    }
  },
  {
    "service_request": "2022-941367",
    "request_type": "Trash/Recycling",
    "request_reason": "Replace Trash Cart",
    "date_created": "2022-11-09T18:29:46.000",
    "date_modified": "2022-11-09T18:29:46.000",
    "request_status": "Pending",
    "responsible_agency": "Department of Sanitation",
    "final_address": "7151 Lake Barrington Dr",
    "address_councildis": "E",
    "status": "Assigned to Contractor",
    "contractor": "Waste Pro",
    "rowid": "941367",
    "final_x": "3712373.46821",
    "final_y": "564339.884705",
    "longitude": "-89.96935042144965",
    "latitude": "30.044764261035805",
    "geocoded_column": {
      "latitude": "30.044764261035805",
      "longitude": "-89.96935042144965"
    }
  },
  {
    "service_request": "2022-941366",
    "request_type": "Property Maintenance",
    "request_reason": "Property Maintenance",
    "date_created": "2022-11-09T18:29:12.000",
    "date_modified": "2022-11-09T18:33:29.000",
    "request_status": "Pending",
    "responsible_agency": "Department of Code Enforcement",
    "final_address": "2132 Iberville St",
    "address_councildis": "B",
    "status": "Pending",
    "rowid": "941366",
    "final_x": "3677287.86792",
    "final_y": "534134.453829",
    "longitude": "-90.08128051808279",
    "latitude": "29.962811767980156",
    "geocoded_column": {
      "latitude": "29.962811767980156",
      "longitude": "-90.08128051808279"
    }
  },
  {
    "service_request": "2022-941365",
    "request_type": "Trash/Recycling",
    "request_reason": "Order Recycling Cart",
    "date_created": "2022-11-09T18:28:16.000",
    "date_modified": "2022-11-09T18:28:16.000",
    "request_status": "Pending",
    "responsible_agency": "Department of Sanitation",
    "final_address": "7151 Lake Barrington Dr",
    "address_councildis": "E",
    "status": "Pending",
    "rowid": "941365",
    "final_x": "3712373.46821",
    "final_y": "564339.884705",
    "longitude": "-89.96935042144965",
    "latitude": "30.044764261035805",
    "geocoded_column": {
      "latitude": "30.044764261035805",
      "longitude": "-89.96935042144965"
    }
  },
  {
    "service_request": "2022-941364",
    "request_type": "Trash/Recycling",
    "request_reason": "Order Recycling Cart",
    "date_created": "2022-11-09T18:25:42.000",
    "date_modified": "2022-11-09T18:25:42.000",
    "request_status": "Pending",
    "responsible_agency": "Department of Sanitation",
    "final_address": "2209 Bartholomew St",
    "address_councildis": "D",
    "status": "Pending",
    "rowid": "941364",
    "final_x": "3692896.10595",
    "final_y": "539519.743242",
    "longitude": "-90.03179874891572",
    "latitude": "29.97714122036426",
    "geocoded_column": {
      "latitude": "29.97714122036426",
      "longitude": "-90.03179874891572"
    }
  },
  {
    "service_request": "2022-941363",
    "request_type": "Traffic Signals/Signs/Striping/Streetlights",
    "request_reason": "Street Light Outage/Malfunction",
    "date_created": "2022-11-09T18:21:59.000",
    "date_modified": "2022-11-09T18:21:59.000",
    "request_status": "Pending",
    "responsible_agency": "Department of Public Works",
    "final_address": "1711 Allen Toussaint Blvd",
    "address_councildis": "D",
    "status": "Pending",
    "contractor": "Legacy Professional Services",
    "rowid": "941363",
    "final_x": "3679744.27944",
    "final_y": "555549.811289",
    "longitude": "-90.07277951553702",
    "latitude": "30.0216224226422",
    "geocoded_column": {
      "latitude": "30.0216224226422",
      "longitude": "-90.07277951553702"
    }
  },
  {
    "service_request": "2022-941362",
    "request_type": "Traffic Signals/Signs/Striping/Streetlights",
    "request_reason": "Street Light Outage/Malfunction",
    "date_created": "2022-11-09T18:21:17.000",
    "date_modified": "2022-11-09T18:21:18.000",
    "request_status": "Pending",
    "responsible_agency": "Department of Public Works",
    "final_address": "1711 Allen Toussaint Blvd",
    "address_councildis": "D",
    "status": "Pending",
    "contractor": "Legacy Professional Services",
    "rowid": "941362",
    "final_x": "3679744.27944",
    "final_y": "555549.811289",
    "longitude": "-90.07277951553702",
    "latitude": "30.0216224226422",
    "geocoded_column": {
      "latitude": "30.0216224226422",
      "longitude": "-90.07277951553702"
    }
  },
  {
    "service_request": "2022-941361",
    "request_type": "Traffic Signals/Signs/Striping/Streetlights",
    "request_reason": "Street Light Outage/Malfunction",
    "date_created": "2022-11-09T18:20:51.000",
    "date_modified": "2022-11-09T18:20:51.000",
    "request_status": "Pending",
    "responsible_agency": "Department of Public Works",
    "final_address": "1711 Allen Toussaint Blvd",
    "address_councildis": "D",
    "status": "Pending",
    "contractor": "Legacy Professional Services",
    "rowid": "941361",
    "final_x": "3679744.27944",
    "final_y": "555549.811289",
    "longitude": "-90.07277951553702",
    "latitude": "30.0216224226422",
    "geocoded_column": {
      "latitude": "30.0216224226422",
      "longitude": "-90.07277951553702"
    }
  },
  {
    "service_request": "2022-941360",
    "request_type": "Trash/Recycling",
    "request_reason": "Replace Trash Cart",
    "date_created": "2022-11-09T18:20:24.000",
    "date_modified": "2022-11-09T18:20:25.000",
    "request_status": "Pending",
    "responsible_agency": "Department of Sanitation",
    "final_address": "1725 N Dupre St",
    "address_councildis": "D",
    "status": "Assigned to Contractor",
    "contractor": "IV Waste",
    "rowid": "941360",
    "final_x": "3679022.17525",
    "final_y": "541326.693644",
    "longitude": "-90.07555448893079",
    "latitude": "29.982535733454235",
    "geocoded_column": {
      "latitude": "29.982535733454235",
      "longitude": "-90.07555448893079"
    }
  },
  {
    "service_request": "2022-941359",
    "request_type": "Traffic Signals/Signs/Striping/Streetlights",
    "request_reason": "Street Light Outage/Malfunction",
    "date_created": "2022-11-09T18:15:55.000",
    "date_modified": "2022-11-09T18:15:55.000",
    "request_status": "Pending",
    "responsible_agency": "Department of Public Works",
    "final_address": "5134 Louisa Dr",
    "address_councildis": "D",
    "status": "Pending",
    "contractor": "Legacy Professional Services",
    "rowid": "941359",
    "final_x": "3690504.29072",
    "final_y": "552781.48143",
    "longitude": "-90.03887967998035",
    "latitude": "30.0136806758531",
    "geocoded_column": {
      "latitude": "30.0136806758531",
      "longitude": "-90.03887967998035"
    }
  },
  {
    "service_request": "2022-941358",
    "request_type": "Trash/Recycling",
    "request_reason": "Order Trash Cart",
    "date_created": "2022-11-09T18:09:55.000",
    "date_modified": "2022-11-09T18:09:56.000",
    "request_status": "Pending",
    "responsible_agency": "Department of Sanitation",
    "final_address": "6220 Eastover Dr",
    "address_councildis": "E",
    "status": "Assigned to Contractor",
    "contractor": "Waste Pro",
    "rowid": "941358",
    "final_x": "3717372.8709",
    "final_y": "564672.009634",
    "longitude": "-89.95353752588059",
    "latitude": "30.045512886780045",
    "geocoded_column": {
      "latitude": "30.045512886780045",
      "longitude": "-89.95353752588059"
    }
  },
  {
    "service_request": "2022-941357",
    "request_type": "Trash/Recycling",
    "request_reason": "Order Recycling Cart",
    "date_created": "2022-11-09T18:06:06.000",
    "date_modified": "2022-11-09T18:06:06.000",
    "request_status": "Pending",
    "responsible_agency": "Department of Sanitation",
    "final_address": "4718 Charlmark Dr",
    "address_councildis": "E",
    "status": "Pending",
    "rowid": "941357",
    "final_x": "3711366.81746",
    "final_y": "555840.151065",
    "longitude": "-89.97285082675575",
    "latitude": "30.02142628092695",
    "geocoded_column": {
      "latitude": "30.02142628092695",
      "longitude": "-89.97285082675575"
    }
  },
  {
    "service_request": "2022-941356",
    "request_type": "Trash/Recycling",
    "request_reason": "Order Trash Cart",
    "date_created": "2022-11-09T18:05:57.000",
    "date_modified": "2022-11-09T18:05:58.000",
    "request_status": "Pending",
    "responsible_agency": "Department of Sanitation",
    "final_address": "6090 Wright Rd New Orleans",
    "address_councildis": "E",
    "status": "Assigned to Contractor",
    "contractor": "Waste Pro",
    "rowid": "941356",
    "final_x": "3712804.64184",
    "final_y": "563040.229344",
    "longitude": "-89.96803666777583",
    "latitude": "30.041176612956647",
    "geocoded_column": {
      "latitude": "30.041176612956647",
      "longitude": "-89.96803666777583"
    }
  },
  {
    "service_request": "2022-941355",
    "request_type": "Trash/Recycling",
    "request_reason": "Repair Trash Cart",
    "date_created": "2022-11-09T18:04:00.000",
    "date_modified": "2022-11-09T18:04:01.000",
    "request_status": "Pending",
    "responsible_agency": "Department of Sanitation",
    "final_address": "7231 Queensway Dr",
    "address_councildis": "E",
    "status": "Assigned to Contractor",
    "contractor": "Waste Pro",
    "rowid": "941355",
    "final_x": "3718653.9285",
    "final_y": "570295.845159",
    "longitude": "-89.9492741141066",
    "latitude": "30.060933632641994",
    "geocoded_column": {
      "latitude": "30.060933632641994",
      "longitude": "-89.9492741141066"
    }
  },
  {
    "service_request": "2022-941354",
    "request_type": "Trash/Recycling",
    "request_reason": "Order Recycling Cart",
    "date_created": "2022-11-09T18:02:08.000",
    "date_modified": "2022-11-09T18:02:09.000",
    "request_status": "Pending",
    "responsible_agency": "Department of Sanitation",
    "final_address": "7231 Queensway Dr",
    "address_councildis": "E",
    "status": "Pending",
    "rowid": "941354",
    "final_x": "3718653.9285",
    "final_y": "570295.845159",
    "longitude": "-89.9492741141066",
    "latitude": "30.060933632641994",
    "geocoded_column": {
      "latitude": "30.060933632641994",
      "longitude": "-89.9492741141066"
    }
  },
  {
    "service_request": "2022-941353",
    "request_type": "Trash/Recycling",
    "request_reason": "Repair Trash Cart",
    "date_created": "2022-11-09T18:01:44.000",
    "date_modified": "2022-11-09T18:01:45.000",
    "request_status": "Pending",
    "responsible_agency": "Department of Sanitation",
    "final_address": "4507 Viola St",
    "address_councildis": "E",
    "status": "Assigned to Contractor",
    "contractor": "Waste Pro",
    "rowid": "941353",
    "final_x": "3704192.52119",
    "final_y": "553603.447831",
    "longitude": "-89.99560197970492",
    "latitude": "30.015508474644253",
    "geocoded_column": {
      "latitude": "30.015508474644253",
      "longitude": "-89.99560197970492"
    }
  },
  {
    "service_request": "2022-941352",
    "request_type": "Trash/Recycling",
    "request_reason": "Request a Large Item Pick Up",
    "date_created": "2022-11-09T18:00:48.000",
    "date_modified": "2022-11-09T18:00:49.000",
    "request_status": "Pending",
    "responsible_agency": "Department of Sanitation",
    "final_address": "7231 Queensway Dr",
    "address_councildis": "E",
    "status": "Assigned to Contractor",
    "contractor": "Waste Pro",
    "rowid": "941352",
    "final_x": "3718653.9285",
    "final_y": "570295.845159",
    "longitude": "-89.9492741141066",
    "latitude": "30.060933632641994",
    "geocoded_column": {
      "latitude": "30.060933632641994",
      "longitude": "-89.9492741141066"
    }
  },
  {
    "service_request": "2022-941351",
    "request_type": "Trash/Recycling",
    "request_reason": "Return Recycling Cart",
    "date_created": "2022-11-09T17:57:59.000",
    "date_modified": "2022-11-09T17:57:59.000",
    "request_status": "Pending",
    "responsible_agency": "Department of Sanitation",
    "final_address": "2546 Dumaine St",
    "address_councildis": "D",
    "status": "Pending",
    "rowid": "941351",
    "final_x": "3677631.4349",
    "final_y": "537108.97012",
    "longitude": "-90.08009284159667",
    "latitude": "29.97098034853283",
    "geocoded_column": {
      "latitude": "29.97098034853283",
      "longitude": "-90.08009284159667"
    }
  },
  {
    "service_request": "2022-941350",
    "request_type": "Trash/Recycling",
    "request_reason": "MIssed Recycling Pick-Up",
    "date_created": "2022-11-09T17:54:33.000",
    "date_modified": "2022-11-09T17:54:34.000",
    "request_status": "Pending",
    "responsible_agency": "Department of Sanitation",
    "final_address": "1512 Audubon St",
    "address_councildis": "A",
    "status": "Assigned to Contractor",
    "contractor": "Richards Disposal",
    "rowid": "941350",
    "final_x": "3665060.85274",
    "final_y": "527354.346751",
    "longitude": "-90.12011872023237",
    "latitude": "29.9445303779126",
    "geocoded_column": {
      "latitude": "29.9445303779126",
      "longitude": "-90.12011872023237"
    }
  },
  {
    "service_request": "2022-941348",
    "request_type": "Trash/Recycling",
    "request_reason": "Order Recycling Cart",
    "date_created": "2022-11-09T17:52:31.000",
    "date_modified": "2022-11-09T17:52:32.000",
    "request_status": "Pending",
    "responsible_agency": "Department of Sanitation",
    "final_address": "2422 Lark St",
    "address_councildis": "D",
    "status": "Pending",
    "contractor": "Metro Disposal",
    "rowid": "941348",
    "final_x": "3684835.087",
    "final_y": "557846.080027",
    "longitude": "-90.05661310403092",
    "latitude": "30.027781336340333",
    "geocoded_column": {
      "latitude": "30.027781336340333",
      "longitude": "-90.05661310403092"
    }
  },
  {
    "service_request": "2022-941347",
    "request_type": "Abandoned Vehicles",
    "request_reason": "Abandoned/Junk Vehicles",
    "date_created": "2022-11-09T17:48:44.000",
    "date_modified": "2022-11-09T17:48:44.000",
    "request_status": "Pending",
    "responsible_agency": "Department of Public Works",
    "final_address": "400 BLK Harmony St",
    "address_councildis": "B",
    "status": "Pending",
    "rowid": "941347",
    "final_x": "3676683.16169",
    "final_y": "518267.732937",
    "longitude": "-90.08373652528904",
    "latitude": "29.919201671264148",
    "geocoded_column": {
      "latitude": "29.919201671264148",
      "longitude": "-90.08373652528904"
    }
  },
  {
    "service_request": "2022-941346",
    "request_type": "Trash/Recycling",
    "request_reason": "Order Recycling Cart",
    "date_created": "2022-11-09T17:47:44.000",
    "date_modified": "2022-11-09T17:47:44.000",
    "request_status": "Pending",
    "responsible_agency": "Department of Sanitation",
    "final_address": "6437 Avenue A",
    "address_councildis": "A",
    "status": "Pending",
    "rowid": "941346",
    "final_x": "3666034.26362",
    "final_y": "550975.872341",
    "longitude": "-90.11625319505868",
    "latitude": "30.009453285761023",
    "geocoded_column": {
      "latitude": "30.009453285761023",
      "longitude": "-90.11625319505868"
    }
  },
  {
    "service_request": "2022-941345",
    "request_type": "Traffic Signals/Signs/Striping/Streetlights",
    "request_reason": "Street Light Outage/Malfunction",
    "date_created": "2022-11-09T17:45:54.000",
    "date_modified": "2022-11-09T17:45:55.000",
    "request_status": "Pending",
    "responsible_agency": "Department of Public Works",
    "final_address": "6017 Franklin Ave",
    "address_councildis": "D",
    "status": "Pending",
    "contractor": "Legacy Professional Services",
    "rowid": "941345",
    "final_x": "3686494.45167",
    "final_y": "555341.208473",
    "longitude": "-90.05145819058495",
    "latitude": "30.020842928172048",
    "geocoded_column": {
      "latitude": "30.020842928172048",
      "longitude": "-90.05145819058495"
    }
  },
  {
    "service_request": "2022-941344",
    "request_type": "Traffic Signals/Signs/Striping/Streetlights",
    "request_reason": "Street Light Knocked Down/Leaning",
    "date_created": "2022-11-09T17:44:01.000",
    "date_modified": "2022-11-09T17:44:02.000",
    "request_status": "Pending",
    "responsible_agency": "Department of Public Works",
    "final_address": "1032 Seventh St",
    "address_councildis": "B",
    "status": "Pending",
    "contractor": "Legacy Professional Services",
    "rowid": "941344",
    "final_x": "3676394.83118",
    "final_y": "520205.89452",
    "longitude": "-90.08457996640001",
    "latitude": "29.92453963360026",
    "geocoded_column": {
      "latitude": "29.92453963360026",
      "longitude": "-90.08457996640001"
    }
  },
  {
    "service_request": "2022-941343",
    "request_type": "Trash/Recycling",
    "request_reason": "Order Recycling Cart",
    "date_created": "2022-11-09T17:43:10.000",
    "date_modified": "2022-11-09T17:43:10.000",
    "request_status": "Pending",
    "responsible_agency": "Department of Sanitation",
    "final_address": "6101 Chartres St",
    "address_councildis": "E",
    "status": "Pending",
    "rowid": "941343",
    "final_x": "3698851.81213",
    "final_y": "531611.163651",
    "longitude": "-90.01327656255016",
    "latitude": "29.95520810140405",
    "geocoded_column": {
      "latitude": "29.95520810140405",
      "longitude": "-90.01327656255016"
    }
  },
  {
    "service_request": "2022-941342",
    "request_type": "Traffic Signals/Signs/Striping/Streetlights",
    "request_reason": "Street Light Outage/Malfunction",
    "date_created": "2022-11-09T17:42:49.000",
    "date_modified": "2022-11-09T17:42:50.000",
    "request_status": "Pending",
    "responsible_agency": "Department of Public Works",
    "final_address": "6017 Franklin Ave",
    "address_councildis": "D",
    "status": "Pending",
    "contractor": "Legacy Professional Services",
    "rowid": "941342",
    "final_x": "3686494.45167",
    "final_y": "555341.208473",
    "longitude": "-90.05145819058495",
    "latitude": "30.020842928172048",
    "geocoded_column": {
      "latitude": "30.020842928172048",
      "longitude": "-90.05145819058495"
    }
  },
  {
    "service_request": "2022-941341",
    "request_type": "Trash/Recycling",
    "request_reason": "Order Recycling Cart",
    "date_created": "2022-11-09T17:35:54.000",
    "date_modified": "2022-11-09T17:35:55.000",
    "request_status": "Pending",
    "responsible_agency": "Department of Sanitation",
    "final_address": "1417 Kerlerec St",
    "address_councildis": "C",
    "status": "Pending",
    "rowid": "941341",
    "final_x": "3681951.83394",
    "final_y": "536588.448647",
    "longitude": "-90.06646664643907",
    "latitude": "29.969418455903604",
    "geocoded_column": {
      "latitude": "29.969418455903604",
      "longitude": "-90.06646664643907"
    }
  },
  {
    "service_request": "2022-941340",
    "request_type": "Trash/Recycling",
    "request_reason": "Request a Large Item Pick Up",
    "date_created": "2022-11-09T17:34:58.000",
    "date_modified": "2022-11-09T17:34:59.000",
    "request_status": "Pending",
    "responsible_agency": "Department of Sanitation",
    "final_address": "3817 Palmyra St",
    "address_councildis": "A",
    "status": "Assigned to Contractor",
    "contractor": "Richards Disposal",
    "rowid": "941340",
    "final_x": "3671489.92289",
    "final_y": "537096.625288",
    "longitude": "-90.09948899924301",
    "latitude": "29.971129674039933",
    "geocoded_column": {
      "latitude": "29.971129674039933",
      "longitude": "-90.09948899924301"
    }
  },
  {
    "service_request": "2022-941339",
    "request_type": "Trash/Recycling",
    "request_reason": "Order Recycling Cart",
    "date_created": "2022-11-09T17:33:54.000",
    "date_modified": "2022-11-09T17:33:55.000",
    "request_status": "Pending",
    "responsible_agency": "Department of Sanitation",
    "final_address": "4640 Mandeville St",
    "address_councildis": "D",
    "status": "Pending",
    "rowid": "941339",
    "final_x": "3684650.81039",
    "final_y": "549932.33442",
    "longitude": "-90.05747384803601",
    "latitude": "30.00602708363442",
    "geocoded_column": {
      "latitude": "30.00602708363442",
      "longitude": "-90.05747384803601"
    }
  },
  {
    "service_request": "2022-941338",
    "request_type": "Trash/Recycling",
    "request_reason": "Order Recycling Cart",
    "date_created": "2022-11-09T17:33:03.000",
    "date_modified": "2022-11-09T17:33:04.000",
    "request_status": "Pending",
    "responsible_agency": "Department of Sanitation",
    "final_address": "5148 Franklin Ave",
    "address_councildis": "D",
    "status": "Pending",
    "rowid": "941338",
    "final_x": "3686630.30806",
    "final_y": "551941.100502",
    "longitude": "-90.0511491418666",
    "latitude": "30.0114897034646",
    "geocoded_column": {
      "latitude": "30.0114897034646",
      "longitude": "-90.0511491418666"
    }
  },
  {
    "service_request": "2022-941336",
    "request_type": "Trash/Recycling",
    "request_reason": "Missed Trash Pick-Up",
    "date_created": "2022-11-09T17:29:58.000",
    "date_modified": "2022-11-09T17:29:59.000",
    "request_status": "Pending",
    "responsible_agency": "Department of Sanitation",
    "final_address": "4312 Coliseum St, New Orleans, Louisiana, 70115",
    "address_councildis": "B",
    "status": "Assigned to Contractor",
    "contractor": "Richards Disposal",
    "rowid": "941336",
    "final_x": "3671244.94766",
    "final_y": "519766.51916",
    "longitude": "-90.10085135858562",
    "latitude": "29.92348481027771",
    "geocoded_column": {
      "latitude": "29.92348481027771",
      "longitude": "-90.10085135858562"
    }
  },
  {
    "service_request": "2022-941335",
    "request_type": "Trash/Recycling",
    "request_reason": "Order Trash Cart",
    "date_created": "2022-11-09T17:25:45.000",
    "date_modified": "2022-11-09T17:25:45.000",
    "request_status": "Pending",
    "responsible_agency": "Department of Sanitation",
    "final_address": "5324 Bellaire Dr",
    "address_councildis": "A",
    "status": "Assigned to Contractor",
    "contractor": "IV Waste",
    "rowid": "941335",
    "final_x": "3663935.42643",
    "final_y": "543317.90171",
    "longitude": "-90.12313971300095",
    "latitude": "29.98845761846033",
    "geocoded_column": {
      "latitude": "29.98845761846033",
      "longitude": "-90.12313971300095"
    }
  },
  {
    "service_request": "2022-941334",
    "request_type": "Abandoned Vehicles",
    "request_reason": "Vehicle Blocking Your Driveway",
    "date_created": "2022-11-09T17:22:13.000",
    "date_modified": "2022-11-09T17:22:13.000",
    "request_status": "Pending",
    "responsible_agency": "Department of Public Works",
    "final_address": "1620 Columbus St",
    "address_councildis": "D",
    "status": "Pending",
    "rowid": "941334",
    "final_x": "3681495.60136",
    "final_y": "537311.023944",
    "longitude": "-90.06788226308701",
    "latitude": "29.971419150714496",
    "geocoded_column": {
      "latitude": "29.971419150714496",
      "longitude": "-90.06788226308701"
    }
  },
  {
    "service_request": "2022-941333",
    "request_type": "Abandoned Vehicles",
    "request_reason": "Abandoned/Junk Vehicles",
    "date_created": "2022-11-09T17:18:13.000",
    "date_modified": "2022-11-09T17:18:13.000",
    "request_status": "Pending",
    "responsible_agency": "Department of Public Works",
    "final_address": "1620 Columbus St",
    "address_councildis": "D",
    "status": "Pending",
    "rowid": "941333",
    "final_x": "3681495.60136",
    "final_y": "537311.023944",
    "longitude": "-90.06788226308701",
    "latitude": "29.971419150714496",
    "geocoded_column": {
      "latitude": "29.971419150714496",
      "longitude": "-90.06788226308701"
    }
  },
  {
    "service_request": "2022-941332",
    "request_type": "Trash/Recycling",
    "request_reason": "Order Recycling Cart",
    "date_created": "2022-11-09T17:17:44.000",
    "date_modified": "2022-11-09T17:17:44.000",
    "request_status": "Pending",
    "responsible_agency": "Department of Sanitation",
    "final_address": "1729 N Dupre St",
    "address_councildis": "D",
    "status": "Pending",
    "rowid": "941332",
    "final_x": "3679060.3293",
    "final_y": "541374.024652",
    "longitude": "-90.07543233837187",
    "latitude": "29.982664725620364",
    "geocoded_column": {
      "latitude": "29.982664725620364",
      "longitude": "-90.07543233837187"
    }
  },
  {
    "service_request": "2022-941331",
    "request_type": "Abandoned Vehicles",
    "request_reason": "Abandoned/Junk Vehicles",
    "date_created": "2022-11-09T17:16:11.000",
    "date_modified": "2022-11-09T17:16:12.000",
    "request_status": "Pending",
    "responsible_agency": "Department of Public Works",
    "final_address": "2500 Dumaine St",
    "address_councildis": "D",
    "status": "Pending",
    "rowid": "941331",
    "final_x": "3677912.21173",
    "final_y": "536903.357896",
    "longitude": "-90.07921321866425",
    "latitude": "29.9704065382151",
    "geocoded_column": {
      "latitude": "29.9704065382151",
      "longitude": "-90.07921321866425"
    }
  },
  {
    "service_request": "2022-941330",
    "request_type": "Trash/Recycling",
    "request_reason": "Order Recycling Cart",
    "date_created": "2022-11-09T17:15:29.000",
    "date_modified": "2022-11-09T17:15:29.000",
    "request_status": "Pending",
    "responsible_agency": "Department of Sanitation",
    "final_address": "5324 Bellaire Dr",
    "address_councildis": "A",
    "status": "Pending",
    "rowid": "941330",
    "final_x": "3663935.42643",
    "final_y": "543317.90171",
    "longitude": "-90.12313971300095",
    "latitude": "29.98845761846033",
    "geocoded_column": {
      "latitude": "29.98845761846033",
      "longitude": "-90.12313971300095"
    }
  },
  {
    "service_request": "2022-941329",
    "request_type": "Trash/Recycling",
    "request_reason": "Order Recycling Cart",
    "date_created": "2022-11-09T17:11:05.000",
    "date_modified": "2022-11-09T17:11:06.000",
    "request_status": "Pending",
    "responsible_agency": "Department of Sanitation",
    "final_address": "1243 St Roch Ave",
    "address_councildis": "C",
    "status": "Pending",
    "rowid": "941329",
    "final_x": "3686532.02748",
    "final_y": "537139.83252",
    "longitude": "-90.05198258645376",
    "latitude": "29.970794532641694",
    "geocoded_column": {
      "latitude": "29.970794532641694",
      "longitude": "-90.05198258645376"
    }
  },
  {
    "service_request": "2022-941328",
    "request_type": "Traffic Signals/Signs/Striping/Streetlights",
    "request_reason": "Street Light Outage/Malfunction",
    "date_created": "2022-11-09T17:10:10.000",
    "date_modified": "2022-11-09T17:10:10.000",
    "request_status": "Pending",
    "responsible_agency": "Department of Public Works",
    "final_address": "401 Chartres St",
    "address_councildis": "C",
    "status": "Pending",
    "contractor": "Legacy Professional Services",
    "rowid": "941328",
    "final_x": "3682171.86869",
    "final_y": "531398.720963",
    "longitude": "-90.06595303982735",
    "latitude": "29.955141789987042",
    "geocoded_column": {
      "latitude": "29.955141789987042",
      "longitude": "-90.06595303982735"
    }
  },
  {
    "service_request": "2022-941327",
    "request_type": "Traffic Signals/Signs/Striping/Streetlights",
    "request_reason": "Street Light Outage/Malfunction",
    "date_created": "2022-11-09T17:09:35.000",
    "date_modified": "2022-11-09T17:09:35.000",
    "request_status": "Pending",
    "responsible_agency": "Department of Public Works",
    "final_address": "401 Chartres St",
    "address_councildis": "C",
    "status": "Pending",
    "contractor": "Legacy Professional Services",
    "rowid": "941327",
    "final_x": "3682171.86869",
    "final_y": "531398.720963",
    "longitude": "-90.06595303982735",
    "latitude": "29.955141789987042",
    "geocoded_column": {
      "latitude": "29.955141789987042",
      "longitude": "-90.06595303982735"
    }
  },
  {
    "service_request": "2022-941326",
    "request_type": "Traffic Signals/Signs/Striping/Streetlights",
    "request_reason": "Street Light Outage/Malfunction",
    "date_created": "2022-11-09T17:07:07.000",
    "date_modified": "2022-11-09T17:07:08.000",
    "request_status": "Pending",
    "responsible_agency": "Department of Public Works",
    "final_address": "608 Conti St",
    "address_councildis": "C",
    "status": "Pending",
    "contractor": "Legacy Professional Services",
    "rowid": "941326",
    "final_x": "3682099.02786",
    "final_y": "531396.359747",
    "longitude": "-90.06618312637274",
    "latitude": "29.95513751256635",
    "geocoded_column": {
      "latitude": "29.95513751256635",
      "longitude": "-90.06618312637274"
    }
  },
  {
    "service_request": "2022-941325",
    "request_type": "Trash/Recycling",
    "request_reason": "Missed Trash Pick-Up",
    "date_created": "2022-11-09T17:06:46.000",
    "date_modified": "2022-11-09T17:06:47.000",
    "request_status": "Pending",
    "responsible_agency": "Department of Sanitation",
    "final_address": "3997 Dumaine St",
    "address_councildis": "A",
    "status": "Assigned to Contractor",
    "contractor": "Richards Disposal",
    "rowid": "941325",
    "final_x": "3673433.41076",
    "final_y": "540409.600779",
    "longitude": "-90.09323795742884",
    "latitude": "29.980181542583807",
    "geocoded_column": {
      "latitude": "29.980181542583807",
      "longitude": "-90.09323795742884"
    }
  },
  {
    "service_request": "2022-941324",
    "request_type": "Traffic Signals/Signs/Striping/Streetlights",
    "request_reason": "Street Light Outage/Malfunction",
    "date_created": "2022-11-09T17:05:09.000",
    "date_modified": "2022-11-09T17:05:10.000",
    "request_status": "Pending",
    "responsible_agency": "Department of Public Works",
    "final_address": "680 Conti St",
    "address_councildis": "C",
    "status": "Pending",
    "contractor": "Legacy Professional Services",
    "rowid": "941324",
    "final_x": "3681908.28834",
    "final_y": "531547.275139",
    "longitude": "-90.06678014306674",
    "latitude": "29.955558277246407",
    "geocoded_column": {
      "latitude": "29.955558277246407",
      "longitude": "-90.06678014306674"
    }
  },
  {
    "service_request": "2022-941323",
    "request_type": "Trash/Recycling",
    "request_reason": "Order Recycling Cart",
    "date_created": "2022-11-09T17:02:59.000",
    "date_modified": "2022-11-09T17:02:59.000",
    "request_status": "Pending",
    "responsible_agency": "Department of Sanitation",
    "final_address": "3212 Cadiz St",
    "address_councildis": "B",
    "status": "Pending",
    "rowid": "941323",
    "final_x": "3669484.28807",
    "final_y": "526655.845502",
    "longitude": "-90.1061762170952",
    "latitude": "29.942480203393984",
    "geocoded_column": {
      "latitude": "29.942480203393984",
      "longitude": "-90.1061762170952"
    }
  },
  {
    "service_request": "2022-941322",
    "request_type": "Trash/Recycling",
    "request_reason": "Order Recycling Cart",
    "date_created": "2022-11-09T17:02:26.000",
    "date_modified": "2022-11-09T17:02:26.000",
    "request_status": "Pending",
    "responsible_agency": "Department of Sanitation",
    "final_address": "2612 Lamanche St",
    "address_councildis": "E",
    "status": "Pending",
    "rowid": "941322",
    "final_x": "3699831.95946",
    "final_y": "539456.529802",
    "longitude": "-90.00989551589105",
    "latitude": "29.976748958279735",
    "geocoded_column": {
      "latitude": "29.976748958279735",
      "longitude": "-90.00989551589105"
    }
  },
  {
    "service_request": "2022-941321",
    "request_type": "Trash/Recycling",
    "request_reason": "Order Recycling Cart",
    "date_created": "2022-11-09T17:02:26.000",
    "date_modified": "2022-11-09T17:02:27.000",
    "request_status": "Pending",
    "responsible_agency": "Department of Sanitation",
    "final_address": "8010 Wave Dr",
    "address_councildis": "E",
    "status": "Pending",
    "contractor": "Metro Disposal",
    "rowid": "941321",
    "final_x": "3714057.16357",
    "final_y": "569877.408486",
    "longitude": "-89.96382004275375",
    "latitude": "30.059934972879585",
    "geocoded_column": {
      "latitude": "30.059934972879585",
      "longitude": "-89.96382004275375"
    }
  },
  {
    "service_request": "2022-941320",
    "request_type": "Traffic Signals/Signs/Striping/Streetlights",
    "request_reason": "Street Light Outage/Malfunction",
    "date_created": "2022-11-09T17:00:07.000",
    "date_modified": "2022-11-09T17:00:08.000",
    "request_status": "Pending",
    "responsible_agency": "Department of Public Works",
    "final_address": "620 Conti St",
    "address_councildis": "C",
    "status": "Pending",
    "contractor": "Legacy Professional Services",
    "rowid": "941320",
    "final_x": "3681994.49474",
    "final_y": "531467.546051",
    "longitude": "-90.06651071772971",
    "latitude": "29.955336428937557",
    "geocoded_column": {
      "latitude": "29.955336428937557",
      "longitude": "-90.06651071772971"
    }
  },
  {
    "service_request": "2022-941319",
    "request_type": "Trash/Recycling",
    "request_reason": "Order Trash Cart",
    "date_created": "2022-11-09T16:59:19.000",
    "date_modified": "2022-11-09T16:59:20.000",
    "request_status": "Pending",
    "responsible_agency": "Department of Sanitation",
    "final_address": "1515 Allen Toussaint Blvd",
    "address_councildis": "D",
    "status": "Assigned to Contractor",
    "contractor": "IV Waste",
    "rowid": "941319",
    "final_x": "3678491.00686",
    "final_y": "555452.476313",
    "longitude": "-90.07674289669221",
    "latitude": "30.021392637676072",
    "geocoded_column": {
      "latitude": "30.021392637676072",
      "longitude": "-90.07674289669221"
    }
  },
  {
    "service_request": "2022-941318",
    "request_type": "Trash/Recycling",
    "request_reason": "Replace Trash Cart",
    "date_created": "2022-11-09T16:57:00.000",
    "date_modified": "2022-11-09T16:57:02.000",
    "request_status": "Pending",
    "responsible_agency": "Department of Sanitation",
    "final_address": "605 S Pierce St, New Orleans, Louisiana, 70119",
    "address_councildis": "A",
    "status": "Assigned to Contractor",
    "contractor": "Richards Disposal",
    "rowid": "941318",
    "final_x": "3670211.92769",
    "final_y": "536445.700423",
    "longitude": "-90.10354715418748",
    "latitude": "29.96937762657473",
    "geocoded_column": {
      "latitude": "29.96937762657473",
      "longitude": "-90.10354715418748"
    }
  },
  {
    "service_request": "2022-941317",
    "request_type": "Trash/Recycling",
    "request_reason": "Order Recycling Cart",
    "date_created": "2022-11-09T16:55:33.000",
    "date_modified": "2022-11-09T16:55:33.000",
    "request_status": "Pending",
    "responsible_agency": "Department of Sanitation",
    "final_address": "4633 Haydel St",
    "address_councildis": "E",
    "status": "Pending",
    "rowid": "941317",
    "final_x": "3699125.53252",
    "final_y": "553983.094424",
    "longitude": "-90.01159739730309",
    "latitude": "30.01671404129575",
    "geocoded_column": {
      "latitude": "30.01671404129575",
      "longitude": "-90.01159739730309"
    }
  },
  {
    "service_request": "2022-941316",
    "request_type": "Trash/Recycling",
    "request_reason": "Order Trash Cart",
    "date_created": "2022-11-09T16:55:10.000",
    "date_modified": "2022-11-09T16:55:11.000",
    "request_status": "Pending",
    "responsible_agency": "Department of Sanitation",
    "final_address": "5125 Sandhurst Dr",
    "address_councildis": "E",
    "status": "Assigned to Contractor",
    "contractor": "Waste Pro",
    "rowid": "941316",
    "final_x": "3705175.14308",
    "final_y": "556874.180762",
    "longitude": "-89.99237643508313",
    "latitude": "30.024470148016814",
    "geocoded_column": {
      "latitude": "30.024470148016814",
      "longitude": "-89.99237643508313"
    }
  },
  {
    "service_request": "2022-941315",
    "request_type": "Trash/Recycling",
    "request_reason": "Replace Trash Cart",
    "date_created": "2022-11-09T16:54:39.000",
    "date_modified": "2022-11-09T16:54:40.000",
    "request_status": "Pending",
    "responsible_agency": "Department of Sanitation",
    "final_address": "1629 St Charles Ave",
    "address_councildis": "B",
    "status": "Assigned to Contractor",
    "contractor": "Richards Disposal",
    "rowid": "941315",
    "final_x": "3678844.88821",
    "final_y": "525115.422909",
    "longitude": "-90.07667600152905",
    "latitude": "29.93796558062143",
    "geocoded_column": {
      "latitude": "29.93796558062143",
      "longitude": "-90.07667600152905"
    }
  },
  {
    "service_request": "2022-941314",
    "request_type": "Trash/Recycling",
    "request_reason": "Order Recycling Cart",
    "date_created": "2022-11-09T16:51:38.000",
    "date_modified": "2022-11-09T16:51:38.000",
    "request_status": "Pending",
    "responsible_agency": "Department of Sanitation",
    "final_address": "2421 Bayou Rd",
    "address_councildis": "D",
    "status": "Pending",
    "rowid": "941314",
    "final_x": "3679069.23291",
    "final_y": "538645.054089",
    "longitude": "-90.07549883547509",
    "latitude": "29.975160732740324",
    "geocoded_column": {
      "latitude": "29.975160732740324",
      "longitude": "-90.07549883547509"
    }
  },
  {
    "service_request": "2022-941313",
    "request_type": "Trash/Recycling",
    "request_reason": "Order Recycling Cart",
    "date_created": "2022-11-09T16:51:25.000",
    "date_modified": "2022-11-09T16:51:25.000",
    "request_status": "Pending",
    "responsible_agency": "Department of Sanitation",
    "final_address": "2655 Gladiolus St",
    "address_councildis": "D",
    "status": "Pending",
    "rowid": "941313",
    "final_x": "3687522.85436",
    "final_y": "547600.579282",
    "longitude": "-90.04848299861033",
    "latitude": "29.999527359498735",
    "geocoded_column": {
      "latitude": "29.999527359498735",
      "longitude": "-90.04848299861033"
    }
  },
  {
    "service_request": "2022-941312",
    "request_type": "Trash/Recycling",
    "request_reason": "Order Recycling Cart",
    "date_created": "2022-11-09T16:50:54.000",
    "date_modified": "2022-11-09T16:50:54.000",
    "request_status": "Pending",
    "responsible_agency": "Department of Sanitation",
    "final_address": "2116 Chartres St",
    "address_councildis": "C",
    "status": "Pending",
    "rowid": "941312",
    "final_x": "3684875.33154",
    "final_y": "534459.265733",
    "longitude": "-90.05730890241797",
    "latitude": "29.963474739350968",
    "geocoded_column": {
      "latitude": "29.963474739350968",
      "longitude": "-90.05730890241797"
    }
  },
  {
    "service_request": "2022-941311",
    "request_type": "Trash/Recycling",
    "request_reason": "Order Recycling Cart",
    "date_created": "2022-11-09T16:49:40.000",
    "date_modified": "2022-11-09T16:49:40.000",
    "request_status": "Pending",
    "responsible_agency": "Department of Sanitation",
    "final_address": "6635 Coventry St",
    "address_councildis": "E",
    "status": "Pending",
    "rowid": "941311",
    "final_x": "3697730.2929",
    "final_y": "559373.122973",
    "longitude": "-90.01580992205524",
    "latitude": "30.03157874409579",
    "geocoded_column": {
      "latitude": "30.03157874409579",
      "longitude": "-90.01580992205524"
    }
  },
  {
    "service_request": "2022-941310",
    "request_type": "Trash/Recycling",
    "request_reason": "MIssed Recycling Pick-Up",
    "date_created": "2022-11-09T16:43:34.000",
    "date_modified": "2022-11-09T16:43:35.000",
    "request_status": "Pending",
    "responsible_agency": "Department of Sanitation",
    "final_address": "3824 Orleans Ave",
    "address_councildis": "A",
    "status": "Assigned to Contractor",
    "contractor": "Richards Disposal",
    "rowid": "941310",
    "final_x": "3673291.07016",
    "final_y": "539537.871882",
    "longitude": "-90.09371731597302",
    "latitude": "29.977788820881468",
    "geocoded_column": {
      "latitude": "29.977788820881468",
      "longitude": "-90.09371731597302"
    }
  },
  {
    "service_request": "2022-941309",
    "request_type": "Trash/Recycling",
    "request_reason": "MIssed Recycling Pick-Up",
    "date_created": "2022-11-09T16:42:15.000",
    "date_modified": "2022-11-09T16:42:16.000",
    "request_status": "Pending",
    "responsible_agency": "Department of Sanitation",
    "final_address": "4920 Madrid St",
    "address_councildis": "D",
    "status": "Assigned to Contractor",
    "contractor": "IV Waste",
    "rowid": "941309",
    "final_x": "3690977.15228",
    "final_y": "556086.451418",
    "longitude": "-90.03726757804824",
    "latitude": "30.022753414423345",
    "geocoded_column": {
      "latitude": "30.022753414423345",
      "longitude": "-90.03726757804824"
    }
  },
  {
    "service_request": "2022-941308",
    "request_type": "Trash/Recycling",
    "request_reason": "Order Trash Cart",
    "date_created": "2022-11-09T16:41:57.000",
    "date_modified": "2022-11-09T16:41:58.000",
    "request_status": "Pending",
    "responsible_agency": "Department of Sanitation",
    "final_address": "4035 Ulloa St",
    "address_councildis": "A",
    "status": "Assigned to Contractor",
    "contractor": "Richards Disposal",
    "rowid": "941308",
    "final_x": "3669832.00436",
    "final_y": "536390.406343",
    "longitude": "-90.10474885785096",
    "latitude": "29.969236792830337",
    "geocoded_column": {
      "latitude": "29.969236792830337",
      "longitude": "-90.10474885785096"
    }
  },
  {
    "service_request": "2022-941307",
    "request_type": "Roads/Drainage",
    "request_reason": "Damaged Sidewalk",
    "date_created": "2022-11-09T16:41:50.000",
    "date_modified": "2022-11-09T20:07:53.000",
    "case_close_date": "2022-11-09T14:07:53.000",
    "request_status": "Closed",
    "responsible_agency": "Department of Public Works",
    "final_address": "7651 Sandy Cove Dr",
    "address_councildis": "E",
    "status": "Referred to External Agency",
    "rowid": "941307",
    "final_x": "3715575.91461",
    "final_y": "569505.17335",
    "longitude": "-89.95903351715535",
    "latitude": "30.058861481223115",
    "geocoded_column": {
      "latitude": "30.058861481223115",
      "longitude": "-89.95903351715535"
    }
  },
  {
    "service_request": "2022-941306",
    "request_type": "Trash/Recycling",
    "request_reason": "Order Trash Cart",
    "date_created": "2022-11-09T16:39:52.000",
    "date_modified": "2022-11-09T16:39:53.000",
    "request_status": "Pending",
    "responsible_agency": "Department of Sanitation",
    "final_address": "2628 Dumaine St",
    "address_councildis": "D",
    "status": "Assigned to Contractor",
    "contractor": "Richards Disposal",
    "rowid": "941306",
    "final_x": "3677370.5197",
    "final_y": "537318.63668",
    "longitude": "-90.08090960869158",
    "latitude": "29.971564704051193",
    "geocoded_column": {
      "latitude": "29.971564704051193",
      "longitude": "-90.08090960869158"
    }
  },
  {
    "service_request": "2022-941305",
    "request_type": "Trash/Recycling",
    "request_reason": "Missed Trash Pick-Up",
    "date_created": "2022-11-09T16:38:29.000",
    "date_modified": "2022-11-09T16:38:31.000",
    "request_status": "Pending",
    "responsible_agency": "Department of Sanitation",
    "final_address": "5112 Westlake Dr",
    "address_councildis": "E",
    "status": "Assigned to Contractor",
    "contractor": "Waste Pro",
    "rowid": "941305",
    "final_x": "3699419.97168",
    "final_y": "556169.77801",
    "longitude": "-90.01058734305934",
    "latitude": "30.022717246437516",
    "geocoded_column": {
      "latitude": "30.022717246437516",
      "longitude": "-90.01058734305934"
    }
  },
  {
    "service_request": "2022-941304",
    "request_type": "Trash/Recycling",
    "request_reason": "Order Recycling Cart",
    "date_created": "2022-11-09T16:34:26.000",
    "date_modified": "2022-11-09T16:34:27.000",
    "request_status": "Pending",
    "responsible_agency": "Department of Sanitation",
    "final_address": "4714 Donna Dr",
    "address_councildis": "E",
    "status": "Pending",
    "rowid": "941304",
    "final_x": "3710960.54699",
    "final_y": "555595.162649",
    "longitude": "-89.97414370011421",
    "latitude": "30.020765915959075",
    "geocoded_column": {
      "latitude": "30.020765915959075",
      "longitude": "-89.97414370011421"
    }
  },
  {
    "service_request": "2022-941303",
    "request_type": "Trash/Recycling",
    "request_reason": "Missed Trash Pick-Up",
    "date_created": "2022-11-09T16:32:23.000",
    "date_modified": "2022-11-09T16:32:24.000",
    "request_status": "Pending",
    "responsible_agency": "Department of Sanitation",
    "final_address": "4714 Donna Dr",
    "address_councildis": "E",
    "status": "Assigned to Contractor",
    "contractor": "Waste Pro",
    "rowid": "941303",
    "final_x": "3710960.54699",
    "final_y": "555595.162649",
    "longitude": "-89.97414370011421",
    "latitude": "30.020765915959075",
    "geocoded_column": {
      "latitude": "30.020765915959075",
      "longitude": "-89.97414370011421"
    }
  },
  {
    "service_request": "2022-941302",
    "request_type": "Trash/Recycling",
    "request_reason": "MIssed Recycling Pick-Up",
    "date_created": "2022-11-09T16:31:55.000",
    "date_modified": "2022-11-09T16:31:56.000",
    "request_status": "Pending",
    "responsible_agency": "Department of Sanitation",
    "final_address": "915 Thalia St",
    "address_councildis": "B",
    "status": "Assigned to Contractor",
    "contractor": "Richards Disposal",
    "rowid": "941302",
    "final_x": "3681195.47324",
    "final_y": "525113.379773",
    "longitude": "-90.06925507965235",
    "latitude": "29.93788886923079",
    "geocoded_column": {
      "latitude": "29.93788886923079",
      "longitude": "-90.06925507965235"
    }
  },
  {
    "service_request": "2022-941301",
    "request_type": "Trash/Recycling",
    "request_reason": "Request a Large Item Pick Up",
    "date_created": "2022-11-09T16:31:01.000",
    "date_modified": "2022-11-09T16:31:02.000",
    "request_status": "Pending",
    "responsible_agency": "Department of Sanitation",
    "final_address": "2318 Ap Tureaud Ave",
    "address_councildis": "D",
    "status": "Assigned to Contractor",
    "contractor": "IV Waste",
    "rowid": "941301",
    "final_x": "3681559.56623",
    "final_y": "540660.639691",
    "longitude": "-90.06756339525366",
    "latitude": "29.980627488539604",
    "geocoded_column": {
      "latitude": "29.980627488539604",
      "longitude": "-90.06756339525366"
    }
  },
  {
    "service_request": "2022-941300",
    "request_type": "Trash/Recycling",
    "request_reason": "Order Recycling Cart",
    "date_created": "2022-11-09T16:29:44.000",
    "date_modified": "2022-11-09T16:29:44.000",
    "request_status": "Pending",
    "responsible_agency": "Department of Sanitation",
    "final_address": "2854 Maurepas St",
    "address_councildis": "A",
    "status": "Pending",
    "rowid": "941300",
    "final_x": "3677949.32072",
    "final_y": "540639.115595",
    "longitude": "-90.07896687067871",
    "latitude": "29.98067747002621",
    "geocoded_column": {
      "latitude": "29.98067747002621",
      "longitude": "-90.07896687067871"
    }
  },
  {
    "service_request": "2022-941299",
    "request_type": "Trash/Recycling",
    "request_reason": "Order Trash Cart",
    "date_created": "2022-11-09T16:29:23.000",
    "date_modified": "2022-11-09T16:29:24.000",
    "request_status": "Pending",
    "responsible_agency": "Department of Sanitation",
    "final_address": "1033 S Genois St",
    "address_councildis": "B",
    "status": "Assigned to Contractor",
    "contractor": "Richards Disposal",
    "rowid": "941299",
    "final_x": "3669873.07425",
    "final_y": "533512.237508",
    "longitude": "-90.1047166168132",
    "latitude": "29.961321576884696",
    "geocoded_column": {
      "latitude": "29.961321576884696",
      "longitude": "-90.1047166168132"
    }
  },
  {
    "service_request": "2022-941298",
    "request_type": "Trash/Recycling",
    "request_reason": "Order Recycling Cart",
    "date_created": "2022-11-09T16:28:13.000",
    "date_modified": "2022-11-09T16:28:13.000",
    "request_status": "Pending",
    "responsible_agency": "Department of Sanitation",
    "final_address": "3922 Delachaise St",
    "address_councildis": "B",
    "status": "Pending",
    "rowid": "941298",
    "final_x": "3670914.35329",
    "final_y": "529140.909824",
    "longitude": "-90.10157682163316",
    "latitude": "29.94927112832691",
    "geocoded_column": {
      "latitude": "29.94927112832691",
      "longitude": "-90.10157682163316"
    }
  },
  {
    "service_request": "2022-941297",
    "request_type": "Trash/Recycling",
    "request_reason": "Order Recycling Cart",
    "date_created": "2022-11-09T16:27:59.000",
    "date_modified": "2022-11-09T16:28:00.000",
    "request_status": "Pending",
    "responsible_agency": "Department of Sanitation",
    "final_address": "2231 Laharpe St",
    "address_councildis": "D",
    "status": "Pending",
    "rowid": "941297",
    "final_x": "3680114.234",
    "final_y": "539002.343114",
    "longitude": "-90.07218602924115",
    "latitude": "29.976111570255945",
    "geocoded_column": {
      "latitude": "29.976111570255945",
      "longitude": "-90.07218602924115"
    }
  },
  {
    "service_request": "2022-941296",
    "request_type": "Trash/Recycling",
    "request_reason": "Order Recycling Cart",
    "date_created": "2022-11-09T16:25:37.000",
    "date_modified": "2022-11-09T16:25:38.000",
    "request_status": "Pending",
    "responsible_agency": "Department of Sanitation",
    "final_address": "1520 Owens Blvd",
    "address_councildis": "D",
    "status": "Pending",
    "rowid": "941296",
    "final_x": "3679014.71438",
    "final_y": "548960.937491",
    "longitude": "-90.07531332005463",
    "latitude": "30.003527441964415",
    "geocoded_column": {
      "latitude": "30.003527441964415",
      "longitude": "-90.07531332005463"
    }
  },
  {
    "service_request": "2022-941295",
    "request_type": "Trash/Recycling",
    "request_reason": "Order Trash Cart",
    "date_created": "2022-11-09T16:25:18.000",
    "date_modified": "2022-11-09T16:25:19.000",
    "request_status": "Pending",
    "responsible_agency": "Department of Sanitation",
    "final_address": "1827 Forstall St",
    "address_councildis": "E",
    "status": "Assigned to Contractor",
    "contractor": "Waste Pro",
    "rowid": "941295",
    "final_x": "3697118.16445",
    "final_y": "536978.902728",
    "longitude": "-90.01855626920157",
    "latitude": "29.970022280650163",
    "geocoded_column": {
      "latitude": "29.970022280650163",
      "longitude": "-90.01855626920157"
    }
  },
  {
    "service_request": "2022-941294",
    "request_type": "Trash/Recycling",
    "request_reason": "Order Recycling Cart",
    "date_created": "2022-11-09T16:22:56.000",
    "date_modified": "2022-11-09T16:22:57.000",
    "request_status": "Pending",
    "responsible_agency": "Department of Sanitation",
    "final_address": "7928 Read Blvd",
    "address_councildis": "E",
    "status": "Pending",
    "rowid": "941294",
    "final_x": "3707886.00408",
    "final_y": "565484.995554",
    "longitude": "-89.98349014194862",
    "latitude": "30.0480589722835",
    "geocoded_column": {
      "latitude": "30.0480589722835",
      "longitude": "-89.98349014194862"
    }
  },
  {
    "service_request": "2022-941292",
    "request_type": "Trash/Recycling",
    "request_reason": "Order Recycling Cart",
    "date_created": "2022-11-09T16:17:33.000",
    "date_modified": "2022-11-09T16:17:33.000",
    "request_status": "Pending",
    "responsible_agency": "Department of Sanitation",
    "final_address": "6312 Paris Ave",
    "address_councildis": "D",
    "status": "Pending",
    "rowid": "941292",
    "final_x": "3678485.42408",
    "final_y": "556471.52937",
    "longitude": "-90.07672522477696",
    "latitude": "30.024194830721758",
    "geocoded_column": {
      "latitude": "30.024194830721758",
      "longitude": "-90.07672522477696"
    }
  },
  {
    "service_request": "2022-941291",
    "request_type": "Traffic Signals/Signs/Striping/Streetlights",
    "request_reason": "Street Light Outage/Malfunction",
    "date_created": "2022-11-09T16:17:30.000",
    "date_modified": "2022-11-09T16:17:32.000",
    "request_status": "Pending",
    "responsible_agency": "Department of Public Works",
    "final_address": "1522 Leda St",
    "address_councildis": "A",
    "status": "Pending",
    "contractor": "Legacy Professional Services",
    "rowid": "941291",
    "final_x": "3675707.92277",
    "final_y": "541625.08814",
    "longitude": "-90.08601229273563",
    "latitude": "29.9834558321207",
    "geocoded_column": {
      "latitude": "29.9834558321207",
      "longitude": "-90.08601229273563"
    }
  },
  {
    "service_request": "2022-941290",
    "request_type": "Traffic Signals/Signs/Striping/Streetlights",
    "request_reason": "Street Light Outage/Malfunction",
    "date_created": "2022-11-09T16:17:10.000",
    "date_modified": "2022-11-09T16:17:10.000",
    "request_status": "Pending",
    "responsible_agency": "Department of Public Works",
    "final_address": "1522 Leda St",
    "address_councildis": "A",
    "status": "Pending",
    "contractor": "Legacy Professional Services",
    "rowid": "941290",
    "final_x": "3675707.92277",
    "final_y": "541625.08814",
    "longitude": "-90.08601229273563",
    "latitude": "29.9834558321207",
    "geocoded_column": {
      "latitude": "29.9834558321207",
      "longitude": "-90.08601229273563"
    }
  },
  {
    "service_request": "2022-941289",
    "request_type": "Traffic Signals/Signs/Striping/Streetlights",
    "request_reason": "Street Light Outage/Malfunction",
    "date_created": "2022-11-09T16:16:25.000",
    "date_modified": "2022-11-09T16:16:26.000",
    "request_status": "Pending",
    "responsible_agency": "Department of Public Works",
    "final_address": "1522 Leda St",
    "address_councildis": "A",
    "status": "Pending",
    "contractor": "Legacy Professional Services",
    "rowid": "941289",
    "final_x": "3675707.92277",
    "final_y": "541625.08814",
    "longitude": "-90.08601229273563",
    "latitude": "29.9834558321207",
    "geocoded_column": {
      "latitude": "29.9834558321207",
      "longitude": "-90.08601229273563"
    }
  },
  {
    "service_request": "2022-941288",
    "request_type": "Trash/Recycling",
    "request_reason": "Repair Recycling Cart",
    "date_created": "2022-11-09T16:14:33.000",
    "date_modified": "2022-11-09T16:14:34.000",
    "request_status": "Pending",
    "responsible_agency": "Department of Sanitation",
    "final_address": "4700 Arthur Dr",
    "address_councildis": "E",
    "status": "Pending",
    "rowid": "941288",
    "final_x": "3707645.00446",
    "final_y": "555212.532185",
    "longitude": "-89.98463397825216",
    "latitude": "30.019821553522423",
    "geocoded_column": {
      "latitude": "30.019821553522423",
      "longitude": "-89.98463397825216"
    }
  },
  {
    "service_request": "2022-941287",
    "request_type": "Trash/Recycling",
    "request_reason": "Order Recycling Cart",
    "date_created": "2022-11-09T16:14:08.000",
    "date_modified": "2022-11-09T16:14:08.000",
    "request_status": "Pending",
    "responsible_agency": "Department of Sanitation",
    "final_address": "4553 Stemway Dr",
    "address_councildis": "D",
    "status": "Pending",
    "rowid": "941287",
    "final_x": "3697067.83523",
    "final_y": "553326.377367",
    "longitude": "-90.01812263316906",
    "latitude": "30.014973420943075",
    "geocoded_column": {
      "latitude": "30.014973420943075",
      "longitude": "-90.01812263316906"
    }
  },
  {
    "service_request": "2022-941286",
    "request_type": "Trash/Recycling",
    "request_reason": "Illegal Dumping",
    "date_created": "2022-11-09T16:13:01.000",
    "date_modified": "2022-11-09T16:14:23.000",
    "request_status": "Pending",
    "responsible_agency": "Department of Sanitation",
    "final_address": "LEAKE AVE & MONROE ST",
    "address_councildis": "A",
    "status": "Pending",
    "rowid": "941286",
    "final_x": "3660121.1",
    "final_y": "529516.08",
    "longitude": "-90.13564371394092",
    "latitude": "29.9506173444804",
    "geocoded_column": {
      "latitude": "29.9506173444804",
      "longitude": "-90.13564371394092"
    }
  },
  {
    "service_request": "2022-941285",
    "request_type": "Trash/Recycling",
    "request_reason": "Missed Trash Pick-Up",
    "date_created": "2022-11-09T16:10:55.000",
    "date_modified": "2022-11-09T16:10:55.000",
    "request_status": "Pending",
    "responsible_agency": "Department of Sanitation",
    "final_address": "7010 Curran Rd",
    "address_councildis": "E",
    "status": "Assigned to Contractor",
    "contractor": "Waste Pro",
    "rowid": "941285",
    "final_x": "3698942.74212",
    "final_y": "560292.768861",
    "longitude": "-90.01194503297074",
    "latitude": "30.0340690265474",
    "geocoded_column": {
      "latitude": "30.0340690265474",
      "longitude": "-90.01194503297074"
    }
  },
  {
    "service_request": "2022-941284",
    "request_type": "Parks & Parkways",
    "request_reason": "Request Tree Service (Right of Way/Public Property)",
    "date_created": "2022-11-09T16:08:10.000",
    "date_modified": "2022-11-09T16:08:10.000",
    "request_status": "Pending",
    "responsible_agency": "Department of Parks & Parkway",
    "final_address": "13200 Curran Rd",
    "address_councildis": "E",
    "status": "Pending",
    "rowid": "941284",
    "final_x": "3716040.56626",
    "final_y": "569933.30231",
    "longitude": "-89.95754856199753",
    "latitude": "30.060023327151576",
    "geocoded_column": {
      "latitude": "30.060023327151576",
      "longitude": "-89.95754856199753"
    }
  },
  {
    "service_request": "2022-941283",
    "request_type": "Trash/Recycling",
    "request_reason": "Missed Trash Pick-Up",
    "date_created": "2022-11-09T16:06:26.000",
    "date_modified": "2022-11-09T16:06:27.000",
    "request_status": "Pending",
    "responsible_agency": "Department of Sanitation",
    "final_address": "1125 Short St",
    "address_councildis": "A",
    "status": "Assigned to Contractor",
    "contractor": "Richards Disposal",
    "rowid": "941283",
    "final_x": "3662244.78976",
    "final_y": "527950.567359",
    "longitude": "-90.12899011518715",
    "latitude": "29.94625147906057",
    "geocoded_column": {
      "latitude": "29.94625147906057",
      "longitude": "-90.12899011518715"
    }
  },
  {
    "service_request": "2022-941282",
    "request_type": "Roads/Drainage",
    "request_reason": "Pothole",
    "date_created": "2022-11-09T16:06:19.000",
    "date_modified": "2022-11-09T16:06:19.000",
    "request_status": "Pending",
    "responsible_agency": "Department of Public Works",
    "final_address": "7454 Burke Ave",
    "address_councildis": "E",
    "status": "Pending",
    "rowid": "941282",
    "final_x": "3705670.76939",
    "final_y": "562431.556767",
    "longitude": "-89.99060457983593",
    "latitude": "30.039734796975",
    "geocoded_column": {
      "latitude": "30.039734796975",
      "longitude": "-89.99060457983593"
    }
  },