[
  {
    "service_request": "2022-890099",
    "request_type": "Traffic Signals/Signs/Striping/Streetlights",
    "request_reason": "Street Light Outage/Malfunction",
    "date_created": "2022-06-08T23:54:45.000",
    "date_modified": "2022-06-08T23:54:45.000",
    "request_status": "Pending",
    "responsible_agency": "Department of Public Works",
    "final_address": "8339 Panola St",
    "address_councildis": "A",
    "status": "Pending",
    "contractor": "Royal Engineering",
    "rowid": "890099",
    "final_x": "3663343.48135",
    "final_y": "531443.257987",
    "longitude": "-90.12540489589722",
    "latitude": "29.955823453213792",
    "geocoded_column": {
      "latitude": "29.955823453213792",
      "longitude": "-90.12540489589722"
    }
  },
  {
    "service_request": "2022-890098",
    "request_type": "Abandoned Vehicles",
    "request_reason": "Abandoned/Junk Vehicles",
    "date_created": "2022-06-08T23:47:43.000",
    "date_modified": "2022-06-08T23:47:43.000",
    "request_status": "Pending",
    "responsible_agency": "Department of Public Works",
    "final_address": "1014 N Robertson St",
    "address_councildis": "C",
    "status": "Pending",
    "rowid": "890098",
    "final_x": "3680855.82203",
    "final_y": "535335.723014",
    "longitude": "-90.06997155825611",
    "latitude": "29.966007164606612",
    "geocoded_column": {
      "latitude": "29.966007164606612",
      "longitude": "-90.06997155825611"
    }
  },
  {
    "service_request": "2022-890097",
    "request_type": "Trash/Recycling",
    "request_reason": "Replace Trash Cart",
    "date_created": "2022-06-08T23:23:00.000",
    "date_modified": "2022-06-08T23:23:00.000",
    "request_status": "Pending",
    "responsible_agency": "Department of Sanitation",
    "final_address": "2423 First St",
    "address_councildis": "B",
    "status": "Assigned to Contractor",
    "contractor": "Richards Disposal",
    "rowid": "890097",
    "final_x": "3675275.43745",
    "final_y": "525821.712509",
    "longitude": "-90.0879208396141",
    "latitude": "29.94001480316625",
    "geocoded_column": {
      "latitude": "29.94001480316625",
      "longitude": "-90.0879208396141"
    }
  },
  {
    "service_request": "2022-890096",
    "request_type": "Traffic Signals/Signs/Striping/Streetlights",
    "request_reason": "Street Light Outage/Malfunction",
    "date_created": "2022-06-08T22:53:31.000",
    "date_modified": "2022-06-08T22:53:33.000",
    "request_status": "Pending",
    "responsible_agency": "Department of Public Works",
    "final_address": "42 Yosemite Dr",
    "address_councildis": "C",
    "status": "Pending",
    "contractor": "Royal Engineering",
    "rowid": "890096",
    "final_x": "3700020.79114",
    "final_y": "517030.085173",
    "longitude": "-90.010117069936",
    "latitude": "29.915078118624486",
    "geocoded_column": {
      "latitude": "29.915078118624486",
      "longitude": "-90.010117069936"
    }
  },
  {
    "service_request": "2022-890095",
    "request_type": "Trash/Recycling",
    "request_reason": "Missed Trash Pick-Up",
    "date_created": "2022-06-08T22:01:15.000",
    "date_modified": "2022-06-08T22:01:16.000",
    "request_status": "Pending",
    "responsible_agency": "Department of Sanitation",
    "final_address": "8009 Green St",
    "address_councildis": "A",
    "status": "Assigned to Contractor",
    "contractor": "Richards Disposal",
    "rowid": "890095",
    "final_x": "3663431.91008",
    "final_y": "529461.186049",
    "longitude": "-90.12519165754014",
    "latitude": "29.95037083281834",
    "geocoded_column": {
      "latitude": "29.95037083281834",
      "longitude": "-90.12519165754014"
    }
  },
  {
    "service_request": "2022-890094",
    "request_type": "Roads/Drainage",
    "request_reason": "Catch Basin - Broken/Damage",
    "date_created": "2022-06-08T21:20:50.000",
    "date_modified": "2022-06-08T21:20:50.000",
    "request_status": "Pending",
    "responsible_agency": "Department of Public Works",
    "final_address": "417 S Norman C Francis Prkwy",
    "address_councildis": "B",
    "status": "Pending",
    "rowid": "890094",
    "final_x": "3672262.09294",
    "final_y": "535734.045063",
    "longitude": "-90.09709680413803",
    "latitude": "29.967360151997806",
    "geocoded_column": {
      "latitude": "29.967360151997806",
      "longitude": "-90.09709680413803"
    }
  },
  {
    "service_request": "2022-890093",
    "request_type": "Abandoned Vehicles",
    "request_reason": "Abandoned/Junk Vehicles",
    "date_created": "2022-06-08T21:20:06.000",
    "date_modified": "2022-06-08T21:20:06.000",
    "request_status": "Pending",
    "responsible_agency": "Department of Public Works",
    "final_address": "2121 Dauphine St",
    "address_councildis": "C",
    "status": "Pending",
    "rowid": "890093",
    "final_x": "3684868.88898",
    "final_y": "535235.982534",
    "longitude": "-90.05730193255954",
    "latitude": "29.96561063953787",
    "geocoded_column": {
      "latitude": "29.96561063953787",
      "longitude": "-90.05730193255954"
    }
  },
  {
    "service_request": "2022-890092",
    "request_type": "Property Maintenance",
    "request_reason": "Property Maintenance",
    "date_created": "2022-06-08T21:18:26.000",
    "date_modified": "2022-06-08T21:18:26.000",
    "request_status": "Pending",
    "responsible_agency": "Department of Code Enforcement",
    "final_address": "4030 Vendome Pl",
    "address_councildis": "B",
    "status": "Pending",
    "rowid": "890092",
    "final_x": "3668683.73684",
    "final_y": "530208.822337",
    "longitude": "-90.10858384711973",
    "latitude": "29.95227328376035",
    "geocoded_column": {
      "latitude": "29.95227328376035",
      "longitude": "-90.10858384711973"
    }
  },
  {
    "service_request": "2022-890091",
    "request_type": "Property Maintenance",
    "request_reason": "Property Maintenance",
    "date_created": "2022-06-08T21:16:05.000",
    "date_modified": "2022-06-08T21:16:05.000",
    "request_status": "Pending",
    "responsible_agency": "Department of Code Enforcement",
    "final_address": "445 Atlantic Ave",
    "address_councildis": "C",
    "status": "Pending",
    "rowid": "890091",
    "final_x": "3688765.21187",
    "final_y": "529928.108673",
    "longitude": "-90.04518597443946",
    "latitude": "29.950895940804724",
    "geocoded_column": {
      "latitude": "29.950895940804724",
      "longitude": "-90.04518597443946"
    }
  },
  {
    "service_request": "2022-890090",
    "request_type": "Abandoned Vehicles",
    "request_reason": "Abandoned/Junk Vehicles",
    "date_created": "2022-06-08T21:16:03.000",
    "date_modified": "2022-06-08T21:16:03.000",
    "request_status": "Pending",
    "responsible_agency": "Department of Public Works",
    "final_address": "2121 Dauphine St",
    "address_councildis": "C",
    "status": "Pending",
    "rowid": "890090",
    "final_x": "3684868.88898",
    "final_y": "535235.982534",
    "longitude": "-90.05730193255954",
    "latitude": "29.96561063953787",
    "geocoded_column": {
      "latitude": "29.96561063953787",
      "longitude": "-90.05730193255954"
    }
  },
  {
    "service_request": "2022-890089",
    "request_type": "Trash/Recycling",
    "request_reason": "MIssed Recycling Pick-Up",
    "date_created": "2022-06-08T21:12:51.000",
    "date_modified": "2022-06-08T21:12:52.000",
    "request_status": "Pending",
    "responsible_agency": "Department of Sanitation",
    "final_address": "2721 Carondelet St",
    "address_councildis": "B",
    "status": "Assigned to Contractor",
    "contractor": "Richards Disposal",
    "rowid": "890089",
    "final_x": "3675797.50497",
    "final_y": "522965.478075",
    "longitude": "-90.08637072613497",
    "latitude": "29.932145479741017",
    "geocoded_column": {
      "latitude": "29.932145479741017",
      "longitude": "-90.08637072613497"
    }
  },
  {
    "service_request": "2022-890087",
    "request_type": "Trash/Recycling",
    "request_reason": "MIssed Recycling Pick-Up",
    "date_created": "2022-06-08T20:09:14.000",
    "date_modified": "2022-06-08T20:09:15.000",
    "request_status": "Pending",
    "responsible_agency": "Department of Sanitation",
    "final_address": "1522 Simon Bolivar Ave",
    "address_councildis": "B",
    "status": "Assigned to Contractor",
    "contractor": "Richards Disposal",
    "rowid": "890087",
    "final_x": "3677250.9261",
    "final_y": "526494.983358",
    "longitude": "-90.08166070222862",
    "latitude": "29.941806888272563",
    "geocoded_column": {
      "latitude": "29.941806888272563",
      "longitude": "-90.08166070222862"
    }
  },
  {
    "service_request": "2022-890086",
    "request_type": "Trash/Recycling",
    "request_reason": "Order Trash Cart",
    "date_created": "2022-06-08T20:01:24.000",
    "date_modified": "2022-06-08T20:01:24.000",
    "request_status": "Pending",
    "responsible_agency": "Department of Sanitation",
    "final_address": "25540 Chef Menteur Hwy",
    "address_councildis": "E",
    "status": "Assigned to Contractor",
    "contractor": "Metro Disposal",
    "rowid": "890086",
    "final_x": "3780649.67678",
    "final_y": "599880.56621",
    "longitude": "-89.75202298753322",
    "latitude": "30.140072133689987",
    "geocoded_column": {
      "latitude": "30.140072133689987",
      "longitude": "-89.75202298753322"
    }
  },
  {
    "service_request": "2022-890085",
    "request_type": "Property Maintenance",
    "request_reason": "Property Maintenance",
    "date_created": "2022-06-08T20:00:19.000",
    "date_modified": "2022-06-08T20:00:19.000",
    "request_status": "Pending",
    "responsible_agency": "Department of Code Enforcement",
    "final_address": "136 S Scott St",
    "address_councildis": "A",
    "status": "Pending",
    "rowid": "890085",
    "final_x": "3671582.19681",
    "final_y": "537494.501576",
    "longitude": "-90.09918405122492",
    "latitude": "29.972220967264597",
    "geocoded_column": {
      "latitude": "29.972220967264597",
      "longitude": "-90.09918405122492"
    }
  },
  {
    "service_request": "2022-890084",
    "request_type": "Property Maintenance",
    "request_reason": "Property Maintenance",
    "date_created": "2022-06-08T19:59:09.000",
    "date_modified": "2022-06-08T19:59:09.000",
    "request_status": "Pending",
    "responsible_agency": "Department of Code Enforcement",
    "final_address": "3835 Cleveland Ave",
    "address_councildis": "A",
    "status": "Pending",
    "rowid": "890084",
    "final_x": "3671595.57345",
    "final_y": "537477.079304",
    "longitude": "-90.09914239808673",
    "latitude": "29.972172665729463",
    "geocoded_column": {
      "latitude": "29.972172665729463",
      "longitude": "-90.09914239808673"
    }
  },
  {
    "service_request": "2022-890083",
    "request_type": "Roads/Drainage",
    "request_reason": "Street Flooding / Drainage",
    "date_created": "2022-06-08T19:57:21.000",
    "date_modified": "2022-06-08T19:57:21.000",
    "request_status": "Pending",
    "responsible_agency": "Department of Public Works",
    "final_address": "4033 Cleveland Ave",
    "address_councildis": "A",
    "status": "Pending",
    "rowid": "890083",
    "final_x": "3671021.49831",
    "final_y": "537922.146825",
    "longitude": "-90.10094031034764",
    "latitude": "29.97341344107738",
    "geocoded_column": {
      "latitude": "29.97341344107738",
      "longitude": "-90.10094031034764"
    }
  },
  {
    "service_request": "2022-890082",
    "request_type": "Trash/Recycling",
    "request_reason": "Illegal Dumping",
    "date_created": "2022-06-08T19:50:43.000",
    "date_modified": "2022-06-08T19:50:43.000",
    "request_status": "Pending",
    "responsible_agency": "Department of Sanitation",
    "final_address": "2314 Octavia St",
    "address_councildis": "A",
    "status": "Pending",
    "rowid": "890082",
    "final_x": "3667563.1826",
    "final_y": "524215.7831",
    "longitude": "-90.11232369870703",
    "latitude": "29.93582724925723",
    "geocoded_column": {
      "latitude": "29.93582724925723",
      "longitude": "-90.11232369870703"
    }
  },
  {
    "service_request": "2022-890081",
    "request_type": "Abandoned Vehicles",
    "request_reason": "Abandoned/Junk Vehicles",
    "date_created": "2022-06-08T19:46:43.000",
    "date_modified": "2022-06-08T19:46:43.000",
    "request_status": "Pending",
    "responsible_agency": "Department of Public Works",
    "final_address": "143 City Park Ave",
    "address_councildis": "A",
    "status": "Pending",
    "rowid": "890081",
    "final_x": "3668165.67066",
    "final_y": "541223.765644",
    "longitude": "-90.10984829692543",
    "latitude": "29.982575928300147",
    "geocoded_column": {
      "latitude": "29.982575928300147",
      "longitude": "-90.10984829692543"
    }
  },
  {
    "service_request": "2022-890080",
    "request_type": "Trash/Recycling",
    "request_reason": "Order Trash Cart",
    "date_created": "2022-06-08T19:45:32.000",
    "date_modified": "2022-06-08T19:45:33.000",
    "request_status": "Pending",
    "responsible_agency": "Department of Sanitation",
    "final_address": "1331 Marigny St",
    "address_councildis": "C",
    "status": "Assigned to Contractor",
    "contractor": "Metro Disposal",
    "rowid": "890080",
    "final_x": "3685386.42818",
    "final_y": "537324.926472",
    "longitude": "-90.0555940059566",
    "latitude": "29.9713386520975",
    "geocoded_column": {
      "latitude": "29.9713386520975",
      "longitude": "-90.0555940059566"
    }
  },
  {
    "service_request": "2022-890079",
    "request_type": "Trash/Recycling",
    "request_reason": "Request a Large Item Pick Up",
    "date_created": "2022-06-08T19:35:34.000",
    "date_modified": "2022-06-08T19:35:35.000",
    "request_status": "Pending",
    "responsible_agency": "Department of Sanitation",
    "final_address": "1228 Gallier St",
    "address_councildis": "C",
    "status": "Assigned to Contractor",
    "contractor": "Metro Disposal",
    "rowid": "890079",
    "final_x": "3690574.97276",
    "final_y": "536246.590471",
    "longitude": "-90.03924636760223",
    "latitude": "29.968213498292172",
    "geocoded_column": {
      "latitude": "29.968213498292172",
      "longitude": "-90.03924636760223"
    }
  },
  {
    "service_request": "2022-890078",
    "request_type": "Trash/Recycling",
    "request_reason": "MIssed Recycling Pick-Up",
    "date_created": "2022-06-08T19:26:41.000",
    "date_modified": "2022-06-08T19:26:41.000",
    "request_status": "Pending",
    "responsible_agency": "Department of Sanitation",
    "final_address": "2107 Annunciation St",
    "address_councildis": "B",
    "status": "Assigned to Contractor",
    "contractor": "Richards Disposal",
    "rowid": "890078",
    "final_x": "3679758.14146",
    "final_y": "521431.067449",
    "longitude": "-90.073920630889",
    "latitude": "29.927807244285876",
    "geocoded_column": {
      "latitude": "29.927807244285876",
      "longitude": "-90.073920630889"
    }
  },
  {
    "service_request": "2022-890077",
    "request_type": "Trash/Recycling",
    "request_reason": "MIssed Recycling Pick-Up",
    "date_created": "2022-06-08T19:26:09.000",
    "date_modified": "2022-06-08T19:26:10.000",
    "request_status": "Pending",
    "responsible_agency": "Department of Sanitation",
    "final_address": "2107 Annunciation St",
    "address_councildis": "B",
    "status": "Assigned to Contractor",
    "contractor": "Richards Disposal",
    "rowid": "890077",
    "final_x": "3679758.14146",
    "final_y": "521431.067449",
    "longitude": "-90.073920630889",
    "latitude": "29.927807244285876",
    "geocoded_column": {
      "latitude": "29.927807244285876",
      "longitude": "-90.073920630889"
    }
  },
  {
    "service_request": "2022-890076",
    "request_type": "Trash/Recycling",
    "request_reason": "MIssed Recycling Pick-Up",
    "date_created": "2022-06-08T19:25:39.000",
    "date_modified": "2022-06-08T19:25:40.000",
    "request_status": "Pending",
    "responsible_agency": "Department of Sanitation",
    "final_address": "2107 Annunciation St",
    "address_councildis": "B",
    "status": "Assigned to Contractor",
    "contractor": "Richards Disposal",
    "rowid": "890076",
    "final_x": "3679758.14146",
    "final_y": "521431.067449",
    "longitude": "-90.073920630889",
    "latitude": "29.927807244285876",
    "geocoded_column": {
      "latitude": "29.927807244285876",
      "longitude": "-90.073920630889"
    }
  },
  {
    "service_request": "2022-890075",
    "request_type": "Trash/Recycling",
    "request_reason": "MIssed Recycling Pick-Up",
    "date_created": "2022-06-08T19:25:19.000",
    "date_modified": "2022-06-08T19:25:19.000",
    "request_status": "Pending",
    "responsible_agency": "Department of Sanitation",
    "final_address": "2107 Annunciation St",
    "address_councildis": "B",
    "status": "Assigned to Contractor",
    "contractor": "Richards Disposal",
    "rowid": "890075",
    "final_x": "3679758.14146",
    "final_y": "521431.067449",
    "longitude": "-90.073920630889",
    "latitude": "29.927807244285876",
    "geocoded_column": {
      "latitude": "29.927807244285876",
      "longitude": "-90.073920630889"
    }
  },
  {
    "service_request": "2022-890073",
    "request_type": "Trash/Recycling",
    "request_reason": "Request a Large Item Pick Up",
    "date_created": "2022-06-08T19:09:10.000",
    "date_modified": "2022-06-08T19:09:10.000",
    "request_status": "Pending",
    "responsible_agency": "Department of Sanitation",
    "final_address": "921 Atlantic Ave",
    "address_councildis": "C",
    "status": "Assigned to Contractor",
    "contractor": "Richards Disposal",
    "rowid": "890073",
    "final_x": "3688677.62403",
    "final_y": "528102.074175",
    "longitude": "-90.04552733211224",
    "latitude": "29.945877678424555",
    "geocoded_column": {
      "latitude": "29.945877678424555",
      "longitude": "-90.04552733211224"
    }
  },
  {
    "service_request": "2022-890071",
    "request_type": "Trash/Recycling",
    "request_reason": "Missed Trash Pick-Up",
    "date_created": "2022-06-08T18:49:52.000",
    "date_modified": "2022-06-08T18:49:53.000",
    "request_status": "Pending",
    "responsible_agency": "Department of Sanitation",
    "final_address": "4139 State Street Dr",
    "address_councildis": "B",
    "status": "Assigned to Contractor",
    "contractor": "Richards Disposal",
    "rowid": "890071",
    "final_x": "3668430.47412",
    "final_y": "530808.382338",
    "longitude": "-90.10936331414214",
    "latitude": "29.953929318484317",
    "geocoded_column": {
      "latitude": "29.953929318484317",
      "longitude": "-90.10936331414214"
    }
  },
  {
    "service_request": "2022-890070",
    "request_type": "Trash/Recycling",
    "request_reason": "MIssed Recycling Pick-Up",
    "date_created": "2022-06-08T18:25:14.000",
    "date_modified": "2022-06-08T18:25:15.000",
    "request_status": "Pending",
    "responsible_agency": "Department of Sanitation",
    "final_address": "4021 Pitt St",
    "address_councildis": "B",
    "status": "Assigned to Contractor",
    "contractor": "Richards Disposal",
    "rowid": "890070",
    "final_x": "3672173.49569",
    "final_y": "520738.434425",
    "longitude": "-90.09788719334577",
    "latitude": "29.926129770936107",
    "geocoded_column": {
      "latitude": "29.926129770936107",
      "longitude": "-90.09788719334577"
    }
  },
  {
    "service_request": "2022-890069",
    "request_type": "Property Maintenance",
    "request_reason": "Property Maintenance",
    "date_created": "2022-06-08T18:24:18.000",
    "date_modified": "2022-06-08T18:24:18.000",
    "request_status": "Pending",
    "responsible_agency": "Department of Code Enforcement",
    "final_address": "2709 Edna St",
    "address_councildis": "D",
    "status": "Pending",
    "rowid": "890069",
    "final_x": "3689483.27651",
    "final_y": "545318.952015",
    "longitude": "-90.04237118433618",
    "latitude": "29.993193121071425",
    "geocoded_column": {
      "latitude": "29.993193121071425",
      "longitude": "-90.04237118433618"
    }
  },
  {
    "service_request": "2022-890068",
    "request_type": "Trash/Recycling",
    "request_reason": "MIssed Recycling Pick-Up",
    "date_created": "2022-06-08T18:20:29.000",
    "date_modified": "2022-06-08T18:20:30.000",
    "request_status": "Pending",
    "responsible_agency": "Department of Sanitation",
    "final_address": "1101 Casa Calvo St",
    "address_councildis": "C",
    "status": "Assigned to Contractor",
    "contractor": "Richards Disposal",
    "rowid": "890068",
    "final_x": "3692070.148",
    "final_y": "527373.510591",
    "longitude": "-90.03484210538876",
    "latitude": "29.94376910275946",
    "geocoded_column": {
      "latitude": "29.94376910275946",
      "longitude": "-90.03484210538876"
    }
  },
  {
    "service_request": "2022-890067",
    "request_type": "Trash/Recycling",
    "request_reason": "Request a Large Item Pick Up",
    "date_created": "2022-06-08T18:17:49.000",
    "date_modified": "2022-06-08T18:17:50.000",
    "request_status": "Pending",
    "responsible_agency": "Department of Sanitation",
    "final_address": "1228 Poland Ave",
    "address_councildis": "D",
    "status": "Assigned to Contractor",
    "contractor": "Metro Disposal",
    "rowid": "890067",
    "final_x": "3693126.32457",
    "final_y": "535618.516614",
    "longitude": "-90.0312116651097",
    "latitude": "29.966407040920796",
    "geocoded_column": {
      "latitude": "29.966407040920796",
      "longitude": "-90.0312116651097"
    }
  },
  {
    "service_request": "2022-890066",
    "request_type": "Trash/Recycling",
    "request_reason": "Request a Large Item Pick Up",
    "date_created": "2022-06-08T18:16:46.000",
    "date_modified": "2022-06-08T18:16:46.000",
    "request_status": "Pending",
    "responsible_agency": "Department of Sanitation",
    "final_address": "605 Wagner St, New Orleans, Louisiana, 70114",
    "address_councildis": "C",
    "status": "Assigned to Contractor",
    "contractor": "Richards Disposal",
    "rowid": "890066",
    "final_x": "3690512.86806",
    "final_y": "529298.582209",
    "longitude": "-90.0396902202122",
    "latitude": "29.94911082150968",
    "geocoded_column": {
      "latitude": "29.94911082150968",
      "longitude": "-90.0396902202122"
    }
  },
  {
    "service_request": "2022-890065",
    "request_type": "Abandoned Vehicles",
    "request_reason": "Abandoned/Junk Vehicles",
    "date_created": "2022-06-08T18:16:36.000",
    "date_modified": "2022-06-08T18:16:36.000",
    "request_status": "Pending",
    "responsible_agency": "Department of Public Works",
    "final_address": "6300 BLK Ransom St",
    "address_councildis": "D",
    "status": "Pending",
    "rowid": "890065",
    "final_x": "3698014.41397",
    "final_y": "552930.762692",
    "longitude": "-90.01514629290475",
    "latitude": "30.013855721216924",
    "geocoded_column": {
      "latitude": "30.013855721216924",
      "longitude": "-90.01514629290475"
    }
  },
  {
    "service_request": "2022-890064",
    "request_type": "Trash/Recycling",
    "request_reason": "Missed Trash Pick-Up",
    "date_created": "2022-06-08T18:02:43.000",
    "date_modified": "2022-06-08T18:02:43.000",
    "request_status": "Pending",
    "responsible_agency": "Department of Sanitation",
    "final_address": "4341 State Street Dr, New Orleans, Louisiana, 70125",
    "address_councildis": "B",
    "status": "Assigned to Contractor",
    "contractor": "Richards Disposal",
    "rowid": "890064",
    "final_x": "3668675.19214",
    "final_y": "531602.878787",
    "longitude": "-90.10856377742009",
    "latitude": "29.956106732843683",
    "geocoded_column": {
      "latitude": "29.956106732843683",
      "longitude": "-90.10856377742009"
    }
  },
  {
    "service_request": "2022-890062",
    "request_type": "Trash/Recycling",
    "request_reason": "Missed Trash Pick-Up",
    "date_created": "2022-06-08T17:39:57.000",
    "date_modified": "2022-06-08T17:39:57.000",
    "request_status": "Pending",
    "responsible_agency": "Department of Sanitation",
    "final_address": "916 Conrad St",
    "address_councildis": "A",
    "status": "Assigned to Contractor",
    "contractor": "Metro Disposal",
    "rowid": "890062",
    "final_x": "3670616.29204",
    "final_y": "554098.880344",
    "longitude": "-90.10167087827689",
    "latitude": "30.017905834497196",
    "geocoded_column": {
      "latitude": "30.017905834497196",
      "longitude": "-90.10167087827689"
    }
  },
  {
    "service_request": "2022-890061",
    "request_type": "Property Maintenance",
    "request_reason": "Property Maintenance",
    "date_created": "2022-06-08T17:29:21.000",
    "date_modified": "2022-06-08T17:29:21.000",
    "request_status": "Pending",
    "responsible_agency": "Department of Code Enforcement",
    "final_address": "3431 St Bernard Ave",
    "address_councildis": "D",
    "status": "Pending",
    "rowid": "890061",
    "final_x": "3678672.41704",
    "final_y": "544845.967823",
    "longitude": "-90.07653727914875",
    "latitude": "29.992223059908767",
    "geocoded_column": {
      "latitude": "29.992223059908767",
      "longitude": "-90.07653727914875"
    }
  },
  {
    "service_request": "2022-890060",
    "request_type": "Roads/Drainage",
    "request_reason": "Catch Basin - Broken/Damage",
    "date_created": "2022-06-08T17:21:00.000",
    "date_modified": "2022-06-08T17:21:01.000",
    "request_status": "Pending",
    "responsible_agency": "Department of Public Works",
    "final_address": "5733 St Anthony Ave",
    "address_councildis": "D",
    "status": "Pending",
    "rowid": "890060",
    "final_x": "3682194.69404",
    "final_y": "554182.029784",
    "longitude": "-90.06508470030492",
    "latitude": "30.01778717364291",
    "geocoded_column": {
      "latitude": "30.01778717364291",
      "longitude": "-90.06508470030492"
    }
  },
  {
    "service_request": "2022-890059",
    "request_type": "Traffic Signals/Signs/Striping/Streetlights",
    "request_reason": "Traffic Signal Malfunctioning/Damaged",
    "date_created": "2022-06-08T17:15:59.000",
    "date_modified": "2022-06-08T17:15:59.000",
    "request_status": "Pending",
    "responsible_agency": "Department of Public Works",
    "final_address": "2400 St Charles Ave Unit 201",
    "address_councildis": "B",
    "status": "Pending",
    "rowid": "890059",
    "final_x": "3676947.24962",
    "final_y": "523093.063291",
    "longitude": "-90.08273669737459",
    "latitude": "29.932461843129342",
    "geocoded_column": {
      "latitude": "29.932461843129342",
      "longitude": "-90.08273669737459"
    }
  },
  {
    "service_request": "2022-890058",
    "request_type": "Trash/Recycling",
    "request_reason": "Replace Trash Cart",
    "date_created": "2022-06-08T17:07:36.000",
    "date_modified": "2022-06-08T17:07:36.000",
    "request_status": "Pending",
    "responsible_agency": "Department of Sanitation",
    "final_address": "2324 Jackson Ave, New Orleans, Louisiana, 70113",
    "address_councildis": "B",
    "status": "Assigned to Contractor",
    "contractor": "Richards Disposal",
    "rowid": "890058",
    "final_x": "3675647.30606",
    "final_y": "526195.183742",
    "longitude": "-90.08673396542972",
    "latitude": "29.9410306073941",
    "geocoded_column": {
      "latitude": "29.9410306073941",
      "longitude": "-90.08673396542972"
    }
  },
  {
    "service_request": "2022-890057",
    "request_type": "Trash/Recycling",
    "request_reason": "Repair Trash Cart",
    "date_created": "2022-06-08T17:06:55.000",
    "date_modified": "2022-06-08T17:06:56.000",
    "request_status": "Pending",
    "responsible_agency": "Department of Sanitation",
    "final_address": "2326 Jackson Ave, New Orleans, Louisiana, 70113",
    "address_councildis": "B",
    "status": "Assigned to Contractor",
    "contractor": "Richards Disposal",
    "rowid": "890057",
    "final_x": "3675616.16789",
    "final_y": "526190.488126",
    "longitude": "-90.08683243568711",
    "latitude": "29.941018627442883",
    "geocoded_column": {
      "latitude": "29.941018627442883",
      "longitude": "-90.08683243568711"
    }
  },
  {
    "service_request": "2022-890056",
    "request_type": "Parks & Parkways",
    "request_reason": "Request Tree Service (Right of Way/Public Property)",
    "date_created": "2022-06-08T17:06:45.000",
    "date_modified": "2022-06-08T17:06:45.000",
    "request_status": "Pending",
    "responsible_agency": "Department of Parks & Parkway",
    "final_address": "FLEUR DE LIS DR & VETERANS HWY",
    "address_councildis": "A",
    "status": "Pending",
    "rowid": "890056",
    "final_x": "3665176.2",
    "final_y": "547361.18",
    "longitude": "-90.11908514685713",
    "latitude": "29.9995391633153",
    "geocoded_column": {
      "latitude": "29.9995391633153",
      "longitude": "-90.11908514685713"
    }
  },
  {
    "service_request": "2022-890055",
    "request_type": "Trash/Recycling",
    "request_reason": "Missed Trash Pick-Up",
    "date_created": "2022-06-08T17:06:00.000",
    "date_modified": "2022-06-08T17:06:01.000",
    "request_status": "Pending",
    "responsible_agency": "Department of Sanitation",
    "final_address": "2324 Jackson Ave, New Orleans, Louisiana, 70113",
    "address_councildis": "B",
    "status": "Assigned to Contractor",
    "contractor": "Richards Disposal",
    "rowid": "890055",
    "final_x": "3675647.30606",
    "final_y": "526195.183742",
    "longitude": "-90.08673396542972",
    "latitude": "29.9410306073941",
    "geocoded_column": {
      "latitude": "29.9410306073941",
      "longitude": "-90.08673396542972"
    }
  },
  {
    "service_request": "2022-890054",
    "request_type": "Trash/Recycling",
    "request_reason": "Missed Trash Pick-Up",
    "date_created": "2022-06-08T17:05:12.000",
    "date_modified": "2022-06-08T17:05:13.000",
    "request_status": "Pending",
    "responsible_agency": "Department of Sanitation",
    "final_address": "2326 Jackson Ave, New Orleans, Louisiana, 70113",
    "address_councildis": "B",
    "status": "Assigned to Contractor",
    "contractor": "Richards Disposal",
    "rowid": "890054",
    "final_x": "3675616.16789",
    "final_y": "526190.488126",
    "longitude": "-90.08683243568711",
    "latitude": "29.941018627442883",
    "geocoded_column": {
      "latitude": "29.941018627442883",
      "longitude": "-90.08683243568711"
    }
  },
  {
    "service_request": "2022-890053",
    "request_type": "Trash/Recycling",
    "request_reason": "Dead Animal Pick Up",
    "date_created": "2022-06-08T17:01:08.000",
    "date_modified": "2022-06-08T17:01:09.000",
    "request_status": "Pending",
    "responsible_agency": "Department of Sanitation",
    "final_address": "PATTERSON DR & GENERAL COLLINS AVE",
    "address_councildis": "C",
    "status": "Assigned to Contractor",
    "contractor": "Richards Disposal",
    "rowid": "890053",
    "final_x": "3698594.2",
    "final_y": "526948.48",
    "longitude": "-90.01425949062038",
    "latitude": "29.942395516583552",
    "geocoded_column": {
      "latitude": "29.942395516583552",
      "longitude": "-90.01425949062038"
    }
  },
  {
    "service_request": "2022-890052",
    "request_type": "Roads/Drainage",
    "request_reason": "Pothole",
    "date_created": "2022-06-08T16:51:11.000",
    "date_modified": "2022-06-08T16:51:11.000",
    "request_status": "Pending",
    "responsible_agency": "Department of Public Works",
    "final_address": "5201 Canal Blvd",
    "address_councildis": "A",
    "status": "Pending",
    "rowid": "890052",
    "final_x": "3668099.38842",
    "final_y": "542064.352268",
    "longitude": "-90.1100293050557",
    "latitude": "29.98488920224858",
    "geocoded_column": {
      "latitude": "29.98488920224858",
      "longitude": "-90.1100293050557"
    }
  },
  {
    "service_request": "2022-890051",
    "request_type": "Roads/Drainage",
    "request_reason": "Pothole",
    "date_created": "2022-06-08T16:48:10.000",
    "date_modified": "2022-06-08T16:48:10.000",
    "request_status": "Pending",
    "responsible_agency": "Department of Public Works",
    "final_address": "817 Clayton Ave",
    "address_councildis": "A",
    "status": "Pending",
    "rowid": "890051",
    "final_x": "3668501.81626",
    "final_y": "542346.325517",
    "longitude": "-90.10874868600995",
    "latitude": "29.98565271319145",
    "geocoded_column": {
      "latitude": "29.98565271319145",
      "longitude": "-90.10874868600995"
    }
  },
  {
    "service_request": "2022-890050",
    "request_type": "Traffic Signals/Signs/Striping/Streetlights",
    "request_reason": "Street Light Outage/Malfunction",
    "date_created": "2022-06-08T16:47:13.000",
    "date_modified": "2022-06-08T16:47:14.000",
    "request_status": "Pending",
    "responsible_agency": "Department of Public Works",
    "final_address": "4116 N Roman St",
    "address_councildis": "D",
    "status": "Pending",
    "contractor": "Royal Engineering",
    "rowid": "890050",
    "final_x": "3692867.08169",
    "final_y": "537759.458888",
    "longitude": "-90.0319535586621",
    "latitude": "29.972301971976336",
    "geocoded_column": {
      "latitude": "29.972301971976336",
      "longitude": "-90.0319535586621"
    }
  },
  {
    "service_request": "2022-890048",
    "request_type": "Property Maintenance",
    "request_reason": "Property Maintenance",
    "date_created": "2022-06-08T16:41:56.000",
    "date_modified": "2022-06-08T16:41:56.000",
    "request_status": "Pending",
    "responsible_agency": "Department of Code Enforcement",
    "final_address": "3100 Metropolitan St",
    "address_councildis": "D",
    "status": "Pending",
    "rowid": "890048",
    "final_x": "3691246.55177",
    "final_y": "543904.043854",
    "longitude": "-90.03685188300855",
    "latitude": "29.98924789304256",
    "geocoded_column": {
      "latitude": "29.98924789304256",
      "longitude": "-90.03685188300855"
    }
  },
  {
    "service_request": "2022-890047",
    "request_type": "Property Maintenance",
    "request_reason": "Property Maintenance",
    "date_created": "2022-06-08T16:41:11.000",
    "date_modified": "2022-06-08T16:41:11.000",
    "request_status": "Pending",
    "responsible_agency": "Department of Code Enforcement",
    "final_address": "994 Chapelle St",
    "address_councildis": "A",
    "status": "Pending",
    "rowid": "890047",
    "final_x": "3671277.07239",
    "final_y": "552422.764502",
    "longitude": "-90.09964008049693",
    "latitude": "30.013277564771663",
    "geocoded_column": {
      "latitude": "30.013277564771663",
      "longitude": "-90.09964008049693"
    }
  },
  {
    "service_request": "2022-890046",
    "request_type": "Trash/Recycling",
    "request_reason": "Return Trash Cart",
    "date_created": "2022-06-08T16:35:36.000",
    "date_modified": "2022-06-08T16:35:37.000",
    "request_status": "Pending",
    "responsible_agency": "Department of Sanitation",
    "final_address": "18 Richmond Pl",
    "address_councildis": "A",
    "status": "Assigned to Contractor",
    "contractor": "Richards Disposal",
    "rowid": "890046",
    "final_x": "3666565.54554",
    "final_y": "524105.339644",
    "longitude": "-90.11547697427197",
    "latitude": "29.935552758662038",
    "geocoded_column": {
      "latitude": "29.935552758662038",
      "longitude": "-90.11547697427197"
    }
  },
  {
    "service_request": "2022-890045",
    "request_type": "Parks & Parkways",
    "request_reason": "Request Grass Cutting Service (City Owned Property)",
    "date_created": "2022-06-08T16:33:04.000",
    "date_modified": "2022-06-08T16:33:04.000",
    "request_status": "Pending",
    "responsible_agency": "Department of Parks & Parkway",
    "final_address": "4123 Dreux Ave",
    "address_councildis": "D",
    "status": "Pending",
    "rowid": "890045",
    "final_x": "3689210.17219",
    "final_y": "552735.276182",
    "longitude": "-90.04297005563537",
    "latitude": "30.013593763665096",
    "geocoded_column": {
      "latitude": "30.013593763665096",
      "longitude": "-90.04297005563537"
    }
  },
  {
    "service_request": "2022-890044",
    "request_type": "Property Maintenance",
    "request_reason": "Property Maintenance",
    "date_created": "2022-06-08T16:31:39.000",
    "date_modified": "2022-06-08T16:47:04.000",
    "case_close_date": "2022-06-08T11:47:04.000",
    "request_status": "Closed",
    "responsible_agency": "Department of Code Enforcement",
    "final_address": "401 City Park Ave",
    "address_councildis": "A",
    "status": "Referred to Code Enforcement",
    "rowid": "890044",
    "final_x": "3669016.54868",
    "final_y": "541580.110284",
    "longitude": "-90.10714874874854",
    "latitude": "29.983530745996323",
    "geocoded_column": {
      "latitude": "29.983530745996323",
      "longitude": "-90.10714874874854"
    }
  },
  {
    "service_request": "2022-890043",
    "request_type": "Trash/Recycling",
    "request_reason": "Illegal Dumping",
    "date_created": "2022-06-08T16:29:41.000",
    "date_modified": "2022-06-08T16:29:41.000",
    "request_status": "Pending",
    "responsible_agency": "Department of Sanitation",
    "final_address": "4123 Dreux Ave",
    "address_councildis": "D",
    "status": "Pending",
    "rowid": "890043",
    "final_x": "3689210.17219",
    "final_y": "552735.276182",
    "longitude": "-90.04297005563537",
    "latitude": "30.013593763665096",
    "geocoded_column": {
      "latitude": "30.013593763665096",
      "longitude": "-90.04297005563537"
    }
  },
  {
    "service_request": "2022-890042",
    "request_type": "Parks & Parkways",
    "request_reason": "Request Tree Service (Right of Way/Public Property)",
    "date_created": "2022-06-08T16:28:28.000",
    "date_modified": "2022-06-08T16:28:29.000",
    "request_status": "Pending",
    "responsible_agency": "Department of Parks & Parkway",
    "final_address": "532 Octavia St",
    "address_councildis": "A",
    "status": "Pending",
    "rowid": "890042",
    "final_x": "3666245.48577",
    "final_y": "518160.414646",
    "longitude": "-90.11668668946491",
    "latitude": "29.91921544416217",
    "geocoded_column": {
      "latitude": "29.91921544416217",
      "longitude": "-90.11668668946491"
    }
  },
  {
    "service_request": "2022-890041",
    "request_type": "Trash/Recycling",
    "request_reason": "Order Recycling Cart",
    "date_created": "2022-06-08T16:26:34.000",
    "date_modified": "2022-06-08T16:26:34.000",
    "request_status": "Pending",
    "responsible_agency": "Department of Sanitation",
    "final_address": "1241 Josephine St",
    "address_councildis": "B",
    "status": "Pending",
    "rowid": "890041",
    "final_x": "3678766.60802",
    "final_y": "522885.567227",
    "longitude": "-90.07700032572136",
    "latitude": "29.931836571702277",
    "geocoded_column": {
      "latitude": "29.931836571702277",
      "longitude": "-90.07700032572136"
    }
  },
  {
    "service_request": "2022-890040",
    "request_type": "Trash/Recycling",
    "request_reason": "MIssed Recycling Pick-Up",
    "date_created": "2022-06-08T16:26:33.000",
    "date_modified": "2022-06-08T16:26:33.000",
    "request_status": "Pending",
    "responsible_agency": "Department of Sanitation",
    "final_address": "2927 Constance St",
    "address_councildis": "B",
    "status": "Assigned to Contractor",
    "contractor": "Richards Disposal",
    "rowid": "890040",
    "final_x": "3676605.36225",
    "final_y": "520131.955192",
    "longitude": "-90.08391793571015",
    "latitude": "29.924330013841793",
    "geocoded_column": {
      "latitude": "29.924330013841793",
      "longitude": "-90.08391793571015"
    }
  },
  {
    "service_request": "2022-890039",
    "request_type": "Roads/Drainage",
    "request_reason": "Pothole",
    "date_created": "2022-06-08T16:24:18.000",
    "date_modified": "2022-06-08T16:24:18.000",
    "request_status": "Pending",
    "responsible_agency": "Department of Public Works",
    "final_address": "ST LOUIS ST & DECATUR ST & N PETERS ST",
    "address_councildis": "C",
    "status": "Pending",
    "rowid": "890039",
    "final_x": "3682715.5",
    "final_y": "531406.18",
    "longitude": "-90.06423619496569",
    "latitude": "29.955145755038536",
    "geocoded_column": {
      "latitude": "29.955145755038536",
      "longitude": "-90.06423619496569"
    }
  },
  {
    "service_request": "2022-890038",
    "request_type": "Trash/Recycling",
    "request_reason": "Missed Trash Pick-Up",
    "date_created": "2022-06-08T16:22:44.000",
    "date_modified": "2022-06-08T16:22:45.000",
    "request_status": "Pending",
    "responsible_agency": "Department of Sanitation",
    "final_address": "4010 Prytania St, New Orleans, Louisiana, 70115",
    "address_councildis": "B",
    "status": "Assigned to Contractor",
    "contractor": "Richards Disposal",
    "rowid": "890038",
    "final_x": "3672269.99156",
    "final_y": "520416.016184",
    "longitude": "-90.09759355947824",
    "latitude": "29.925240362908074",
    "geocoded_column": {
      "latitude": "29.925240362908074",
      "longitude": "-90.09759355947824"
    }
  },
  {
    "service_request": "2022-890037",
    "request_type": "Trash/Recycling",
    "request_reason": "Request a Large Item Pick Up",
    "date_created": "2022-06-08T16:19:21.000",
    "date_modified": "2022-06-08T16:19:22.000",
    "request_status": "Pending",
    "responsible_agency": "Department of Sanitation",
    "final_address": "1618 Tropic Dr",
    "address_councildis": "C",
    "status": "Assigned to Contractor",
    "contractor": "Richards Disposal",
    "rowid": "890037",
    "final_x": "3699546.58519",
    "final_y": "524801.288444",
    "longitude": "-90.01133082864513",
    "latitude": "29.936461307162585",
    "geocoded_column": {
      "latitude": "29.936461307162585",
      "longitude": "-90.01133082864513"
    }
  },
  {
    "service_request": "2022-890036",
    "request_type": "Trash/Recycling",
    "request_reason": "Replace Trash Cart",
    "date_created": "2022-06-08T16:18:11.000",
    "date_modified": "2022-06-08T16:18:12.000",
    "request_status": "Pending",
    "responsible_agency": "Department of Sanitation",
    "final_address": "1904 Eagle St",
    "address_councildis": "A",
    "status": "Assigned to Contractor",
    "contractor": "Richards Disposal",
    "rowid": "890036",
    "final_x": "3661801.6832",
    "final_y": "531939.482883",
    "longitude": "-90.13025692855594",
    "latitude": "29.957232512608233",
    "geocoded_column": {
      "latitude": "29.957232512608233",
      "longitude": "-90.13025692855594"
    }
  },
  {
    "service_request": "2022-890035",
    "request_type": "Trash/Recycling",
    "request_reason": "MIssed Recycling Pick-Up",
    "date_created": "2022-06-08T16:18:07.000",
    "date_modified": "2022-06-08T16:18:07.000",
    "request_status": "Pending",
    "responsible_agency": "Department of Sanitation",
    "final_address": "2124 Camp St",
    "address_councildis": "B",
    "status": "Assigned to Contractor",
    "contractor": "Richards Disposal",
    "rowid": "890035",
    "final_x": "3678793.04117",
    "final_y": "522464.221242",
    "longitude": "-90.07693146400749",
    "latitude": "29.930677211414945",
    "geocoded_column": {
      "latitude": "29.930677211414945",
      "longitude": "-90.07693146400749"
    }
  },
  {
    "service_request": "2022-890034",
    "request_type": "Property Maintenance",
    "request_reason": "Property Maintenance",
    "date_created": "2022-06-08T16:16:56.000",
    "date_modified": "2022-06-08T16:26:14.000",
    "case_close_date": "2022-06-08T11:26:14.000",
    "request_status": "Closed",
    "responsible_agency": "Department of Code Enforcement",
    "final_address": "3172 Toulouse St",
    "address_councildis": "A",
    "status": "Referred to Code Enforcement",
    "rowid": "890034",
    "final_x": "3674717.28276",
    "final_y": "537824.869704",
    "longitude": "-90.08927157801492",
    "latitude": "29.97303614699609",
    "geocoded_column": {
      "latitude": "29.97303614699609",
      "longitude": "-90.08927157801492"
    }
  },
  {
    "service_request": "2022-890033",
    "request_type": "Trash/Recycling",
    "request_reason": "Order Trash Cart",
    "date_created": "2022-06-08T16:14:59.000",
    "date_modified": "2022-06-08T16:15:00.000",
    "request_status": "Pending",
    "responsible_agency": "Department of Sanitation",
    "final_address": "1922 Bienville Ave",
    "address_councildis": "B",
    "status": "Assigned to Contractor",
    "contractor": "Richards Disposal",
    "rowid": "890033",
    "final_x": "3678092.26363",
    "final_y": "533923.680837",
    "longitude": "-90.07874762663201",
    "latitude": "29.9622080208094",
    "geocoded_column": {
      "latitude": "29.9622080208094",
      "longitude": "-90.07874762663201"
    }
  },
  {
    "service_request": "2022-890031",
    "request_type": "Trash/Recycling",
    "request_reason": "Illegal Dumping",
    "date_created": "2022-06-08T16:08:05.000",
    "date_modified": "2022-06-08T16:08:05.000",
    "request_status": "Pending",
    "responsible_agency": "Department of Sanitation",
    "final_address": "3214 Banks St A",
    "address_councildis": "B",
    "status": "Pending",
    "rowid": "890031",
    "final_x": "3673001.58145",
    "final_y": "535297.348102",
    "longitude": "-90.09477639058865",
    "latitude": "29.966137424005456",
    "geocoded_column": {
      "latitude": "29.966137424005456",
      "longitude": "-90.09477639058865"
    }
  },
  {
    "service_request": "2022-890030",
    "request_type": "Parks & Parkways",
    "request_reason": "Request Tree Service (Right of Way/Public Property)",
    "date_created": "2022-06-08T16:01:39.000",
    "date_modified": "2022-06-08T16:01:39.000",
    "request_status": "Pending",
    "responsible_agency": "Department of Parks & Parkway",
    "final_address": "1522 S Carrollton Ave",
    "address_councildis": "A",
    "status": "Pending",
    "rowid": "890030",
    "final_x": "3662781.59392",
    "final_y": "529299.285953",
    "longitude": "-90.12725040707089",
    "latitude": "29.949944497415828",
    "geocoded_column": {
      "latitude": "29.949944497415828",
      "longitude": "-90.12725040707089"
    }
  },
  {
    "service_request": "2022-890029",
    "request_type": "Trash/Recycling",
    "request_reason": "Repair Trash Cart",
    "date_created": "2022-06-08T15:59:21.000",
    "date_modified": "2022-06-08T15:59:22.000",
    "request_status": "Pending",
    "responsible_agency": "Department of Sanitation",
    "final_address": "465 Lowerline St",
    "address_councildis": "A",
    "status": "Assigned to Contractor",
    "contractor": "Richards Disposal",
    "rowid": "890029",
    "final_x": "3662090.64634",
    "final_y": "524299.751932",
    "longitude": "-90.12959789522175",
    "latitude": "29.93621735103016",
    "geocoded_column": {
      "latitude": "29.93621735103016",
      "longitude": "-90.12959789522175"
    }
  },
  {
    "service_request": "2022-890028",
    "request_type": "Roads/Drainage",
    "request_reason": "Street Subsidence (Sinking)",
    "date_created": "2022-06-08T15:56:49.000",
    "date_modified": "2022-06-08T15:56:49.000",
    "request_status": "Pending",
    "responsible_agency": "Department of Public Works",
    "final_address": "4342 Michoud Blvd",
    "address_councildis": "E",
    "status": "Pending",
    "rowid": "890028",
    "final_x": "3725585.09574",
    "final_y": "557533.171803",
    "longitude": "-89.92785999459234",
    "latitude": "30.02560955364375",
    "geocoded_column": {
      "latitude": "30.02560955364375",
      "longitude": "-89.92785999459234"
    }
  },
  {
    "service_request": "2022-890027",
    "request_type": "Traffic Signals/Signs/Striping/Streetlights",
    "request_reason": "Street Light Outage/Malfunction",
    "date_created": "2022-06-08T15:54:26.000",
    "date_modified": "2022-06-08T15:54:27.000",
    "request_status": "Pending",
    "responsible_agency": "Department of Public Works",
    "final_address": "LAHARPE ST & N ROBERTSON ST",
    "address_councildis": "C",
    "status": "Pending",
    "contractor": "Royal Engineering",
    "rowid": "890027",
    "final_x": "3682257.8",
    "final_y": "537242.48",
    "longitude": "-90.06547752762174",
    "latitude": "29.97120751100123",
    "geocoded_column": {
      "latitude": "29.97120751100123",
      "longitude": "-90.06547752762174"
    }
  },
  {
    "service_request": "2022-890026",
    "request_type": "Roads/Drainage",
    "request_reason": "Pothole",
    "date_created": "2022-06-08T15:51:46.000",
    "date_modified": "2022-06-08T15:51:47.000",
    "request_status": "Pending",
    "responsible_agency": "Department of Public Works",
    "final_address": "SERE ST & ST BERNARD AVE",
    "address_councildis": "D",
    "status": "Pending",
    "rowid": "890026",
    "final_x": "3678376.5",
    "final_y": "545411.18",
    "longitude": "-90.0774524543106",
    "latitude": "29.993786116016025",
    "geocoded_column": {
      "latitude": "29.993786116016025",
      "longitude": "-90.0774524543106"
    }
  },
  {
    "service_request": "2022-890023",
    "request_type": "Roads/Drainage",
    "request_reason": "Pothole",
    "date_created": "2022-06-08T15:43:29.000",
    "date_modified": "2022-06-08T15:43:30.000",
    "request_status": "Pending",
    "responsible_agency": "Department of Public Works",
    "final_address": "FRENCHMEN ST & CATON ST",
    "address_councildis": "D",
    "status": "Pending",
    "rowid": "890023",
    "final_x": "3683708.5",
    "final_y": "547316.68",
    "longitude": "-90.06054261831287",
    "latitude": "29.998863791793273",
    "geocoded_column": {
      "latitude": "29.998863791793273",
      "longitude": "-90.06054261831287"
    }
  },
  {
    "service_request": "2022-890020",
    "request_type": "Trash/Recycling",
    "request_reason": "Missed Trash Pick-Up",
    "date_created": "2022-06-08T15:33:02.000",
    "date_modified": "2022-06-08T15:33:02.000",
    "request_status": "Pending",
    "responsible_agency": "Department of Sanitation",
    "final_address": "1100 BLK Ninth St",
    "address_councildis": "B",
    "status": "Assigned to Contractor",
    "contractor": "Richards Disposal",
    "rowid": "890020",
    "final_x": "3675758.6222",
    "final_y": "520194.506315",
    "longitude": "-90.08658865552702",
    "latitude": "29.924527369245766",
    "geocoded_column": {
      "latitude": "29.924527369245766",
      "longitude": "-90.08658865552702"
    }
  },
  {
    "service_request": "2022-890019",
    "request_type": "Abandoned Vehicles",
    "request_reason": "Abandoned/Junk Vehicles",
    "date_created": "2022-06-08T15:25:43.000",
    "date_modified": "2022-06-08T15:25:43.000",
    "request_status": "Pending",
    "responsible_agency": "Department of Public Works",
    "final_address": "1438 N Claiborne Ave B",
    "address_councildis": "C",
    "status": "Pending",
    "rowid": "890019",
    "final_x": "3681589.22562",
    "final_y": "536758.92852",
    "longitude": "-90.06760584467632",
    "latitude": "29.96989823540155",
    "geocoded_column": {
      "latitude": "29.96989823540155",
      "longitude": "-90.06760584467632"
    }
  },
  {
    "service_request": "2022-890018",
    "request_type": "Property Maintenance",
    "request_reason": "Property Maintenance",
    "date_created": "2022-06-08T15:24:30.000",
    "date_modified": "2022-06-08T15:33:02.000",
    "case_close_date": "2022-06-08T10:33:02.000",
    "request_status": "Closed",
    "responsible_agency": "Department of Code Enforcement",
    "final_address": "2344 Gallier St",
    "address_councildis": "D",
    "status": "Referred to Code Enforcement",
    "rowid": "890018",
    "final_x": "3691631.3206",
    "final_y": "540507.156811",
    "longitude": "-90.03575802138602",
    "latitude": "29.979895697445514",
    "geocoded_column": {
      "latitude": "29.979895697445514",
      "longitude": "-90.03575802138602"
    }
  },
  {
    "service_request": "2022-890017",
    "request_type": "Property Maintenance",
    "request_reason": "Property Maintenance",
    "date_created": "2022-06-08T15:23:04.000",
    "date_modified": "2022-06-08T15:36:08.000",
    "case_close_date": "2022-06-08T10:36:08.000",
    "request_status": "Closed",
    "responsible_agency": "Department of Code Enforcement",
    "final_address": "2330 Gallier St",
    "address_councildis": "D",
    "status": "Referred to Code Enforcement",
    "rowid": "890017",
    "final_x": "3691603.45488",
    "final_y": "540417.754315",
    "longitude": "-90.03584922987007",
    "latitude": "29.979650740159496",
    "geocoded_column": {
      "latitude": "29.979650740159496",
      "longitude": "-90.03584922987007"
    }
  },
  {
    "service_request": "2022-890016",
    "request_type": "Trash/Recycling",
    "request_reason": "Request a Large Item Pick Up",
    "date_created": "2022-06-08T15:21:54.000",
    "date_modified": "2022-06-08T15:21:55.000",
    "request_status": "Pending",
    "responsible_agency": "Department of Sanitation",
    "final_address": "1531 Lowerline St",
    "address_councildis": "A",
    "status": "Assigned to Contractor",
    "contractor": "Richards Disposal",
    "rowid": "890016",
    "final_x": "3664452.88448",
    "final_y": "527918.451199",
    "longitude": "-90.12201943441225",
    "latitude": "29.946099169987914",
    "geocoded_column": {
      "latitude": "29.946099169987914",
      "longitude": "-90.12201943441225"
    }
  },
  {
    "service_request": "2022-890015",
    "request_type": "Trash/Recycling",
    "request_reason": "MIssed Recycling Pick-Up",
    "date_created": "2022-06-08T15:18:15.000",
    "date_modified": "2022-06-08T15:18:16.000",
    "request_status": "Pending",
    "responsible_agency": "Department of Sanitation",
    "final_address": "2233 Washington Ave",
    "address_councildis": "B",
    "status": "Assigned to Contractor",
    "contractor": "Richards Disposal",
    "rowid": "890015",
    "final_x": "3674625.65736",
    "final_y": "524567.716476",
    "longitude": "-90.09001525431059",
    "latitude": "29.936586127445302",
    "geocoded_column": {
      "latitude": "29.936586127445302",
      "longitude": "-90.09001525431059"
    }
  },
  {
    "service_request": "2022-890014",
    "request_type": "Traffic Signals/Signs/Striping/Streetlights",
    "request_reason": "Request for Stop Sign",
    "date_created": "2022-06-08T15:16:23.000",
    "date_modified": "2022-06-08T15:16:23.000",
    "request_status": "Pending",
    "responsible_agency": "Department of Public Works",
    "final_address": "540 Marigny St",
    "address_councildis": "C",
    "status": "Pending",
    "rowid": "890014",
    "final_x": "3685537.9023",
    "final_y": "534514.685637",
    "longitude": "-90.0552146271654",
    "latitude": "29.963606819994848",
    "geocoded_column": {
      "latitude": "29.963606819994848",
      "longitude": "-90.0552146271654"
    }
  },
  {
    "service_request": "2022-890012",
    "request_type": "Roads/Drainage",
    "request_reason": "Damaged Sidewalk",
    "date_created": "2022-06-08T15:15:26.000",
    "date_modified": "2022-06-08T15:15:26.000",
    "request_status": "Pending",
    "responsible_agency": "Department of Public Works",
    "final_address": "4425 S Galvez St",
    "address_councildis": "B",
    "status": "Pending",
    "rowid": "890012",
    "final_x": "3669928.58017",
    "final_y": "527605.349439",
    "longitude": "-90.10474133867419",
    "latitude": "29.94507793951469",
    "geocoded_column": {
      "latitude": "29.94507793951469",
      "longitude": "-90.10474133867419"
    }
  },
  {
    "service_request": "2022-890011",
    "request_type": "Mosquito, Termite & Rodent Control",
    "request_reason": "Mosquito Complaint",
    "date_created": "2022-06-08T15:11:25.000",
    "date_modified": "2022-06-08T15:11:25.000",
    "request_status": "Pending",
    "responsible_agency": "Mosquito, Termite & Rodent Control Board",
    "final_address": "2008 St Andrew St",
    "address_councildis": "B",
    "status": "Pending",
    "rowid": "890011",
    "final_x": "3677142.01186",
    "final_y": "525474.991165",
    "longitude": "-90.08203973420315",
    "latitude": "29.93900551703923",
    "geocoded_column": {
      "latitude": "29.93900551703923",
      "longitude": "-90.08203973420315"
    }
  },
  {
    "service_request": "2022-890010",
    "request_type": "Trash/Recycling",
    "request_reason": "Request a Large Item Pick Up",
    "date_created": "2022-06-08T15:10:25.000",
    "date_modified": "2022-06-08T15:10:26.000",
    "request_status": "Pending",
    "responsible_agency": "Department of Sanitation",
    "final_address": "8 Pinehurst Dr",
    "address_councildis": "C",
    "status": "Assigned to Contractor",
    "contractor": "Richards Disposal",
    "rowid": "890010",
    "final_x": "3715196.03269",
    "final_y": "515798.395124",
    "longitude": "-89.96226558186628",
    "latitude": "29.91120082223889",
    "geocoded_column": {
      "latitude": "29.91120082223889",
      "longitude": "-89.96226558186628"
    }
  },
  {
    "service_request": "2022-890009",
    "request_type": "Trash/Recycling",
    "request_reason": "Order Recycling Cart",
    "date_created": "2022-06-08T15:10:23.000",
    "date_modified": "2022-06-08T15:10:24.000",
    "request_status": "Pending",
    "responsible_agency": "Department of Sanitation",
    "final_address": "3616 Cleveland Ave",
    "address_councildis": "B",
    "status": "Pending",
    "rowid": "890009",
    "final_x": "3672165.38177",
    "final_y": "536901.490632",
    "longitude": "-90.09736245200227",
    "latitude": "29.97057310301368",
    "geocoded_column": {
      "latitude": "29.97057310301368",
      "longitude": "-90.09736245200227"
    }
  },
  {
    "service_request": "2022-890008",
    "request_type": "Trash/Recycling",
    "request_reason": "Missed Trash Pick-Up",
    "date_created": "2022-06-08T15:06:43.000",
    "date_modified": "2022-06-08T15:06:43.000",
    "request_status": "Pending",
    "responsible_agency": "Department of Sanitation",
    "final_address": "4316 State Street Dr",
    "address_councildis": "B",
    "status": "Assigned to Contractor",
    "contractor": "Richards Disposal",
    "rowid": "890008",
    "final_x": "3668529.31527",
    "final_y": "531409.528515",
    "longitude": "-90.10903093174993",
    "latitude": "29.955579369737148",
    "geocoded_column": {
      "latitude": "29.955579369737148",
      "longitude": "-90.10903093174993"
    }
  },
  {
    "service_request": "2022-890007",
    "request_type": "Roads/Drainage",
    "request_reason": "Pothole",
    "date_created": "2022-06-08T15:01:01.000",
    "date_modified": "2022-06-08T15:01:01.000",
    "request_status": "Pending",
    "responsible_agency": "Department of Public Works",
    "final_address": "1035 Desire St, New Orleans, Louisiana, 70117",
    "address_councildis": "C",
    "status": "Pending",
    "rowid": "890007",
    "final_x": "3690170.52361",
    "final_y": "535515.568646",
    "longitude": "-90.04054967736406",
    "latitude": "29.966215998402603",
    "geocoded_column": {
      "latitude": "29.966215998402603",
      "longitude": "-90.04054967736406"
    }
  },
  {
    "service_request": "2022-890004",
    "request_type": "Trash/Recycling",
    "request_reason": "Request a Large Item Pick Up",
    "date_created": "2022-06-08T14:54:50.000",
    "date_modified": "2022-06-08T14:54:50.000",
    "request_status": "Pending",
    "responsible_agency": "Department of Sanitation",
    "final_address": "4805 Annette St",
    "address_councildis": "D",
    "status": "Assigned to Contractor",
    "contractor": "Metro Disposal",
    "rowid": "890004",
    "final_x": "3682112.60924",
    "final_y": "550208.683476",
    "longitude": "-90.06548296634084",
    "latitude": "30.006864410474634",
    "geocoded_column": {
      "latitude": "30.006864410474634",
      "longitude": "-90.06548296634084"
    }
  },
  {
    "service_request": "2022-890003",
    "request_type": "Safety & Permits",
    "request_reason": "Short term Rental (Enforcement)",
    "date_created": "2022-06-08T14:52:13.000",
    "date_modified": "2022-06-08T14:52:13.000",
    "request_status": "Pending",
    "responsible_agency": "Safety and Permits",
    "final_address": "2620 N Villere St",
    "address_councildis": "C",
    "status": "Pending",
    "rowid": "890003",
    "final_x": "3687569.63247",
    "final_y": "537499.340488",
    "longitude": "-90.04869298055493",
    "latitude": "29.971751108148805",
    "geocoded_column": {
      "latitude": "29.971751108148805",
      "longitude": "-90.04869298055493"
    }
  },
  {
    "service_request": "2022-890002",
    "request_type": "Trash/Recycling",
    "request_reason": "Repair Trash Cart",
    "date_created": "2022-06-08T14:52:07.000",
    "date_modified": "2022-06-08T14:52:07.000",
    "request_status": "Pending",
    "responsible_agency": "Department of Sanitation",
    "final_address": "1631 6th St, New Orleans, Louisiana, 70115",
    "status": "Assigned to Contractor",
    "rowid": "890002",
    "longitude": "0.0",
    "latitude": "0.0",
    "geocoded_column": {
      "latitude": "0.0",
      "longitude": "0.0"
    }
  },
  {
    "service_request": "2022-890001",
    "request_type": "Trash/Recycling",
    "request_reason": "Order Recycling Cart",
    "date_created": "2022-06-08T14:51:58.000",
    "date_modified": "2022-06-08T14:51:58.000",
    "request_status": "Pending",
    "responsible_agency": "Department of Sanitation",
    "final_address": "2118 Freret St",
    "address_councildis": "B",
    "status": "Pending",
    "rowid": "890001",
    "final_x": "3675801.34357",
    "final_y": "526418.156094",
    "longitude": "-90.08623997872645",
    "latitude": "29.941639099133855",
    "geocoded_column": {
      "latitude": "29.941639099133855",
      "longitude": "-90.08623997872645"
    }
  },
  {
    "service_request": "2022-890000",
    "request_type": "Trash/Recycling",
    "request_reason": "Request a Large Item Pick Up",
    "date_created": "2022-06-08T14:50:21.000",
    "date_modified": "2022-06-08T14:50:22.000",
    "request_status": "Pending",
    "responsible_agency": "Department of Sanitation",
    "final_address": "1633 6th St, New Orleans, Louisiana, 70115",
    "status": "Assigned to Contractor",
    "rowid": "890000",
    "longitude": "0.0",
    "latitude": "0.0",
    "geocoded_column": {
      "latitude": "0.0",
      "longitude": "0.0"
    }
  },
  {
    "service_request": "2022-889999",
    "request_type": "Trash/Recycling",
    "request_reason": "Repair Recycling Cart",
    "date_created": "2022-06-08T14:50:08.000",
    "date_modified": "2022-06-08T14:59:01.000",
    "request_status": "Pending",
    "responsible_agency": "Department of Sanitation",
    "final_address": "New Orleans,LA",
    "address_councildis": "B",
    "rowid": "889999",
    "final_x": "3668761.56206",
    "final_y": "518245.609718",
    "longitude": "-90.10874181508868",
    "latitude": "29.919376004794938",
    "geocoded_column": {
      "latitude": "29.919376004794938",
      "longitude": "-90.10874181508868"
    }
  },
  {
    "service_request": "2022-889996",
    "request_type": "Trash/Recycling",
    "request_reason": "Request a Large Item Pick Up",
    "date_created": "2022-06-08T14:47:49.000",
    "date_modified": "2022-06-08T14:47:50.000",
    "request_status": "Pending",
    "responsible_agency": "Department of Sanitation",
    "final_address": "713 General Pershing St",
    "address_councildis": "B",
    "status": "Assigned to Contractor",
    "contractor": "Richards Disposal",
    "rowid": "889996",
    "final_x": "3671552.71246",
    "final_y": "518222.396278",
    "longitude": "-90.099932324492",
    "latitude": "29.919229857794033",
    "geocoded_column": {
      "latitude": "29.919229857794033",
      "longitude": "-90.099932324492"
    }
  },
  {
    "service_request": "2022-889995",
    "request_type": "Roads/Drainage",
    "request_reason": "Catch Basin - Broken/Damage",
    "date_created": "2022-06-08T14:47:09.000",
    "date_modified": "2022-06-08T14:47:09.000",
    "request_status": "Pending",
    "responsible_agency": "Department of Public Works",
    "final_address": "LACOMBE ST & CURRAN BLVD",
    "address_councildis": "E",
    "status": "Pending",
    "rowid": "889995",
    "final_x": "3709527.0",
    "final_y": "565507.38",
    "longitude": "-89.97830286995217",
    "latitude": "30.048067264057387",
    "geocoded_column": {
      "latitude": "30.048067264057387",
      "longitude": "-89.97830286995217"
    }
  },
  {
    "service_request": "2022-889994",
    "request_type": "Traffic Signals/Signs/Striping/Streetlights",
    "request_reason": "Additional signage",
    "date_created": "2022-06-08T14:44:53.000",
    "date_modified": "2022-06-08T14:44:53.000",
    "request_status": "Pending",
    "responsible_agency": "Department of Public Works",
    "final_address": "CURRAN BLVD & LUCERNE ST",
    "address_councildis": "E",
    "status": "Pending",
    "rowid": "889994",
    "final_x": "3710640.7",
    "final_y": "566211.98",
    "longitude": "-89.97475657228604",
    "latitude": "30.049968369382345",
    "geocoded_column": {
      "latitude": "30.049968369382345",
      "longitude": "-89.97475657228604"
    }
  },
  {
    "service_request": "2022-889991",
    "request_type": "Trash/Recycling",
    "request_reason": "Illegal Dumping",
    "date_created": "2022-06-08T14:44:31.000",
    "date_modified": "2022-06-08T14:44:31.000",
    "request_status": "Pending",
    "responsible_agency": "Department of Sanitation",
    "final_address": "2074 Florida Ave",
    "address_councildis": "D",
    "status": "Pending",
    "rowid": "889991",
    "final_x": "3683636.32745",
    "final_y": "542659.627149",
    "longitude": "-90.06093397800102",
    "latitude": "29.986060756766904",
    "geocoded_column": {
      "latitude": "29.986060756766904",
      "longitude": "-90.06093397800102"
    }
  },
  {
    "service_request": "2022-889990",
    "request_type": "Traffic Signals/Signs/Striping/Streetlights",
    "request_reason": "Additional signage",
    "date_created": "2022-06-08T14:44:05.000",
    "date_modified": "2022-06-08T14:44:05.000",
    "request_status": "Pending",
    "responsible_agency": "Department of Public Works",
    "final_address": "LACOMBE ST & CURRAN BLVD",
    "address_councildis": "E",
    "status": "Pending",
    "rowid": "889990",
    "final_x": "3709527.0",
    "final_y": "565507.38",
    "longitude": "-89.97830286995217",
    "latitude": "30.048067264057387",
    "geocoded_column": {
      "latitude": "30.048067264057387",
      "longitude": "-89.97830286995217"
    }
  },
  {
    "service_request": "2022-889989",
    "request_type": "Property Maintenance",
    "request_reason": "Property Maintenance",
    "date_created": "2022-06-08T14:43:28.000",
    "date_modified": "2022-06-08T15:38:15.000",
    "case_close_date": "2022-06-08T10:38:15.000",
    "request_status": "Closed",
    "responsible_agency": "Department of Code Enforcement",
    "final_address": "1935 Pauline St",
    "address_councildis": "D",
    "status": "Referred to Code Enforcement",
    "rowid": "889989",
    "final_x": "3692069.9128",
    "final_y": "538709.162249",
    "longitude": "-90.03443714539851",
    "latitude": "29.974938189632383",
    "geocoded_column": {
      "latitude": "29.974938189632383",
      "longitude": "-90.03443714539851"
    }
  },
  {
    "service_request": "2022-889987",
    "request_type": "Property Maintenance",
    "request_reason": "Property Maintenance",
    "date_created": "2022-06-08T14:41:45.000",
    "date_modified": "2022-06-08T15:41:18.000",
    "case_close_date": "2022-06-08T10:41:18.000",
    "request_status": "Closed",
    "responsible_agency": "Department of Code Enforcement",
    "final_address": "2727 Higgins Blvd",
    "address_councildis": "D",
    "status": "Referred to Code Enforcement",
    "rowid": "889987",
    "final_x": "3689637.69673",
    "final_y": "545158.826447",
    "longitude": "-90.04188909902226",
    "latitude": "29.99274804887933",
    "geocoded_column": {
      "latitude": "29.99274804887933",
      "longitude": "-90.04188909902226"
    }
  },
  {
    "service_request": "2022-889986",
    "request_type": "Trash/Recycling",
    "request_reason": "Illegal Dumping",
    "date_created": "2022-06-08T14:41:38.000",
    "date_modified": "2022-06-08T14:41:38.000",
    "request_status": "Pending",
    "responsible_agency": "Department of Sanitation",
    "final_address": "1935 Pauline St",
    "address_councildis": "D",
    "status": "Pending",
    "rowid": "889986",
    "final_x": "3692069.9128",
    "final_y": "538709.162249",
    "longitude": "-90.03443714539851",
    "latitude": "29.974938189632383",
    "geocoded_column": {
      "latitude": "29.974938189632383",
      "longitude": "-90.03443714539851"
    }
  },
  {
    "service_request": "2022-889985",
    "request_type": "Trash/Recycling",
    "request_reason": "Request a Large Item Pick Up",
    "date_created": "2022-06-08T14:41:02.000",
    "date_modified": "2022-06-08T14:41:03.000",
    "request_status": "Pending",
    "responsible_agency": "Department of Sanitation",
    "final_address": "2231 Laharpe St",
    "address_councildis": "D",
    "status": "Assigned to Contractor",
    "contractor": "Metro Disposal",
    "rowid": "889985",
    "final_x": "3680114.234",
    "final_y": "539002.343114",
    "longitude": "-90.07218602924115",
    "latitude": "29.976111570255945",
    "geocoded_column": {
      "latitude": "29.976111570255945",
      "longitude": "-90.07218602924115"
    }
  },
  {
    "service_request": "2022-889984",
    "request_type": "Trash/Recycling",
    "request_reason": "Illegal Dumping",
    "date_created": "2022-06-08T14:40:06.000",
    "date_modified": "2022-06-08T14:40:06.000",
    "request_status": "Pending",
    "responsible_agency": "Department of Sanitation",
    "final_address": "2074 Florida Ave",
    "address_councildis": "D",
    "status": "Pending",
    "rowid": "889984",
    "final_x": "3683636.32745",
    "final_y": "542659.627149",
    "longitude": "-90.06093397800102",
    "latitude": "29.986060756766904",
    "geocoded_column": {
      "latitude": "29.986060756766904",
      "longitude": "-90.06093397800102"
    }
  },
  {
    "service_request": "2022-889983",
    "request_type": "Roads/Drainage",
    "request_reason": "Damaged Sidewalk",
    "date_created": "2022-06-08T14:40:05.000",
    "date_modified": "2022-06-08T14:40:05.000",
    "request_status": "Pending",
    "responsible_agency": "Department of Public Works",
    "final_address": "642 Julia St",
    "address_councildis": "B",
    "status": "Pending",
    "rowid": "889983",
    "final_x": "3680438.06658",
    "final_y": "527966.846015",
    "longitude": "-90.07154707238115",
    "latitude": "29.945757904550742",
    "geocoded_column": {
      "latitude": "29.945757904550742",
      "longitude": "-90.07154707238115"
    }
  },
  {
    "service_request": "2022-889982",
    "request_type": "Roads/Drainage",
    "request_reason": "Pothole",
    "date_created": "2022-06-08T14:38:32.000",
    "date_modified": "2022-06-08T14:38:32.000",
    "request_status": "Pending",
    "responsible_agency": "Department of Public Works",
    "final_address": "3001 Touro St",
    "address_councildis": "D",
    "status": "Pending",
    "rowid": "889982",
    "final_x": "3683686.44636",
    "final_y": "543644.768078",
    "longitude": "-90.06074111344086",
    "latitude": "29.988768015596175",
    "geocoded_column": {
      "latitude": "29.988768015596175",
      "longitude": "-90.06074111344086"
    }
  },
  {
    "service_request": "2022-889981",
    "request_type": "Trash/Recycling",
    "request_reason": "Request a Large Item Pick Up",
    "date_created": "2022-06-08T14:37:55.000",
    "date_modified": "2022-06-08T14:37:56.000",
    "request_status": "Pending",
    "responsible_agency": "Department of Sanitation",
    "final_address": "2125 Delachaise St, New Orleans, Louisiana, 70115",
    "address_councildis": "B",
    "status": "Assigned to Contractor",
    "contractor": "Richards Disposal",
    "rowid": "889981",
    "final_x": "3673069.44443",
    "final_y": "523239.053435",
    "longitude": "-90.09497362586697",
    "latitude": "29.93297907428947",
    "geocoded_column": {
      "latitude": "29.93297907428947",
      "longitude": "-90.09497362586697"
    }
  },
  {
    "service_request": "2022-889980",
    "request_type": "Roads/Drainage",
    "request_reason": "Pothole",
    "date_created": "2022-06-08T14:34:41.000",
    "date_modified": "2022-06-08T14:34:41.000",
    "request_status": "Pending",
    "responsible_agency": "Department of Public Works",
    "final_address": "6449 West End Blvd",
    "address_councildis": "A",
    "status": "Pending",
    "rowid": "889980",
    "final_x": "3666734.04871",
    "final_y": "550781.939797",
    "longitude": "-90.11404884186473",
    "latitude": "30.008899582430768",
    "geocoded_column": {
      "latitude": "30.008899582430768",
      "longitude": "-90.11404884186473"
    }
  },
  {
    "service_request": "2022-889979",
    "request_type": "Trash/Recycling",
    "request_reason": "Request a Large Item Pick Up",
    "date_created": "2022-06-08T14:33:34.000",
    "date_modified": "2022-06-08T14:33:35.000",
    "request_status": "Pending",
    "responsible_agency": "Department of Sanitation",
    "final_address": "2430 Amelia St",
    "address_councildis": "B",
    "status": "Assigned to Contractor",
    "contractor": "Richards Disposal",
    "rowid": "889979",
    "final_x": "3672351.50638",
    "final_y": "524156.366588",
    "longitude": "-90.0972088682849",
    "latitude": "29.935522704025395",
    "geocoded_column": {
      "latitude": "29.935522704025395",
      "longitude": "-90.0972088682849"
    }
  },
  {
    "service_request": "2022-889978",
    "request_type": "Property Maintenance",
    "request_reason": "Property Maintenance",
    "date_created": "2022-06-08T14:25:04.000",
    "date_modified": "2022-06-08T16:36:44.000",
    "case_close_date": "2022-06-08T11:36:44.000",
    "request_status": "Closed",
    "responsible_agency": "Department of Code Enforcement",
    "final_address": "3122 Desaix Blvd",
    "address_councildis": "A",
    "status": "Referred to Code Enforcement",
    "rowid": "889978",
    "final_x": "3678918.73115",
    "final_y": "543441.432398",
    "longitude": "-90.0758079123691",
    "latitude": "29.988353649256137",
    "geocoded_column": {
      "latitude": "29.988353649256137",
      "longitude": "-90.0758079123691"
    }
  },
  {
    "service_request": "2022-889977",
    "request_type": "Traffic Signals/Signs/Striping/Streetlights",
    "request_reason": "Traffic Signal Malfunctioning/Damaged",
    "date_created": "2022-06-08T14:23:21.000",
    "date_modified": "2022-06-08T14:23:21.000",
    "request_status": "Pending",
    "responsible_agency": "Department of Public Works",
    "final_address": "7133 St Charles Ave",
    "address_councildis": "A",
    "status": "Pending",
    "rowid": "889977",
    "final_x": "3663093.39981",
    "final_y": "524744.202748",
    "longitude": "-90.1264173779191",
    "latitude": "29.937410446197084",
    "geocoded_column": {
      "latitude": "29.937410446197084",
      "longitude": "-90.1264173779191"
    }
  },
  {
    "service_request": "2022-889974",
    "request_type": "Trash/Recycling",
    "request_reason": "Replace Trash Cart",
    "date_created": "2022-06-08T14:20:33.000",
    "date_modified": "2022-06-08T14:20:34.000",
    "request_status": "Pending",
    "responsible_agency": "Department of Sanitation",
    "final_address": "6942 Bundy Rd, New Orleans, Louisiana, 70127",
    "address_councildis": "E",
    "status": "Assigned to Contractor",
    "contractor": "Metro Disposal",
    "rowid": "889974",
    "final_x": "3707067.41483",
    "final_y": "560572.971806",
    "longitude": "-89.9862598414211",
    "latitude": "30.034579347960676",
    "geocoded_column": {
      "latitude": "30.034579347960676",
      "longitude": "-89.9862598414211"
    }
  },
  {
    "service_request": "2022-889973",
    "request_type": "Property Maintenance",
    "request_reason": "Property Maintenance",
    "date_created": "2022-06-08T14:20:11.000",
    "date_modified": "2022-06-08T14:20:55.000",
    "request_status": "Pending",
    "responsible_agency": "Department of Code Enforcement",
    "final_address": "1515 Tita St",
    "address_councildis": "C",
    "status": "Pending",
    "rowid": "889973",
    "final_x": "3695572.98339",
    "final_y": "525708.884221",
    "longitude": "-90.02384283077004",
    "latitude": "29.939082343375258",
    "geocoded_column": {
      "latitude": "29.939082343375258",
      "longitude": "-90.02384283077004"
    }
  },
  {
    "service_request": "2022-889970",
    "request_type": "Trash/Recycling",
    "request_reason": "Missed Trash Pick-Up",
    "date_created": "2022-06-08T14:15:43.000",
    "date_modified": "2022-06-08T14:15:44.000",
    "request_status": "Pending",
    "responsible_agency": "Department of Sanitation",
    "final_address": "1631 Saint Charles Ave, New Orleans, Louisiana, 70130",
    "status": "Assigned to Contractor",
    "rowid": "889970",
    "longitude": "0.0",
    "latitude": "0.0",
    "geocoded_column": {
      "latitude": "0.0",
      "longitude": "0.0"
    }
  },
  {
    "service_request": "2022-889969",
    "request_type": "Trash/Recycling",
    "request_reason": "Request a Large Item Pick Up",
    "date_created": "2022-06-08T14:13:52.000",
    "date_modified": "2022-06-08T14:13:53.000",
    "request_status": "Pending",
    "responsible_agency": "Department of Sanitation",
    "final_address": "3614 Frenchmen St",
    "address_councildis": "D",
    "status": "Assigned to Contractor",
    "contractor": "Metro Disposal",
    "rowid": "889969",
    "final_x": "3683773.27586",
    "final_y": "545968.572624",
    "longitude": "-90.06038530183788",
    "latitude": "29.995155000029495",
    "geocoded_column": {
      "latitude": "29.995155000029495",
      "longitude": "-90.06038530183788"
    }
  },
  {
    "service_request": "2022-889968",
    "request_type": "Traffic Signals/Signs/Striping/Streetlights",
    "request_reason": "Street Light Outage/Malfunction",
    "date_created": "2022-06-08T14:13:40.000",
    "date_modified": "2022-06-08T14:13:41.000",
    "request_status": "Pending",
    "responsible_agency": "Department of Public Works",
    "final_address": "1701 Forstall St",
    "address_councildis": "E",
    "status": "Pending",
    "contractor": "Royal Engineering",
    "rowid": "889968",
    "final_x": "3696959.44227",
    "final_y": "536448.958279",
    "longitude": "-90.01907672293197",
    "latitude": "29.96857012974863",
    "geocoded_column": {
      "latitude": "29.96857012974863",
      "longitude": "-90.01907672293197"
    }
  },
  {
    "service_request": "2022-889967",
    "request_type": "Traffic Signals/Signs/Striping/Streetlights",
    "request_reason": "Street Light Outage/Malfunction",
    "date_created": "2022-06-08T14:12:51.000",
    "date_modified": "2022-06-08T14:12:51.000",
    "request_status": "Pending",
    "responsible_agency": "Department of Public Works",
    "final_address": "7029 Freret St",
    "address_councildis": "A",
    "status": "Pending",
    "contractor": "Royal Engineering",
    "rowid": "889967",
    "final_x": "3664256.38964",
    "final_y": "525718.330557",
    "longitude": "-90.12271323135131",
    "latitude": "29.940055253087838",
    "geocoded_column": {
      "latitude": "29.940055253087838",
      "longitude": "-90.12271323135131"
    }
  },
  {
    "service_request": "2022-889964",
    "request_type": "Parks & Parkways",
    "request_reason": "Request Tree Service (Right of Way/Public Property)",
    "date_created": "2022-06-08T14:08:17.000",
    "date_modified": "2022-06-08T14:08:17.000",
    "request_status": "Pending",
    "responsible_agency": "Department of Parks & Parkway",
    "final_address": "4425 S Galvez St",
    "address_councildis": "B",
    "status": "Pending",
    "rowid": "889964",
    "final_x": "3669928.58017",
    "final_y": "527605.349439",
    "longitude": "-90.10474133867419",
    "latitude": "29.94507793951469",
    "geocoded_column": {
      "latitude": "29.94507793951469",
      "longitude": "-90.10474133867419"
    }
  },
  {
    "service_request": "2022-889961",
    "request_type": "Abandoned Vehicles",
    "request_reason": "Abandoned/Junk Vehicles",
    "date_created": "2022-06-08T14:06:43.000",
    "date_modified": "2022-06-08T14:06:43.000",
    "request_status": "Pending",
    "responsible_agency": "Department of Public Works",
    "final_address": "1601 Lafitte Ave",
    "address_councildis": "C",
    "status": "Pending",
    "rowid": "889961",
    "final_x": "3679888.22639",
    "final_y": "534255.789317",
    "longitude": "-90.0730647078564",
    "latitude": "29.963067014315964",
    "geocoded_column": {
      "latitude": "29.963067014315964",
      "longitude": "-90.0730647078564"
    }
  },
  {
    "service_request": "2022-889958",
    "request_type": "Trash/Recycling",
    "request_reason": "Illegal Dumping",
    "date_created": "2022-06-08T14:05:35.000",
    "date_modified": "2022-06-08T14:05:35.000",
    "request_status": "Pending",
    "responsible_agency": "Department of Sanitation",
    "final_address": "2719 Iberville st",
    "address_councildis": "B",
    "status": "Pending",
    "rowid": "889958",
    "final_x": "3675466.28795",
    "final_y": "535621.351302",
    "longitude": "-90.08698176676025",
    "latitude": "29.966954838210313",
    "geocoded_column": {
      "latitude": "29.966954838210313",
      "longitude": "-90.08698176676025"
    }
  },
  {
    "service_request": "2022-889957",
    "request_type": "Mosquito, Termite & Rodent Control",
    "request_reason": "Mosquito Complaint",
    "date_created": "2022-06-08T14:04:55.000",
    "date_modified": "2022-06-08T14:04:55.000",
    "request_status": "Pending",
    "responsible_agency": "Mosquito, Termite & Rodent Control Board",
    "final_address": "923 N Dupre St",
    "address_councildis": "A",
    "status": "Pending",
    "rowid": "889957",
    "final_x": "3676532.64635",
    "final_y": "538251.186825",
    "longitude": "-90.08352361558971",
    "latitude": "29.974154053305313",
    "geocoded_column": {
      "latitude": "29.974154053305313",
      "longitude": "-90.08352361558971"
    }
  },
  {
    "service_request": "2022-889956",
    "request_type": "Trash/Recycling",
    "request_reason": "Illegal Dumping",
    "date_created": "2022-06-08T14:04:41.000",
    "date_modified": "2022-06-08T14:04:41.000",
    "request_status": "Pending",
    "responsible_agency": "Department of Sanitation",
    "final_address": "2120 Touro St",
    "address_councildis": "D",
    "status": "Pending",
    "rowid": "889956",
    "final_x": "3683892.18767",
    "final_y": "540113.165515",
    "longitude": "-90.06021518417575",
    "latitude": "29.979051068249913",
    "geocoded_column": {
      "latitude": "29.979051068249913",
      "longitude": "-90.06021518417575"
    }
  },
  {
    "service_request": "2022-889955",
    "request_type": "Traffic Signals/Signs/Striping/Streetlights",
    "request_reason": "Street Light Outage/Malfunction",
    "date_created": "2022-06-08T14:02:36.000",
    "date_modified": "2022-06-08T14:02:37.000",
    "request_status": "Pending",
    "responsible_agency": "Department of Public Works",
    "final_address": "1628 Gallier St",
    "address_councildis": "D",
    "status": "Pending",
    "contractor": "Royal Engineering",
    "rowid": "889955",
    "final_x": "3690956.19971",
    "final_y": "537774.58068",
    "longitude": "-90.03798789050772",
    "latitude": "29.97240308807839",
    "geocoded_column": {
      "latitude": "29.97240308807839",
      "longitude": "-90.03798789050772"
    }
  },
  {
    "service_request": "2022-889954",
    "request_type": "Trash/Recycling",
    "request_reason": "Request a Large Item Pick Up",
    "date_created": "2022-06-08T13:59:33.000",
    "date_modified": "2022-06-08T13:59:34.000",
    "request_status": "Pending",
    "responsible_agency": "Department of Sanitation",
    "final_address": "1823 Joliet St, New Orleans, Louisiana, 70118",
    "address_councildis": "A",
    "status": "Assigned to Contractor",
    "contractor": "Richards Disposal",
    "rowid": "889954",
    "final_x": "3662485.03283",
    "final_y": "531012.741762",
    "longitude": "-90.12812988802978",
    "latitude": "29.95466452842551",
    "geocoded_column": {
      "latitude": "29.95466452842551",
      "longitude": "-90.12812988802978"
    }
  },
  {
    "service_request": "2022-889953",
    "request_type": "Roads/Drainage",
    "request_reason": "Catch Basin - Clogged",
    "date_created": "2022-06-08T13:57:35.000",
    "date_modified": "2022-06-08T13:57:35.000",
    "request_status": "Pending",
    "responsible_agency": "Department of Public Works",
    "final_address": "201 Baronne St Ste B",
    "address_councildis": "B",
    "status": "Pending",
    "rowid": "889953",
    "final_x": "3680130.59151",
    "final_y": "530675.146242",
    "longitude": "-90.07242377570762",
    "latitude": "29.95321412758311",
    "geocoded_column": {
      "latitude": "29.95321412758311",
      "longitude": "-90.07242377570762"
    }
  },
  {
    "service_request": "2022-889952",
    "request_type": "Trash/Recycling",
    "request_reason": "Request a Large Item Pick Up",
    "date_created": "2022-06-08T13:57:23.000",
    "date_modified": "2022-06-08T13:57:24.000",
    "request_status": "Pending",
    "responsible_agency": "Department of Sanitation",
    "final_address": "824 Jena St",
    "address_councildis": "B",
    "status": "Assigned to Contractor",
    "contractor": "Richards Disposal",
    "rowid": "889952",
    "final_x": "3670636.92507",
    "final_y": "518584.965559",
    "longitude": "-90.10281071795188",
    "latitude": "29.920253882087533",
    "geocoded_column": {
      "latitude": "29.920253882087533",
      "longitude": "-90.10281071795188"
    }
  },
  {
    "service_request": "2022-889951",
    "request_type": "Trash/Recycling",
    "request_reason": "Repair Trash Cart",
    "date_created": "2022-06-08T13:57:07.000",
    "date_modified": "2022-06-08T15:41:22.000",
    "case_close_date": "2022-06-08T10:41:22.000",
    "request_status": "Closed",
    "responsible_agency": "Department of Sanitation",
    "final_address": "745 S Genois St",
    "address_councildis": "B",
    "status": "Duplicate Request",
    "contractor": "Richards Disposal",
    "rowid": "889951",
    "final_x": "3670907.48359",
    "final_y": "535033.38247",
    "longitude": "-90.1013984815006",
    "latitude": "29.965473680370117",
    "geocoded_column": {
      "latitude": "29.965473680370117",
      "longitude": "-90.1013984815006"
    }
  },
  {
    "service_request": "2022-889950",
    "request_type": "Trash/Recycling",
    "request_reason": "Order Recycling Cart",
    "date_created": "2022-06-08T13:56:13.000",
    "date_modified": "2022-06-08T13:56:13.000",
    "request_status": "Pending",
    "responsible_agency": "Department of Sanitation",
    "final_address": "745 S Genois St",
    "address_councildis": "B",
    "status": "Pending",
    "rowid": "889950",
    "final_x": "3670907.48359",
    "final_y": "535033.38247",
    "longitude": "-90.1013984815006",
    "latitude": "29.965473680370117",
    "geocoded_column": {
      "latitude": "29.965473680370117",
      "longitude": "-90.1013984815006"
    }
  },
  {
    "service_request": "2022-889949",
    "request_type": "Abandoned Vehicles",
    "request_reason": "Abandoned/Junk Vehicles",
    "date_created": "2022-06-08T13:54:27.000",
    "date_modified": "2022-06-08T13:54:28.000",
    "request_status": "Pending",
    "responsible_agency": "Department of Public Works",
    "final_address": "3719 S Prieur St",
    "address_councildis": "B",
    "status": "Pending",
    "rowid": "889949",
    "final_x": "3671383.39969",
    "final_y": "527076.263806",
    "longitude": "-90.10016598924003",
    "latitude": "29.94358015490346",
    "geocoded_column": {
      "latitude": "29.94358015490346",
      "longitude": "-90.10016598924003"
    }
  },
  {
    "service_request": "2022-889948",
    "request_type": "Trash/Recycling",
    "request_reason": "Illegal Dumping",
    "date_created": "2022-06-08T13:47:22.000",
    "date_modified": "2022-06-08T13:47:22.000",
    "request_status": "Pending",
    "responsible_agency": "Department of Sanitation",
    "final_address": "ALVAR ST OVERPASS & N FLORIDA AVE & FRANCE ST & MAZANT ST & FLORIDA AVE",
    "address_councildis": "D",
    "status": "Pending",
    "rowid": "889948",
    "final_x": "3693617.7",
    "final_y": "541311.48",
    "longitude": "-90.02945533689848",
    "latitude": "29.982045296437914",
    "geocoded_column": {
      "latitude": "29.982045296437914",
      "longitude": "-90.02945533689848"
    }
  },
  {
    "service_request": "2022-889947",
    "request_type": "Trash/Recycling",
    "request_reason": "Request a Large Item Pick Up",
    "date_created": "2022-06-08T13:42:24.000",
    "date_modified": "2022-06-08T13:42:25.000",
    "request_status": "Pending",
    "responsible_agency": "Department of Sanitation",
    "final_address": "2912 St Andrew St",
    "address_councildis": "B",
    "status": "Assigned to Contractor",
    "contractor": "Richards Disposal",
    "rowid": "889947",
    "final_x": "3675149.04949",
    "final_y": "527716.635071",
    "longitude": "-90.08825485896732",
    "latitude": "29.945228993521727",
    "geocoded_column": {
      "latitude": "29.945228993521727",
      "longitude": "-90.08825485896732"
    }
  },
  {
    "service_request": "2022-889946",
    "request_type": "Trash/Recycling",
    "request_reason": "Request a Large Item Pick Up",
    "date_created": "2022-06-08T13:41:52.000",
    "date_modified": "2022-06-08T13:41:52.000",
    "request_status": "Pending",
    "responsible_agency": "Department of Sanitation",
    "final_address": "2113 Clara St",
    "address_councildis": "B",
    "status": "Assigned to Contractor",
    "contractor": "Richards Disposal",
    "rowid": "889946",
    "final_x": "3675194.25569",
    "final_y": "527268.334847",
    "longitude": "-90.08812751026697",
    "latitude": "29.943994964969768",
    "geocoded_column": {
      "latitude": "29.943994964969768",
      "longitude": "-90.08812751026697"
    }
  },
  {
    "service_request": "2022-889945",
    "request_type": "Traffic Signals/Signs/Striping/Streetlights",
    "request_reason": "Traffic Signal Malfunctioning/Damaged",
    "date_created": "2022-06-08T13:39:50.000",
    "date_modified": "2022-06-08T13:39:51.000",
    "request_status": "Pending",
    "responsible_agency": "Department of Public Works",
    "final_address": "BROADWAY ST & ST CHARLES AVE",
    "address_councildis": "A",
    "status": "Pending",
    "rowid": "889945",
    "final_x": "3662980.9",
    "final_y": "524725.38",
    "longitude": "-90.12677317488857",
    "latitude": "29.937361947391178",
    "geocoded_column": {
      "latitude": "29.937361947391178",
      "longitude": "-90.12677317488857"
    }
  },
  {
    "service_request": "2022-889944",
    "request_type": "Trash/Recycling",
    "request_reason": "Request a Large Item Pick Up",
    "date_created": "2022-06-08T13:37:39.000",
    "date_modified": "2022-06-08T13:38:31.000",
    "request_status": "Pending",
    "responsible_agency": "Department of Sanitation",
    "final_address": "3645 timber ct new orleans la 70131",
    "address_councildis": "C",
    "status": "Assigned to Contractor",
    "contractor": "Richards Disposal",
    "rowid": "889944",
    "final_x": "3703852.34513",
    "final_y": "511577.066224",
    "longitude": "-89.99822393943118",
    "latitude": "29.8999619551589",
    "geocoded_column": {
      "latitude": "29.8999619551589",
      "longitude": "-89.99822393943118"
    }
  },
  {
    "service_request": "2022-889942",
    "request_type": "Trash/Recycling",
    "request_reason": "Request a Large Item Pick Up",
    "date_created": "2022-06-08T13:34:40.000",
    "date_modified": "2022-06-08T13:34:40.000",
    "request_status": "Pending",
    "responsible_agency": "Department of Sanitation",
    "final_address": "1209 Hagan St",
    "address_councildis": "A",
    "status": "Assigned to Contractor",
    "contractor": "Richards Disposal",
    "rowid": "889942",
    "final_x": "3675551.18536",
    "final_y": "539764.513546",
    "longitude": "-90.08657129498621",
    "latitude": "29.978344582791504",
    "geocoded_column": {
      "latitude": "29.978344582791504",
      "longitude": "-90.08657129498621"
    }
  },
  {
    "service_request": "2022-889940",
    "request_type": "Property Maintenance",
    "request_reason": "Property Maintenance",
    "date_created": "2022-06-08T13:32:14.000",
    "date_modified": "2022-06-08T13:32:15.000",
    "request_status": "Pending",
    "responsible_agency": "Department of Code Enforcement",
    "final_address": "7550 Forest Glen Rd",
    "address_councildis": "E",
    "status": "Pending",
    "rowid": "889940",
    "final_x": "3709857.56017",
    "final_y": "564654.093666",
    "longitude": "-89.97729003690989",
    "latitude": "30.045710317228647",
    "geocoded_column": {
      "latitude": "30.045710317228647",
      "longitude": "-89.97729003690989"
    }
  },
  {
    "service_request": "2022-889939",
    "request_type": "Trash/Recycling",
    "request_reason": "Request a Large Item Pick Up",
    "date_created": "2022-06-08T13:27:20.000",
    "date_modified": "2022-06-08T13:27:21.000",
    "request_status": "Pending",
    "responsible_agency": "Department of Sanitation",
    "final_address": "215 S Olympia St",
    "address_councildis": "A",
    "status": "Assigned to Contractor",
    "contractor": "Richards Disposal",
    "rowid": "889939",
    "final_x": "3669009.0569",
    "final_y": "539236.004106",
    "longitude": "-90.10725163596516",
    "latitude": "29.977085468059922",
    "geocoded_column": {
      "latitude": "29.977085468059922",
      "longitude": "-90.10725163596516"
    }
  },
  {
    "service_request": "2022-889938",
    "request_type": "Mayor's Request",
    "request_reason": "Requests to the Mayor",
    "date_created": "2022-06-08T13:26:27.000",
    "date_modified": "2022-06-08T13:26:27.000",
    "request_status": "Pending",
    "responsible_agency": "Executive Office of the Mayor",
    "status": "Pending",
    "rowid": "889938",
    "longitude": "0.0",
    "latitude": "0.0",
    "geocoded_column": {
      "latitude": "0.0",
      "longitude": "0.0"
    }
  },
  {
    "service_request": "2022-889937",
    "request_type": "Trash/Recycling",
    "request_reason": "Request a Large Item Pick Up",
    "date_created": "2022-06-08T13:25:02.000",
    "date_modified": "2022-06-08T13:25:03.000",
    "request_status": "Pending",
    "responsible_agency": "Department of Sanitation",
    "final_address": "830 Adele St",
    "address_councildis": "B",
    "status": "Assigned to Contractor",
    "contractor": "Richards Disposal",
    "rowid": "889937",
    "final_x": "3679872.30901",
    "final_y": "521724.112826",
    "longitude": "-90.07355006029594",
    "latitude": "29.92860957219823",
    "geocoded_column": {
      "latitude": "29.92860957219823",
      "longitude": "-90.07355006029594"
    }
  },
  {
    "service_request": "2022-889936",
    "request_type": "Abandoned Vehicles",
    "request_reason": "Abandoned/Junk Vehicles",
    "date_created": "2022-06-08T13:24:00.000",
    "date_modified": "2022-06-08T13:24:00.000",
    "request_status": "Pending",
    "responsible_agency": "Department of Public Works",
    "final_address": "425 Milan St, New Orleans, Louisiana, 70115",
    "address_councildis": "B",
    "status": "Pending",
    "rowid": "889936",
    "final_x": "3671982.83764",
    "final_y": "517464.06271",
    "longitude": "-90.09860042824032",
    "latitude": "29.917131943412528",
    "geocoded_column": {
      "latitude": "29.917131943412528",
      "longitude": "-90.09860042824032"
    }
  },
  {
    "service_request": "2022-889935",
    "request_type": "Trash/Recycling",
    "request_reason": "Repair Trash Cart",
    "date_created": "2022-06-08T13:23:54.000",
    "date_modified": "2022-06-08T13:23:55.000",
    "request_status": "Pending",
    "responsible_agency": "Department of Sanitation",
    "final_address": "5407 S Tonti St",
    "address_councildis": "A",
    "status": "Assigned to Contractor",
    "contractor": "Richards Disposal",
    "rowid": "889935",
    "final_x": "3668780.58702",
    "final_y": "528049.933503",
    "longitude": "-90.10835091412804",
    "latitude": "29.946334197003",
    "geocoded_column": {
      "latitude": "29.946334197003",
      "longitude": "-90.10835091412804"
    }
  },
  {
    "service_request": "2022-889934",
    "request_type": "Traffic Signals/Signs/Striping/Streetlights",
    "request_reason": "Street Light Outage/Malfunction",
    "date_created": "2022-06-08T13:23:14.000",
    "date_modified": "2022-06-08T13:23:15.000",
    "request_status": "Pending",
    "responsible_agency": "Department of Public Works",
    "final_address": "828 Lesseps ",
    "address_councildis": "C",
    "status": "Pending",
    "contractor": "Royal Engineering",
    "rowid": "889934",
    "final_x": "3692446.27798",
    "final_y": "534204.802501",
    "longitude": "-90.03340988171105",
    "latitude": "29.96254105627978",
    "geocoded_column": {
      "latitude": "29.96254105627978",
      "longitude": "-90.03340988171105"
    }
  },
  {
    "service_request": "2022-889933",
    "request_type": "Traffic Signals/Signs/Striping/Streetlights",
    "request_reason": "Street Light Outage/Malfunction",
    "date_created": "2022-06-08T13:22:11.000",
    "date_modified": "2022-06-08T13:22:12.000",
    "request_status": "Pending",
    "responsible_agency": "Department of Public Works",
    "final_address": "618 Broadway St",
    "address_councildis": "A",
    "status": "Pending",
    "contractor": "Royal Engineering",
    "rowid": "889933",
    "final_x": "3663003.95629",
    "final_y": "524902.598524",
    "longitude": "-90.1266944925229",
    "latitude": "29.93784857452242",
    "geocoded_column": {
      "latitude": "29.93784857452242",
      "longitude": "-90.1266944925229"
    }
  },
  {
    "service_request": "2022-889932",
    "request_type": "Trash/Recycling",
    "request_reason": "Request a Large Item Pick Up",
    "date_created": "2022-06-08T13:18:25.000",
    "date_modified": "2022-06-08T13:18:26.000",
    "request_status": "Pending",
    "responsible_agency": "Department of Sanitation",
    "final_address": "4625 Anson St",
    "address_councildis": "C",
    "status": "Assigned to Contractor",
    "contractor": "Richards Disposal",
    "rowid": "889932",
    "final_x": "3702187.40177",
    "final_y": "521510.469881",
    "longitude": "-90.00311434007162",
    "latitude": "29.927328659956665",
    "geocoded_column": {
      "latitude": "29.927328659956665",
      "longitude": "-90.00311434007162"
    }
  },