[
  {
    "service_request": "2026-1265597",
    "request_type": "Roads and Streets",
    "request_reason": "Pothole",
    "date_created": "2026-03-14T23:09:55.000",
    "date_modified": "2026-03-14T23:09:58.000",
    "request_status": "Pending",
    "responsible_agency": "Department of Public Works",
    "final_address": "4847 Cerise Ave",
    "address_councildis": "E",
    "status": "Pending",
    "rowid": "1265597",
    "final_x": "3708614.36561",
    "final_y": "556359.051354",
    "longitude": "-89.98152840101969",
    "latitude": "30.022942626279914",
    "geocoded_column": {
      "latitude": "30.022942626279914",
      "longitude": "-89.98152840101969"
    }
  },
  {
    "service_request": "2026-1265596",
    "request_type": "Streetlights",
    "request_reason": "Streetlight Outage/Malfunction",
    "date_created": "2026-03-14T20:58:19.000",
    "date_modified": "2026-03-14T20:58:22.000",
    "request_status": "Pending",
    "responsible_agency": "Department of Public Works",
    "final_address": "0 BLK Napoleon Ave",
    "address_councildis": "B",
    "status": "Pending",
    "rowid": "1265596",
    "final_x": "3671264.72928",
    "final_y": "517124.731942",
    "longitude": "-90.10087861024765",
    "latitude": "29.916220149143637",
    "geocoded_column": {
      "latitude": "29.916220149143637",
      "longitude": "-90.10087861024765"
    }
  },
  {
    "service_request": "2026-1265595",
    "request_type": "Health Related Request",
    "request_reason": "Noise Ordinance Complaint",
    "date_created": "2026-03-14T20:42:19.000",
    "date_modified": "2026-03-14T20:42:20.000",
    "request_status": "Pending",
    "responsible_agency": "Health Department",
    "final_address": "801 Bourbon St, New Orleans, Louisiana, 70116",
    "address_councildis": "C",
    "status": "Pending",
    "rowid": "1265595",
    "final_x": "3682490.98735",
    "final_y": "533018.672772",
    "longitude": "-90.06488875731978",
    "latitude": "29.959586396383013",
    "geocoded_column": {
      "latitude": "29.959586396383013",
      "longitude": "-90.06488875731978"
    }
  },
  {
    "service_request": "2026-1265594",
    "request_type": "Health Related Request",
    "request_reason": "Noise Ordinance Complaint",
    "date_created": "2026-03-14T20:41:56.000",
    "date_modified": "2026-03-14T20:42:05.000",
    "request_status": "Pending",
    "responsible_agency": "Health Department",
    "final_address": "801 Bourbon St, New Orleans, Louisiana, 70116",
    "address_councildis": "C",
    "status": "Pending",
    "rowid": "1265594",
    "final_x": "3682490.98735",
    "final_y": "533018.672772",
    "longitude": "-90.06488875731978",
    "latitude": "29.959586396383013",
    "geocoded_column": {
      "latitude": "29.959586396383013",
      "longitude": "-90.06488875731978"
    }
  },
  {
    "service_request": "2026-1265593",
    "request_type": "Health Related Request",
    "request_reason": "Noise Ordinance Complaint",
    "date_created": "2026-03-14T20:41:34.000",
    "date_modified": "2026-03-14T20:41:35.000",
    "request_status": "Pending",
    "responsible_agency": "Health Department",
    "final_address": "801 Bourbon St, New Orleans, Louisiana, 70116",
    "address_councildis": "C",
    "status": "Pending",
    "rowid": "1265593",
    "final_x": "3682490.98735",
    "final_y": "533018.672772",
    "longitude": "-90.06488875731978",
    "latitude": "29.959586396383013",
    "geocoded_column": {
      "latitude": "29.959586396383013",
      "longitude": "-90.06488875731978"
    }
  },
  {
    "service_request": "2026-1265592",
    "request_type": "Health Related Request",
    "request_reason": "Noise Ordinance Complaint",
    "date_created": "2026-03-14T20:41:12.000",
    "date_modified": "2026-03-14T20:41:14.000",
    "request_status": "Pending",
    "responsible_agency": "Health Department",
    "final_address": "801 Bourbon St, New Orleans, Louisiana, 70116",
    "address_councildis": "C",
    "status": "Pending",
    "rowid": "1265592",
    "final_x": "3682490.98735",
    "final_y": "533018.672772",
    "longitude": "-90.06488875731978",
    "latitude": "29.959586396383013",
    "geocoded_column": {
      "latitude": "29.959586396383013",
      "longitude": "-90.06488875731978"
    }
  },
  {
    "service_request": "2026-1265591",
    "request_type": "Trash/Recycling",
    "request_reason": "Request a Large Item Pick Up",
    "date_created": "2026-03-14T20:39:20.000",
    "date_modified": "2026-03-14T20:39:22.000",
    "request_status": "Pending",
    "responsible_agency": "Department of Sanitation",
    "final_address": "714 Emerald St",
    "address_councildis": "D",
    "status": "Assigned to Contractor",
    "contractor": "IV Waste",
    "rowid": "1265591",
    "final_x": "3669760.62529",
    "final_y": "554935.594584",
    "longitude": "-90.10434610880398",
    "latitude": "30.02023176343494",
    "geocoded_column": {
      "latitude": "30.02023176343494",
      "longitude": "-90.10434610880398"
    }
  },
  {
    "service_request": "2026-1265590",
    "request_type": "Abandoned Vehicles",
    "request_reason": "Abandoned/Junk Vehicles",
    "date_created": "2026-03-14T19:55:17.000",
    "date_modified": "2026-03-14T19:55:19.000",
    "request_status": "Pending",
    "responsible_agency": "Department of Public Works",
    "final_address": "5555 Canal Blvd, New Orleans, Louisiana, 70124",
    "address_councildis": "A",
    "status": "Pending",
    "rowid": "1265590",
    "final_x": "3668365.99425",
    "final_y": "544308.835535",
    "longitude": "-90.10911146595056",
    "latitude": "29.99105293649849",
    "geocoded_column": {
      "latitude": "29.99105293649849",
      "longitude": "-90.10911146595056"
    }
  },
  {
    "service_request": "2026-1265589",
    "request_type": "Property Maintenance",
    "request_reason": "Property Maintenance",
    "date_created": "2026-03-14T19:52:45.000",
    "date_modified": "2026-03-14T19:52:47.000",
    "request_status": "Pending",
    "responsible_agency": "Department of Code Enforcement",
    "final_address": "866 Allen Toussaint Blvd",
    "address_councildis": "A",
    "status": "Pending",
    "rowid": "1265589",
    "final_x": "3670435.00545",
    "final_y": "554443.033624",
    "longitude": "-90.10223199271834",
    "latitude": "30.018857490432296",
    "geocoded_column": {
      "latitude": "30.018857490432296",
      "longitude": "-90.10223199271834"
    }
  },
  {
    "service_request": "2026-1265588",
    "request_type": "Trash/Recycling",
    "request_reason": "Request a Large Item Pick Up",
    "date_created": "2026-03-14T19:46:54.000",
    "date_modified": "2026-03-14T19:46:56.000",
    "request_status": "Pending",
    "responsible_agency": "Department of Sanitation",
    "final_address": "5472 Grand Bayou Dr",
    "address_councildis": "E",
    "status": "Assigned to Contractor",
    "contractor": "Waste Pro",
    "rowid": "1265588",
    "final_x": "3725513.15852",
    "final_y": "563428.62672",
    "longitude": "-89.92785880504294",
    "latitude": "30.04182206024453",
    "geocoded_column": {
      "latitude": "30.04182206024453",
      "longitude": "-89.92785880504294"
    }
  },
  {
    "service_request": "2026-1265587",
    "request_type": "Trash/Recycling",
    "request_reason": "Repair Trash Cart",
    "date_created": "2026-03-14T19:45:09.000",
    "date_modified": "2026-03-14T19:45:12.000",
    "request_status": "Pending",
    "responsible_agency": "Department of Sanitation",
    "final_address": "921 Hidalgo St",
    "address_councildis": "A",
    "status": "Assigned to Contractor",
    "contractor": "IV Waste",
    "rowid": "1265587",
    "final_x": "3669738.7913",
    "final_y": "544072.09883",
    "longitude": "-90.10478312761717",
    "latitude": "29.99036159119193",
    "geocoded_column": {
      "latitude": "29.99036159119193",
      "longitude": "-90.10478312761717"
    }
  },
  {
    "service_request": "2026-1265586",
    "request_type": "Trash/Recycling",
    "request_reason": "MIssed Recycling Pick-Up",
    "date_created": "2026-03-14T18:57:06.000",
    "date_modified": "2026-03-14T18:57:08.000",
    "request_status": "Pending",
    "responsible_agency": "Department of Sanitation",
    "final_address": "1470 Urania St",
    "address_councildis": "B",
    "status": "Assigned to Contractor",
    "contractor": "IV Waste",
    "rowid": "1265586",
    "final_x": "3679020.6605",
    "final_y": "524112.813372",
    "longitude": "-90.07615580224486",
    "latitude": "29.935203433418685",
    "geocoded_column": {
      "latitude": "29.935203433418685",
      "longitude": "-90.07615580224486"
    }
  },
  {
    "service_request": "2026-1265585",
    "request_type": "Safety & Permits",
    "request_reason": "Licenses & Permits",
    "date_created": "2026-03-14T18:55:28.000",
    "date_modified": "2026-03-14T18:55:30.000",
    "request_status": "Pending",
    "responsible_agency": "Safety and Permits",
    "final_address": "8200 BLK Willow St",
    "address_councildis": "A",
    "status": "Pending",
    "rowid": "1265585",
    "final_x": "3662038.30089",
    "final_y": "529255.579728",
    "longitude": "-90.12959878991529",
    "latitude": "29.949845811031704",
    "geocoded_column": {
      "latitude": "29.949845811031704",
      "longitude": "-90.12959878991529"
    }
  },
  {
    "service_request": "2026-1265584",
    "request_type": "Abandoned Vehicles",
    "request_reason": "Abandoned/Junk Vehicles",
    "date_created": "2026-03-14T18:53:30.000",
    "date_modified": "2026-03-14T18:53:33.000",
    "request_status": "Pending",
    "responsible_agency": "Department of Public Works",
    "final_address": "7063 General Haig St",
    "address_councildis": "A",
    "status": "Pending",
    "rowid": "1265584",
    "final_x": "3671290.89614",
    "final_y": "554298.866392",
    "longitude": "-90.09953257953828",
    "latitude": "30.01843576912841",
    "geocoded_column": {
      "latitude": "30.01843576912841",
      "longitude": "-90.09953257953828"
    }
  },
  {
    "service_request": "2026-1265582",
    "request_type": "Street and Traffic Signs",
    "request_reason": "Street Name Sign Damaged or Missing",
    "date_created": "2026-03-14T18:23:36.000",
    "date_modified": "2026-03-14T18:23:39.000",
    "request_status": "Pending",
    "responsible_agency": "Department of Public Works",
    "final_address": "HARMONY ST & CARONDELET ST",
    "address_councildis": "B",
    "status": "Pending",
    "rowid": "1265582",
    "final_x": "3674685.0",
    "final_y": "522183.88",
    "longitude": "-90.08990957487572",
    "latitude": "29.930029581530984",
    "geocoded_column": {
      "latitude": "29.930029581530984",
      "longitude": "-90.08990957487572"
    }
  },
  {
    "service_request": "2026-1265581",
    "request_type": "Trash/Recycling",
    "request_reason": "Request a Large Item Pick Up",
    "date_created": "2026-03-14T18:11:54.000",
    "date_modified": "2026-03-14T18:11:56.000",
    "request_status": "Pending",
    "responsible_agency": "Department of Sanitation",
    "final_address": "3621 White Oak Ave",
    "address_councildis": "C",
    "status": "Assigned to Contractor",
    "contractor": "Richards Disposal",
    "rowid": "1265581",
    "final_x": "3703595.02449",
    "final_y": "514269.956595",
    "longitude": "-89.99893703826794",
    "latitude": "29.90737473159547",
    "geocoded_column": {
      "latitude": "29.90737473159547",
      "longitude": "-89.99893703826794"
    }
  },
  {
    "service_request": "2026-1265580",
    "request_type": "Property Maintenance",
    "request_reason": "Property Maintenance",
    "date_created": "2026-03-14T17:54:37.000",
    "date_modified": "2026-03-14T17:54:38.000",
    "request_status": "Pending",
    "responsible_agency": "Department of Code Enforcement",
    "final_address": "7920 Pompano St",
    "address_councildis": "E",
    "status": "Pending",
    "rowid": "1265580",
    "final_x": "3700124.51837",
    "final_y": "561565.625183",
    "longitude": "-90.0081639740403",
    "latitude": "30.037531361232844",
    "geocoded_column": {
      "latitude": "30.037531361232844",
      "longitude": "-90.0081639740403"
    }
  },
  {
    "service_request": "2026-1265579",
    "request_type": "Trash/Recycling",
    "request_reason": "Request a Large Item Pick Up",
    "date_created": "2026-03-14T17:49:16.000",
    "date_modified": "2026-03-14T17:49:19.000",
    "request_status": "Pending",
    "responsible_agency": "Department of Sanitation",
    "final_address": "3216 Trafalgar St",
    "address_councildis": "A",
    "status": "Assigned to Contractor",
    "contractor": "IV Waste",
    "rowid": "1265579",
    "final_x": "3678167.00731",
    "final_y": "543139.584141",
    "longitude": "-90.0781928120035",
    "latitude": "29.987546334990416",
    "geocoded_column": {
      "latitude": "29.987546334990416",
      "longitude": "-90.0781928120035"
    }
  },
  {
    "service_request": "2026-1265578",
    "request_type": "Trash/Recycling",
    "request_reason": "Replace Trash Cart",
    "date_created": "2026-03-14T17:30:32.000",
    "date_modified": "2026-03-14T17:30:34.000",
    "request_status": "Pending",
    "responsible_agency": "Department of Sanitation",
    "final_address": "2227 S Carrollton Ave",
    "address_councildis": "A",
    "status": "Assigned to Contractor",
    "contractor": "IV Waste",
    "rowid": "1265578",
    "final_x": "3664597.41671",
    "final_y": "531019.187778",
    "longitude": "-90.12145955174077",
    "latitude": "29.954620991132444",
    "geocoded_column": {
      "latitude": "29.954620991132444",
      "longitude": "-90.12145955174077"
    }
  },
  {
    "service_request": "2026-1265577",
    "request_type": "Trash/Recycling",
    "request_reason": "Order Second Trash Cart",
    "date_created": "2026-03-14T17:24:28.000",
    "date_modified": "2026-03-14T17:24:31.000",
    "request_status": "Pending",
    "responsible_agency": "Department of Sanitation",
    "final_address": "400 40Th St",
    "address_councildis": "A",
    "status": "Assigned to Contractor",
    "contractor": "IV Waste",
    "rowid": "1265577",
    "final_x": "3665011.32884",
    "final_y": "553309.459607",
    "longitude": "-90.11940690867381",
    "latitude": "30.01589967280443",
    "geocoded_column": {
      "latitude": "30.01589967280443",
      "longitude": "-90.11940690867381"
    }
  },
  {
    "service_request": "2026-1265576",
    "request_type": "Parks & Parkways",
    "request_reason": "Request Tree Service (Right of Way/Public Property)",
    "date_created": "2026-03-14T16:47:01.000",
    "date_modified": "2026-03-14T16:47:04.000",
    "request_status": "Pending",
    "responsible_agency": "Department of Parks & Parkway",
    "final_address": "6831 General Diaz St",
    "address_councildis": "A",
    "status": "Pending",
    "rowid": "1265576",
    "final_x": "3670110.88948",
    "final_y": "552856.262679",
    "longitude": "-90.1033099070773",
    "latitude": "30.014504004337223",
    "geocoded_column": {
      "latitude": "30.014504004337223",
      "longitude": "-90.1033099070773"
    }
  },
  {
    "service_request": "2026-1265575",
    "request_type": "Trash/Recycling",
    "request_reason": "Order Recycling Cart",
    "date_created": "2026-03-14T16:20:02.000",
    "date_modified": "2026-03-14T16:20:04.000",
    "request_status": "Pending",
    "responsible_agency": "Department of Sanitation",
    "final_address": "5433 Laurel St",
    "address_councildis": "A",
    "status": "Pending",
    "rowid": "1265575",
    "final_x": "3666314.78804",
    "final_y": "517911.31423",
    "longitude": "-90.11647628670586",
    "latitude": "29.91852847249813",
    "geocoded_column": {
      "latitude": "29.91852847249813",
      "longitude": "-90.11647628670586"
    }
  },
  {
    "service_request": "2026-1265574",
    "request_type": "Trash/Recycling",
    "request_reason": "Order Second Trash Cart",
    "date_created": "2026-03-14T16:05:03.000",
    "date_modified": "2026-03-14T16:05:05.000",
    "request_status": "Pending",
    "responsible_agency": "Department of Sanitation",
    "final_address": "1810 Simon Bolivar Ave",
    "address_councildis": "B",
    "status": "Assigned to Contractor",
    "contractor": "IV Waste",
    "rowid": "1265574",
    "final_x": "3676938.52597",
    "final_y": "525954.108861",
    "longitude": "-90.08266565350615",
    "latitude": "29.9403290414699",
    "geocoded_column": {
      "latitude": "29.9403290414699",
      "longitude": "-90.08266565350615"
    }
  },
  {
    "service_request": "2026-1265573",
    "request_type": "Street and Traffic Signs",
    "request_reason": "Traffic or Parking Sign Damaged or Missing",
    "date_created": "2026-03-14T15:59:03.000",
    "date_modified": "2026-03-14T15:59:05.000",
    "request_status": "Pending",
    "responsible_agency": "Department of Public Works",
    "final_address": "RAY AVE & CHEF MENTEUR HWY",
    "address_councildis": "E",
    "status": "Pending",
    "rowid": "1265573",
    "final_x": "3699023.3",
    "final_y": "551837.78",
    "longitude": "-90.0119985711506",
    "latitude": "30.01081847936158",
    "geocoded_column": {
      "latitude": "30.01081847936158",
      "longitude": "-90.0119985711506"
    }
  },
  {
    "service_request": "2026-1265572",
    "request_type": "Health Related Request",
    "request_reason": "Noise Ordinance Complaint",
    "date_created": "2026-03-14T15:37:29.000",
    "date_modified": "2026-03-14T15:37:32.000",
    "request_status": "Pending",
    "responsible_agency": "Health Department",
    "final_address": "5130 Arts St, New Orleans, Louisiana, 70122",
    "address_councildis": "D",
    "status": "Pending",
    "rowid": "1265572",
    "final_x": "3685736.10473",
    "final_y": "551777.650581",
    "longitude": "-90.05398005928335",
    "latitude": "30.011067758595686",
    "geocoded_column": {
      "latitude": "30.011067758595686",
      "longitude": "-90.05398005928335"
    }
  },
  {
    "service_request": "2026-1265571",
    "request_type": "Property Maintenance",
    "request_reason": "Property Maintenance",
    "date_created": "2026-03-14T14:43:52.000",
    "date_modified": "2026-03-14T14:43:53.000",
    "request_status": "Pending",
    "responsible_agency": "Department of Code Enforcement",
    "final_address": "1440 Pauline St",
    "address_councildis": "D",
    "status": "Pending",
    "rowid": "1265571",
    "final_x": "3691540.89136",
    "final_y": "536909.285064",
    "longitude": "-90.03617227538228",
    "latitude": "29.970005643589158",
    "geocoded_column": {
      "latitude": "29.970005643589158",
      "longitude": "-90.03617227538228"
    }
  },
  {
    "service_request": "2026-1265570",
    "request_type": "Trash/Recycling",
    "request_reason": "Replace Recycling Cart",
    "date_created": "2026-03-14T14:42:10.000",
    "date_modified": "2026-03-14T14:42:11.000",
    "request_status": "Pending",
    "responsible_agency": "Department of Sanitation",
    "final_address": "2447 Odin St",
    "address_councildis": "D",
    "status": "Pending",
    "rowid": "1265570",
    "final_x": "3685649.96758",
    "final_y": "553243.563799",
    "longitude": "-90.05420049879214",
    "latitude": "30.01510112750866",
    "geocoded_column": {
      "latitude": "30.01510112750866",
      "longitude": "-90.05420049879214"
    }
  },
  {
    "service_request": "2026-1265569",
    "request_type": "Trash/Recycling",
    "request_reason": "Illegal Dumping",
    "date_created": "2026-03-14T14:40:42.000",
    "date_modified": "2026-03-14T14:40:43.000",
    "request_status": "Pending",
    "responsible_agency": "Department of Sanitation",
    "final_address": "1123 Marengo St",
    "address_councildis": "B",
    "status": "Pending",
    "rowid": "1265569",
    "final_x": "3672168.01422",
    "final_y": "519847.244856",
    "longitude": "-90.09793482789676",
    "latitude": "29.923679447344355",
    "geocoded_column": {
      "latitude": "29.923679447344355",
      "longitude": "-90.09793482789676"
    }
  },
  {
    "service_request": "2026-1265568",
    "request_type": "Trash/Recycling",
    "request_reason": "Order Second Trash Cart",
    "date_created": "2026-03-14T14:40:11.000",
    "date_modified": "2026-03-14T14:40:14.000",
    "request_status": "Pending",
    "responsible_agency": "Department of Sanitation",
    "final_address": "2447 Odin St",
    "address_councildis": "D",
    "status": "Assigned to Contractor",
    "contractor": "IV Waste",
    "rowid": "1265568",
    "final_x": "3685649.96758",
    "final_y": "553243.563799",
    "longitude": "-90.05420049879214",
    "latitude": "30.01510112750866",
    "geocoded_column": {
      "latitude": "30.01510112750866",
      "longitude": "-90.05420049879214"
    }
  },
  {
    "service_request": "2026-1265567",
    "request_type": "Trash/Recycling",
    "request_reason": "Request a Large Item Pick Up",
    "date_created": "2026-03-14T14:30:04.000",
    "date_modified": "2026-03-14T14:30:08.000",
    "request_status": "Pending",
    "responsible_agency": "Department of Sanitation",
    "final_address": "5019 Michoud Blvd",
    "address_councildis": "E",
    "status": "Assigned to Contractor",
    "contractor": "Waste Pro",
    "rowid": "1265567",
    "final_x": "3724963.13868",
    "final_y": "561873.868511",
    "longitude": "-89.92965724026449",
    "latitude": "30.037565655624523",
    "geocoded_column": {
      "latitude": "30.037565655624523",
      "longitude": "-89.92965724026449"
    }
  },
  {
    "service_request": "2026-1265566",
    "request_type": "Trash/Recycling",
    "request_reason": "Return Recycling Cart",
    "date_created": "2026-03-14T14:30:03.000",
    "date_modified": "2026-03-14T14:30:05.000",
    "request_status": "Pending",
    "responsible_agency": "Department of Sanitation",
    "final_address": "819 Port St",
    "address_councildis": "C",
    "status": "Pending",
    "rowid": "1265566",
    "final_x": "3687196.31414",
    "final_y": "535410.634886",
    "longitude": "-90.04994585747143",
    "latitude": "29.96601940001161",
    "geocoded_column": {
      "latitude": "29.96601940001161",
      "longitude": "-90.04994585747143"
    }
  },
  {
    "service_request": "2026-1265565",
    "request_type": "Abandoned Vehicles",
    "request_reason": "Abandoned/Junk Vehicles",
    "date_created": "2026-03-14T14:01:16.000",
    "date_modified": "2026-03-14T14:01:17.000",
    "request_status": "Pending",
    "responsible_agency": "Department of Public Works",
    "final_address": "1809 Esplanade Ave",
    "address_councildis": "D",
    "status": "Pending",
    "rowid": "1265565",
    "final_x": "3680660.82338",
    "final_y": "537147.358728",
    "longitude": "-90.07052430725913",
    "latitude": "29.97099445091746",
    "geocoded_column": {
      "latitude": "29.97099445091746",
      "longitude": "-90.07052430725913"
    }
  },
  {
    "service_request": "2026-1265564",
    "request_type": "Street and Traffic Signs",
    "request_reason": "Stop Sign Missing or Damaged",
    "date_created": "2026-03-14T13:49:22.000",
    "date_modified": "2026-03-14T13:49:25.000",
    "request_status": "Pending",
    "responsible_agency": "Department of Public Works",
    "final_address": "4138 Paris Ave",
    "address_councildis": "D",
    "status": "Pending",
    "rowid": "1265564",
    "final_x": "3679417.81851",
    "final_y": "547657.646098",
    "longitude": "-90.07408509762605",
    "latitude": "29.999931679331276",
    "geocoded_column": {
      "latitude": "29.999931679331276",
      "longitude": "-90.07408509762605"
    }
  },
  {
    "service_request": "2026-1265563",
    "request_type": "Drainage",
    "request_reason": "Catch Basin Not Draining",
    "date_created": "2026-03-14T13:30:25.000",
    "date_modified": "2026-03-14T13:30:27.000",
    "request_status": "Pending",
    "responsible_agency": "Sewerage & Water Board",
    "final_address": "8100 BLK Plum St",
    "address_councildis": "A",
    "status": "Pending",
    "rowid": "1265563",
    "final_x": "3662080.24831",
    "final_y": "528737.919674",
    "longitude": "-90.12948351431699",
    "latitude": "29.948421200192595",
    "geocoded_column": {
      "latitude": "29.948421200192595",
      "longitude": "-90.12948351431699"
    }
  },
  {
    "service_request": "2026-1265562",
    "request_type": "Trash/Recycling",
    "request_reason": "Request a Large Item Pick Up",
    "date_created": "2026-03-14T12:48:14.000",
    "date_modified": "2026-03-14T12:48:16.000",
    "request_status": "Pending",
    "responsible_agency": "Department of Sanitation",
    "final_address": "421 Virginia St",
    "address_councildis": "A",
    "status": "Assigned to Contractor",
    "contractor": "IV Waste",
    "rowid": "1265562",
    "final_x": "3668687.53031",
    "final_y": "541818.068556",
    "longitude": "-90.10817992926114",
    "latitude": "29.98419472751627",
    "geocoded_column": {
      "latitude": "29.98419472751627",
      "longitude": "-90.10817992926114"
    }
  },
  {
    "service_request": "2026-1265561",
    "request_type": "Property Maintenance",
    "request_reason": "Property Maintenance",
    "date_created": "2026-03-14T12:44:40.000",
    "date_modified": "2026-03-14T12:44:42.000",
    "request_status": "Pending",
    "responsible_agency": "Department of Code Enforcement",
    "final_address": "1433 N Robertson St",
    "address_councildis": "C",
    "status": "Pending",
    "rowid": "1265561",
    "final_x": "3681711.84079",
    "final_y": "536585.789447",
    "longitude": "-90.06722465634249",
    "latitude": "29.96941843782524",
    "geocoded_column": {
      "latitude": "29.96941843782524",
      "longitude": "-90.06722465634249"
    }
  },
  {
    "service_request": "2026-1265560",
    "request_type": "Trash/Recycling",
    "request_reason": "Request a Large Item Pick Up",
    "date_created": "2026-03-14T12:40:10.000",
    "date_modified": "2026-03-14T12:40:19.000",
    "request_status": "Pending",
    "responsible_agency": "Department of Sanitation",
    "final_address": "2612 St Philip St",
    "address_councildis": "D",
    "status": "Assigned to Contractor",
    "contractor": "IV Waste",
    "rowid": "1265560",
    "final_x": "3677708.56686",
    "final_y": "537567.639944",
    "longitude": "-90.07983340234365",
    "latitude": "29.972239213709376",
    "geocoded_column": {
      "latitude": "29.972239213709376",
      "longitude": "-90.07983340234365"
    }
  },
  {
    "service_request": "2026-1265559",
    "request_type": "Trash/Recycling",
    "request_reason": "Request a Large Item Pick Up",
    "date_created": "2026-03-14T12:35:44.000",
    "date_modified": "2026-03-14T12:35:46.000",
    "request_status": "Pending",
    "responsible_agency": "Department of Sanitation",
    "final_address": "6041 Colbert St",
    "address_councildis": "A",
    "status": "Assigned to Contractor",
    "contractor": "IV Waste",
    "rowid": "1265559",
    "final_x": "3667524.22861",
    "final_y": "547794.638738",
    "longitude": "-90.11165301911223",
    "latitude": "30.000662399133063",
    "geocoded_column": {
      "latitude": "30.000662399133063",
      "longitude": "-90.11165301911223"
    }
  },
  {
    "service_request": "2026-1265558",
    "request_type": "Roads and Streets",
    "request_reason": "Street Subsidence (Sinking)",
    "date_created": "2026-03-14T12:31:54.000",
    "date_modified": "2026-03-14T12:31:55.000",
    "request_status": "Pending",
    "responsible_agency": "Sewerage & Water Board",
    "final_address": "300 BLK N Bernadotte St",
    "address_councildis": "A",
    "status": "Pending",
    "rowid": "1265558",
    "final_x": "3669417.23692",
    "final_y": "540853.528645",
    "longitude": "-90.105907743649",
    "latitude": "29.981521097212866",
    "geocoded_column": {
      "latitude": "29.981521097212866",
      "longitude": "-90.105907743649"
    }
  },
  {
    "service_request": "2026-1265557",
    "request_type": "General Services",
    "request_reason": "General Service Request",
    "date_created": "2026-03-14T12:31:39.000",
    "date_modified": "2026-03-14T12:31:41.000",
    "request_status": "Pending",
    "responsible_agency": "Orleans Parish Communication District",
    "final_address": "4601 Chestnut St",
    "address_councildis": "B",
    "status": "Pending",
    "rowid": "1265557",
    "final_x": "3670200.10318",
    "final_y": "519483.024055",
    "longitude": "-90.104159151869",
    "latitude": "29.922736149710044",
    "geocoded_column": {
      "latitude": "29.922736149710044",
      "longitude": "-90.104159151869"
    }
  },
  {
    "service_request": "2026-1265556",
    "request_type": "Property Maintenance",
    "request_reason": "Property Maintenance",
    "date_created": "2026-03-14T12:08:46.000",
    "date_modified": "2026-03-14T12:08:48.000",
    "request_status": "Pending",
    "responsible_agency": "Department of Code Enforcement",
    "final_address": "1518 Euterpe St",
    "address_councildis": "B",
    "status": "Pending",
    "rowid": "1265556",
    "final_x": "3679151.69698",
    "final_y": "524805.127804",
    "longitude": "-90.07571813193749",
    "latitude": "29.937103115916322",
    "geocoded_column": {
      "latitude": "29.937103115916322",
      "longitude": "-90.07571813193749"
    }
  },
  {
    "service_request": "2026-1265555",
    "request_type": "Property Maintenance",
    "request_reason": "Property Maintenance",
    "date_created": "2026-03-14T11:46:42.000",
    "date_modified": "2026-03-14T11:46:43.000",
    "request_status": "Pending",
    "responsible_agency": "Department of Code Enforcement",
    "final_address": "1435 N Robertson St",
    "address_councildis": "C",
    "status": "Pending",
    "rowid": "1265555",
    "final_x": "3681734.68271",
    "final_y": "536613.017223",
    "longitude": "-90.06715156959311",
    "latitude": "29.969492610806274",
    "geocoded_column": {
      "latitude": "29.969492610806274",
      "longitude": "-90.06715156959311"
    }
  },
  {
    "service_request": "2026-1265554",
    "request_type": "Property Maintenance",
    "request_reason": "Property Maintenance",
    "date_created": "2026-03-14T11:46:42.000",
    "date_modified": "2026-03-14T11:46:43.000",
    "request_status": "Pending",
    "responsible_agency": "Department of Code Enforcement",
    "final_address": "1435 N Robertson St",
    "address_councildis": "C",
    "status": "Pending",
    "rowid": "1265554",
    "final_x": "3681734.68271",
    "final_y": "536613.017223",
    "longitude": "-90.06715156959311",
    "latitude": "29.969492610806274",
    "geocoded_column": {
      "latitude": "29.969492610806274",
      "longitude": "-90.06715156959311"
    }
  },
  {
    "service_request": "2026-1265553",
    "request_type": "Trash/Recycling",
    "request_reason": "Replace Trash Cart",
    "date_created": "2026-03-14T11:39:27.000",
    "date_modified": "2026-03-14T11:39:29.000",
    "request_status": "Pending",
    "responsible_agency": "Department of Sanitation",
    "final_address": "9653 Irby St",
    "address_councildis": "E",
    "status": "Assigned to Contractor",
    "contractor": "Waste Pro",
    "rowid": "1265553",
    "final_x": "3706913.63166",
    "final_y": "564769.47709",
    "longitude": "-89.98658994719733",
    "latitude": "30.046123043258014",
    "geocoded_column": {
      "latitude": "30.046123043258014",
      "longitude": "-89.98658994719733"
    }
  },
  {
    "service_request": "2026-1265552",
    "request_type": "Trash/Recycling",
    "request_reason": "Return Trash Cart",
    "date_created": "2026-03-14T11:32:01.000",
    "date_modified": "2026-03-14T11:32:02.000",
    "request_status": "Pending",
    "responsible_agency": "Department of Sanitation",
    "final_address": "38 Lark St",
    "address_councildis": "D",
    "status": "Assigned to Contractor",
    "contractor": "IV Waste",
    "rowid": "1265552",
    "final_x": "3675663.16309",
    "final_y": "556475.194906",
    "longitude": "-90.08564293116294",
    "latitude": "30.024289711242716",
    "geocoded_column": {
      "latitude": "30.024289711242716",
      "longitude": "-90.08564293116294"
    }
  },
  {
    "service_request": "2026-1265551",
    "request_type": "Trash/Recycling",
    "request_reason": "Request a Large Item Pick Up",
    "date_created": "2026-03-14T11:31:46.000",
    "date_modified": "2026-03-14T11:31:48.000",
    "request_status": "Pending",
    "responsible_agency": "Department of Sanitation",
    "final_address": "9653 Irby St",
    "address_councildis": "E",
    "status": "Assigned to Contractor",
    "contractor": "Waste Pro",
    "rowid": "1265551",
    "final_x": "3706913.63166",
    "final_y": "564769.47709",
    "longitude": "-89.98658994719733",
    "latitude": "30.046123043258014",
    "geocoded_column": {
      "latitude": "30.046123043258014",
      "longitude": "-89.98658994719733"
    }
  },
  {
    "service_request": "2026-1265550",
    "request_type": "General Services",
    "request_reason": "General Service Request",
    "date_created": "2026-03-14T11:27:31.000",
    "date_modified": "2026-03-14T11:27:32.000",
    "request_status": "Pending",
    "responsible_agency": "Orleans Parish Communication District",
    "final_address": "1138 Josephine St",
    "address_councildis": "B",
    "status": "Pending",
    "rowid": "1265550",
    "final_x": "3678939.07432",
    "final_y": "522549.966266",
    "longitude": "-90.0764674893942",
    "latitude": "29.930908578442235",
    "geocoded_column": {
      "latitude": "29.930908578442235",
      "longitude": "-90.0764674893942"
    }
  },
  {
    "service_request": "2026-1265549",
    "request_type": "Street and Traffic Signs",
    "request_reason": "Street Name Sign Damaged or Missing",
    "date_created": "2026-03-14T11:18:57.000",
    "date_modified": "2026-03-14T11:18:59.000",
    "request_status": "Pending",
    "responsible_agency": "Department of Public Works",
    "final_address": "1104 Tennessee St",
    "address_councildis": "E",
    "status": "Pending",
    "rowid": "1265549",
    "final_x": "3695666.2671",
    "final_y": "534464.975621",
    "longitude": "-90.02323225573932",
    "latitude": "29.96315560286811",
    "geocoded_column": {
      "latitude": "29.96315560286811",
      "longitude": "-90.02323225573932"
    }
  },
  {
    "service_request": "2026-1265548",
    "request_type": "Trash/Recycling",
    "request_reason": "Replace Trash Cart",
    "date_created": "2026-03-14T11:15:53.000",
    "date_modified": "2026-03-14T11:15:54.000",
    "request_status": "Pending",
    "responsible_agency": "Department of Sanitation",
    "final_address": "4821 St Claude Ave",
    "address_councildis": "E",
    "status": "Assigned to Contractor",
    "contractor": "Waste Pro",
    "rowid": "1265548",
    "final_x": "3695231.7624",
    "final_y": "534559.747013",
    "longitude": "-90.02460094543316",
    "latitude": "29.963429843598163",
    "geocoded_column": {
      "latitude": "29.963429843598163",
      "longitude": "-90.02460094543316"
    }
  },
  {
    "service_request": "2026-1265547",
    "request_type": "Traffic Signals",
    "request_reason": "Traffic Signal Malfunctioning or Damaged",
    "date_created": "2026-03-14T11:15:34.000",
    "date_modified": "2026-03-14T11:15:37.000",
    "request_status": "Pending",
    "responsible_agency": "Department of Public Works",
    "final_address": "ESPLANADE AVE & N BROAD ST",
    "address_councildis": "D",
    "status": "Pending",
    "rowid": "1265547",
    "final_x": "3678205.46",
    "final_y": "538920.34",
    "longitude": "-90.07821733427264",
    "latitude": "29.975943718140513",
    "geocoded_column": {
      "latitude": "29.975943718140513",
      "longitude": "-90.07821733427264"
    }
  },
  {
    "service_request": "2026-1265546",
    "request_type": "Street and Traffic Signs",
    "request_reason": "One Way Sign Missing or Damaged",
    "date_created": "2026-03-14T10:43:31.000",
    "date_modified": "2026-03-14T10:43:32.000",
    "request_status": "Pending",
    "responsible_agency": "Department of Public Works",
    "final_address": "700 Commerce St",
    "address_councildis": "B",
    "status": "Pending",
    "rowid": "1265546",
    "final_x": "3682026.90696",
    "final_y": "528124.928063",
    "longitude": "-90.06652506229699",
    "latitude": "29.9461443729485",
    "geocoded_column": {
      "latitude": "29.9461443729485",
      "longitude": "-90.06652506229699"
    }
  },
  {
    "service_request": "2026-1265545",
    "request_type": "Traffic Signals",
    "request_reason": "Traffic Signal Malfunctioning or Damaged",
    "date_created": "2026-03-14T10:43:00.000",
    "date_modified": "2026-03-14T10:43:01.000",
    "request_status": "Pending",
    "responsible_agency": "Department of Public Works",
    "final_address": "2601 Esplanade Ave",
    "address_councildis": "A",
    "status": "Pending",
    "rowid": "1265545",
    "final_x": "3678182.3924",
    "final_y": "539106.58465",
    "longitude": "-90.07828374563368",
    "latitude": "29.976456521528323",
    "geocoded_column": {
      "latitude": "29.976456521528323",
      "longitude": "-90.07828374563368"
    }
  },
  {
    "service_request": "2026-1265544",
    "request_type": "General Services",
    "request_reason": "General Service Request",
    "date_created": "2026-03-14T10:40:19.000",
    "date_modified": "2026-03-14T10:40:22.000",
    "request_status": "Pending",
    "responsible_agency": "Orleans Parish Communication District",
    "final_address": "421 39th St, New Orleans, Louisiana, 70124",
    "address_councildis": "A",
    "status": "Pending",
    "rowid": "1265544",
    "final_x": "3664835.56903",
    "final_y": "553103.497687",
    "longitude": "-90.11996912432949",
    "latitude": "30.01533846836411",
    "geocoded_column": {
      "latitude": "30.01533846836411",
      "longitude": "-90.11996912432949"
    }
  },
  {
    "service_request": "2026-1265543",
    "request_type": "Trash/Recycling",
    "request_reason": "Order Second Trash Cart",
    "date_created": "2026-03-14T10:32:50.000",
    "date_modified": "2026-03-14T10:32:52.000",
    "request_status": "Pending",
    "responsible_agency": "Department of Sanitation",
    "final_address": "68 Versailles Blvd",
    "address_councildis": "B",
    "status": "Assigned to Contractor",
    "contractor": "IV Waste",
    "rowid": "1265543",
    "final_x": "3667778.03821",
    "final_y": "530506.371778",
    "longitude": "-90.11143361576293",
    "latitude": "29.953118035132338",
    "geocoded_column": {
      "latitude": "29.953118035132338",
      "longitude": "-90.11143361576293"
    }
  },
  {
    "service_request": "2026-1265542",
    "request_type": "Property Maintenance",
    "request_reason": "Property Maintenance",
    "date_created": "2026-03-14T09:07:30.000",
    "date_modified": "2026-03-14T09:07:33.000",
    "request_status": "Pending",
    "responsible_agency": "Department of Code Enforcement",
    "final_address": "221 Chapelle St",
    "address_councildis": "A",
    "status": "Pending",
    "rowid": "1265542",
    "final_x": "3667260.38721",
    "final_y": "552749.897878",
    "longitude": "-90.11231970529099",
    "latitude": "30.01429536743138",
    "geocoded_column": {
      "latitude": "30.01429536743138",
      "longitude": "-90.11231970529099"
    }
  },
  {
    "service_request": "2026-1265541",
    "request_type": "Trash/Recycling",
    "request_reason": "Missed Trash Pick-Up",
    "date_created": "2026-03-14T08:54:45.000",
    "date_modified": "2026-03-14T10:22:07.000",
    "case_close_date": "2026-03-14T05:22:06.000",
    "request_status": "Closed",
    "responsible_agency": "Department of Sanitation",
    "final_address": "425 Celeste St",
    "address_councildis": "B",
    "status": "Invalid Request",
    "contractor": "IV Waste",
    "contractor_action": "Invalid",
    "rowid": "1265541",
    "final_x": "3682253.27951",
    "final_y": "521476.733881",
    "longitude": "-90.06604248169063",
    "latitude": "29.927857167766927",
    "geocoded_column": {
      "latitude": "29.927857167766927",
      "longitude": "-90.06604248169063"
    }
  },
  {
    "service_request": "2026-1265540",
    "request_type": "Streetlights",
    "request_reason": "Streetlight Outage/Malfunction",
    "date_created": "2026-03-14T08:42:13.000",
    "date_modified": "2026-03-14T08:42:15.000",
    "request_status": "Pending",
    "responsible_agency": "Department of Public Works",
    "final_address": "2480 N Claiborne Ave",
    "address_councildis": "C",
    "status": "Pending",
    "rowid": "1265540",
    "final_x": "3687029.70121",
    "final_y": "538286.220873",
    "longitude": "-90.05037033793906",
    "latitude": "29.973931386966882",
    "geocoded_column": {
      "latitude": "29.973931386966882",
      "longitude": "-90.05037033793906"
    }
  },
  {
    "service_request": "2026-1265539",
    "request_type": "Trash/Recycling",
    "request_reason": "Order Trash Cart",
    "date_created": "2026-03-14T05:04:17.000",
    "date_modified": "2026-03-14T05:04:19.000",
    "request_status": "Pending",
    "responsible_agency": "Department of Sanitation",
    "final_address": "4110 Fontainebleau Dr",
    "address_councildis": "B",
    "status": "Assigned to Contractor",
    "contractor": "IV Waste",
    "rowid": "1265539",
    "final_x": "3669864.2155",
    "final_y": "529032.100992",
    "longitude": "-90.10489626429896",
    "latitude": "29.949002938240366",
    "geocoded_column": {
      "latitude": "29.949002938240366",
      "longitude": "-90.10489626429896"
    }
  },
  {
    "service_request": "2026-1265538",
    "request_type": "Trash/Recycling",
    "request_reason": "Order Trash Cart",
    "date_created": "2026-03-14T04:13:25.000",
    "date_modified": "2026-03-14T04:13:27.000",
    "request_status": "Pending",
    "responsible_agency": "Department of Sanitation",
    "final_address": "220 N Cortez St",
    "address_councildis": "B",
    "status": "Assigned to Contractor",
    "contractor": "IV Waste",
    "rowid": "1265538",
    "final_x": "3672509.12455",
    "final_y": "538017.145801",
    "longitude": "-90.09623883018166",
    "latitude": "29.973630577810233",
    "geocoded_column": {
      "latitude": "29.973630577810233",
      "longitude": "-90.09623883018166"
    }
  },
  {
    "service_request": "2026-1265537",
    "request_type": "Healthy Homes",
    "request_reason": "Healthy Homes",
    "date_created": "2026-03-14T04:05:36.000",
    "date_modified": "2026-03-14T04:05:38.000",
    "request_status": "Pending",
    "responsible_agency": "Department of Code Enforcement",
    "final_address": "12330 S Interstate 10 Service Rd",
    "address_councildis": "E",
    "status": "Pending",
    "rowid": "1265537",
    "final_x": "3717035.68165",
    "final_y": "566171.364003",
    "longitude": "-89.9545461761855",
    "latitude": "30.04964665808399",
    "geocoded_column": {
      "latitude": "30.04964665808399",
      "longitude": "-89.9545461761855"
    }
  },
  {
    "service_request": "2026-1265536",
    "request_type": "General Services",
    "request_reason": "General Service Request",
    "date_created": "2026-03-14T02:20:46.000",
    "date_modified": "2026-03-14T02:20:48.000",
    "request_status": "Pending",
    "responsible_agency": "Orleans Parish Communication District",
    "final_address": "3800 Canal St",
    "address_councildis": "A",
    "status": "Pending",
    "rowid": "1265536",
    "final_x": "3671986.09812",
    "final_y": "537548.763208",
    "longitude": "-90.09790661212993",
    "latitude": "29.972358200415535",
    "geocoded_column": {
      "latitude": "29.972358200415535",
      "longitude": "-90.09790661212993"
    }
  },
  {
    "service_request": "2026-1265535",
    "request_type": "Trash/Recycling",
    "request_reason": "Replace Trash Cart",
    "date_created": "2026-03-14T02:00:59.000",
    "date_modified": "2026-03-14T02:01:01.000",
    "request_status": "Pending",
    "responsible_agency": "Department of Sanitation",
    "final_address": "1906 St Philip St",
    "address_councildis": "D",
    "status": "Assigned to Contractor",
    "contractor": "IV Waste",
    "rowid": "1265535",
    "final_x": "3679801.88328",
    "final_y": "535948.623815",
    "longitude": "-90.07327858275498",
    "latitude": "29.967724342033417",
    "geocoded_column": {
      "latitude": "29.967724342033417",
      "longitude": "-90.07327858275498"
    }
  },
  {
    "service_request": "2026-1265534",
    "request_type": "Streetlights",
    "request_reason": "Streetlight Outage/Malfunction",
    "date_created": "2026-03-14T00:58:02.000",
    "date_modified": "2026-03-14T00:58:13.000",
    "request_status": "Pending",
    "responsible_agency": "Department of Public Works",
    "final_address": "1923 Josephine St",
    "address_councildis": "B",
    "status": "Pending",
    "rowid": "1265534",
    "final_x": "3677027.19746",
    "final_y": "525152.327741",
    "longitude": "-90.0824133381325",
    "latitude": "29.938121745838693",
    "geocoded_column": {
      "latitude": "29.938121745838693",
      "longitude": "-90.0824133381325"
    }
  },
  {
    "service_request": "2026-1265533",
    "request_type": "Streetlights",
    "request_reason": "Streetlight Outage/Malfunction",
    "date_created": "2026-03-14T00:52:29.000",
    "date_modified": "2026-03-14T00:52:31.000",
    "request_status": "Pending",
    "responsible_agency": "Department of Public Works",
    "final_address": "2001 Josephine St",
    "address_councildis": "B",
    "status": "Pending",
    "rowid": "1265533",
    "final_x": "3676951.02389",
    "final_y": "525250.177789",
    "longitude": "-90.08265045325956",
    "latitude": "29.938393087676445",
    "geocoded_column": {
      "latitude": "29.938393087676445",
      "longitude": "-90.08265045325956"
    }
  },
  {
    "service_request": "2026-1265532",
    "request_type": "Trash/Recycling",
    "request_reason": "Request a Large Item Pick Up",
    "date_created": "2026-03-13T23:43:58.000",
    "date_modified": "2026-03-13T23:44:00.000",
    "request_status": "Pending",
    "responsible_agency": "Department of Sanitation",
    "final_address": "5720 Waterford Blvd",
    "address_councildis": "E",
    "status": "Assigned to Contractor",
    "contractor": "Waste Pro",
    "rowid": "1265532",
    "final_x": "3713939.32216",
    "final_y": "560666.53987",
    "longitude": "-89.96454032957996",
    "latitude": "30.034612697033477",
    "geocoded_column": {
      "latitude": "30.034612697033477",
      "longitude": "-89.96454032957996"
    }
  },
  {
    "service_request": "2026-1265531",
    "request_type": "Trash/Recycling",
    "request_reason": "Order Second Trash Cart",
    "date_created": "2026-03-13T23:42:02.000",
    "date_modified": "2026-03-13T23:42:04.000",
    "request_status": "Pending",
    "responsible_agency": "Department of Sanitation",
    "final_address": "5720 Waterford Blvd",
    "address_councildis": "E",
    "status": "Assigned to Contractor",
    "contractor": "Waste Pro",
    "rowid": "1265531",
    "final_x": "3713939.32216",
    "final_y": "560666.53987",
    "longitude": "-89.96454032957996",
    "latitude": "30.034612697033477",
    "geocoded_column": {
      "latitude": "30.034612697033477",
      "longitude": "-89.96454032957996"
    }
  },
  {
    "service_request": "2026-1265530",
    "request_type": "Streetlights",
    "request_reason": "Streetlight Outage/Malfunction",
    "date_created": "2026-03-13T23:32:41.000",
    "date_modified": "2026-03-13T23:32:44.000",
    "request_status": "Pending",
    "responsible_agency": "Department of Public Works",
    "final_address": "3924 Cleveland Ave",
    "address_councildis": "A",
    "status": "Pending",
    "rowid": "1265530",
    "final_x": "3671319.7851",
    "final_y": "537593.238344",
    "longitude": "-90.10000943740957",
    "latitude": "29.97250022897969",
    "geocoded_column": {
      "latitude": "29.97250022897969",
      "longitude": "-90.10000943740957"
    }
  },
  {
    "service_request": "2026-1265529",
    "request_type": "Traffic Safety",
    "request_reason": "Request for Traffic Calming due to Speeding",
    "date_created": "2026-03-13T23:05:17.000",
    "date_modified": "2026-03-13T23:05:20.000",
    "request_status": "Pending",
    "responsible_agency": "Department of Public Works",
    "final_address": "2303 Octavia St",
    "address_councildis": "A",
    "status": "Pending",
    "rowid": "1265529",
    "final_x": "3667653.80897",
    "final_y": "524092.291772",
    "longitude": "-90.1120417440332",
    "latitude": "29.935485031939567",
    "geocoded_column": {
      "latitude": "29.935485031939567",
      "longitude": "-90.1120417440332"
    }
  },
  {
    "service_request": "2026-1265528",
    "request_type": "Streetlights",
    "request_reason": "Streetlight Outage/Malfunction",
    "date_created": "2026-03-13T22:54:39.000",
    "date_modified": "2026-03-13T22:54:41.000",
    "request_status": "Pending",
    "responsible_agency": "Department of Public Works",
    "final_address": "7140 Bundy Rd",
    "address_councildis": "E",
    "status": "Pending",
    "rowid": "1265528",
    "final_x": "3706605.04689",
    "final_y": "561412.326558",
    "longitude": "-89.98768982829633",
    "latitude": "30.0369021806078",
    "geocoded_column": {
      "latitude": "30.0369021806078",
      "longitude": "-89.98768982829633"
    }
  },
  {
    "service_request": "2026-1265527",
    "request_type": "Trash/Recycling",
    "request_reason": "Request a Large Item Pick Up",
    "date_created": "2026-03-13T22:49:35.000",
    "date_modified": "2026-03-13T22:49:37.000",
    "request_status": "Pending",
    "responsible_agency": "Department of Sanitation",
    "final_address": "2627 St Nick Dr",
    "address_councildis": "C",
    "status": "Assigned to Contractor",
    "contractor": "Richards Disposal",
    "rowid": "1265527",
    "final_x": "3699284.81821",
    "final_y": "521248.357945",
    "longitude": "-90.01228654993855",
    "latitude": "29.92670027705097",
    "geocoded_column": {
      "latitude": "29.92670027705097",
      "longitude": "-90.01228654993855"
    }
  },
  {
    "service_request": "2026-1265526",
    "request_type": "Trash/Recycling",
    "request_reason": "Return Recycling Cart",
    "date_created": "2026-03-13T22:46:32.000",
    "date_modified": "2026-03-13T22:46:37.000",
    "request_status": "Pending",
    "responsible_agency": "Department of Sanitation",
    "final_address": "1124 Jackson Ave",
    "address_councildis": "B",
    "status": "Pending",
    "rowid": "1265526",
    "final_x": "3678674.23976",
    "final_y": "522220.253882",
    "longitude": "-90.07731494512066",
    "latitude": "29.93000996235017",
    "geocoded_column": {
      "latitude": "29.93000996235017",
      "longitude": "-90.07731494512066"
    }
  },
  {
    "service_request": "2026-1265525",
    "request_type": "Trash/Recycling",
    "request_reason": "Missed Trash Pick-Up",
    "date_created": "2026-03-13T21:58:35.000",
    "date_modified": "2026-03-14T07:23:59.000",
    "case_close_date": "2026-03-14T02:23:58.000",
    "request_status": "Closed",
    "responsible_agency": "Department of Sanitation",
    "final_address": "3324 Third St",
    "address_councildis": "B",
    "status": "Invalid Request",
    "contractor": "IV Waste",
    "contractor_action": "Invalid",
    "rowid": "1265525",
    "final_x": "3672946.44852",
    "final_y": "528095.334527",
    "longitude": "-90.0951962574467",
    "latitude": "29.946335918411176",
    "geocoded_column": {
      "latitude": "29.946335918411176",
      "longitude": "-90.0951962574467"
    }
  },
  {
    "service_request": "2026-1265524",
    "request_type": "Trash/Recycling",
    "request_reason": "Missed Trash Pick-Up",
    "date_created": "2026-03-13T21:51:16.000",
    "date_modified": "2026-03-13T21:51:18.000",
    "request_status": "Pending",
    "responsible_agency": "Department of Sanitation",
    "final_address": "5831 Abbey Dr",
    "address_councildis": "C",
    "status": "Assigned to Contractor",
    "contractor": "Richards Disposal",
    "rowid": "1265524",
    "final_x": "3705268.67102",
    "final_y": "520859.007097",
    "longitude": "-89.99341167409789",
    "latitude": "29.92543864712634",
    "geocoded_column": {
      "latitude": "29.92543864712634",
      "longitude": "-89.99341167409789"
    }
  },
  {
    "service_request": "2026-1265523",
    "request_type": "Streetlights",
    "request_reason": "Streetlight Outage/Malfunction",
    "date_created": "2026-03-13T21:50:00.000",
    "date_modified": "2026-03-13T21:50:03.000",
    "request_status": "Pending",
    "responsible_agency": "Department of Public Works",
    "final_address": "2117 Treasure St",
    "address_councildis": "D",
    "status": "Pending",
    "rowid": "1265523",
    "final_x": "3683757.23305",
    "final_y": "544045.342734",
    "longitude": "-90.06050346513102",
    "latitude": "29.989867292046405",
    "geocoded_column": {
      "latitude": "29.989867292046405",
      "longitude": "-90.06050346513102"
    }
  },
  {
    "service_request": "2026-1265522",
    "request_type": "General Services",
    "request_reason": "General Service Request",
    "date_created": "2026-03-13T21:42:13.000",
    "date_modified": "2026-03-13T21:42:15.000",
    "request_status": "Pending",
    "responsible_agency": "Orleans Parish Communication District",
    "final_address": "4103 Rayne Dr",
    "address_councildis": "D",
    "status": "Pending",
    "rowid": "1265522",
    "final_x": "3680130.20258",
    "final_y": "547406.519185",
    "longitude": "-90.07184337773975",
    "latitude": "29.99921962366907",
    "geocoded_column": {
      "latitude": "29.99921962366907",
      "longitude": "-90.07184337773975"
    }
  },
  {
    "service_request": "2026-1265521",
    "request_type": "Trash/Recycling",
    "request_reason": "Return Recycling Cart",
    "date_created": "2026-03-13T20:58:27.000",
    "date_modified": "2026-03-13T20:58:28.000",
    "request_status": "Pending",
    "responsible_agency": "Department of Sanitation",
    "final_address": "44 W Park Pl",
    "address_councildis": "A",
    "status": "Pending",
    "rowid": "1265521",
    "final_x": "3669808.32199",
    "final_y": "544410.136591",
    "longitude": "-90.10455204672823",
    "latitude": "29.991289028881827",
    "geocoded_column": {
      "latitude": "29.991289028881827",
      "longitude": "-90.10455204672823"
    }
  },
  {
    "service_request": "2026-1265520",
    "request_type": "Trash/Recycling",
    "request_reason": "Replace Trash Cart",
    "date_created": "2026-03-13T20:58:03.000",
    "date_modified": "2026-03-13T20:58:05.000",
    "request_status": "Pending",
    "responsible_agency": "Department of Sanitation",
    "final_address": "1619 Industry St",
    "address_councildis": "D",
    "status": "Assigned to Contractor",
    "contractor": "IV Waste",
    "rowid": "1265520",
    "final_x": "3680129.82741",
    "final_y": "542620.850957",
    "longitude": "-90.07201097980864",
    "latitude": "29.986060735581244",
    "geocoded_column": {
      "latitude": "29.986060735581244",
      "longitude": "-90.07201097980864"
    }
  },
  {
    "service_request": "2026-1265519",
    "request_type": "Health Related Request",
    "request_reason": "Noise Ordinance Complaint",
    "date_created": "2026-03-13T20:45:03.000",
    "date_modified": "2026-03-13T20:45:04.000",
    "request_status": "Pending",
    "responsible_agency": "Health Department",
    "final_address": "801 Bourbon St, New Orleans, Louisiana, 70116",
    "address_councildis": "C",
    "status": "Pending",
    "rowid": "1265519",
    "final_x": "3682490.98735",
    "final_y": "533018.672772",
    "longitude": "-90.06488875731978",
    "latitude": "29.959586396383013",
    "geocoded_column": {
      "latitude": "29.959586396383013",
      "longitude": "-90.06488875731978"
    }
  },
  {
    "service_request": "2026-1265518",
    "request_type": "Health Related Request",
    "request_reason": "Noise Ordinance Complaint",
    "date_created": "2026-03-13T20:44:42.000",
    "date_modified": "2026-03-13T20:44:43.000",
    "request_status": "Pending",
    "responsible_agency": "Health Department",
    "final_address": "801 Bourbon St, New Orleans, Louisiana, 70116",
    "address_councildis": "C",
    "status": "Pending",
    "rowid": "1265518",
    "final_x": "3682490.98735",
    "final_y": "533018.672772",
    "longitude": "-90.06488875731978",
    "latitude": "29.959586396383013",
    "geocoded_column": {
      "latitude": "29.959586396383013",
      "longitude": "-90.06488875731978"
    }
  },
  {
    "service_request": "2026-1265517",
    "request_type": "Health Related Request",
    "request_reason": "Noise Ordinance Complaint",
    "date_created": "2026-03-13T20:44:21.000",
    "date_modified": "2026-03-13T20:44:22.000",
    "request_status": "Pending",
    "responsible_agency": "Health Department",
    "final_address": "801 Bourbon St, New Orleans, Louisiana, 70116",
    "address_councildis": "C",
    "status": "Pending",
    "rowid": "1265517",
    "final_x": "3682490.98735",
    "final_y": "533018.672772",
    "longitude": "-90.06488875731978",
    "latitude": "29.959586396383013",
    "geocoded_column": {
      "latitude": "29.959586396383013",
      "longitude": "-90.06488875731978"
    }
  },
  {
    "service_request": "2026-1265516",
    "request_type": "Health Related Request",
    "request_reason": "Noise Ordinance Complaint",
    "date_created": "2026-03-13T20:43:59.000",
    "date_modified": "2026-03-13T20:44:01.000",
    "request_status": "Pending",
    "responsible_agency": "Health Department",
    "final_address": "801 Bourbon St, New Orleans, Louisiana, 70116",
    "address_councildis": "C",
    "status": "Pending",
    "rowid": "1265516",
    "final_x": "3682490.98735",
    "final_y": "533018.672772",
    "longitude": "-90.06488875731978",
    "latitude": "29.959586396383013",
    "geocoded_column": {
      "latitude": "29.959586396383013",
      "longitude": "-90.06488875731978"
    }
  },
  {
    "service_request": "2026-1265515",
    "request_type": "Health Related Request",
    "request_reason": "Noise Ordinance Complaint",
    "date_created": "2026-03-13T20:43:36.000",
    "date_modified": "2026-03-13T20:43:38.000",
    "request_status": "Pending",
    "responsible_agency": "Health Department",
    "final_address": "801 Bourbon St, New Orleans, Louisiana, 70116",
    "address_councildis": "C",
    "status": "Pending",
    "rowid": "1265515",
    "final_x": "3682490.98735",
    "final_y": "533018.672772",
    "longitude": "-90.06488875731978",
    "latitude": "29.959586396383013",
    "geocoded_column": {
      "latitude": "29.959586396383013",
      "longitude": "-90.06488875731978"
    }
  },
  {
    "service_request": "2026-1265514",
    "request_type": "Trash/Recycling",
    "request_reason": "Replace Trash Cart",
    "date_created": "2026-03-13T20:42:38.000",
    "date_modified": "2026-03-13T20:42:40.000",
    "request_status": "Pending",
    "responsible_agency": "Department of Sanitation",
    "final_address": "2821 Laurel St",
    "address_councildis": "B",
    "status": "Assigned to Contractor",
    "contractor": "IV Waste",
    "rowid": "1265514",
    "final_x": "3677254.51336",
    "final_y": "520145.977016",
    "longitude": "-90.0818683055732",
    "latitude": "29.9243490903508",
    "geocoded_column": {
      "latitude": "29.9243490903508",
      "longitude": "-90.0818683055732"
    }
  },
  {
    "service_request": "2026-1265513",
    "request_type": "Roads and Streets",
    "request_reason": "Pothole",
    "date_created": "2026-03-13T20:38:50.000",
    "date_modified": "2026-03-13T20:38:51.000",
    "request_status": "Pending",
    "responsible_agency": "Department of Public Works",
    "final_address": "5008 Magazine St",
    "address_councildis": "B",
    "status": "Pending",
    "rowid": "1265513",
    "final_x": "3668538.22151",
    "final_y": "518559.195575",
    "longitude": "-90.10943621857605",
    "latitude": "29.920244828360868",
    "geocoded_column": {
      "latitude": "29.920244828360868",
      "longitude": "-90.10943621857605"
    }
  },
  {
    "service_request": "2026-1265512",
    "request_type": "Roads and Streets",
    "request_reason": "Pothole",
    "date_created": "2026-03-13T20:38:23.000",
    "date_modified": "2026-03-13T20:38:25.000",
    "request_status": "Pending",
    "responsible_agency": "Department of Public Works",
    "final_address": "5100 Magazine St",
    "address_councildis": "B",
    "status": "Pending",
    "rowid": "1265512",
    "final_x": "3668269.65345",
    "final_y": "518527.683063",
    "longitude": "-90.11028502484048",
    "latitude": "29.92016606397517",
    "geocoded_column": {
      "latitude": "29.92016606397517",
      "longitude": "-90.11028502484048"
    }
  },
  {
    "service_request": "2026-1265511",
    "request_type": "Trash/Recycling",
    "request_reason": "Replace Trash Cart",
    "date_created": "2026-03-13T20:29:04.000",
    "date_modified": "2026-03-13T20:29:06.000",
    "request_status": "Pending",
    "responsible_agency": "Department of Sanitation",
    "final_address": "2819 Baronne St",
    "address_councildis": "B",
    "status": "Assigned to Contractor",
    "contractor": "IV Waste",
    "rowid": "1265511",
    "final_x": "3675345.34177",
    "final_y": "523074.058491",
    "longitude": "-90.08779443633823",
    "latitude": "29.93245756305682",
    "geocoded_column": {
      "latitude": "29.93245756305682",
      "longitude": "-90.08779443633823"
    }
  },
  {
    "service_request": "2026-1265510",
    "request_type": "Abandoned Vehicles",
    "request_reason": "Abandoned/Junk Vehicles",
    "date_created": "2026-03-13T20:02:10.000",
    "date_modified": "2026-03-13T20:02:12.000",
    "request_status": "Pending",
    "responsible_agency": "Department of Public Works",
    "final_address": "6303 Chef Menteur Hwy",
    "address_councildis": "D",
    "status": "Pending",
    "rowid": "1265510",
    "final_x": "3698077.36887",
    "final_y": "551900.110806",
    "longitude": "-90.01498485454778",
    "latitude": "30.01101982496735",
    "geocoded_column": {
      "latitude": "30.01101982496735",
      "longitude": "-90.01498485454778"
    }
  },
  {
    "service_request": "2026-1265509",
    "request_type": "Trash/Recycling",
    "request_reason": "Illegal Dumping",
    "date_created": "2026-03-13T19:52:12.000",
    "date_modified": "2026-03-13T19:52:14.000",
    "request_status": "Pending",
    "responsible_agency": "Department of Sanitation",
    "final_address": "2912 Baudin St",
    "address_councildis": "B",
    "status": "Pending",
    "rowid": "1265509",
    "final_x": "3673510.69262",
    "final_y": "534434.259845",
    "longitude": "-90.0931981257771",
    "latitude": "29.963749080023298",
    "geocoded_column": {
      "latitude": "29.963749080023298",
      "longitude": "-90.0931981257771"
    }
  },
  {
    "service_request": "2026-1265508",
    "request_type": "Trash/Recycling",
    "request_reason": "Order Trash Cart",
    "date_created": "2026-03-13T19:32:16.000",
    "date_modified": "2026-03-13T19:32:18.000",
    "request_status": "Pending",
    "responsible_agency": "Department of Sanitation",
    "final_address": "8018 Lucerne St",
    "address_councildis": "E",
    "status": "Assigned to Contractor",
    "contractor": "Waste Pro",
    "rowid": "1265508",
    "final_x": "3709963.42392",
    "final_y": "567106.9281",
    "longitude": "-89.97686368651806",
    "latitude": "30.052451177324635",
    "geocoded_column": {
      "latitude": "30.052451177324635",
      "longitude": "-89.97686368651806"
    }
  },
  {
    "service_request": "2026-1265507",
    "request_type": "Streetlights",
    "request_reason": "New Streetlight Request",
    "date_created": "2026-03-13T19:10:30.000",
    "date_modified": "2026-03-13T19:10:32.000",
    "request_status": "Pending",
    "responsible_agency": "Department of Public Works",
    "final_address": "4352 Werner Dr",
    "address_councildis": "E",
    "status": "Pending",
    "rowid": "1265507",
    "final_x": "3704932.80427",
    "final_y": "553253.434199",
    "longitude": "-89.9932759778006",
    "latitude": "30.01452228677892",
    "geocoded_column": {
      "latitude": "30.01452228677892",
      "longitude": "-89.9932759778006"
    }
  },
  {
    "service_request": "2026-1265506",
    "request_type": "Drainage",
    "request_reason": "Drainage Manhole Cover Missing or Damaged",
    "date_created": "2026-03-13T18:54:24.000",
    "date_modified": "2026-03-13T18:54:26.000",
    "request_status": "Pending",
    "responsible_agency": "Sewerage & Water Board",
    "final_address": "3001 Loyola Ave",
    "address_councildis": "B",
    "status": "Pending",
    "rowid": "1265506",
    "final_x": "3674023.18235",
    "final_y": "523878.26534",
    "longitude": "-90.09194087737079",
    "latitude": "29.9347083228249",
    "geocoded_column": {
      "latitude": "29.9347083228249",
      "longitude": "-90.09194087737079"
    }
  },
  {
    "service_request": "2026-1265505",
    "request_type": "Drainage",
    "request_reason": "Ditch and Culvert Maintenance",
    "date_created": "2026-03-13T18:50:56.000",
    "date_modified": "2026-03-13T18:50:58.000",
    "request_status": "Pending",
    "responsible_agency": "Department of Public Works",
    "final_address": "2209 Sixth St",
    "address_councildis": "B",
    "status": "Pending",
    "rowid": "1265505",
    "final_x": "3674168.2514",
    "final_y": "524150.755388",
    "longitude": "-90.09147357291678",
    "latitude": "29.93545325944303",
    "geocoded_column": {
      "latitude": "29.93545325944303",
      "longitude": "-90.09147357291678"
    }
  },
  {
    "service_request": "2026-1265504",
    "request_type": "Trash/Recycling",
    "request_reason": "Missed Trash Pick-Up",
    "date_created": "2026-03-13T18:24:44.000",
    "date_modified": "2026-03-13T18:24:46.000",
    "request_status": "Pending",
    "responsible_agency": "Department of Sanitation",
    "final_address": "6632 Manchester St",
    "address_councildis": "E",
    "status": "Assigned to Contractor",
    "contractor": "Waste Pro",
    "rowid": "1265504",
    "final_x": "3697693.19613",
    "final_y": "559517.165917",
    "longitude": "-90.01592191561781",
    "latitude": "30.03197597959322",
    "geocoded_column": {
      "latitude": "30.03197597959322",
      "longitude": "-90.01592191561781"
    }
  },
  {
    "service_request": "2026-1265503",
    "request_type": "Trash/Recycling",
    "request_reason": "Request a Large Item Pick Up",
    "date_created": "2026-03-13T18:09:47.000",
    "date_modified": "2026-03-13T18:09:49.000",
    "request_status": "Pending",
    "responsible_agency": "Department of Sanitation",
    "final_address": "4216 Dauphine St",
    "address_councildis": "C",
    "status": "Assigned to Contractor",
    "contractor": "IV Waste",
    "rowid": "1265503",
    "final_x": "3692243.76713",
    "final_y": "533945.727557",
    "longitude": "-90.03405865736505",
    "latitude": "29.961835006645487",
    "geocoded_column": {
      "latitude": "29.961835006645487",
      "longitude": "-90.03405865736505"
    }
  },
  {
    "service_request": "2026-1265502",
    "request_type": "Roads and Streets",
    "request_reason": "Street Subsidence (Sinking)",
    "date_created": "2026-03-13T18:04:33.000",
    "date_modified": "2026-03-13T18:04:35.000",
    "request_status": "Pending",
    "responsible_agency": "Sewerage & Water Board",
    "final_address": "4935 Redwood St",
    "address_councildis": "E",
    "status": "Pending",
    "rowid": "1265502",
    "final_x": "3712443.57182",
    "final_y": "557350.140635",
    "longitude": "-89.96939181935434",
    "latitude": "30.02554296061061",
    "geocoded_column": {
      "latitude": "30.02554296061061",
      "longitude": "-89.96939181935434"
    }
  },
  {
    "service_request": "2026-1265501",
    "request_type": "Health Related Request",
    "request_reason": "Homeless Encampment Complaint",
    "date_created": "2026-03-13T17:47:34.000",
    "date_modified": "2026-03-13T17:47:36.000",
    "request_status": "Pending",
    "responsible_agency": "Office Of Homeless Services And Strategy",
    "final_address": "1433 N Robertson St",
    "address_councildis": "C",
    "status": "Pending",
    "rowid": "1265501",
    "final_x": "3681711.84079",
    "final_y": "536585.789447",
    "longitude": "-90.06722465634249",
    "latitude": "29.96941843782524",
    "geocoded_column": {
      "latitude": "29.96941843782524",
      "longitude": "-90.06722465634249"
    }
  },
  {
    "service_request": "2026-1265500",
    "request_type": "Drainage",
    "request_reason": "Catch Basin Not Draining",
    "date_created": "2026-03-13T17:20:02.000",
    "date_modified": "2026-03-13T17:20:04.000",
    "request_status": "Pending",
    "responsible_agency": "Sewerage & Water Board",
    "final_address": "1426 Eighth St",
    "address_councildis": "B",
    "status": "Pending",
    "rowid": "1265500",
    "final_x": "3675381.65691",
    "final_y": "521234.027257",
    "longitude": "-90.08774293751237",
    "latitude": "29.927396988737055",
    "geocoded_column": {
      "latitude": "29.927396988737055",
      "longitude": "-90.08774293751237"
    }
  },
  {
    "service_request": "2026-1265499",
    "request_type": "Trash/Recycling",
    "request_reason": "Request a Large Item Pick Up",
    "date_created": "2026-03-13T17:13:39.000",
    "date_modified": "2026-03-13T17:13:41.000",
    "request_status": "Pending",
    "responsible_agency": "Department of Sanitation",
    "final_address": "4819 Gallier Dr",
    "address_councildis": "D",
    "status": "Assigned to Contractor",
    "contractor": "IV Waste",
    "rowid": "1265499",
    "final_x": "3692169.66262",
    "final_y": "551623.542869",
    "longitude": "-90.03365948484283",
    "latitude": "30.010444938697272",
    "geocoded_column": {
      "latitude": "30.010444938697272",
      "longitude": "-90.03365948484283"
    }
  },
  {
    "service_request": "2026-1265498",
    "request_type": "Health Related Request",
    "request_reason": "Noise Ordinance Complaint",
    "date_created": "2026-03-13T17:04:43.000",
    "date_modified": "2026-03-13T17:04:44.000",
    "request_status": "Pending",
    "responsible_agency": "Health Department",
    "final_address": "5130 Arts St, New Orleans, Louisiana, 70122",
    "address_councildis": "D",
    "status": "Pending",
    "rowid": "1265498",
    "final_x": "3685736.10473",
    "final_y": "551777.650581",
    "longitude": "-90.05398005928335",
    "latitude": "30.011067758595686",
    "geocoded_column": {
      "latitude": "30.011067758595686",
      "longitude": "-90.05398005928335"
    }
  },
  {
    "service_request": "2026-1265497",
    "request_type": "Trash/Recycling",
    "request_reason": "Order Second Trash Cart",
    "date_created": "2026-03-13T17:00:05.000",
    "date_modified": "2026-03-13T17:00:08.000",
    "request_status": "Pending",
    "responsible_agency": "Department of Sanitation",
    "final_address": "4929 Desire Dr",
    "address_councildis": "D",
    "status": "Assigned to Contractor",
    "contractor": "IV Waste",
    "rowid": "1265497",
    "final_x": "3691675.87465",
    "final_y": "552152.384086",
    "longitude": "-90.03520061372417",
    "latitude": "30.011914447128856",
    "geocoded_column": {
      "latitude": "30.011914447128856",
      "longitude": "-90.03520061372417"
    }
  },
  {
    "service_request": "2026-1265496",
    "request_type": "Trash/Recycling",
    "request_reason": "Missed Trash Pick-Up",
    "date_created": "2026-03-13T16:57:45.000",
    "date_modified": "2026-03-13T16:58:09.000",
    "request_status": "Pending",
    "responsible_agency": "Department of Sanitation",
    "final_address": "4724 Bonita Dr",
    "address_councildis": "E",
    "status": "Assigned to Contractor",
    "contractor": "Waste Pro",
    "rowid": "1265496",
    "final_x": "3704458.55057",
    "final_y": "555141.437337",
    "longitude": "-89.99470468679094",
    "latitude": "30.01972881223416",
    "geocoded_column": {
      "latitude": "30.01972881223416",
      "longitude": "-89.99470468679094"
    }
  },
  {
    "service_request": "2026-1265495",
    "request_type": "Trash/Recycling",
    "request_reason": "Replace Trash Cart",
    "date_created": "2026-03-13T16:53:18.000",
    "date_modified": "2026-03-13T16:53:19.000",
    "request_status": "Pending",
    "responsible_agency": "Department of Sanitation",
    "final_address": "6601 Brunswick Ct",
    "address_councildis": "C",
    "status": "Assigned to Contractor",
    "contractor": "Richards Disposal",
    "rowid": "1265495",
    "final_x": "3708240.5434",
    "final_y": "516872.246325",
    "longitude": "-89.9841786615569",
    "latitude": "29.914380554520154",
    "geocoded_column": {
      "latitude": "29.914380554520154",
      "longitude": "-89.9841786615569"
    }
  },
  {
    "service_request": "2026-1265494",
    "request_type": "Trash/Recycling",
    "request_reason": "Request a Large Item Pick Up",
    "date_created": "2026-03-13T16:51:29.000",
    "date_modified": "2026-03-13T16:51:30.000",
    "request_status": "Pending",
    "responsible_agency": "Department of Sanitation",
    "final_address": "4782 Citrus Dr",
    "address_councildis": "E",
    "status": "Assigned to Contractor",
    "contractor": "Waste Pro",
    "rowid": "1265494",
    "final_x": "3710682.52261",
    "final_y": "556088.800922",
    "longitude": "-89.9750036769141",
    "latitude": "30.022132293026306",
    "geocoded_column": {
      "latitude": "30.022132293026306",
      "longitude": "-89.9750036769141"
    }
  },
  {
    "service_request": "2026-1265493",
    "request_type": "Trash/Recycling",
    "request_reason": "Request a Large Item Pick Up",
    "date_created": "2026-03-13T16:50:39.000",
    "date_modified": "2026-03-13T16:50:41.000",
    "request_status": "Pending",
    "responsible_agency": "Department of Sanitation",
    "final_address": "5482 Tullis Dr",
    "address_councildis": "C",
    "status": "Assigned to Contractor",
    "contractor": "Richards Disposal",
    "rowid": "1265493",
    "final_x": "3704376.55748",
    "final_y": "512131.786609",
    "longitude": "-89.99654917564506",
    "latitude": "29.901470442699953",
    "geocoded_column": {
      "latitude": "29.901470442699953",
      "longitude": "-89.99654917564506"
    }
  },
  {
    "service_request": "2026-1265492",
    "request_type": "Trash/Recycling",
    "request_reason": "Request a Large Item Pick Up",
    "date_created": "2026-03-13T16:46:13.000",
    "date_modified": "2026-03-13T16:46:14.000",
    "request_status": "Pending",
    "responsible_agency": "Department of Sanitation",
    "final_address": "7722 Lafourche St",
    "address_councildis": "E",
    "status": "Assigned to Contractor",
    "contractor": "Waste Pro",
    "rowid": "1265492",
    "final_x": "3709897.31813",
    "final_y": "565964.938403",
    "longitude": "-89.97711534771119",
    "latitude": "30.04931331876745",
    "geocoded_column": {
      "latitude": "30.04931331876745",
      "longitude": "-89.97711534771119"
    }
  },
  {
    "service_request": "2026-1265491",
    "request_type": "Health Related Request",
    "request_reason": "Homeless Encampment Complaint",
    "date_created": "2026-03-13T16:40:26.000",
    "date_modified": "2026-03-13T16:40:28.000",
    "request_status": "Pending",
    "responsible_agency": "Office Of Homeless Services And Strategy",
    "final_address": "1439 N Robertson St",
    "address_councildis": "C",
    "status": "Pending",
    "rowid": "1265491",
    "final_x": "3681725.14613",
    "final_y": "536668.553095",
    "longitude": "-90.06717974885534",
    "latitude": "29.969645605068088",
    "geocoded_column": {
      "latitude": "29.969645605068088",
      "longitude": "-90.06717974885534"
    }
  },
  {
    "service_request": "2026-1265490",
    "request_type": "Trash/Recycling",
    "request_reason": "Replace Trash Cart",
    "date_created": "2026-03-13T16:37:17.000",
    "date_modified": "2026-03-13T16:37:18.000",
    "request_status": "Pending",
    "responsible_agency": "Department of Sanitation",
    "final_address": "1527 Fourth St",
    "address_councildis": "B",
    "status": "Assigned to Contractor",
    "contractor": "IV Waste",
    "rowid": "1265490",
    "final_x": "3676418.96494",
    "final_y": "522460.64761",
    "longitude": "-90.0844262072421",
    "latitude": "29.930738749683073",
    "geocoded_column": {
      "latitude": "29.930738749683073",
      "longitude": "-90.0844262072421"
    }
  },
  {
    "service_request": "2026-1265489",
    "request_type": "Trash/Recycling",
    "request_reason": "Repair Trash Cart",
    "date_created": "2026-03-13T16:35:16.000",
    "date_modified": "2026-03-13T16:35:17.000",
    "request_status": "Pending",
    "responsible_agency": "Department of Sanitation",
    "final_address": "4626 Western St",
    "address_councildis": "D",
    "status": "Assigned to Contractor",
    "contractor": "IV Waste",
    "rowid": "1265489",
    "final_x": "3684109.96444",
    "final_y": "549779.290388",
    "longitude": "-90.05918788384393",
    "latitude": "30.00562281558186",
    "geocoded_column": {
      "latitude": "30.00562281558186",
      "longitude": "-90.05918788384393"
    }
  },
  {
    "service_request": "2026-1265488",
    "request_type": "Trash/Recycling",
    "request_reason": "Repair Trash Cart",
    "date_created": "2026-03-13T16:34:05.000",
    "date_modified": "2026-03-13T16:34:07.000",
    "request_status": "Pending",
    "responsible_agency": "Department of Sanitation",
    "final_address": "4605 Elysian Fields Ave",
    "address_councildis": "D",
    "status": "Assigned to Contractor",
    "contractor": "IV Waste",
    "rowid": "1265488",
    "final_x": "3684062.78389",
    "final_y": "549631.04738",
    "longitude": "-90.0593421447946",
    "latitude": "30.005216643363028",
    "geocoded_column": {
      "latitude": "30.005216643363028",
      "longitude": "-90.0593421447946"
    }
  },
  {
    "service_request": "2026-1265487",
    "request_type": "Trash/Recycling",
    "request_reason": "Replace Trash Cart",
    "date_created": "2026-03-13T16:31:13.000",
    "date_modified": "2026-03-13T16:31:15.000",
    "request_status": "Pending",
    "responsible_agency": "Department of Sanitation",
    "final_address": "1705 S White St Apt C",
    "address_councildis": "B",
    "status": "Assigned to Contractor",
    "contractor": "IV Waste",
    "rowid": "1265487",
    "final_x": "3670962.64071",
    "final_y": "529906.837121",
    "longitude": "-90.10139835566282",
    "latitude": "29.95137574946864",
    "geocoded_column": {
      "latitude": "29.95137574946864",
      "longitude": "-90.10139835566282"
    }
  },
  {
    "service_request": "2026-1265486",
    "request_type": "Health Related Request",
    "request_reason": "Noise Ordinance Complaint",
    "date_created": "2026-03-13T16:30:11.000",
    "date_modified": "2026-03-13T16:30:13.000",
    "request_status": "Pending",
    "responsible_agency": "Health Department",
    "final_address": "5130 Arts St, New Orleans, Louisiana, 70122",
    "address_councildis": "D",
    "status": "Pending",
    "rowid": "1265486",
    "final_x": "3685736.10473",
    "final_y": "551777.650581",
    "longitude": "-90.05398005928335",
    "latitude": "30.011067758595686",
    "geocoded_column": {
      "latitude": "30.011067758595686",
      "longitude": "-90.05398005928335"
    }
  },
  {
    "service_request": "2026-1265485",
    "request_type": "Abandoned Vehicles",
    "request_reason": "Abandoned/Junk Vehicles",
    "date_created": "2026-03-13T16:29:10.000",
    "date_modified": "2026-03-13T16:29:13.000",
    "request_status": "Pending",
    "responsible_agency": "Department of Public Works",
    "final_address": "438 S Telemachus St",
    "address_councildis": "B",
    "status": "Pending",
    "rowid": "1265485",
    "final_x": "3671430.21422",
    "final_y": "536134.036231",
    "longitude": "-90.09971029651342",
    "latitude": "29.968484645624464",
    "geocoded_column": {
      "latitude": "29.968484645624464",
      "longitude": "-90.09971029651342"
    }
  },
  {
    "service_request": "2026-1265484",
    "request_type": "Trash/Recycling",
    "request_reason": "Repair Trash Cart",
    "date_created": "2026-03-13T16:27:34.000",
    "date_modified": "2026-03-13T16:27:36.000",
    "request_status": "Pending",
    "responsible_agency": "Department of Sanitation",
    "final_address": "726 Frenchmen St",
    "address_councildis": "C",
    "status": "Assigned to Contractor",
    "contractor": "IV Waste",
    "rowid": "1265484",
    "final_x": "3684659.78793",
    "final_y": "535055.56871",
    "longitude": "-90.0579686056295",
    "latitude": "29.965120965039638",
    "geocoded_column": {
      "latitude": "29.965120965039638",
      "longitude": "-90.0579686056295"
    }
  },
  {
    "service_request": "2026-1265483",
    "request_type": "Traffic Signals",
    "request_reason": "Traffic Signal Malfunctioning or Damaged",
    "date_created": "2026-03-13T16:26:20.000",
    "date_modified": "2026-03-13T16:26:22.000",
    "request_status": "Pending",
    "responsible_agency": "Department of Public Works",
    "final_address": "ELYSIAN FIELDS AVE & BENEFIT ST & I 610 E ONRAMP",
    "address_councildis": "D",
    "status": "Pending",
    "rowid": "1265483",
    "final_x": "3684413.4",
    "final_y": "544425.08",
    "longitude": "-90.05841746956946",
    "latitude": "29.990891376406932",
    "geocoded_column": {
      "latitude": "29.990891376406932",
      "longitude": "-90.05841746956946"
    }
  },
  {
    "service_request": "2026-1265482",
    "request_type": "Drainage",
    "request_reason": "Catch Basin Frame and Cover Missing or Damaged",
    "date_created": "2026-03-13T16:26:14.000",
    "date_modified": "2026-03-13T16:26:17.000",
    "request_status": "Pending",
    "responsible_agency": "Sewerage & Water Board",
    "final_address": "6368 Argonne Blvd",
    "address_councildis": "A",
    "status": "Pending",
    "rowid": "1265482",
    "final_x": "3670302.6411",
    "final_y": "549692.325012",
    "longitude": "-90.10281141736444",
    "latitude": "30.005798628341264",
    "geocoded_column": {
      "latitude": "30.005798628341264",
      "longitude": "-90.10281141736444"
    }
  },
  {
    "service_request": "2026-1265481",
    "request_type": "Drainage",
    "request_reason": "Ditch and Culvert Maintenance",
    "date_created": "2026-03-13T16:23:01.000",
    "date_modified": "2026-03-13T16:23:02.000",
    "request_status": "Pending",
    "responsible_agency": "Department of Public Works",
    "final_address": "2907 Baronne St",
    "address_councildis": "B",
    "status": "Pending",
    "rowid": "1265481",
    "final_x": "3675005.3732",
    "final_y": "522851.584763",
    "longitude": "-90.08887531601961",
    "latitude": "29.93185598961066",
    "geocoded_column": {
      "latitude": "29.93185598961066",
      "longitude": "-90.08887531601961"
    }
  },
  {
    "service_request": "2026-1265480",
    "request_type": "Abandoned Vehicles",
    "request_reason": "Abandoned/Junk Vehicles",
    "date_created": "2026-03-13T16:20:36.000",
    "date_modified": "2026-03-13T16:20:37.000",
    "request_status": "Pending",
    "responsible_agency": "Department of Public Works",
    "final_address": "1200 BLK S Saratoga St",
    "address_councildis": "B",
    "status": "Pending",
    "rowid": "1265480",
    "final_x": "3677966.25099",
    "final_y": "527248.10999",
    "longitude": "-90.07937625142209",
    "latitude": "29.943856231842375",
    "geocoded_column": {
      "latitude": "29.943856231842375",
      "longitude": "-90.07937625142209"
    }
  },
  {
    "service_request": "2026-1265479",
    "request_type": "Trash/Recycling",
    "request_reason": "Request a Large Item Pick Up",
    "date_created": "2026-03-13T16:15:04.000",
    "date_modified": "2026-03-13T16:15:05.000",
    "request_status": "Pending",
    "responsible_agency": "Department of Sanitation",
    "final_address": "1443 Filmore Ave",
    "address_councildis": "D",
    "status": "Assigned to Contractor",
    "contractor": "IV Waste",
    "rowid": "1265479",
    "final_x": "3677769.9933",
    "final_y": "551897.673302",
    "longitude": "-90.07914404630904",
    "latitude": "30.011639934165597",
    "geocoded_column": {
      "latitude": "30.011639934165597",
      "longitude": "-90.07914404630904"
    }
  },
  {
    "service_request": "2026-1265478",
    "request_type": "Abandoned Vehicles",
    "request_reason": "Abandoned/Junk Vehicles",
    "date_created": "2026-03-13T16:12:04.000",
    "date_modified": "2026-03-13T16:12:06.000",
    "request_status": "Pending",
    "responsible_agency": "Department of Public Works",
    "final_address": "4900 BLK Robin Hood Dr",
    "address_councildis": "E",
    "status": "Pending",
    "rowid": "1265478",
    "final_x": "3717398.86766",
    "final_y": "557922.800281",
    "longitude": "-89.95371219177315",
    "latitude": "30.026954428403013",
    "geocoded_column": {
      "latitude": "30.026954428403013",
      "longitude": "-89.95371219177315"
    }
  },
  {
    "service_request": "2026-1265477",
    "request_type": "Trash/Recycling",
    "request_reason": "Order Trash Cart",
    "date_created": "2026-03-13T16:07:53.000",
    "date_modified": "2026-03-13T16:07:54.000",
    "request_status": "Pending",
    "responsible_agency": "Department of Sanitation",
    "final_address": "6231 Pasteur Blvd",
    "address_councildis": "D",
    "status": "Assigned to Contractor",
    "contractor": "IV Waste",
    "rowid": "1265477",
    "final_x": "3682792.37532",
    "final_y": "556115.190234",
    "longitude": "-90.06312855163038",
    "latitude": "30.02308445252008",
    "geocoded_column": {
      "latitude": "30.02308445252008",
      "longitude": "-90.06312855163038"
    }
  },
  {
    "service_request": "2026-1265476",
    "request_type": "Roads and Streets",
    "request_reason": "Pothole",
    "date_created": "2026-03-13T16:01:13.000",
    "date_modified": "2026-03-13T16:01:14.000",
    "request_status": "Pending",
    "responsible_agency": "Department of Public Works",
    "final_address": "1017 Decatur St",
    "address_councildis": "C",
    "status": "Pending",
    "rowid": "1265476",
    "final_x": "3683897.93839",
    "final_y": "533009.331588",
    "longitude": "-90.06044626448384",
    "latitude": "29.95951781054126",
    "geocoded_column": {
      "latitude": "29.95951781054126",
      "longitude": "-90.06044626448384"
    }
  },
  {
    "service_request": "2026-1265475",
    "request_type": "Trash/Recycling",
    "request_reason": "Request a Large Item Pick Up",
    "date_created": "2026-03-13T16:00:26.000",
    "date_modified": "2026-03-13T16:03:05.000",
    "request_status": "Pending",
    "responsible_agency": "Department of Sanitation",
    "final_address": "7020 Ridgefield Dr",
    "address_councildis": "E",
    "status": "Assigned to Contractor",
    "contractor": "Waste Pro",
    "rowid": "1265475",
    "final_x": "3719386.4389",
    "final_y": "569480.585574",
    "longitude": "-89.9469898723",
    "latitude": "30.05866765984254",
    "geocoded_column": {
      "latitude": "30.05866765984254",
      "longitude": "-89.9469898723"
    }
  },
  {
    "service_request": "2026-1265474",
    "request_type": "Abandoned Vehicles",
    "request_reason": "Abandoned/Junk Vehicles",
    "date_created": "2026-03-13T15:58:57.000",
    "date_modified": "2026-03-13T15:59:18.000",
    "request_status": "Pending",
    "responsible_agency": "Department of Public Works",
    "final_address": "5634 Congress Dr",
    "address_councildis": "D",
    "status": "Pending",
    "rowid": "1265474",
    "final_x": "3691340.53084",
    "final_y": "554656.170904",
    "longitude": "-90.03617055172509",
    "latitude": "30.01880937175444",
    "geocoded_column": {
      "latitude": "30.01880937175444",
      "longitude": "-90.03617055172509"
    }
  },
  {
    "service_request": "2026-1265473",
    "request_type": "Trash/Recycling",
    "request_reason": "Replace Trash Cart",
    "date_created": "2026-03-13T15:58:53.000",
    "date_modified": "2026-03-13T15:58:55.000",
    "request_status": "Pending",
    "responsible_agency": "Department of Sanitation",
    "final_address": "524 Burgundy St",
    "address_councildis": "C",
    "status": "Assigned to Contractor",
    "contractor": "IV Waste",
    "rowid": "1265473",
    "final_x": "3681395.27266",
    "final_y": "532641.538948",
    "longitude": "-90.06836191645236",
    "latitude": "29.958582713402624",
    "geocoded_column": {
      "latitude": "29.958582713402624",
      "longitude": "-90.06836191645236"
    }
  },
  {
    "service_request": "2026-1265472",
    "request_type": "Trash/Recycling",
    "request_reason": "Request a Large Item Pick Up",
    "date_created": "2026-03-13T15:58:26.000",
    "date_modified": "2026-03-13T15:58:28.000",
    "request_status": "Pending",
    "responsible_agency": "Department of Sanitation",
    "final_address": "6631 Morrison Rd",
    "address_councildis": "E",
    "status": "Assigned to Contractor",
    "contractor": "Waste Pro",
    "rowid": "1265472",
    "final_x": "3698116.08285",
    "final_y": "558584.11702",
    "longitude": "-90.01461950858598",
    "latitude": "30.0293970782149",
    "geocoded_column": {
      "latitude": "30.0293970782149",
      "longitude": "-90.01461950858598"
    }
  },
  {
    "service_request": "2026-1265471",
    "request_type": "Traffic Signals",
    "request_reason": "Traffic Signal Malfunctioning or Damaged",
    "date_created": "2026-03-13T15:58:05.000",
    "date_modified": "2026-03-13T15:58:06.000",
    "request_status": "Pending",
    "responsible_agency": "Department of Public Works",
    "final_address": "2008 Almonaster Ave",
    "address_councildis": "D",
    "status": "Pending",
    "rowid": "1265471",
    "final_x": "3687904.99971",
    "final_y": "539984.362827",
    "longitude": "-90.04754577587265",
    "latitude": "29.978573701664853",
    "geocoded_column": {
      "latitude": "29.978573701664853",
      "longitude": "-90.04754577587265"
    }
  },
  {
    "service_request": "2026-1265470",
    "request_type": "Trash/Recycling",
    "request_reason": "Order Second Trash Cart",
    "date_created": "2026-03-13T15:56:22.000",
    "date_modified": "2026-03-13T15:56:24.000",
    "request_status": "Pending",
    "responsible_agency": "Department of Sanitation",
    "final_address": "2815 Holiday Dr",
    "address_councildis": "C",
    "status": "Assigned to Contractor",
    "contractor": "Richards Disposal",
    "rowid": "1265470",
    "final_x": "3698705.58666",
    "final_y": "520892.921081",
    "longitude": "-90.01412793371172",
    "latitude": "29.925741297129846",
    "geocoded_column": {
      "latitude": "29.925741297129846",
      "longitude": "-90.01412793371172"
    }
  },
  {
    "service_request": "2026-1265469",
    "request_type": "Parks & Parkways",
    "request_reason": "Request Tree Service (Right of Way/Public Property)",
    "date_created": "2026-03-13T15:56:08.000",
    "date_modified": "2026-03-13T15:57:34.000",
    "request_status": "Pending",
    "responsible_agency": "Department of Parks & Parkway",
    "final_address": "4931 Montegut Dr",
    "address_councildis": "D",
    "status": "Pending",
    "rowid": "1265469",
    "final_x": "3689845.90332",
    "final_y": "551610.313301",
    "longitude": "-90.041001569822",
    "latitude": "30.01048083065592",
    "geocoded_column": {
      "latitude": "30.01048083065592",
      "longitude": "-90.041001569822"
    }
  },
  {
    "service_request": "2026-1265468",
    "request_type": "Trash/Recycling",
    "request_reason": "Request a Large Item Pick Up",
    "date_created": "2026-03-13T15:54:24.000",
    "date_modified": "2026-03-13T15:54:26.000",
    "request_status": "Pending",
    "responsible_agency": "Department of Sanitation",
    "final_address": "2815 Holiday Dr",
    "address_councildis": "C",
    "status": "Assigned to Contractor",
    "contractor": "Richards Disposal",
    "rowid": "1265468",
    "final_x": "3698705.58666",
    "final_y": "520892.921081",
    "longitude": "-90.01412793371172",
    "latitude": "29.925741297129846",
    "geocoded_column": {
      "latitude": "29.925741297129846",
      "longitude": "-90.01412793371172"
    }
  },
  {
    "service_request": "2026-1265467",
    "request_type": "Trash/Recycling",
    "request_reason": "Order Recycling Cart",
    "date_created": "2026-03-13T15:52:02.000",
    "date_modified": "2026-03-13T15:52:03.000",
    "request_status": "Pending",
    "responsible_agency": "Department of Sanitation",
    "final_address": "6243 St Anthony Ave",
    "address_councildis": "D",
    "status": "Pending",
    "rowid": "1265467",
    "final_x": "3681994.84213",
    "final_y": "556216.723482",
    "longitude": "-90.06564502948471",
    "latitude": "30.023387916881536",
    "geocoded_column": {
      "latitude": "30.023387916881536",
      "longitude": "-90.06564502948471"
    }
  },
  {
    "service_request": "2026-1265466",
    "request_type": "Trash/Recycling",
    "request_reason": "Missed Trash Pick-Up",
    "date_created": "2026-03-13T15:43:41.000",
    "date_modified": "2026-03-13T17:45:11.000",
    "case_close_date": "2026-03-13T12:45:10.000",
    "request_status": "Closed",
    "responsible_agency": "Department of Sanitation",
    "final_address": "425 Celeste St",
    "address_councildis": "B",
    "status": "Invalid Request",
    "contractor": "IV Waste",
    "contractor_action": "Invalid Request",
    "rowid": "1265466",
    "final_x": "3682253.27951",
    "final_y": "521476.733881",
    "longitude": "-90.06604248169063",
    "latitude": "29.927857167766927",
    "geocoded_column": {
      "latitude": "29.927857167766927",
      "longitude": "-90.06604248169063"
    }
  },
  {
    "service_request": "2026-1265465",
    "request_type": "Roads and Streets",
    "request_reason": "Pothole",
    "date_created": "2026-03-13T15:42:56.000",
    "date_modified": "2026-03-13T15:42:57.000",
    "request_status": "Pending",
    "responsible_agency": "Department of Public Works",
    "final_address": "8000 Reelfoot St",
    "address_councildis": "E",
    "status": "Pending",
    "rowid": "1265465",
    "final_x": "3716063.89388",
    "final_y": "571202.109736",
    "longitude": "-89.95742666649677",
    "latitude": "30.063511251119348",
    "geocoded_column": {
      "latitude": "30.063511251119348",
      "longitude": "-89.95742666649677"
    }
  },
  {
    "service_request": "2026-1265464",
    "request_type": "Road Striping",
    "request_reason": "Bike Lane",
    "date_created": "2026-03-13T15:41:24.000",
    "date_modified": "2026-03-13T15:41:26.000",
    "request_status": "Pending",
    "responsible_agency": "Department of Public Works",
    "final_address": "CITY PARK AVE & MARCONI DR",
    "address_councildis": "A",
    "status": "Pending",
    "rowid": "1265464",
    "final_x": "3670595.2",
    "final_y": "541788.38",
    "longitude": "-90.10215545455618",
    "latitude": "29.9840568710957",
    "geocoded_column": {
      "latitude": "29.9840568710957",
      "longitude": "-90.10215545455618"
    }
  },
  {
    "service_request": "2026-1265463",
    "request_type": "Trash/Recycling",
    "request_reason": "Order Second Trash Cart",
    "date_created": "2026-03-13T15:34:51.000",
    "date_modified": "2026-03-13T15:34:53.000",
    "request_status": "Pending",
    "responsible_agency": "Department of Sanitation",
    "final_address": "2227 Wirth Pl",
    "address_councildis": "A",
    "status": "Assigned to Contractor",
    "contractor": "IV Waste",
    "rowid": "1265463",
    "final_x": "3667133.38196",
    "final_y": "524406.960636",
    "longitude": "-90.11367416746769",
    "latitude": "29.93636551270894",
    "geocoded_column": {
      "latitude": "29.93636551270894",
      "longitude": "-90.11367416746769"
    }
  },
  {
    "service_request": "2026-1265462",
    "request_type": "Trash/Recycling",
    "request_reason": "Replace Trash Cart",
    "date_created": "2026-03-13T15:34:19.000",
    "date_modified": "2026-03-13T15:34:22.000",
    "request_status": "Pending",
    "responsible_agency": "Department of Sanitation",
    "final_address": "1915 Foucher St",
    "address_councildis": "B",
    "status": "Assigned to Contractor",
    "contractor": "IV Waste",
    "rowid": "1265462",
    "final_x": "3673127.79176",
    "final_y": "522465.463546",
    "longitude": "-90.09481582417777",
    "latitude": "29.93085021820251",
    "geocoded_column": {
      "latitude": "29.93085021820251",
      "longitude": "-90.09481582417777"
    }
  },
  {
    "service_request": "2026-1265461",
    "request_type": "Trash/Recycling",
    "request_reason": "Replace Trash Cart",
    "date_created": "2026-03-13T15:33:30.000",
    "date_modified": "2026-03-13T15:33:32.000",
    "request_status": "Pending",
    "responsible_agency": "Department of Sanitation",
    "final_address": "1915 Foucher St",
    "address_councildis": "B",
    "status": "Assigned to Contractor",
    "contractor": "IV Waste",
    "rowid": "1265461",
    "final_x": "3673127.79176",
    "final_y": "522465.463546",
    "longitude": "-90.09481582417777",
    "latitude": "29.93085021820251",
    "geocoded_column": {
      "latitude": "29.93085021820251",
      "longitude": "-90.09481582417777"
    }
  },
  {
    "service_request": "2026-1265460",
    "request_type": "Streetlights",
    "request_reason": "Streetlight Outage/Malfunction",
    "date_created": "2026-03-13T15:33:28.000",
    "date_modified": "2026-03-13T15:33:29.000",
    "request_status": "Pending",
    "responsible_agency": "Department of Public Works",
    "final_address": "ZIRCON ST & RING ST",
    "address_councildis": "D",
    "status": "Pending",
    "rowid": "1265460",
    "final_x": "3668865.9",
    "final_y": "554987.58",
    "longitude": "-90.10717141398291",
    "latitude": "30.02040106142563",
    "geocoded_column": {
      "latitude": "30.02040106142563",
      "longitude": "-90.10717141398291"
    }
  },
  {
    "service_request": "2026-1265459",
    "request_type": "Trash/Recycling",
    "request_reason": "Request a Large Item Pick Up",
    "date_created": "2026-03-13T15:32:36.000",
    "date_modified": "2026-03-13T15:32:38.000",
    "request_status": "Pending",
    "responsible_agency": "Department of Sanitation",
    "final_address": "1014 Jackson Ave",
    "address_councildis": "B",
    "status": "Assigned to Contractor",
    "contractor": "IV Waste",
    "rowid": "1265459",
    "final_x": "3678962.00904",
    "final_y": "521856.352186",
    "longitude": "-90.07641910664414",
    "latitude": "29.929000675093288",
    "geocoded_column": {
      "latitude": "29.929000675093288",
      "longitude": "-90.07641910664414"
    }
  },
  {
    "service_request": "2026-1265458",
    "request_type": "Trash/Recycling",
    "request_reason": "Repair Trash Cart",
    "date_created": "2026-03-13T15:32:16.000",
    "date_modified": "2026-03-13T15:32:20.000",
    "request_status": "Pending",
    "responsible_agency": "Department of Sanitation",
    "final_address": "2227 Wirth Pl",
    "address_councildis": "A",
    "status": "Assigned to Contractor",
    "contractor": "IV Waste",
    "rowid": "1265458",
    "final_x": "3667133.38196",
    "final_y": "524406.960636",
    "longitude": "-90.11367416746769",
    "latitude": "29.93636551270894",
    "geocoded_column": {
      "latitude": "29.93636551270894",
      "longitude": "-90.11367416746769"
    }
  },