[
  {
    "service_request": "2025-1220232",
    "request_type": "Trash/Recycling",
    "request_reason": "Request a Large Item Pick Up",
    "date_created": "2025-08-20T23:15:09.000",
    "date_modified": "2025-08-20T23:15:11.000",
    "request_status": "Pending",
    "responsible_agency": "Department of Sanitation",
    "final_address": "2102 Dublin St",
    "address_councildis": "A",
    "status": "Assigned to Contractor",
    "contractor": "IV Waste",
    "rowid": "1220232",
    "final_x": "3663838.35571",
    "final_y": "531015.046082",
    "longitude": "-90.12385652100544",
    "latitude": "29.95463165544035",
    "geocoded_column": {
      "latitude": "29.95463165544035",
      "longitude": "-90.12385652100544"
    }
  },
  {
    "service_request": "2025-1220231",
    "request_type": "Trash/Recycling",
    "request_reason": "Request a Large Item Pick Up",
    "date_created": "2025-08-20T22:42:29.000",
    "date_modified": "2025-08-20T22:42:31.000",
    "request_status": "Pending",
    "responsible_agency": "Department of Sanitation",
    "final_address": "2017 Josephine St",
    "address_councildis": "B",
    "status": "Assigned to Contractor",
    "contractor": "IV Waste",
    "rowid": "1220231",
    "final_x": "3676870.6324",
    "final_y": "525355.189501",
    "longitude": "-90.08290063937196",
    "latitude": "29.938684247863623",
    "geocoded_column": {
      "latitude": "29.938684247863623",
      "longitude": "-90.08290063937196"
    }
  },
  {
    "service_request": "2025-1220230",
    "request_type": "Abandoned Vehicles",
    "request_reason": "Abandoned/Junk Vehicles",
    "date_created": "2025-08-20T22:16:33.000",
    "date_modified": "2025-08-20T22:16:35.000",
    "request_status": "Pending",
    "responsible_agency": "Department of Public Works",
    "final_address": "2323 Toledano St",
    "address_councildis": "B",
    "status": "Pending",
    "rowid": "1220230",
    "final_x": "3673521.71105",
    "final_y": "524172.902972",
    "longitude": "-90.09351395152959",
    "latitude": "29.935533409746053",
    "geocoded_column": {
      "latitude": "29.935533409746053",
      "longitude": "-90.09351395152959"
    }
  },
  {
    "service_request": "2025-1220229",
    "request_type": "Utility Poles",
    "request_reason": "Wires Sagging/Hanging Low",
    "date_created": "2025-08-20T21:57:33.000",
    "date_modified": "2025-08-20T21:57:35.000",
    "request_status": "Pending",
    "responsible_agency": "Utility Company Collective",
    "final_address": "5800 BLK Fleur-de-lis Dr",
    "address_councildis": "A",
    "status": "Pending",
    "rowid": "1220229",
    "final_x": "3665179.97275",
    "final_y": "547290.268068",
    "longitude": "-90.11907560245355",
    "latitude": "29.999344069918497",
    "geocoded_column": {
      "latitude": "29.999344069918497",
      "longitude": "-90.11907560245355"
    }
  },
  {
    "service_request": "2025-1220228",
    "request_type": "Mosquito, Termite & Rodent Control",
    "request_reason": "Mosquito Complaint",
    "date_created": "2025-08-20T21:34:41.000",
    "date_modified": "2025-08-20T21:34:43.000",
    "request_status": "Pending",
    "responsible_agency": "Mosquito, Termite & Rodent Control Board",
    "final_address": "5400 BLK Garfield St",
    "address_councildis": "A",
    "status": "Pending",
    "rowid": "1220228",
    "final_x": "3667090.8295",
    "final_y": "521077.314917",
    "longitude": "-90.11392037520632",
    "latitude": "29.927211292506133",
    "geocoded_column": {
      "latitude": "29.927211292506133",
      "longitude": "-90.11392037520632"
    }
  },
  {
    "service_request": "2025-1220227",
    "request_type": "Utility Poles",
    "request_reason": "Utility Pole Leaning",
    "date_created": "2025-08-20T21:26:08.000",
    "date_modified": "2025-08-20T21:26:11.000",
    "request_status": "Pending",
    "responsible_agency": "Utility Company Collective",
    "final_address": "1135 Jourdan Ave",
    "address_councildis": "E",
    "status": "Pending",
    "rowid": "1220227",
    "final_x": "3695177.54378",
    "final_y": "534764.24007",
    "longitude": "-90.02476478632913",
    "latitude": "29.963993829783046",
    "geocoded_column": {
      "latitude": "29.963993829783046",
      "longitude": "-90.02476478632913"
    }
  },
  {
    "service_request": "2025-1220226",
    "request_type": "Drainage",
    "request_reason": "Catch Basin Frame and Cover Missing or Damaged",
    "date_created": "2025-08-20T21:23:10.000",
    "date_modified": "2025-08-20T21:23:13.000",
    "request_status": "Pending",
    "responsible_agency": "Sewerage & Water Board",
    "final_address": "3918 N Robertson St",
    "address_councildis": "D",
    "status": "Pending",
    "rowid": "1220226",
    "final_x": "3692009.05929",
    "final_y": "536784.625736",
    "longitude": "-90.03469822232366",
    "latitude": "29.969648293192893",
    "geocoded_column": {
      "latitude": "29.969648293192893",
      "longitude": "-90.03469822232366"
    }
  },
  {
    "service_request": "2025-1220225",
    "request_type": "Streetlights",
    "request_reason": "Streetlight Outage/Malfunction",
    "date_created": "2025-08-20T20:54:01.000",
    "date_modified": "2025-08-20T20:54:03.000",
    "request_status": "Pending",
    "responsible_agency": "Department of Public Works",
    "final_address": "141 Delaronde St",
    "address_councildis": "C",
    "status": "Pending",
    "contractor": "Legacy Professional Services",
    "rowid": "1220225",
    "final_x": "3685789.70166",
    "final_y": "530359.178818",
    "longitude": "-90.05456592229586",
    "latitude": "29.952172878829174",
    "geocoded_column": {
      "latitude": "29.952172878829174",
      "longitude": "-90.05456592229586"
    }
  },
  {
    "service_request": "2025-1220224",
    "request_type": "Roads and Streets",
    "request_reason": "Street Subsidence (Sinking)",
    "date_created": "2025-08-20T20:47:39.000",
    "date_modified": "2025-08-20T20:47:41.000",
    "request_status": "Pending",
    "responsible_agency": "Sewerage & Water Board",
    "final_address": "930 Vallette St",
    "address_councildis": "C",
    "status": "Pending",
    "rowid": "1220224",
    "final_x": "3687490.85084",
    "final_y": "528086.961023",
    "longitude": "-90.04927489860447",
    "latitude": "29.945872744343426",
    "geocoded_column": {
      "latitude": "29.945872744343426",
      "longitude": "-90.04927489860447"
    }
  },
  {
    "service_request": "2025-1220223",
    "request_type": "Streetlights",
    "request_reason": "Streetlight Outage/Malfunction",
    "date_created": "2025-08-20T20:43:01.000",
    "date_modified": "2025-08-20T20:43:02.000",
    "request_status": "Pending",
    "responsible_agency": "Department of Public Works",
    "final_address": "249 Broadway St",
    "address_councildis": "A",
    "status": "Pending",
    "contractor": "Legacy Professional Services",
    "rowid": "1220223",
    "final_x": "3661381.30848",
    "final_y": "522251.350906",
    "longitude": "-90.13190511396525",
    "latitude": "29.930605363184608",
    "geocoded_column": {
      "latitude": "29.930605363184608",
      "longitude": "-90.13190511396525"
    }
  },
  {
    "service_request": "2025-1220222",
    "request_type": "Street and Traffic Signs",
    "request_reason": "Street Name Sign Damaged or Missing",
    "date_created": "2025-08-20T20:21:42.000",
    "date_modified": "2025-08-20T20:21:45.000",
    "request_status": "Pending",
    "responsible_agency": "Department of Public Works",
    "final_address": "NAPOLEON AVE & S ROBERTSON ST",
    "address_councildis": "B",
    "status": "Pending",
    "rowid": "1220222",
    "final_x": "3670456.0",
    "final_y": "524384.78",
    "longitude": "-90.10318527126334",
    "latitude": "29.93620685803328",
    "geocoded_column": {
      "latitude": "29.93620685803328",
      "longitude": "-90.10318527126334"
    }
  },
  {
    "service_request": "2025-1220221",
    "request_type": "Trash/Recycling",
    "request_reason": "Request a Large Item Pick Up",
    "date_created": "2025-08-20T20:18:13.000",
    "date_modified": "2025-08-20T20:18:15.000",
    "request_status": "Pending",
    "responsible_agency": "Department of Sanitation",
    "final_address": "5028 E Lemans St",
    "address_councildis": "E",
    "status": "Assigned to Contractor",
    "contractor": "Waste Pro",
    "rowid": "1220221",
    "final_x": "3727241.69926",
    "final_y": "562810.264288",
    "longitude": "-89.92242011790297",
    "latitude": "30.040063409630758",
    "geocoded_column": {
      "latitude": "30.040063409630758",
      "longitude": "-89.92242011790297"
    }
  },
  {
    "service_request": "2025-1220220",
    "request_type": "Trash/Recycling",
    "request_reason": "Replace Trash Cart",
    "date_created": "2025-08-20T20:10:26.000",
    "date_modified": "2025-08-20T20:10:29.000",
    "request_status": "Pending",
    "responsible_agency": "Department of Sanitation",
    "final_address": "4439 Eden St",
    "address_councildis": "B",
    "status": "Assigned to Contractor",
    "contractor": "IV Waste",
    "rowid": "1220220",
    "final_x": "3669737.08852",
    "final_y": "530822.482818",
    "longitude": "-90.10523707225651",
    "latitude": "29.95392964822065",
    "geocoded_column": {
      "latitude": "29.95392964822065",
      "longitude": "-90.10523707225651"
    }
  },
  {
    "service_request": "2025-1220219",
    "request_type": "Trash/Recycling",
    "request_reason": "Request a Large Item Pick Up",
    "date_created": "2025-08-20T19:51:36.000",
    "date_modified": "2025-08-20T19:51:38.000",
    "request_status": "Pending",
    "responsible_agency": "Department of Sanitation",
    "final_address": "1012 Cambronne St",
    "address_councildis": "A",
    "status": "Assigned to Contractor",
    "contractor": "IV Waste",
    "rowid": "1220219",
    "final_x": "3660762.97542",
    "final_y": "528717.505024",
    "longitude": "-90.13364339045046",
    "latitude": "29.94840305505996",
    "geocoded_column": {
      "latitude": "29.94840305505996",
      "longitude": "-90.13364339045046"
    }
  },
  {
    "service_request": "2025-1220218",
    "request_type": "Parks & Parkways",
    "request_reason": "Park Maintenance/Clean Up",
    "date_created": "2025-08-20T19:49:24.000",
    "date_modified": "2025-08-20T19:49:26.000",
    "request_status": "Pending",
    "responsible_agency": "Department of Parks & Parkway",
    "final_address": "330 N Norman C Francis Prkwy",
    "address_councildis": "B",
    "status": "Pending",
    "rowid": "1220218",
    "final_x": "3673965.60225",
    "final_y": "537497.902664",
    "longitude": "-90.09165672531876",
    "latitude": "29.972159517587063",
    "geocoded_column": {
      "latitude": "29.972159517587063",
      "longitude": "-90.09165672531876"
    }
  },
  {
    "service_request": "2025-1220217",
    "request_type": "Trash/Recycling",
    "request_reason": "Missed Trash Pick-Up",
    "date_created": "2025-08-20T19:32:17.000",
    "date_modified": "2025-08-20T19:32:24.000",
    "request_status": "Pending",
    "responsible_agency": "Department of Sanitation",
    "final_address": "2502 Jasmine St",
    "address_councildis": "D",
    "status": "Assigned to Contractor",
    "contractor": "IV Waste",
    "rowid": "1220217",
    "final_x": "3686307.14607",
    "final_y": "547988.293074",
    "longitude": "-90.0523097607821",
    "latitude": "30.000630859396882",
    "geocoded_column": {
      "latitude": "30.000630859396882",
      "longitude": "-90.0523097607821"
    }
  },
  {
    "service_request": "2025-1220216",
    "request_type": "Abandoned Vehicles",
    "request_reason": "Abandoned/Junk Vehicles",
    "date_created": "2025-08-20T19:26:17.000",
    "date_modified": "2025-08-20T19:26:19.000",
    "request_status": "Pending",
    "responsible_agency": "Department of Public Works",
    "final_address": "501 S Scott St",
    "address_councildis": "B",
    "status": "Pending",
    "rowid": "1220216",
    "final_x": "3670740.66228",
    "final_y": "536553.269127",
    "longitude": "-90.10187371329756",
    "latitude": "29.969657790307764",
    "geocoded_column": {
      "latitude": "29.969657790307764",
      "longitude": "-90.10187371329756"
    }
  },
  {
    "service_request": "2025-1220215",
    "request_type": "Roads and Streets",
    "request_reason": "Street Subsidence (Sinking)",
    "date_created": "2025-08-20T19:20:15.000",
    "date_modified": "2025-08-20T19:20:18.000",
    "request_status": "Pending",
    "responsible_agency": "Sewerage & Water Board",
    "final_address": "1114 General Pershing St",
    "address_councildis": "B",
    "status": "Pending",
    "rowid": "1220215",
    "final_x": "3671282.0059",
    "final_y": "519690.239352",
    "longitude": "-90.10073696943361",
    "latitude": "29.923273969038448",
    "geocoded_column": {
      "latitude": "29.923273969038448",
      "longitude": "-90.10073696943361"
    }
  },
  {
    "service_request": "2025-1220214",
    "request_type": "Trash/Recycling",
    "request_reason": "Replace Trash Cart",
    "date_created": "2025-08-20T19:03:39.000",
    "date_modified": "2025-08-20T19:03:41.000",
    "request_status": "Pending",
    "responsible_agency": "Department of Sanitation",
    "final_address": "1817 Leonidas St",
    "address_councildis": "A",
    "status": "Assigned to Contractor",
    "contractor": "IV Waste",
    "rowid": "1220214",
    "final_x": "3662200.59527",
    "final_y": "531213.922818",
    "longitude": "-90.12902135976364",
    "latitude": "29.95522593453805",
    "geocoded_column": {
      "latitude": "29.95522593453805",
      "longitude": "-90.12902135976364"
    }
  },
  {
    "service_request": "2025-1220213",
    "request_type": "General Services",
    "request_reason": "General Service Request",
    "date_created": "2025-08-20T18:46:11.000",
    "date_modified": "2025-08-20T18:46:13.000",
    "request_status": "Pending",
    "responsible_agency": "Orleans Parish Communication District",
    "final_address": "3105 N Derbigny St",
    "address_councildis": "D",
    "status": "Pending",
    "rowid": "1220213",
    "final_x": "3689685.01001",
    "final_y": "538257.657097",
    "longitude": "-90.04198532332792",
    "latitude": "29.973770830407883",
    "geocoded_column": {
      "latitude": "29.973770830407883",
      "longitude": "-90.04198532332792"
    }
  },
  {
    "service_request": "2025-1220212",
    "request_type": "Property Maintenance",
    "request_reason": "Property Maintenance",
    "date_created": "2025-08-20T18:41:09.000",
    "date_modified": "2025-08-20T18:41:11.000",
    "request_status": "Pending",
    "responsible_agency": "Department of Code Enforcement",
    "final_address": "3105 N Derbigny St",
    "address_councildis": "D",
    "status": "Pending",
    "rowid": "1220212",
    "final_x": "3689685.01001",
    "final_y": "538257.657097",
    "longitude": "-90.04198532332792",
    "latitude": "29.973770830407883",
    "geocoded_column": {
      "latitude": "29.973770830407883",
      "longitude": "-90.04198532332792"
    }
  },
  {
    "service_request": "2025-1220211",
    "request_type": "Trash/Recycling",
    "request_reason": "Request a Large Item Pick Up",
    "date_created": "2025-08-20T18:34:24.000",
    "date_modified": "2025-08-20T18:34:26.000",
    "request_status": "Pending",
    "responsible_agency": "Department of Sanitation",
    "final_address": "512 S Norman C Francis Prkwy",
    "address_councildis": "B",
    "status": "Assigned to Contractor",
    "contractor": "IV Waste",
    "rowid": "1220211",
    "final_x": "3672268.83463",
    "final_y": "535259.591814",
    "longitude": "-90.09709167916026",
    "latitude": "29.966055364882106",
    "geocoded_column": {
      "latitude": "29.966055364882106",
      "longitude": "-90.09709167916026"
    }
  },
  {
    "service_request": "2025-1220210",
    "request_type": "Streetlights",
    "request_reason": "Streetlight Outage/Malfunction",
    "date_created": "2025-08-20T18:23:51.000",
    "date_modified": "2025-08-20T18:23:53.000",
    "request_status": "Pending",
    "responsible_agency": "Department of Public Works",
    "final_address": "1728 Cadiz St",
    "address_councildis": "B",
    "status": "Pending",
    "contractor": "Legacy Professional Services",
    "rowid": "1220210",
    "final_x": "3670001.07642",
    "final_y": "521416.817273",
    "longitude": "-90.1047219505108",
    "latitude": "29.9280593343399",
    "geocoded_column": {
      "latitude": "29.9280593343399",
      "longitude": "-90.1047219505108"
    }
  },
  {
    "service_request": "2025-1220209",
    "request_type": "Abandoned Vehicles",
    "request_reason": "Abandoned/Junk Vehicles",
    "date_created": "2025-08-20T18:11:32.000",
    "date_modified": "2025-08-20T18:11:35.000",
    "request_status": "Pending",
    "responsible_agency": "Department of Public Works",
    "final_address": "2519 Freret St",
    "address_councildis": "B",
    "status": "Pending",
    "rowid": "1220209",
    "final_x": "3674723.64558",
    "final_y": "525727.101437",
    "longitude": "-90.08966617377834",
    "latitude": "29.939771133098343",
    "geocoded_column": {
      "latitude": "29.939771133098343",
      "longitude": "-90.08966617377834"
    }
  },
  {
    "service_request": "2025-1220208",
    "request_type": "Abandoned Vehicles",
    "request_reason": "Abandoned/Junk Vehicles",
    "date_created": "2025-08-20T18:10:09.000",
    "date_modified": "2025-08-20T18:10:11.000",
    "request_status": "Pending",
    "responsible_agency": "Department of Public Works",
    "final_address": "2815 Freret St",
    "address_councildis": "B",
    "status": "Pending",
    "rowid": "1220208",
    "final_x": "3673871.98433",
    "final_y": "525193.208573",
    "longitude": "-90.09237324898098",
    "latitude": "29.938328491790315",
    "geocoded_column": {
      "latitude": "29.938328491790315",
      "longitude": "-90.09237324898098"
    }
  },
  {
    "service_request": "2025-1220207",
    "request_type": "Healthy Homes",
    "request_reason": "Healthy Homes",
    "date_created": "2025-08-20T17:48:37.000",
    "date_modified": "2025-08-20T17:48:39.000",
    "request_status": "Pending",
    "responsible_agency": "Department of Code Enforcement",
    "final_address": "2422 Magazine St",
    "address_councildis": "B",
    "status": "Pending",
    "rowid": "1220207",
    "final_x": "3677930.6877",
    "final_y": "521344.306361",
    "longitude": "-90.0796924699632",
    "latitude": "29.927623782603124",
    "geocoded_column": {
      "latitude": "29.927623782603124",
      "longitude": "-90.0796924699632"
    }
  },
  {
    "service_request": "2025-1220206",
    "request_type": "Trash/Recycling",
    "request_reason": "Replace Trash Cart",
    "date_created": "2025-08-20T17:44:04.000",
    "date_modified": "2025-08-20T17:44:07.000",
    "request_status": "Pending",
    "responsible_agency": "Department of Sanitation",
    "final_address": "631 Broadway St",
    "address_councildis": "A",
    "status": "Assigned to Contractor",
    "contractor": "IV Waste",
    "rowid": "1220206",
    "final_x": "3663189.55655",
    "final_y": "524927.238972",
    "longitude": "-90.12610771497562",
    "latitude": "29.93791095243781",
    "geocoded_column": {
      "latitude": "29.93791095243781",
      "longitude": "-90.12610771497562"
    }
  },
  {
    "service_request": "2025-1220205",
    "request_type": "Parks & Parkways",
    "request_reason": "Request Tree Service (Right of Way/Public Property)",
    "date_created": "2025-08-20T17:38:50.000",
    "date_modified": "2025-08-20T17:38:51.000",
    "request_status": "Pending",
    "responsible_agency": "Department of Parks & Parkway",
    "final_address": "2524 Magazine St",
    "address_councildis": "B",
    "status": "Pending",
    "rowid": "1220205",
    "final_x": "3677664.61947",
    "final_y": "521152.921401",
    "longitude": "-90.08053898892129",
    "latitude": "29.927105537862456",
    "geocoded_column": {
      "latitude": "29.927105537862456",
      "longitude": "-90.08053898892129"
    }
  },
  {
    "service_request": "2025-1220204",
    "request_type": "General Services",
    "request_reason": "General Service Request",
    "date_created": "2025-08-20T17:38:40.000",
    "date_modified": "2025-08-20T17:38:43.000",
    "request_status": "Pending",
    "responsible_agency": "Orleans Parish Communication District",
    "final_address": "5000 Congress Dr",
    "address_councildis": "D",
    "status": "Pending",
    "rowid": "1220204",
    "final_x": "3691933.85149",
    "final_y": "552713.046102",
    "longitude": "-90.03436547727122",
    "latitude": "30.013448020813893",
    "geocoded_column": {
      "latitude": "30.013448020813893",
      "longitude": "-90.03436547727122"
    }
  },
  {
    "service_request": "2025-1220203",
    "request_type": "Trash/Recycling",
    "request_reason": "Replace Trash Cart",
    "date_created": "2025-08-20T17:32:16.000",
    "date_modified": "2025-08-20T17:32:18.000",
    "request_status": "Pending",
    "responsible_agency": "Department of Sanitation",
    "final_address": "635 Hendee St",
    "address_councildis": "C",
    "status": "Assigned to Contractor",
    "contractor": "Richards Disposal",
    "rowid": "1220203",
    "final_x": "3690813.75369",
    "final_y": "529078.64288",
    "longitude": "-90.03874804182472",
    "latitude": "29.9484967201553",
    "geocoded_column": {
      "latitude": "29.9484967201553",
      "longitude": "-90.03874804182472"
    }
  },
  {
    "service_request": "2025-1220202",
    "request_type": "Trash/Recycling",
    "request_reason": "Replace Trash Cart",
    "date_created": "2025-08-20T17:09:27.000",
    "date_modified": "2025-08-20T17:09:28.000",
    "request_status": "Pending",
    "responsible_agency": "Department of Sanitation",
    "final_address": "323 Verret St",
    "address_councildis": "C",
    "status": "Assigned to Contractor",
    "contractor": "Richards Disposal",
    "rowid": "1220202",
    "final_x": "3686854.46044",
    "final_y": "530548.304898",
    "longitude": "-90.05119723524413",
    "latitude": "29.952660194166253",
    "geocoded_column": {
      "latitude": "29.952660194166253",
      "longitude": "-90.05119723524413"
    }
  },
  {
    "service_request": "2025-1220201",
    "request_type": "Property Maintenance",
    "request_reason": "Property Maintenance",
    "date_created": "2025-08-20T17:07:56.000",
    "date_modified": "2025-08-20T17:07:58.000",
    "request_status": "Pending",
    "responsible_agency": "Department of Code Enforcement",
    "final_address": "1102 Valence St, New Orleans, Louisiana, 70115",
    "address_councildis": "B",
    "status": "Pending",
    "rowid": "1220201",
    "final_x": "3669814.65114",
    "final_y": "519454.991735",
    "longitude": "-90.10537682290095",
    "latitude": "29.922670433598512",
    "geocoded_column": {
      "latitude": "29.922670433598512",
      "longitude": "-90.10537682290095"
    }
  },
  {
    "service_request": "2025-1220200",
    "request_type": "Trash/Recycling",
    "request_reason": "Request a Large Item Pick Up",
    "date_created": "2025-08-20T16:57:06.000",
    "date_modified": "2025-08-20T16:57:08.000",
    "request_status": "Pending",
    "responsible_agency": "Department of Sanitation",
    "final_address": "4039 Baudin St",
    "address_councildis": "A",
    "status": "Assigned to Contractor",
    "contractor": "IV Waste",
    "rowid": "1220200",
    "final_x": "3670299.2553",
    "final_y": "536970.574856",
    "longitude": "-90.10325357135567",
    "latitude": "29.97081827774117",
    "geocoded_column": {
      "latitude": "29.97081827774117",
      "longitude": "-90.10325357135567"
    }
  },
  {
    "service_request": "2025-1220199",
    "request_type": "Trash/Recycling",
    "request_reason": "Request a Large Item Pick Up",
    "date_created": "2025-08-20T16:51:53.000",
    "date_modified": "2025-08-20T16:51:55.000",
    "request_status": "Pending",
    "responsible_agency": "Department of Sanitation",
    "final_address": "8021 Ebbtide Dr",
    "address_councildis": "E",
    "status": "Assigned to Contractor",
    "contractor": "Waste Pro",
    "rowid": "1220199",
    "final_x": "3701973.25482",
    "final_y": "562414.699103",
    "longitude": "-90.00229039913178",
    "latitude": "30.039807063648958",
    "geocoded_column": {
      "latitude": "30.039807063648958",
      "longitude": "-90.00229039913178"
    }
  },
  {
    "service_request": "2025-1220198",
    "request_type": "Street and Traffic Signs",
    "request_reason": "Stop Sign Missing or Damaged",
    "date_created": "2025-08-20T16:47:16.000",
    "date_modified": "2025-08-20T16:47:17.000",
    "request_status": "Pending",
    "responsible_agency": "Department of Public Works",
    "final_address": "EDINBURGH ST & SHORT ST",
    "address_councildis": "B",
    "status": "Pending",
    "rowid": "1220198",
    "final_x": "3667810.5",
    "final_y": "534126.98",
    "longitude": "-90.11120918103879",
    "latitude": "29.963072565320736",
    "geocoded_column": {
      "latitude": "29.963072565320736",
      "longitude": "-90.11120918103879"
    }
  },
  {
    "service_request": "2025-1220197",
    "request_type": "Trash/Recycling",
    "request_reason": "Order Recycling Cart",
    "date_created": "2025-08-20T16:47:05.000",
    "date_modified": "2025-08-20T16:47:06.000",
    "request_status": "Pending",
    "responsible_agency": "Department of Sanitation",
    "final_address": "4334 Canal St",
    "address_councildis": "A",
    "status": "Pending",
    "rowid": "1220197",
    "final_x": "3669995.23066",
    "final_y": "539039.98369",
    "longitude": "-90.10414361323797",
    "latitude": "29.976517425993556",
    "geocoded_column": {
      "latitude": "29.976517425993556",
      "longitude": "-90.10414361323797"
    }
  },
  {
    "service_request": "2025-1220196",
    "request_type": "Trash/Recycling",
    "request_reason": "Order Recycling Cart",
    "date_created": "2025-08-20T16:47:04.000",
    "date_modified": "2025-08-20T16:47:05.000",
    "request_status": "Pending",
    "responsible_agency": "Department of Sanitation",
    "final_address": "4334 Canal St",
    "address_councildis": "A",
    "status": "Pending",
    "rowid": "1220196",
    "final_x": "3669995.23066",
    "final_y": "539039.98369",
    "longitude": "-90.10414361323797",
    "latitude": "29.976517425993556",
    "geocoded_column": {
      "latitude": "29.976517425993556",
      "longitude": "-90.10414361323797"
    }
  },
  {
    "service_request": "2025-1220195",
    "request_type": "Property Maintenance",
    "request_reason": "Property Maintenance",
    "date_created": "2025-08-20T16:45:11.000",
    "date_modified": "2025-08-20T16:45:13.000",
    "request_status": "Pending",
    "responsible_agency": "Department of Code Enforcement",
    "final_address": "2418 St Thomas St",
    "address_councildis": "B",
    "status": "Pending",
    "rowid": "1220195",
    "final_x": "3678956.45826",
    "final_y": "519847.735736",
    "longitude": "-90.07650617913296",
    "latitude": "29.923477802307797",
    "geocoded_column": {
      "latitude": "29.923477802307797",
      "longitude": "-90.07650617913296"
    }
  },
  {
    "service_request": "2025-1220194",
    "request_type": "Healthy Homes",
    "request_reason": "Healthy Homes",
    "date_created": "2025-08-20T16:42:07.000",
    "date_modified": "2025-08-20T16:42:09.000",
    "request_status": "Pending",
    "responsible_agency": "Department of Code Enforcement",
    "final_address": "2255 St Charles Ave",
    "address_councildis": "B",
    "status": "Pending",
    "rowid": "1220194",
    "final_x": "3677200.66427",
    "final_y": "523482.232571",
    "longitude": "-90.08192327168032",
    "latitude": "29.93352432380894",
    "geocoded_column": {
      "latitude": "29.93352432380894",
      "longitude": "-90.08192327168032"
    }
  },
  {
    "service_request": "2025-1220193",
    "request_type": "Trash/Recycling",
    "request_reason": "Request a Large Item Pick Up",
    "date_created": "2025-08-20T16:39:24.000",
    "date_modified": "2025-08-20T16:39:26.000",
    "request_status": "Pending",
    "responsible_agency": "Department of Sanitation",
    "final_address": "3015 Nashville Ave",
    "address_councildis": "A",
    "status": "Assigned to Contractor",
    "contractor": "IV Waste",
    "rowid": "1220193",
    "final_x": "3667779.94356",
    "final_y": "526975.54547",
    "longitude": "-90.1115464771764",
    "latitude": "29.9434093546211",
    "geocoded_column": {
      "latitude": "29.9434093546211",
      "longitude": "-90.1115464771764"
    }
  },
  {
    "service_request": "2025-1220192",
    "request_type": "Trash/Recycling",
    "request_reason": "Repair Trash Cart",
    "date_created": "2025-08-20T16:36:53.000",
    "date_modified": "2025-08-20T16:36:55.000",
    "request_status": "Pending",
    "responsible_agency": "Department of Sanitation",
    "final_address": "1218 Kabel Dr",
    "address_councildis": "C",
    "status": "Assigned to Contractor",
    "contractor": "Richards Disposal",
    "rowid": "1220192",
    "final_x": "3700898.53706",
    "final_y": "523109.726459",
    "longitude": "-90.00712450368928",
    "latitude": "29.9317671413075",
    "geocoded_column": {
      "latitude": "29.9317671413075",
      "longitude": "-90.00712450368928"
    }
  },
  {
    "service_request": "2025-1220191",
    "request_type": "Utility Poles",
    "request_reason": "Wires Sagging/Hanging Low",
    "date_created": "2025-08-20T16:35:26.000",
    "date_modified": "2025-08-20T16:35:29.000",
    "request_status": "Pending",
    "responsible_agency": "Utility Company Collective",
    "final_address": "3601 Canal St",
    "address_councildis": "B",
    "status": "Pending",
    "rowid": "1220191",
    "final_x": "3672619.87419",
    "final_y": "537298.879816",
    "longitude": "-90.09591355584773",
    "latitude": "29.971652301208948",
    "geocoded_column": {
      "latitude": "29.971652301208948",
      "longitude": "-90.09591355584773"
    }
  },
  {
    "service_request": "2025-1220190",
    "request_type": "Trash/Recycling",
    "request_reason": "Return Trash Cart",
    "date_created": "2025-08-20T16:30:34.000",
    "date_modified": "2025-08-20T16:30:36.000",
    "request_status": "Pending",
    "responsible_agency": "Department of Sanitation",
    "final_address": "821 Joseph St",
    "address_councildis": "A",
    "status": "Assigned to Contractor",
    "contractor": "IV Waste",
    "rowid": "1220190",
    "final_x": "3666208.30004",
    "final_y": "519124.389111",
    "longitude": "-90.11677176057229",
    "latitude": "29.921867157203355",
    "geocoded_column": {
      "latitude": "29.921867157203355",
      "longitude": "-90.11677176057229"
    }
  },
  {
    "service_request": "2025-1220189",
    "request_type": "Trash/Recycling",
    "request_reason": "Request a Large Item Pick Up",
    "date_created": "2025-08-20T16:22:33.000",
    "date_modified": "2025-08-20T16:22:35.000",
    "request_status": "Pending",
    "responsible_agency": "Department of Sanitation",
    "final_address": "906 Pontalba St",
    "address_councildis": "A",
    "status": "Assigned to Contractor",
    "contractor": "IV Waste",
    "rowid": "1220189",
    "final_x": "3669630.31668",
    "final_y": "544268.869135",
    "longitude": "-90.10511910979578",
    "latitude": "29.99090583950958",
    "geocoded_column": {
      "latitude": "29.99090583950958",
      "longitude": "-90.10511910979578"
    }
  },
  {
    "service_request": "2025-1220188",
    "request_type": "Safety & Permits",
    "request_reason": "Licenses & Permits",
    "date_created": "2025-08-20T16:22:12.000",
    "date_modified": "2025-08-20T16:24:07.000",
    "request_status": "Pending",
    "responsible_agency": "Safety and Permits",
    "final_address": "1102 Valence St, New Orleans, Louisiana, 70115",
    "address_councildis": "B",
    "status": "Pending",
    "rowid": "1220188",
    "final_x": "3669814.65114",
    "final_y": "519454.991735",
    "longitude": "-90.10537682290095",
    "latitude": "29.922670433598512",
    "geocoded_column": {
      "latitude": "29.922670433598512",
      "longitude": "-90.10537682290095"
    }
  },
  {
    "service_request": "2025-1220187",
    "request_type": "Trash/Recycling",
    "request_reason": "Request a Large Item Pick Up",
    "date_created": "2025-08-20T16:18:24.000",
    "date_modified": "2025-08-20T16:18:26.000",
    "request_status": "Pending",
    "responsible_agency": "Department of Sanitation",
    "final_address": "4445 Francis Dr",
    "address_councildis": "D",
    "status": "Assigned to Contractor",
    "contractor": "Waste Pro",
    "rowid": "1220187",
    "final_x": "3698419.12784",
    "final_y": "552824.68943",
    "longitude": "-90.01387147126064",
    "latitude": "30.01355125161621",
    "geocoded_column": {
      "latitude": "30.01355125161621",
      "longitude": "-90.01387147126064"
    }
  },
  {
    "service_request": "2025-1220186",
    "request_type": "Trash/Recycling",
    "request_reason": "Request a Large Item Pick Up",
    "date_created": "2025-08-20T16:11:21.000",
    "date_modified": "2025-08-20T16:11:25.000",
    "request_status": "Pending",
    "responsible_agency": "Department of Sanitation",
    "final_address": "5411 Royal St",
    "address_councildis": "E",
    "status": "Assigned to Contractor",
    "contractor": "Waste Pro",
    "rowid": "1220186",
    "final_x": "3696897.33898",
    "final_y": "532498.415428",
    "longitude": "-90.01941590777422",
    "latitude": "29.957709498503405",
    "geocoded_column": {
      "latitude": "29.957709498503405",
      "longitude": "-90.01941590777422"
    }
  },
  {
    "service_request": "2025-1220185",
    "request_type": "Property Maintenance",
    "request_reason": "Property Maintenance",
    "date_created": "2025-08-20T16:09:20.000",
    "date_modified": "2025-08-20T16:09:21.000",
    "request_status": "Pending",
    "responsible_agency": "Department of Code Enforcement",
    "final_address": "4118 N Roman St",
    "address_councildis": "D",
    "status": "Pending",
    "rowid": "1220185",
    "final_x": "3692951.8223",
    "final_y": "537764.63604",
    "longitude": "-90.03168574865765",
    "latitude": "29.972313560670244",
    "geocoded_column": {
      "latitude": "29.972313560670244",
      "longitude": "-90.03168574865765"
    }
  },
  {
    "service_request": "2025-1220184",
    "request_type": "Alley Ways",
    "request_reason": "Alley Way Issues",
    "date_created": "2025-08-20T16:08:12.000",
    "date_modified": "2025-08-20T16:08:14.000",
    "request_status": "Pending",
    "responsible_agency": "Department of Public Works",
    "final_address": "6464 Canal Blvd",
    "address_councildis": "A",
    "status": "Pending",
    "rowid": "1220184",
    "final_x": "3668612.18145",
    "final_y": "550567.877716",
    "longitude": "-90.10812241228263",
    "latitude": "30.00825590088546",
    "geocoded_column": {
      "latitude": "30.00825590088546",
      "longitude": "-90.10812241228263"
    }
  },
  {
    "service_request": "2025-1220183",
    "request_type": "Trash/Recycling",
    "request_reason": "Request a Large Item Pick Up",
    "date_created": "2025-08-20T16:07:33.000",
    "date_modified": "2025-08-20T16:07:35.000",
    "request_status": "Pending",
    "responsible_agency": "Department of Sanitation",
    "final_address": "11037 Chaucer St",
    "address_councildis": "E",
    "status": "Assigned to Contractor",
    "contractor": "Waste Pro",
    "rowid": "1220183",
    "final_x": "3713296.1267",
    "final_y": "562336.906463",
    "longitude": "-89.96650993282734",
    "latitude": "30.03922664659764",
    "geocoded_column": {
      "latitude": "30.03922664659764",
      "longitude": "-89.96650993282734"
    }
  },
  {
    "service_request": "2025-1220182",
    "request_type": "Abandoned Vehicles",
    "request_reason": "Abandoned/Junk Vehicles",
    "date_created": "2025-08-20T16:06:16.000",
    "date_modified": "2025-08-20T16:06:18.000",
    "request_status": "Pending",
    "responsible_agency": "Department of Public Works",
    "final_address": "3526 Paris Ave",
    "address_councildis": "D",
    "status": "Pending",
    "rowid": "1220182",
    "final_x": "3679619.01378",
    "final_y": "545353.48008",
    "longitude": "-90.07352954169245",
    "latitude": "29.993589957324513",
    "geocoded_column": {
      "latitude": "29.993589957324513",
      "longitude": "-90.07352954169245"
    }
  },
  {
    "service_request": "2025-1220181",
    "request_type": "Mosquito, Termite & Rodent Control",
    "request_reason": "Mosquito Complaint",
    "date_created": "2025-08-20T16:06:15.000",
    "date_modified": "2025-08-20T16:06:16.000",
    "request_status": "Pending",
    "responsible_agency": "Mosquito, Termite & Rodent Control Board",
    "final_address": "4118 N Roman St",
    "address_councildis": "D",
    "status": "Pending",
    "rowid": "1220181",
    "final_x": "3692951.8223",
    "final_y": "537764.63604",
    "longitude": "-90.03168574865765",
    "latitude": "29.972313560670244",
    "geocoded_column": {
      "latitude": "29.972313560670244",
      "longitude": "-90.03168574865765"
    }
  },
  {
    "service_request": "2025-1220180",
    "request_type": "Abandoned Vehicles",
    "request_reason": "Abandoned/Junk Vehicles",
    "date_created": "2025-08-20T16:03:01.000",
    "date_modified": "2025-08-20T16:03:03.000",
    "request_status": "Pending",
    "responsible_agency": "Department of Public Works",
    "final_address": "5160 Lakeview Ct",
    "address_councildis": "E",
    "status": "Pending",
    "rowid": "1220180",
    "final_x": "3698841.1281",
    "final_y": "556464.555546",
    "longitude": "-90.01240560599653",
    "latitude": "30.023546132743174",
    "geocoded_column": {
      "latitude": "30.023546132743174",
      "longitude": "-90.01240560599653"
    }
  },
  {
    "service_request": "2025-1220179",
    "request_type": "Mosquito, Termite & Rodent Control",
    "request_reason": "Rodent Complaint (Mice & Rats)",
    "date_created": "2025-08-20T15:59:19.000",
    "date_modified": "2025-08-20T15:59:21.000",
    "request_status": "Pending",
    "responsible_agency": "Mosquito, Termite & Rodent Control Board",
    "final_address": "5160 Lakeview Ct",
    "address_councildis": "E",
    "status": "Pending",
    "rowid": "1220179",
    "final_x": "3698841.1281",
    "final_y": "556464.555546",
    "longitude": "-90.01240560599653",
    "latitude": "30.023546132743174",
    "geocoded_column": {
      "latitude": "30.023546132743174",
      "longitude": "-90.01240560599653"
    }
  },
  {
    "service_request": "2025-1220178",
    "request_type": "Trash/Recycling",
    "request_reason": "Request a Large Item Pick Up",
    "date_created": "2025-08-20T15:59:10.000",
    "date_modified": "2025-08-20T15:59:11.000",
    "request_status": "Pending",
    "responsible_agency": "Department of Sanitation",
    "final_address": "3620 Rue Michelle",
    "address_councildis": "C",
    "status": "Assigned to Contractor",
    "contractor": "Richards Disposal",
    "rowid": "1220178",
    "final_x": "3703665.22897",
    "final_y": "517254.779573",
    "longitude": "-89.99860573284646",
    "latitude": "29.9155797255192",
    "geocoded_column": {
      "latitude": "29.9155797255192",
      "longitude": "-89.99860573284646"
    }
  },
  {
    "service_request": "2025-1220177",
    "request_type": "Trash/Recycling",
    "request_reason": "Order Trash Cart",
    "date_created": "2025-08-20T15:59:06.000",
    "date_modified": "2025-08-20T15:59:07.000",
    "request_status": "Pending",
    "responsible_agency": "Department of Sanitation",
    "final_address": "2929 Calhoun St",
    "address_councildis": "A",
    "status": "Assigned to Contractor",
    "contractor": "IV Waste",
    "rowid": "1220177",
    "final_x": "3666827.17114",
    "final_y": "527407.906559",
    "longitude": "-90.11454011627265",
    "latitude": "29.944626108222664",
    "geocoded_column": {
      "latitude": "29.944626108222664",
      "longitude": "-90.11454011627265"
    }
  },
  {
    "service_request": "2025-1220176",
    "request_type": "Abandoned Vehicles",
    "request_reason": "Abandoned/Junk Vehicles",
    "date_created": "2025-08-20T15:58:48.000",
    "date_modified": "2025-08-20T15:58:51.000",
    "request_status": "Pending",
    "responsible_agency": "Department of Public Works",
    "final_address": "2812 Dryades St",
    "address_councildis": "B",
    "status": "Pending",
    "rowid": "1220176",
    "final_x": "3675293.99041",
    "final_y": "523249.282427",
    "longitude": "-90.08795053599121",
    "latitude": "29.932940906611137",
    "geocoded_column": {
      "latitude": "29.932940906611137",
      "longitude": "-90.08795053599121"
    }
  },
  {
    "service_request": "2025-1220175",
    "request_type": "Trash/Recycling",
    "request_reason": "Repair Trash Cart",
    "date_created": "2025-08-20T15:57:41.000",
    "date_modified": "2025-08-20T15:57:43.000",
    "request_status": "Pending",
    "responsible_agency": "Department of Sanitation",
    "final_address": "8230 Plum St",
    "address_councildis": "A",
    "status": "Assigned to Contractor",
    "contractor": "IV Waste",
    "rowid": "1220175",
    "final_x": "3661709.60461",
    "final_y": "529022.932288",
    "longitude": "-90.13064435123104",
    "latitude": "29.949215595793763",
    "geocoded_column": {
      "latitude": "29.949215595793763",
      "longitude": "-90.13064435123104"
    }
  },
  {
    "service_request": "2025-1220174",
    "request_type": "Streetlights",
    "request_reason": "Streetlight Outage/Malfunction",
    "date_created": "2025-08-20T15:53:14.000",
    "date_modified": "2025-08-20T15:53:15.000",
    "request_status": "Pending",
    "responsible_agency": "Department of Public Works",
    "final_address": "2672 Touro St",
    "address_councildis": "D",
    "status": "Pending",
    "contractor": "Legacy Professional Services",
    "rowid": "1220174",
    "final_x": "3683699.37577",
    "final_y": "542386.557453",
    "longitude": "-90.06074441267025",
    "latitude": "29.985307986227195",
    "geocoded_column": {
      "latitude": "29.985307986227195",
      "longitude": "-90.06074441267025"
    }
  },
  {
    "service_request": "2025-1220173",
    "request_type": "Trash/Recycling",
    "request_reason": "Request a Large Item Pick Up",
    "date_created": "2025-08-20T15:49:28.000",
    "date_modified": "2025-08-20T15:49:31.000",
    "request_status": "Pending",
    "responsible_agency": "Department of Sanitation",
    "final_address": "7645 Lady Gray St",
    "address_councildis": "E",
    "status": "Assigned to Contractor",
    "contractor": "Waste Pro",
    "rowid": "1220173",
    "final_x": "3709915.29905",
    "final_y": "565455.806178",
    "longitude": "-89.97707756417532",
    "latitude": "30.047912825179697",
    "geocoded_column": {
      "latitude": "30.047912825179697",
      "longitude": "-89.97707756417532"
    }
  },
  {
    "service_request": "2025-1220172",
    "request_type": "Trash/Recycling",
    "request_reason": "Request a Large Item Pick Up",
    "date_created": "2025-08-20T15:46:39.000",
    "date_modified": "2025-08-20T15:46:42.000",
    "request_status": "Pending",
    "responsible_agency": "Department of Sanitation",
    "final_address": "3696 Piedmont Dr",
    "address_councildis": "D",
    "status": "Assigned to Contractor",
    "contractor": "IV Waste",
    "rowid": "1220172",
    "final_x": "3685798.86908",
    "final_y": "546281.075664",
    "longitude": "-90.0539756559695",
    "latitude": "29.99595224074364",
    "geocoded_column": {
      "latitude": "29.99595224074364",
      "longitude": "-90.0539756559695"
    }
  },
  {
    "service_request": "2025-1220171",
    "request_type": "Property Maintenance",
    "request_reason": "Property Maintenance",
    "date_created": "2025-08-20T15:44:09.000",
    "date_modified": "2025-08-20T15:46:33.000",
    "request_status": "Pending",
    "responsible_agency": "Department of Code Enforcement",
    "final_address": "PRESSBURG ST & RAY AVE",
    "address_councildis": "E",
    "status": "Pending",
    "rowid": "1220171",
    "final_x": "3698709.9",
    "final_y": "555164.38",
    "longitude": "-90.01286760111047",
    "latitude": "30.01997530441961",
    "geocoded_column": {
      "latitude": "30.01997530441961",
      "longitude": "-90.01286760111047"
    }
  },
  {
    "service_request": "2025-1220170",
    "request_type": "Street and Traffic Signs",
    "request_reason": "Street Name Sign Damaged or Missing",
    "date_created": "2025-08-20T15:43:59.000",
    "date_modified": "2025-08-20T15:44:00.000",
    "request_status": "Pending",
    "responsible_agency": "Department of Public Works",
    "final_address": "7307 Heather Ct",
    "address_councildis": "E",
    "status": "Pending",
    "rowid": "1220170",
    "final_x": "3705728.78129",
    "final_y": "562054.222495",
    "longitude": "-89.99043522160335",
    "latitude": "30.038695407468538",
    "geocoded_column": {
      "latitude": "30.038695407468538",
      "longitude": "-89.99043522160335"
    }
  },
  {
    "service_request": "2025-1220169",
    "request_type": "Abandoned Vehicles",
    "request_reason": "Abandoned/Junk Vehicles",
    "date_created": "2025-08-20T15:42:22.000",
    "date_modified": "2025-08-20T15:42:25.000",
    "request_status": "Pending",
    "responsible_agency": "Department of Public Works",
    "final_address": "1412 Teche St",
    "address_councildis": "C",
    "status": "Pending",
    "rowid": "1220169",
    "final_x": "3686732.055",
    "final_y": "526258.087102",
    "longitude": "-90.05173525114571",
    "latitude": "29.94086732018288",
    "geocoded_column": {
      "latitude": "29.94086732018288",
      "longitude": "-90.05173525114571"
    }
  },
  {
    "service_request": "2025-1220168",
    "request_type": "Streetlights",
    "request_reason": "Streetlight Outage/Malfunction",
    "date_created": "2025-08-20T15:42:00.000",
    "date_modified": "2025-08-20T15:42:01.000",
    "request_status": "Pending",
    "responsible_agency": "Department of Public Works",
    "final_address": "2511 Danbury Dr",
    "address_councildis": "C",
    "status": "Pending",
    "contractor": "Legacy Professional Services",
    "rowid": "1220168",
    "final_x": "3703636.40887",
    "final_y": "521843.841914",
    "longitude": "-89.99852796411805",
    "latitude": "29.92819898355418",
    "geocoded_column": {
      "latitude": "29.92819898355418",
      "longitude": "-89.99852796411805"
    }
  },
  {
    "service_request": "2025-1220167",
    "request_type": "Trash/Recycling",
    "request_reason": "Order Recycling Cart",
    "date_created": "2025-08-20T15:41:07.000",
    "date_modified": "2025-08-20T15:41:10.000",
    "request_status": "Pending",
    "responsible_agency": "Department of Sanitation",
    "final_address": "5120 Prytania St",
    "address_councildis": "B",
    "status": "Pending",
    "rowid": "1220167",
    "final_x": "3668210.32404",
    "final_y": "520079.577912",
    "longitude": "-90.11042001915575",
    "latitude": "29.92443502573167",
    "geocoded_column": {
      "latitude": "29.92443502573167",
      "longitude": "-90.11042001915575"
    }
  },
  {
    "service_request": "2025-1220166",
    "request_type": "Abandoned Vehicles",
    "request_reason": "Abandoned/Junk Vehicles",
    "date_created": "2025-08-20T15:40:05.000",
    "date_modified": "2025-08-20T15:40:07.000",
    "request_status": "Pending",
    "responsible_agency": "Department of Public Works",
    "final_address": "13 Neron Pl",
    "address_councildis": "A",
    "status": "Pending",
    "rowid": "1220166",
    "final_x": "3664861.79975",
    "final_y": "531024.804546",
    "longitude": "-90.12062454135764",
    "latitude": "29.954628744175878",
    "geocoded_column": {
      "latitude": "29.954628744175878",
      "longitude": "-90.12062454135764"
    }
  },
  {
    "service_request": "2025-1220165",
    "request_type": "Trash/Recycling",
    "request_reason": "Request a Large Item Pick Up",
    "date_created": "2025-08-20T15:38:12.000",
    "date_modified": "2025-08-20T15:38:14.000",
    "request_status": "Pending",
    "responsible_agency": "Department of Sanitation",
    "final_address": "1713 Nie Prkwy",
    "address_councildis": "C",
    "status": "Assigned to Contractor",
    "contractor": "Richards Disposal",
    "rowid": "1220165",
    "final_x": "3701153.66615",
    "final_y": "524521.30662",
    "longitude": "-90.00626748509221",
    "latitude": "29.935640373910648",
    "geocoded_column": {
      "latitude": "29.935640373910648",
      "longitude": "-90.00626748509221"
    }
  },
  {
    "service_request": "2025-1220164",
    "request_type": "Trash/Recycling",
    "request_reason": "Repair Trash Cart",
    "date_created": "2025-08-20T15:32:38.000",
    "date_modified": "2025-08-20T15:32:40.000",
    "request_status": "Pending",
    "responsible_agency": "Department of Sanitation",
    "final_address": "10138 Dreux Ave",
    "address_councildis": "E",
    "status": "Assigned to Contractor",
    "contractor": "Waste Pro",
    "rowid": "1220164",
    "final_x": "3713163.64171",
    "final_y": "555852.795417",
    "longitude": "-89.96717293648076",
    "latitude": "30.021402264704168",
    "geocoded_column": {
      "latitude": "30.021402264704168",
      "longitude": "-89.96717293648076"
    }
  },
  {
    "service_request": "2025-1220163",
    "request_type": "Abandoned Vehicles",
    "request_reason": "Abandoned/Junk Vehicles",
    "date_created": "2025-08-20T15:24:28.000",
    "date_modified": "2025-08-20T15:24:29.000",
    "request_status": "Pending",
    "responsible_agency": "Department of Public Works",
    "final_address": "4901 Canal St",
    "address_councildis": "A",
    "status": "Pending",
    "rowid": "1220163",
    "final_x": "3668555.21844",
    "final_y": "540390.927307",
    "longitude": "-90.10864602281863",
    "latitude": "29.980274462116867",
    "geocoded_column": {
      "latitude": "29.980274462116867",
      "longitude": "-90.10864602281863"
    }
  },
  {
    "service_request": "2025-1220162",
    "request_type": "Trash/Recycling",
    "request_reason": "Order Recycling Cart",
    "date_created": "2025-08-20T15:22:28.000",
    "date_modified": "2025-08-20T15:22:30.000",
    "request_status": "Pending",
    "responsible_agency": "Department of Sanitation",
    "final_address": "7224 Pritchard Pl",
    "address_councildis": "B",
    "status": "Pending",
    "rowid": "1220162",
    "final_x": "3667355.00385",
    "final_y": "531663.069763",
    "longitude": "-90.11273047225399",
    "latitude": "29.95631097354193",
    "geocoded_column": {
      "latitude": "29.95631097354193",
      "longitude": "-90.11273047225399"
    }
  },
  {
    "service_request": "2025-1220161",
    "request_type": "Streetlights",
    "request_reason": "Streetlight Outage/Malfunction",
    "date_created": "2025-08-20T15:21:50.000",
    "date_modified": "2025-08-20T15:21:52.000",
    "request_status": "Pending",
    "responsible_agency": "Department of Public Works",
    "final_address": "1708 Flood St",
    "address_councildis": "E",
    "status": "Pending",
    "contractor": "Legacy Professional Services",
    "rowid": "1220161",
    "final_x": "3698288.96701",
    "final_y": "536179.590535",
    "longitude": "-90.01488782549322",
    "latitude": "29.96778746748099",
    "geocoded_column": {
      "latitude": "29.96778746748099",
      "longitude": "-90.01488782549322"
    }
  },
  {
    "service_request": "2025-1220160",
    "request_type": "Property Maintenance",
    "request_reason": "Property Maintenance",
    "date_created": "2025-08-20T15:19:59.000",
    "date_modified": "2025-08-20T15:20:01.000",
    "request_status": "Pending",
    "responsible_agency": "Department of Code Enforcement",
    "final_address": "10 N Oak Ridge Ct",
    "address_councildis": "E",
    "status": "Pending",
    "rowid": "1220160",
    "final_x": "3713239.94968",
    "final_y": "567810.373348",
    "longitude": "-89.96648112568366",
    "latitude": "30.05427830495093",
    "geocoded_column": {
      "latitude": "30.05427830495093",
      "longitude": "-89.96648112568366"
    }
  },
  {
    "service_request": "2025-1220159",
    "request_type": "Abandoned Vehicles",
    "request_reason": "Abandoned/Junk Vehicles",
    "date_created": "2025-08-20T15:19:21.000",
    "date_modified": "2025-08-20T15:19:23.000",
    "request_status": "Pending",
    "responsible_agency": "Department of Public Works",
    "final_address": "BULLARD AVE & S OAKRIDGE CT",
    "address_councildis": "E",
    "status": "Pending",
    "rowid": "1220159",
    "final_x": "3713188.4",
    "final_y": "567377.08",
    "longitude": "-89.96666039533747",
    "latitude": "30.053088615904297",
    "geocoded_column": {
      "latitude": "30.053088615904297",
      "longitude": "-89.96666039533747"
    }
  },
  {
    "service_request": "2025-1220158",
    "request_type": "Roads and Streets",
    "request_reason": "Street Subsidence (Sinking)",
    "date_created": "2025-08-20T15:18:22.000",
    "date_modified": "2025-08-20T15:18:23.000",
    "request_status": "Pending",
    "responsible_agency": "Sewerage & Water Board",
    "final_address": "6045 Pines Blvd",
    "address_councildis": "D",
    "status": "Pending",
    "rowid": "1220158",
    "final_x": "3696160.49968",
    "final_y": "556142.66857",
    "longitude": "-90.02088744651574",
    "latitude": "30.022745763298637",
    "geocoded_column": {
      "latitude": "30.022745763298637",
      "longitude": "-90.02088744651574"
    }
  },
  {
    "service_request": "2025-1220157",
    "request_type": "Property Maintenance",
    "request_reason": "Property Maintenance",
    "date_created": "2025-08-20T15:18:19.000",
    "date_modified": "2025-08-20T15:18:22.000",
    "request_status": "Pending",
    "responsible_agency": "Department of Code Enforcement",
    "final_address": "7 S Oak Ridge Ct",
    "address_councildis": "E",
    "status": "Pending",
    "rowid": "1220157",
    "final_x": "3713411.77343",
    "final_y": "567497.65098",
    "longitude": "-89.96594983193944",
    "latitude": "30.053412809365476",
    "geocoded_column": {
      "latitude": "30.053412809365476",
      "longitude": "-89.96594983193944"
    }
  },
  {
    "service_request": "2025-1220156",
    "request_type": "Abandoned Vehicles",
    "request_reason": "Abandoned/Junk Vehicles",
    "date_created": "2025-08-20T15:14:22.000",
    "date_modified": "2025-08-20T15:14:23.000",
    "request_status": "Pending",
    "responsible_agency": "Department of Public Works",
    "final_address": "4725 Crowder Blvd",
    "address_councildis": "E",
    "status": "Pending",
    "rowid": "1220156",
    "final_x": "3706512.90871",
    "final_y": "555631.709401",
    "longitude": "-89.98819545579224",
    "latitude": "30.021010719294235",
    "geocoded_column": {
      "latitude": "30.021010719294235",
      "longitude": "-89.98819545579224"
    }
  },
  {
    "service_request": "2025-1220155",
    "request_type": "Trash/Recycling",
    "request_reason": "Request a Large Item Pick Up",
    "date_created": "2025-08-20T15:14:09.000",
    "date_modified": "2025-08-20T15:14:11.000",
    "request_status": "Pending",
    "responsible_agency": "Department of Sanitation",
    "final_address": "5310 Venus St",
    "address_councildis": "D",
    "status": "Assigned to Contractor",
    "contractor": "IV Waste",
    "rowid": "1220155",
    "final_x": "3686333.4022",
    "final_y": "552269.49071",
    "longitude": "-90.05207558659006",
    "latitude": "30.012401788213705",
    "geocoded_column": {
      "latitude": "30.012401788213705",
      "longitude": "-90.05207558659006"
    }
  },
  {
    "service_request": "2025-1220154",
    "request_type": "Roads and Streets",
    "request_reason": "Street Subsidence (Sinking)",
    "date_created": "2025-08-20T15:13:02.000",
    "date_modified": "2025-08-20T15:13:04.000",
    "request_status": "Pending",
    "responsible_agency": "Sewerage & Water Board",
    "final_address": "400 Harrison Ave",
    "address_councildis": "A",
    "status": "Pending",
    "rowid": "1220154",
    "final_x": "3667636.16551",
    "final_y": "549245.662547",
    "longitude": "-90.11125051247275",
    "latitude": "30.00464892950619",
    "geocoded_column": {
      "latitude": "30.00464892950619",
      "longitude": "-90.11125051247275"
    }
  },
  {
    "service_request": "2025-1220153",
    "request_type": "Trash/Recycling",
    "request_reason": "Request a Large Item Pick Up",
    "date_created": "2025-08-20T15:11:48.000",
    "date_modified": "2025-08-20T15:11:50.000",
    "request_status": "Pending",
    "responsible_agency": "Department of Sanitation",
    "final_address": "420 St Maurice Ave",
    "address_councildis": "E",
    "status": "Assigned to Contractor",
    "contractor": "Waste Pro",
    "rowid": "1220153",
    "final_x": "3698871.06903",
    "final_y": "530996.142786",
    "longitude": "-90.01323813011061",
    "latitude": "29.95351640141486",
    "geocoded_column": {
      "latitude": "29.95351640141486",
      "longitude": "-90.01323813011061"
    }
  },
  {
    "service_request": "2025-1220152",
    "request_type": "Roads and Streets",
    "request_reason": "Street Subsidence (Sinking)",
    "date_created": "2025-08-20T15:07:03.000",
    "date_modified": "2025-08-20T15:07:06.000",
    "request_status": "Pending",
    "responsible_agency": "Sewerage & Water Board",
    "final_address": "600 BLK Harrison Ave",
    "address_councildis": "A",
    "status": "Pending",
    "rowid": "1220152",
    "final_x": "3668506.39294",
    "final_y": "549248.510871",
    "longitude": "-90.10850118853503",
    "latitude": "30.004631212383213",
    "geocoded_column": {
      "latitude": "30.004631212383213",
      "longitude": "-90.10850118853503"
    }
  },
  {
    "service_request": "2025-1220151",
    "request_type": "Streetlights",
    "request_reason": "Streetlight Outage/Malfunction",
    "date_created": "2025-08-20T15:05:05.000",
    "date_modified": "2025-08-20T15:05:08.000",
    "request_status": "Pending",
    "responsible_agency": "Department of Public Works",
    "final_address": "4290 Almonaster Ave",
    "address_councildis": "D",
    "status": "Pending",
    "contractor": "Legacy Professional Services",
    "rowid": "1220151",
    "final_x": "3690706.43228",
    "final_y": "547913.425042",
    "longitude": "-90.03841483541234",
    "latitude": "30.00028903035271",
    "geocoded_column": {
      "latitude": "30.00028903035271",
      "longitude": "-90.03841483541234"
    }
  },
  {
    "service_request": "2025-1220150",
    "request_type": "Trash/Recycling",
    "request_reason": "Request a Large Item Pick Up",
    "date_created": "2025-08-20T15:03:17.000",
    "date_modified": "2025-08-20T15:03:18.000",
    "request_status": "Pending",
    "responsible_agency": "Department of Sanitation",
    "final_address": "918 Andry St",
    "address_councildis": "E",
    "status": "Assigned to Contractor",
    "contractor": "Waste Pro",
    "rowid": "1220150",
    "final_x": "3696944.56944",
    "final_y": "533362.751812",
    "longitude": "-90.01923546753008",
    "latitude": "29.96008462870613",
    "geocoded_column": {
      "latitude": "29.96008462870613",
      "longitude": "-90.01923546753008"
    }
  },
  {
    "service_request": "2025-1220149",
    "request_type": "Streetlights",
    "request_reason": "Streetlight Outage/Malfunction",
    "date_created": "2025-08-20T15:01:05.000",
    "date_modified": "2025-08-20T15:01:07.000",
    "request_status": "Pending",
    "responsible_agency": "Department of Public Works",
    "final_address": "6124 Providence Pl",
    "address_councildis": "D",
    "status": "Pending",
    "contractor": "Legacy Professional Services",
    "rowid": "1220149",
    "final_x": "3688328.3071",
    "final_y": "556008.284313",
    "longitude": "-90.04564007041843",
    "latitude": "30.02262060033185",
    "geocoded_column": {
      "latitude": "30.02262060033185",
      "longitude": "-90.04564007041843"
    }
  },
  {
    "service_request": "2025-1220148",
    "request_type": "Property Maintenance",
    "request_reason": "Property Maintenance",
    "date_created": "2025-08-20T15:00:40.000",
    "date_modified": "2025-08-20T15:00:42.000",
    "request_status": "Pending",
    "responsible_agency": "Department of Code Enforcement",
    "final_address": "3000 BLK Clouet St",
    "address_councildis": "D",
    "status": "Pending",
    "rowid": "1220148",
    "final_x": "3690993.93228",
    "final_y": "543920.868967",
    "longitude": "-90.03764923042343",
    "latitude": "29.98930201295354",
    "geocoded_column": {
      "latitude": "29.98930201295354",
      "longitude": "-90.03764923042343"
    }
  },
  {
    "service_request": "2025-1220147",
    "request_type": "Abandoned Vehicles",
    "request_reason": "Abandoned/Junk Vehicles",
    "date_created": "2025-08-20T15:00:09.000",
    "date_modified": "2025-08-20T15:00:11.000",
    "request_status": "Pending",
    "responsible_agency": "Department of Public Works",
    "final_address": "2013 Josephine St",
    "address_councildis": "B",
    "status": "Pending",
    "rowid": "1220147",
    "final_x": "3676891.95739",
    "final_y": "525326.098301",
    "longitude": "-90.08283431635637",
    "latitude": "29.938603616724492",
    "geocoded_column": {
      "latitude": "29.938603616724492",
      "longitude": "-90.08283431635637"
    }
  },
  {
    "service_request": "2025-1220146",
    "request_type": "Trash/Recycling",
    "request_reason": "Repair Trash Cart",
    "date_created": "2025-08-20T14:52:15.000",
    "date_modified": "2025-08-20T14:52:17.000",
    "request_status": "Pending",
    "responsible_agency": "Department of Sanitation",
    "final_address": "3951 Louisiana Avenue Prkwy",
    "address_councildis": "B",
    "status": "Assigned to Contractor",
    "contractor": "IV Waste",
    "rowid": "1220146",
    "final_x": "3671104.56001",
    "final_y": "529421.303809",
    "longitude": "-90.10096673147976",
    "latitude": "29.95003649616407",
    "geocoded_column": {
      "latitude": "29.95003649616407",
      "longitude": "-90.10096673147976"
    }
  },
  {
    "service_request": "2025-1220145",
    "request_type": "Abandoned Vehicles",
    "request_reason": "Abandoned/Junk Vehicles",
    "date_created": "2025-08-20T14:52:14.000",
    "date_modified": "2025-08-20T14:52:16.000",
    "request_status": "Pending",
    "responsible_agency": "Department of Public Works",
    "final_address": "611 Majestic Pl",
    "address_councildis": "C",
    "status": "Pending",
    "rowid": "1220145",
    "final_x": "3687747.97321",
    "final_y": "526216.55379",
    "longitude": "-90.04852929610817",
    "latitude": "29.940721834566666",
    "geocoded_column": {
      "latitude": "29.940721834566666",
      "longitude": "-90.04852929610817"
    }
  },
  {
    "service_request": "2025-1220144",
    "request_type": "Parks & Parkways",
    "request_reason": "Request Tree Service (Right of Way/Public Property)",
    "date_created": "2025-08-20T14:51:30.000",
    "date_modified": "2025-08-20T14:51:32.000",
    "request_status": "Pending",
    "responsible_agency": "Department of Parks & Parkway",
    "final_address": "1306 Jefferson Ave",
    "address_councildis": "A",
    "status": "Pending",
    "rowid": "1220144",
    "final_x": "3667009.81249",
    "final_y": "520153.925176",
    "longitude": "-90.1142071396092",
    "latitude": "29.924674633211534",
    "geocoded_column": {
      "latitude": "29.924674633211534",
      "longitude": "-90.1142071396092"
    }
  },
  {
    "service_request": "2025-1220143",
    "request_type": "Roads and Streets",
    "request_reason": "Sidewalk Damaged or Missing",
    "date_created": "2025-08-20T14:49:55.000",
    "date_modified": "2025-08-20T14:49:59.000",
    "request_status": "Pending",
    "responsible_agency": "Department of Public Works",
    "final_address": "235 36Th St",
    "address_councildis": "A",
    "status": "Pending",
    "rowid": "1220143",
    "final_x": "3665785.51424",
    "final_y": "552051.720662",
    "longitude": "-90.11700300325175",
    "latitude": "30.012418756096938",
    "geocoded_column": {
      "latitude": "30.012418756096938",
      "longitude": "-90.11700300325175"
    }
  },
  {
    "service_request": "2025-1220142",
    "request_type": "Trash/Recycling",
    "request_reason": "Repair Trash Cart",
    "date_created": "2025-08-20T14:47:09.000",
    "date_modified": "2025-08-20T14:47:12.000",
    "request_status": "Pending",
    "responsible_agency": "Department of Sanitation",
    "final_address": "7336 Prytania St",
    "address_councildis": "A",
    "status": "Assigned to Contractor",
    "contractor": "IV Waste",
    "rowid": "1220142",
    "final_x": "3661271.52544",
    "final_y": "522984.157883",
    "longitude": "-90.13222743522626",
    "latitude": "29.932623517172274",
    "geocoded_column": {
      "latitude": "29.932623517172274",
      "longitude": "-90.13222743522626"
    }
  },
  {
    "service_request": "2025-1220141",
    "request_type": "Property Maintenance",
    "request_reason": "Property Maintenance",
    "date_created": "2025-08-20T14:45:30.000",
    "date_modified": "2025-08-20T14:45:32.000",
    "request_status": "Pending",
    "responsible_agency": "Department of Code Enforcement",
    "final_address": "6201 Warrington Dr",
    "address_councildis": "D",
    "status": "Pending",
    "rowid": "1220141",
    "final_x": "3680891.40443",
    "final_y": "555605.981017",
    "longitude": "-90.06915294988005",
    "latitude": "30.02174211947043",
    "geocoded_column": {
      "latitude": "30.02174211947043",
      "longitude": "-90.06915294988005"
    }
  },
  {
    "service_request": "2025-1220140",
    "request_type": "Trash/Recycling",
    "request_reason": "Return Recycling Cart",
    "date_created": "2025-08-20T14:45:11.000",
    "date_modified": "2025-08-20T14:45:12.000",
    "request_status": "Pending",
    "responsible_agency": "Department of Sanitation",
    "final_address": "4 Marywood Ct",
    "address_councildis": "E",
    "status": "Pending",
    "rowid": "1220140",
    "final_x": "3712780.01995",
    "final_y": "566343.865315",
    "longitude": "-89.96799007405296",
    "latitude": "30.050261082756624",
    "geocoded_column": {
      "latitude": "30.050261082756624",
      "longitude": "-89.96799007405296"
    }
  },
  {
    "service_request": "2025-1220139",
    "request_type": "Trash/Recycling",
    "request_reason": "Request a Large Item Pick Up",
    "date_created": "2025-08-20T14:44:02.000",
    "date_modified": "2025-08-20T14:44:03.000",
    "request_status": "Pending",
    "responsible_agency": "Department of Sanitation",
    "final_address": "1918 Lafreniere St",
    "address_councildis": "D",
    "status": "Assigned to Contractor",
    "contractor": "IV Waste",
    "rowid": "1220139",
    "final_x": "3682214.13794",
    "final_y": "545286.827791",
    "longitude": "-90.0653342822644",
    "latitude": "29.993327978147793",
    "geocoded_column": {
      "latitude": "29.993327978147793",
      "longitude": "-90.0653342822644"
    }
  },
  {
    "service_request": "2025-1220138",
    "request_type": "Trash/Recycling",
    "request_reason": "Request a Large Item Pick Up",
    "date_created": "2025-08-20T14:43:04.000",
    "date_modified": "2025-08-20T14:43:07.000",
    "request_status": "Pending",
    "responsible_agency": "Department of Sanitation",
    "final_address": "215 Maumus Ave",
    "address_councildis": "C",
    "status": "Assigned to Contractor",
    "contractor": "Richards Disposal",
    "rowid": "1220138",
    "final_x": "3706511.37156",
    "final_y": "516686.608117",
    "longitude": "-89.98964333943896",
    "latitude": "29.91392598336898",
    "geocoded_column": {
      "latitude": "29.91392598336898",
      "longitude": "-89.98964333943896"
    }
  },
  {
    "service_request": "2025-1220137",
    "request_type": "Trash/Recycling",
    "request_reason": "Replace Trash Cart",
    "date_created": "2025-08-20T14:41:47.000",
    "date_modified": "2025-08-20T14:41:49.000",
    "request_status": "Pending",
    "responsible_agency": "Department of Sanitation",
    "final_address": "1531 Lowerline St",
    "address_councildis": "A",
    "status": "Assigned to Contractor",
    "contractor": "IV Waste",
    "rowid": "1220137",
    "final_x": "3664452.88448",
    "final_y": "527918.451199",
    "longitude": "-90.12201943441225",
    "latitude": "29.946099169987914",
    "geocoded_column": {
      "latitude": "29.946099169987914",
      "longitude": "-90.12201943441225"
    }
  },
  {
    "service_request": "2025-1220136",
    "request_type": "Trash/Recycling",
    "request_reason": "Repair Recycling Cart",
    "date_created": "2025-08-20T14:40:38.000",
    "date_modified": "2025-08-20T15:38:10.000",
    "request_status": "Pending",
    "responsible_agency": "Department of Sanitation",
    "final_address": "1336 Joseph St",
    "address_councildis": "A",
    "status": "Pending",
    "contractor": "Sanitation Dept. ",
    "rowid": "1220136",
    "final_x": "3666511.7785",
    "final_y": "520841.015417",
    "longitude": "-90.11575622496669",
    "latitude": "29.92657847524829",
    "geocoded_column": {
      "latitude": "29.92657847524829",
      "longitude": "-90.11575622496669"
    }
  },
  {
    "service_request": "2025-1220135",
    "request_type": "Streetlights",
    "request_reason": "Streetlight Outage/Malfunction",
    "date_created": "2025-08-20T14:37:50.000",
    "date_modified": "2025-08-20T14:37:52.000",
    "request_status": "Pending",
    "responsible_agency": "Department of Public Works",
    "final_address": "2238 Tennessee St",
    "address_councildis": "E",
    "status": "Pending",
    "contractor": "Legacy Professional Services",
    "rowid": "1220135",
    "final_x": "3696872.67869",
    "final_y": "538755.612553",
    "longitude": "-90.01926718550666",
    "latitude": "29.974915338047595",
    "geocoded_column": {
      "latitude": "29.974915338047595",
      "longitude": "-90.01926718550666"
    }
  },
  {
    "service_request": "2025-1220134",
    "request_type": "Street and Traffic Signs",
    "request_reason": "Crosswalk Signage Damaged or Missing",
    "date_created": "2025-08-20T14:35:14.000",
    "date_modified": "2025-08-20T14:35:15.000",
    "request_status": "Pending",
    "responsible_agency": "Department of Public Works",
    "final_address": "840 St Philip St",
    "address_councildis": "C",
    "status": "Pending",
    "rowid": "1220134",
    "final_x": "3682662.10396",
    "final_y": "533738.380869",
    "longitude": "-90.06432324143167",
    "latitude": "29.961560137821568",
    "geocoded_column": {
      "latitude": "29.961560137821568",
      "longitude": "-90.06432324143167"
    }
  },
  {
    "service_request": "2025-1220133",
    "request_type": "Trash/Recycling",
    "request_reason": "Illegal Dumping",
    "date_created": "2025-08-20T14:34:53.000",
    "date_modified": "2025-08-20T14:37:11.000",
    "request_status": "Pending",
    "responsible_agency": "Department of Sanitation",
    "final_address": "3016 N Johnson St",
    "address_councildis": "D",
    "status": "Assigned to Contractor",
    "rowid": "1220133",
    "final_x": "3689415.84681",
    "final_y": "539405.18433",
    "longitude": "-90.04279457880779",
    "latitude": "29.976934462739326",
    "geocoded_column": {
      "latitude": "29.976934462739326",
      "longitude": "-90.04279457880779"
    }
  },
  {
    "service_request": "2025-1220132",
    "request_type": "Trash/Recycling",
    "request_reason": "Order Recycling Cart",
    "date_created": "2025-08-20T14:34:44.000",
    "date_modified": "2025-08-20T14:34:46.000",
    "request_status": "Pending",
    "responsible_agency": "Department of Sanitation",
    "final_address": "2737 General Taylor St",
    "address_councildis": "B",
    "status": "Pending",
    "rowid": "1220132",
    "final_x": "3671701.96731",
    "final_y": "525175.672061",
    "longitude": "-90.09922481448454",
    "latitude": "29.938344715269128",
    "geocoded_column": {
      "latitude": "29.938344715269128",
      "longitude": "-90.09922481448454"
    }
  },
  {
    "service_request": "2025-1220131",
    "request_type": "Trash/Recycling",
    "request_reason": "Return Trash Cart",
    "date_created": "2025-08-20T14:33:51.000",
    "date_modified": "2025-08-20T14:33:53.000",
    "request_status": "Pending",
    "responsible_agency": "Department of Sanitation",
    "final_address": "1428 Melpomene St",
    "address_councildis": "B",
    "status": "Assigned to Contractor",
    "contractor": "IV Waste",
    "rowid": "1220131",
    "final_x": "3679780.39023",
    "final_y": "525112.988861",
    "longitude": "-90.07372262681662",
    "latitude": "29.937930643680534",
    "geocoded_column": {
      "latitude": "29.937930643680534",
      "longitude": "-90.07372262681662"
    }
  },
  {
    "service_request": "2025-1220129",
    "request_type": "Roads and Streets",
    "request_reason": "Debris in Driving Lanes",
    "date_created": "2025-08-20T14:32:50.000",
    "date_modified": "2025-08-20T14:32:51.000",
    "request_status": "Pending",
    "responsible_agency": "Department of Public Works",
    "final_address": "3016 N Johnson St",
    "address_councildis": "D",
    "status": "Pending",
    "rowid": "1220129",
    "final_x": "3689415.84681",
    "final_y": "539405.18433",
    "longitude": "-90.04279457880779",
    "latitude": "29.976934462739326",
    "geocoded_column": {
      "latitude": "29.976934462739326",
      "longitude": "-90.04279457880779"
    }
  },
  {
    "service_request": "2025-1220128",
    "request_type": "Abandoned Vehicles",
    "request_reason": "Abandoned/Junk Vehicles",
    "date_created": "2025-08-20T14:32:42.000",
    "date_modified": "2025-08-20T14:32:44.000",
    "request_status": "Pending",
    "responsible_agency": "Department of Public Works",
    "final_address": "COHN ST & EAGLE ST",
    "address_councildis": "A",
    "status": "Pending",
    "rowid": "1220128",
    "final_x": "3661786.3",
    "final_y": "531862.28",
    "longitude": "-90.13030806375723",
    "latitude": "29.95702067377058",
    "geocoded_column": {
      "latitude": "29.95702067377058",
      "longitude": "-90.13030806375723"
    }
  },
  {
    "service_request": "2025-1220127",
    "request_type": "Trash/Recycling",
    "request_reason": "Repair Trash Cart",
    "date_created": "2025-08-20T14:32:17.000",
    "date_modified": "2025-08-20T14:32:19.000",
    "request_status": "Pending",
    "responsible_agency": "Department of Sanitation",
    "final_address": "6023 Prytania St",
    "address_councildis": "A",
    "status": "Assigned to Contractor",
    "contractor": "IV Waste",
    "rowid": "1220127",
    "final_x": "3665009.07092",
    "final_y": "520945.767737",
    "longitude": "-90.12049637975595",
    "latitude": "29.926910332079046",
    "geocoded_column": {
      "latitude": "29.926910332079046",
      "longitude": "-90.12049637975595"
    }
  },
  {
    "service_request": "2025-1220126",
    "request_type": "Property Maintenance",
    "request_reason": "Property Maintenance",
    "date_created": "2025-08-20T14:31:52.000",
    "date_modified": "2025-08-20T14:31:53.000",
    "request_status": "Pending",
    "responsible_agency": "Department of Code Enforcement",
    "final_address": "3016 N Johnson St",
    "address_councildis": "D",
    "status": "Pending",
    "rowid": "1220126",
    "final_x": "3689415.84681",
    "final_y": "539405.18433",
    "longitude": "-90.04279457880779",
    "latitude": "29.976934462739326",
    "geocoded_column": {
      "latitude": "29.976934462739326",
      "longitude": "-90.04279457880779"
    }
  },
  {
    "service_request": "2025-1220125",
    "request_type": "Trash/Recycling",
    "request_reason": "Request a Large Item Pick Up",
    "date_created": "2025-08-20T14:31:38.000",
    "date_modified": "2025-08-20T14:31:39.000",
    "request_status": "Pending",
    "responsible_agency": "Department of Sanitation",
    "final_address": "725 Behrman Ave",
    "address_councildis": "C",
    "status": "Assigned to Contractor",
    "contractor": "Richards Disposal",
    "rowid": "1220125",
    "final_x": "3691439.04752",
    "final_y": "528695.878656",
    "longitude": "-90.03678740993786",
    "latitude": "29.947424810239255",
    "geocoded_column": {
      "latitude": "29.947424810239255",
      "longitude": "-90.03678740993786"
    }
  },
  {
    "service_request": "2025-1220124",
    "request_type": "Trash/Recycling",
    "request_reason": "Illegal Dumping",
    "date_created": "2025-08-20T14:30:21.000",
    "date_modified": "2025-08-20T14:30:23.000",
    "request_status": "Pending",
    "responsible_agency": "Department of Sanitation",
    "final_address": "3016 N Johnson St",
    "address_councildis": "D",
    "status": "Pending",
    "rowid": "1220124",
    "final_x": "3689415.84681",
    "final_y": "539405.18433",
    "longitude": "-90.04279457880779",
    "latitude": "29.976934462739326",
    "geocoded_column": {
      "latitude": "29.976934462739326",
      "longitude": "-90.04279457880779"
    }
  },
  {
    "service_request": "2025-1220123",
    "request_type": "Trash/Recycling",
    "request_reason": "Request a Large Item Pick Up",
    "date_created": "2025-08-20T14:30:05.000",
    "date_modified": "2025-08-20T14:30:07.000",
    "request_status": "Pending",
    "responsible_agency": "Department of Sanitation",
    "final_address": "4436 Laine Ave",
    "address_councildis": "E",
    "status": "Assigned to Contractor",
    "contractor": "Waste Pro",
    "rowid": "1220123",
    "final_x": "3705800.10455",
    "final_y": "553684.618967",
    "longitude": "-89.99051979269167",
    "latitude": "30.015679960974882",
    "geocoded_column": {
      "latitude": "30.015679960974882",
      "longitude": "-89.99051979269167"
    }
  },
  {
    "service_request": "2025-1220122",
    "request_type": "Property Maintenance",
    "request_reason": "Property Maintenance",
    "date_created": "2025-08-20T14:29:18.000",
    "date_modified": "2025-08-20T14:29:20.000",
    "request_status": "Pending",
    "responsible_agency": "Department of Code Enforcement",
    "final_address": "2212 S Claiborne Ave",
    "address_councildis": "B",
    "status": "Pending",
    "rowid": "1220122",
    "final_x": "3674550.47995",
    "final_y": "527503.112511",
    "longitude": "-90.09015204854299",
    "latitude": "29.94465974734072",
    "geocoded_column": {
      "latitude": "29.94465974734072",
      "longitude": "-90.09015204854299"
    }
  },
  {
    "service_request": "2025-1220120",
    "request_type": "Trash/Recycling",
    "request_reason": "Return Recycling Cart",
    "date_created": "2025-08-20T14:28:24.000",
    "date_modified": "2025-08-20T14:28:26.000",
    "request_status": "Pending",
    "responsible_agency": "Department of Sanitation",
    "final_address": "4033 Franklin Ave",
    "address_councildis": "D",
    "status": "Pending",
    "rowid": "1220120",
    "final_x": "3687078.53417",
    "final_y": "547852.68757",
    "longitude": "-90.04987769702149",
    "latitude": "30.00023425801293",
    "geocoded_column": {
      "latitude": "30.00023425801293",
      "longitude": "-90.04987769702149"
    }
  },
  {
    "service_request": "2025-1220121",
    "request_type": "Trash/Recycling",
    "request_reason": "Return Recycling Cart",
    "date_created": "2025-08-20T14:28:24.000",
    "date_modified": "2025-08-20T14:28:25.000",
    "request_status": "Pending",
    "responsible_agency": "Department of Sanitation",
    "final_address": "4033 Franklin Ave",
    "address_councildis": "D",
    "status": "Pending",
    "rowid": "1220121",
    "final_x": "3687078.53417",
    "final_y": "547852.68757",
    "longitude": "-90.04987769702149",
    "latitude": "30.00023425801293",
    "geocoded_column": {
      "latitude": "30.00023425801293",
      "longitude": "-90.04987769702149"
    }
  },
  {
    "service_request": "2025-1220119",
    "request_type": "Abandoned Vehicles",
    "request_reason": "Abandoned/Junk Vehicles",
    "date_created": "2025-08-20T14:27:04.000",
    "date_modified": "2025-08-20T14:27:05.000",
    "request_status": "Pending",
    "responsible_agency": "Department of Public Works",
    "final_address": "BULLARD AVE & S OAKRIDGE CT",
    "address_councildis": "E",
    "status": "Pending",
    "rowid": "1220119",
    "final_x": "3713188.4",
    "final_y": "567377.08",
    "longitude": "-89.96666039533747",
    "latitude": "30.053088615904297",
    "geocoded_column": {
      "latitude": "30.053088615904297",
      "longitude": "-89.96666039533747"
    }
  },
  {
    "service_request": "2025-1220118",
    "request_type": "Trash/Recycling",
    "request_reason": "Request a Large Item Pick Up",
    "date_created": "2025-08-20T14:20:55.000",
    "date_modified": "2025-08-20T14:20:59.000",
    "request_status": "Pending",
    "responsible_agency": "Department of Sanitation",
    "final_address": "4909 Lafon Dr",
    "address_councildis": "E",
    "status": "Assigned to Contractor",
    "contractor": "Waste Pro",
    "rowid": "1220118",
    "final_x": "3701153.15025",
    "final_y": "555082.517657",
    "longitude": "-90.0051507595851",
    "latitude": "30.019672569373284",
    "geocoded_column": {
      "latitude": "30.019672569373284",
      "longitude": "-90.0051507595851"
    }
  },
  {
    "service_request": "2025-1220117",
    "request_type": "Parks & Parkways",
    "request_reason": "Request Tree Service (Right of Way/Public Property)",
    "date_created": "2025-08-20T14:20:38.000",
    "date_modified": "2025-08-20T14:47:00.000",
    "request_status": "Pending",
    "responsible_agency": "Department of Parks & Parkway",
    "final_address": "LOWERLINE ST & HAMPSON ST",
    "address_councildis": "A",
    "status": "Pending",
    "rowid": "1220117",
    "final_x": "3662702.7",
    "final_y": "525364.08",
    "longitude": "-90.12763025734472",
    "latitude": "29.93912622179298",
    "geocoded_column": {
      "latitude": "29.93912622179298",
      "longitude": "-90.12763025734472"
    }
  },
  {
    "service_request": "2025-1220116",
    "request_type": "Trash/Recycling",
    "request_reason": "Replace Trash Cart",
    "date_created": "2025-08-20T14:18:11.000",
    "date_modified": "2025-08-20T14:18:13.000",
    "request_status": "Pending",
    "responsible_agency": "Department of Sanitation",
    "final_address": "3440 Toledano St",
    "address_councildis": "B",
    "status": "Assigned to Contractor",
    "contractor": "IV Waste",
    "rowid": "1220116",
    "final_x": "3671743.02247",
    "final_y": "528216.034304",
    "longitude": "-90.09899179804535",
    "latitude": "29.946703504006404",
    "geocoded_column": {
      "latitude": "29.946703504006404",
      "longitude": "-90.09899179804535"
    }
  },
  {
    "service_request": "2025-1220115",
    "request_type": "Property Maintenance",
    "request_reason": "Property Maintenance",
    "date_created": "2025-08-20T14:18:09.000",
    "date_modified": "2025-08-20T14:18:10.000",
    "request_status": "Pending",
    "responsible_agency": "Department of Code Enforcement",
    "final_address": "4229 St Ann St",
    "address_councildis": "A",
    "status": "Pending",
    "rowid": "1220115",
    "final_x": "3671992.41665",
    "final_y": "541002.122571",
    "longitude": "-90.09776905383748",
    "latitude": "29.98185357824095",
    "geocoded_column": {
      "latitude": "29.98185357824095",
      "longitude": "-90.09776905383748"
    }
  },
  {
    "service_request": "2025-1220114",
    "request_type": "Street and Traffic Signs",
    "request_reason": "Traffic or Parking Sign Damaged or Missing",
    "date_created": "2025-08-20T14:17:06.000",
    "date_modified": "2025-08-20T14:17:08.000",
    "request_status": "Pending",
    "responsible_agency": "Department of Public Works",
    "final_address": "ELYSIAN FIELDS AVE & MIRABEAU AVE",
    "address_councildis": "D",
    "status": "Pending",
    "rowid": "1220114",
    "final_x": "3683907.8",
    "final_y": "550707.88",
    "longitude": "-90.05979396060596",
    "latitude": "30.008182280632138",
    "geocoded_column": {
      "latitude": "30.008182280632138",
      "longitude": "-90.05979396060596"
    }
  },
  {
    "service_request": "2025-1220113",
    "request_type": "Trash/Recycling",
    "request_reason": "Order Trash Cart",
    "date_created": "2025-08-20T14:16:36.000",
    "date_modified": "2025-08-20T14:16:37.000",
    "request_status": "Pending",
    "responsible_agency": "Department of Sanitation",
    "final_address": "1226 Vallette St",
    "address_councildis": "C",
    "status": "Assigned to Contractor",
    "contractor": "Richards Disposal",
    "rowid": "1220113",
    "final_x": "3687453.81948",
    "final_y": "527028.016702",
    "longitude": "-90.04942928167918",
    "latitude": "29.94296214841387",
    "geocoded_column": {
      "latitude": "29.94296214841387",
      "longitude": "-90.04942928167918"
    }
  },
  {
    "service_request": "2025-1220112",
    "request_type": "Trash/Recycling",
    "request_reason": "Return Trash Cart",
    "date_created": "2025-08-20T14:15:01.000",
    "date_modified": "2025-08-20T14:15:04.000",
    "request_status": "Pending",
    "responsible_agency": "Department of Sanitation",
    "final_address": "5522 Constance St",
    "address_councildis": "A",
    "status": "Assigned to Contractor",
    "contractor": "IV Waste",
    "rowid": "1220112",
    "final_x": "3666169.15194",
    "final_y": "518477.831158",
    "longitude": "-90.11691700119442",
    "latitude": "29.920090468536767",
    "geocoded_column": {
      "latitude": "29.920090468536767",
      "longitude": "-90.11691700119442"
    }
  },
  {
    "service_request": "2025-1220111",
    "request_type": "Trash/Recycling",
    "request_reason": "Return Trash Cart",
    "date_created": "2025-08-20T14:13:26.000",
    "date_modified": "2025-08-20T14:13:27.000",
    "request_status": "Pending",
    "responsible_agency": "Department of Sanitation",
    "final_address": "2237 S Gayoso St",
    "address_councildis": "A",
    "status": "Assigned to Contractor",
    "contractor": "IV Waste",
    "rowid": "1220111",
    "final_x": "3669330.00852",
    "final_y": "528663.950528",
    "longitude": "-90.10659543760934",
    "latitude": "29.94800638156836",
    "geocoded_column": {
      "latitude": "29.94800638156836",
      "longitude": "-90.10659543760934"
    }
  },
  {
    "service_request": "2025-1220110",
    "request_type": "Trash/Recycling",
    "request_reason": "Request a Large Item Pick Up",
    "date_created": "2025-08-20T14:11:02.000",
    "date_modified": "2025-08-20T14:11:05.000",
    "request_status": "Pending",
    "responsible_agency": "Department of Sanitation",
    "final_address": "5928 Morrison Rd",
    "address_councildis": "D",
    "status": "Assigned to Contractor",
    "contractor": "Waste Pro",
    "rowid": "1220110",
    "final_x": "3695299.97462",
    "final_y": "557318.614747",
    "longitude": "-90.02356402058662",
    "latitude": "30.02600624285247",
    "geocoded_column": {
      "latitude": "30.02600624285247",
      "longitude": "-90.02356402058662"
    }
  },
  {
    "service_request": "2025-1220109",
    "request_type": "Trash/Recycling",
    "request_reason": "Order Trash Cart",
    "date_created": "2025-08-20T14:10:48.000",
    "date_modified": "2025-08-20T14:10:50.000",
    "request_status": "Pending",
    "responsible_agency": "Department of Sanitation",
    "final_address": "5522 Constance St",
    "address_councildis": "A",
    "status": "Assigned to Contractor",
    "contractor": "IV Waste",
    "rowid": "1220109",
    "final_x": "3666169.15194",
    "final_y": "518477.831158",
    "longitude": "-90.11691700119442",
    "latitude": "29.920090468536767",
    "geocoded_column": {
      "latitude": "29.920090468536767",
      "longitude": "-90.11691700119442"
    }
  },
  {
    "service_request": "2025-1220108",
    "request_type": "Trash/Recycling",
    "request_reason": "Request a Large Item Pick Up",
    "date_created": "2025-08-20T14:09:39.000",
    "date_modified": "2025-08-20T14:09:41.000",
    "request_status": "Pending",
    "responsible_agency": "Department of Sanitation",
    "final_address": "5236 Revel St",
    "address_councildis": "E",
    "status": "Assigned to Contractor",
    "contractor": "Waste Pro",
    "rowid": "1220108",
    "final_x": "3725040.1687",
    "final_y": "562683.318944",
    "longitude": "-89.9293824679228",
    "latitude": "30.03978871568909",
    "geocoded_column": {
      "latitude": "30.03978871568909",
      "longitude": "-89.9293824679228"
    }
  },
  {
    "service_request": "2025-1220107",
    "request_type": "Property Maintenance",
    "request_reason": "Property Maintenance",
    "date_created": "2025-08-20T14:09:03.000",
    "date_modified": "2025-08-20T14:09:05.000",
    "request_status": "Pending",
    "responsible_agency": "Department of Code Enforcement",
    "final_address": "1449 Lauradale Dr",
    "address_councildis": "C",
    "status": "Pending",
    "rowid": "1220107",
    "final_x": "3692738.04733",
    "final_y": "525788.099965",
    "longitude": "-90.03279019010549",
    "latitude": "29.9393889394066",
    "geocoded_column": {
      "latitude": "29.9393889394066",
      "longitude": "-90.03279019010549"
    }
  },
  {
    "service_request": "2025-1220106",
    "request_type": "Property Maintenance",
    "request_reason": "Property Maintenance",
    "date_created": "2025-08-20T14:08:05.000",
    "date_modified": "2025-08-20T14:08:07.000",
    "request_status": "Pending",
    "responsible_agency": "Department of Code Enforcement",
    "final_address": "5260 Revel St",
    "address_councildis": "E",
    "status": "Pending",
    "rowid": "1220106",
    "final_x": "3725015.19097",
    "final_y": "562870.764512",
    "longitude": "-89.92945414626176",
    "latitude": "30.0403049550689",
    "geocoded_column": {
      "latitude": "30.0403049550689",
      "longitude": "-89.92945414626176"
    }
  },
  {
    "service_request": "2025-1220105",
    "request_type": "Trash/Recycling",
    "request_reason": "Request a Large Item Pick Up",
    "date_created": "2025-08-20T14:06:36.000",
    "date_modified": "2025-08-20T14:06:38.000",
    "request_status": "Pending",
    "responsible_agency": "Department of Sanitation",
    "final_address": "3085 Behrman Hwy",
    "address_councildis": "C",
    "status": "Assigned to Contractor",
    "contractor": "Richards Disposal",
    "rowid": "1220105",
    "final_x": "3694429.77418",
    "final_y": "519140.242359",
    "longitude": "-90.02768836511835",
    "latitude": "29.921056690038906",
    "geocoded_column": {
      "latitude": "29.921056690038906",
      "longitude": "-90.02768836511835"
    }
  },
  {
    "service_request": "2025-1220104",
    "request_type": "Trash/Recycling",
    "request_reason": "Request a Large Item Pick Up",
    "date_created": "2025-08-20T14:05:57.000",
    "date_modified": "2025-08-20T14:05:59.000",
    "request_status": "Pending",
    "responsible_agency": "Department of Sanitation",
    "final_address": "225 40Th St",
    "address_councildis": "A",
    "status": "Assigned to Contractor",
    "contractor": "IV Waste",
    "rowid": "1220104",
    "final_x": "3665908.03533",
    "final_y": "553360.142359",
    "longitude": "-90.11657200591897",
    "latitude": "30.016012880807963",
    "geocoded_column": {
      "latitude": "30.016012880807963",
      "longitude": "-90.11657200591897"
    }
  },
  {
    "service_request": "2025-1220103",
    "request_type": "Drainage",
    "request_reason": "Catch Basin Not Draining",
    "date_created": "2025-08-20T14:03:25.000",
    "date_modified": "2025-08-20T14:03:26.000",
    "request_status": "Pending",
    "responsible_agency": "Sewerage & Water Board",
    "final_address": "1127 Felicity St",
    "address_councildis": "B",
    "status": "Pending",
    "rowid": "1220103",
    "final_x": "3679812.0196",
    "final_y": "523269.145851",
    "longitude": "-90.07368676356731",
    "latitude": "29.932859728035382",
    "geocoded_column": {
      "latitude": "29.932859728035382",
      "longitude": "-90.07368676356731"
    }
  },
  {
    "service_request": "2025-1220102",
    "request_type": "Parks & Parkways",
    "request_reason": "Request Tree Service (Right of Way/Public Property)",
    "date_created": "2025-08-20T14:01:32.000",
    "date_modified": "2025-08-20T14:01:33.000",
    "request_status": "Pending",
    "responsible_agency": "Department of Parks & Parkway",
    "final_address": "4400 Cerise Ave",
    "address_councildis": "E",
    "status": "Pending",
    "rowid": "1220102",
    "final_x": "3708724.39947",
    "final_y": "553798.038615",
    "longitude": "-89.98127620747327",
    "latitude": "30.015897267371766",
    "geocoded_column": {
      "latitude": "30.015897267371766",
      "longitude": "-89.98127620747327"
    }
  },
  {
    "service_request": "2025-1220101",
    "request_type": "Trash/Recycling",
    "request_reason": "Missed Trash Pick-Up",
    "date_created": "2025-08-20T14:01:28.000",
    "date_modified": "2025-08-20T14:01:30.000",
    "request_status": "Pending",
    "responsible_agency": "Department of Sanitation",
    "final_address": "4800 Citrus Dr",
    "address_councildis": "E",
    "status": "Assigned to Contractor",
    "contractor": "Waste Pro",
    "rowid": "1220101",
    "final_x": "3710690.65086",
    "final_y": "556279.827418",
    "longitude": "-89.97497083849153",
    "latitude": "30.022657276071815",
    "geocoded_column": {
      "latitude": "30.022657276071815",
      "longitude": "-89.97497083849153"
    }
  },
  {
    "service_request": "2025-1220100",
    "request_type": "Drainage",
    "request_reason": "Catch Basin Not Draining",
    "date_created": "2025-08-20T14:01:18.000",
    "date_modified": "2025-08-20T14:01:42.000",
    "request_status": "Pending",
    "responsible_agency": "Sewerage & Water Board",
    "final_address": "1820 Sophie Wright Pl",
    "address_councildis": "B",
    "status": "Pending",
    "rowid": "1220100",
    "final_x": "3679667.25282",
    "final_y": "523207.660987",
    "longitude": "-90.07414591423982",
    "latitude": "29.93269504006671",
    "geocoded_column": {
      "latitude": "29.93269504006671",
      "longitude": "-90.07414591423982"
    }
  },
  {
    "service_request": "2025-1220099",
    "request_type": "Trash/Recycling",
    "request_reason": "Order Trash Cart",
    "date_created": "2025-08-20T13:56:19.000",
    "date_modified": "2025-08-20T13:56:22.000",
    "request_status": "Pending",
    "responsible_agency": "Department of Sanitation",
    "final_address": "7541 Dogwood Dr",
    "address_councildis": "E",
    "status": "Assigned to Contractor",
    "contractor": "Waste Pro",
    "rowid": "1220099",
    "final_x": "3701393.11242",
    "final_y": "560903.280286",
    "longitude": "-90.00417922323612",
    "latitude": "30.035669769407324",
    "geocoded_column": {
      "latitude": "30.035669769407324",
      "longitude": "-90.00417922323612"
    }
  },
  {
    "service_request": "2025-1220098",
    "request_type": "Trash/Recycling",
    "request_reason": "Request a Large Item Pick Up",
    "date_created": "2025-08-20T13:55:23.000",
    "date_modified": "2025-08-20T13:55:25.000",
    "request_status": "Pending",
    "responsible_agency": "Department of Sanitation",
    "final_address": "4826 Citrus Dr",
    "address_councildis": "E",
    "status": "Assigned to Contractor",
    "contractor": "Waste Pro",
    "rowid": "1220098",
    "final_x": "3710643.42897",
    "final_y": "556456.240282",
    "longitude": "-89.97511343976889",
    "latitude": "30.02314388143371",
    "geocoded_column": {
      "latitude": "30.02314388143371",
      "longitude": "-89.97511343976889"
    }
  },
  {
    "service_request": "2025-1220097",
    "request_type": "Trash/Recycling",
    "request_reason": "Repair Recycling Cart",
    "date_created": "2025-08-20T13:53:35.000",
    "date_modified": "2025-08-20T13:53:37.000",
    "request_status": "Pending",
    "responsible_agency": "Department of Sanitation",
    "final_address": "1709 Seventh St",
    "address_councildis": "B",
    "status": "Pending",
    "rowid": "1220097",
    "final_x": "3674996.4116",
    "final_y": "522513.140922",
    "longitude": "-90.08891521035139",
    "latitude": "29.930925646557622",
    "geocoded_column": {
      "latitude": "29.930925646557622",
      "longitude": "-90.08891521035139"
    }
  },
  {
    "service_request": "2025-1220096",
    "request_type": "Trash/Recycling",
    "request_reason": "Request a Large Item Pick Up",
    "date_created": "2025-08-20T13:51:47.000",
    "date_modified": "2025-08-20T13:51:49.000",
    "request_status": "Pending",
    "responsible_agency": "Department of Sanitation",
    "final_address": "6119 N Robertson St",
    "address_councildis": "E",
    "status": "Assigned to Contractor",
    "contractor": "Waste Pro",
    "rowid": "1220096",
    "final_x": "3700230.14026",
    "final_y": "534688.841606",
    "longitude": "-90.00881200380775",
    "latitude": "29.963626884628724",
    "geocoded_column": {
      "latitude": "29.963626884628724",
      "longitude": "-90.00881200380775"
    }
  },
  {
    "service_request": "2025-1220095",
    "request_type": "Traffic Signals",
    "request_reason": "Traffic Signal Malfunctioning or Damaged",
    "date_created": "2025-08-20T13:49:55.000",
    "date_modified": "2025-08-20T13:49:57.000",
    "request_status": "Pending",
    "responsible_agency": "Department of Public Works",
    "final_address": "GENERAL MEYER AVE & SHIRLEY DR",
    "address_councildis": "C",
    "status": "Pending",
    "rowid": "1220095",
    "final_x": "3693172.5",
    "final_y": "527521.78",
    "longitude": "-90.03135637952057",
    "latitude": "29.944142397456922",
    "geocoded_column": {
      "latitude": "29.944142397456922",
      "longitude": "-90.03135637952057"
    }
  },
  {
    "service_request": "2025-1220094",
    "request_type": "Trash/Recycling",
    "request_reason": "Repair Trash Cart",
    "date_created": "2025-08-20T13:45:45.000",
    "date_modified": "2025-08-20T13:45:47.000",
    "request_status": "Pending",
    "responsible_agency": "Department of Sanitation",
    "final_address": "1639 Arabella St",
    "address_councildis": "A",
    "status": "Assigned to Contractor",
    "contractor": "IV Waste",
    "rowid": "1220094",
    "final_x": "3666688.82119",
    "final_y": "522434.437626",
    "longitude": "-90.1151438717749",
    "latitude": "29.930954707178028",
    "geocoded_column": {
      "latitude": "29.930954707178028",
      "longitude": "-90.1151438717749"
    }
  },
  {
    "service_request": "2025-1220093",
    "request_type": "Trash/Recycling",
    "request_reason": "Request a Large Item Pick Up",
    "date_created": "2025-08-20T13:39:21.000",
    "date_modified": "2025-08-20T13:39:24.000",
    "request_status": "Pending",
    "responsible_agency": "Department of Sanitation",
    "final_address": "185 30Th St",
    "address_councildis": "A",
    "status": "Assigned to Contractor",
    "contractor": "IV Waste",
    "rowid": "1220093",
    "final_x": "3665454.49204",
    "final_y": "550554.413332",
    "longitude": "-90.11809902457975",
    "latitude": "30.00831134002201",
    "geocoded_column": {
      "latitude": "30.00831134002201",
      "longitude": "-90.11809902457975"
    }
  },