[
  {
    "service_request": "2022-884444",
    "request_type": "Abandoned Vehicles",
    "request_reason": "Abandoned/Junk Vehicles",
    "date_created": "2022-05-19T01:53:05.000",
    "date_modified": "2022-05-19T01:53:05.000",
    "request_status": "Pending",
    "responsible_agency": "Department of Public Works",
    "final_address": "215 N Tonti St",
    "address_councildis": "B",
    "status": "Pending",
    "rowid": "884444",
    "final_x": "3676697.55323",
    "final_y": "534807.376966",
    "longitude": "-90.08312147170945",
    "latitude": "29.96467980199145",
    "geocoded_column": {
      "latitude": "29.96467980199145",
      "longitude": "-90.08312147170945"
    }
  },
  {
    "service_request": "2022-884443",
    "request_type": "Abandoned Vehicles",
    "request_reason": "Abandoned/Junk Vehicles",
    "date_created": "2022-05-19T01:50:43.000",
    "date_modified": "2022-05-19T01:50:43.000",
    "request_status": "Pending",
    "responsible_agency": "Department of Public Works",
    "final_address": "215 N Tonti St",
    "address_councildis": "B",
    "status": "Pending",
    "rowid": "884443",
    "final_x": "3676697.55323",
    "final_y": "534807.376966",
    "longitude": "-90.08312147170945",
    "latitude": "29.96467980199145",
    "geocoded_column": {
      "latitude": "29.96467980199145",
      "longitude": "-90.08312147170945"
    }
  },
  {
    "service_request": "2022-884442",
    "request_type": "Trash/Recycling",
    "request_reason": "MIssed Recycling Pick-Up",
    "date_created": "2022-05-19T01:48:30.000",
    "date_modified": "2022-05-19T01:48:30.000",
    "request_status": "Pending",
    "responsible_agency": "Department of Sanitation",
    "final_address": "219 N Tonti St",
    "address_councildis": "B",
    "status": "Assigned to Contractor",
    "contractor": "Richards Disposal",
    "rowid": "884442",
    "final_x": "3676708.91105",
    "final_y": "534839.579974",
    "longitude": "-90.08308449486326",
    "latitude": "29.96476800860436",
    "geocoded_column": {
      "latitude": "29.96476800860436",
      "longitude": "-90.08308449486326"
    }
  },
  {
    "service_request": "2022-884441",
    "request_type": "Taxi Issues",
    "request_reason": "Taxi Complaint",
    "date_created": "2022-05-19T00:44:37.000",
    "date_modified": "2022-05-19T00:44:37.000",
    "request_status": "Pending",
    "responsible_agency": "Ground Transportation Bureau",
    "final_address": "339 Bourbon St",
    "address_councildis": "C",
    "status": "Pending",
    "rowid": "884441",
    "final_x": "3681544.78351",
    "final_y": "531785.640835",
    "longitude": "-90.0679196481472",
    "latitude": "29.956224745163606",
    "geocoded_column": {
      "latitude": "29.956224745163606",
      "longitude": "-90.0679196481472"
    }
  },
  {
    "service_request": "2022-884440",
    "request_type": "Roads/Drainage",
    "request_reason": "Pothole",
    "date_created": "2022-05-18T23:26:38.000",
    "date_modified": "2022-05-18T23:26:38.000",
    "request_status": "Pending",
    "responsible_agency": "Department of Public Works",
    "final_address": "8733 Pritchard Pl",
    "address_councildis": "A",
    "status": "Pending",
    "rowid": "884440",
    "final_x": "3664295.4898",
    "final_y": "534549.575237",
    "longitude": "-90.1222951050073",
    "latitude": "29.964337180826945",
    "geocoded_column": {
      "latitude": "29.964337180826945",
      "longitude": "-90.1222951050073"
    }
  },
  {
    "service_request": "2022-884439",
    "request_type": "Property Maintenance",
    "request_reason": "Property Maintenance",
    "date_created": "2022-05-18T23:03:48.000",
    "date_modified": "2022-05-18T23:03:48.000",
    "request_status": "Pending",
    "responsible_agency": "Department of Code Enforcement",
    "final_address": "17600 Paris Rd",
    "address_councildis": "E",
    "status": "Pending",
    "rowid": "884439",
    "final_x": "3721049.61516",
    "final_y": "574670.481579",
    "longitude": "-89.94153353534014",
    "latitude": "30.07288225329255",
    "geocoded_column": {
      "latitude": "30.07288225329255",
      "longitude": "-89.94153353534014"
    }
  },
  {
    "service_request": "2022-884438",
    "request_type": "Trash/Recycling",
    "request_reason": "Order Recycling Cart",
    "date_created": "2022-05-18T22:20:26.000",
    "date_modified": "2022-05-18T22:20:26.000",
    "request_status": "Pending",
    "responsible_agency": "Department of Sanitation",
    "final_address": "5010 Debore Cir",
    "address_councildis": "D",
    "status": "Pending",
    "rowid": "884438",
    "final_x": "3692188.23869",
    "final_y": "552825.906326",
    "longitude": "-90.0335577057517",
    "latitude": "30.01375041253146",
    "geocoded_column": {
      "latitude": "30.01375041253146",
      "longitude": "-90.0335577057517"
    }
  },
  {
    "service_request": "2022-884437",
    "request_type": "Traffic Signals/Signs/Striping/Streetlights",
    "request_reason": "Request for Traffic Calming due to Speeding",
    "date_created": "2022-05-18T22:19:44.000",
    "date_modified": "2022-05-18T22:19:44.000",
    "request_status": "Pending",
    "responsible_agency": "Department of Public Works",
    "final_address": "2621 Banks St A",
    "address_councildis": "B",
    "status": "Pending",
    "rowid": "884437",
    "final_x": "3674944.06638",
    "final_y": "533980.767237",
    "longitude": "-90.08868722317226",
    "latitude": "29.962459393806533",
    "geocoded_column": {
      "latitude": "29.962459393806533",
      "longitude": "-90.08868722317226"
    }
  },
  {
    "service_request": "2022-884436",
    "request_type": "Trash/Recycling",
    "request_reason": "Order Trash Cart",
    "date_created": "2022-05-18T22:19:33.000",
    "date_modified": "2022-05-18T22:19:34.000",
    "request_status": "Pending",
    "responsible_agency": "Department of Sanitation",
    "final_address": "5010 Debore Cir",
    "address_councildis": "D",
    "status": "Assigned to Contractor",
    "contractor": "Metro Disposal",
    "rowid": "884436",
    "final_x": "3692188.23869",
    "final_y": "552825.906326",
    "longitude": "-90.0335577057517",
    "latitude": "30.01375041253146",
    "geocoded_column": {
      "latitude": "30.01375041253146",
      "longitude": "-90.0335577057517"
    }
  },
  {
    "service_request": "2022-884435",
    "request_type": "Trash/Recycling",
    "request_reason": "Replace Trash Cart",
    "date_created": "2022-05-18T22:10:37.000",
    "date_modified": "2022-05-18T22:10:37.000",
    "request_status": "Pending",
    "responsible_agency": "Department of Sanitation",
    "final_address": "3300 Banks St",
    "address_councildis": "B",
    "status": "Assigned to Contractor",
    "contractor": "Richards Disposal",
    "rowid": "884435",
    "final_x": "3672781.8996",
    "final_y": "535449.689478",
    "longitude": "-90.09546494478445",
    "latitude": "29.96656283903936",
    "geocoded_column": {
      "latitude": "29.96656283903936",
      "longitude": "-90.09546494478445"
    }
  },
  {
    "service_request": "2022-884434",
    "request_type": "Traffic Signals/Signs/Striping/Streetlights",
    "request_reason": "Street Light Outage/Malfunction",
    "date_created": "2022-05-18T22:02:47.000",
    "date_modified": "2022-05-18T22:02:48.000",
    "request_status": "Pending",
    "responsible_agency": "Department of Public Works",
    "final_address": "1824 Robert St",
    "address_councildis": "B",
    "status": "Pending",
    "contractor": "Royal Engineering",
    "rowid": "884434",
    "final_x": "3668703.02375",
    "final_y": "522342.411898",
    "longitude": "-90.1087883937907",
    "latitude": "29.93064263113856",
    "geocoded_column": {
      "latitude": "29.93064263113856",
      "longitude": "-90.1087883937907"
    }
  },
  {
    "service_request": "2022-884433",
    "request_type": "Traffic Signals/Signs/Striping/Streetlights",
    "request_reason": "Street Light Outage/Malfunction",
    "date_created": "2022-05-18T21:51:25.000",
    "date_modified": "2022-05-18T21:51:26.000",
    "request_status": "Pending",
    "responsible_agency": "Department of Public Works",
    "final_address": "300 Camp St",
    "address_councildis": "B",
    "status": "Pending",
    "contractor": "Royal Engineering",
    "rowid": "884433",
    "final_x": "3681302.36892",
    "final_y": "529849.866369",
    "longitude": "-90.0687525706983",
    "latitude": "29.95090937896033",
    "geocoded_column": {
      "latitude": "29.95090937896033",
      "longitude": "-90.0687525706983"
    }
  },
  {
    "service_request": "2022-884432",
    "request_type": "Roads/Drainage",
    "request_reason": "Damaged Sidewalk",
    "date_created": "2022-05-18T21:49:14.000",
    "date_modified": "2022-05-18T21:49:14.000",
    "request_status": "Pending",
    "responsible_agency": "Department of Public Works",
    "final_address": "338 Lafayette St",
    "address_councildis": "B",
    "status": "Pending",
    "rowid": "884432",
    "final_x": "3681851.93512",
    "final_y": "528597.93152",
    "longitude": "-90.0670610041549",
    "latitude": "29.94745029138929",
    "geocoded_column": {
      "latitude": "29.94745029138929",
      "longitude": "-90.0670610041549"
    }
  },
  {
    "service_request": "2022-884431",
    "request_type": "Traffic Signals/Signs/Striping/Streetlights",
    "request_reason": "Additional signage",
    "date_created": "2022-05-18T21:47:21.000",
    "date_modified": "2022-05-18T21:47:21.000",
    "request_status": "Pending",
    "responsible_agency": "Department of Public Works",
    "final_address": "300 Julia St",
    "address_councildis": "B",
    "status": "Pending",
    "rowid": "884431",
    "final_x": "3682118.57461",
    "final_y": "527528.878975",
    "longitude": "-90.06625644674858",
    "latitude": "29.944502651106244",
    "geocoded_column": {
      "latitude": "29.944502651106244",
      "longitude": "-90.06625644674858"
    }
  },
  {
    "service_request": "2022-884430",
    "request_type": "Roads/Drainage",
    "request_reason": "Damaged Sidewalk",
    "date_created": "2022-05-18T21:42:11.000",
    "date_modified": "2022-05-18T21:42:11.000",
    "request_status": "Pending",
    "responsible_agency": "Department of Public Works",
    "final_address": "841 Fulton St",
    "address_councildis": "B",
    "status": "Pending",
    "rowid": "884430",
    "final_x": "3682388.89468",
    "final_y": "527272.237503",
    "longitude": "-90.06541193437441",
    "latitude": "29.94378875105833",
    "geocoded_column": {
      "latitude": "29.94378875105833",
      "longitude": "-90.06541193437441"
    }
  },
  {
    "service_request": "2022-884429",
    "request_type": "Property Maintenance",
    "request_reason": "Property Maintenance",
    "date_created": "2022-05-18T21:39:58.000",
    "date_modified": "2022-05-18T21:39:58.000",
    "request_status": "Pending",
    "responsible_agency": "Department of Code Enforcement",
    "final_address": "841 Fulton St",
    "address_councildis": "B",
    "status": "Pending",
    "rowid": "884429",
    "final_x": "3682388.89468",
    "final_y": "527272.237503",
    "longitude": "-90.06541193437441",
    "latitude": "29.94378875105833",
    "geocoded_column": {
      "latitude": "29.94378875105833",
      "longitude": "-90.06541193437441"
    }
  },
  {
    "service_request": "2022-884428",
    "request_type": "Traffic Signals/Signs/Striping/Streetlights",
    "request_reason": "Street Light Outage/Malfunction",
    "date_created": "2022-05-18T21:37:52.000",
    "date_modified": "2022-05-18T21:38:07.000",
    "request_status": "Pending",
    "responsible_agency": "Department of Public Works",
    "final_address": "200 Delaronde St",
    "address_councildis": "C",
    "status": "Pending",
    "contractor": "Royal Engineering",
    "rowid": "884428",
    "final_x": "3685987.44566",
    "final_y": "530607.170882",
    "longitude": "-90.05393279688215",
    "latitude": "29.95284870271816",
    "geocoded_column": {
      "latitude": "29.95284870271816",
      "longitude": "-90.05393279688215"
    }
  },
  {
    "service_request": "2022-884427",
    "request_type": "Trash/Recycling",
    "request_reason": "Replace Trash Cart",
    "date_created": "2022-05-18T21:23:22.000",
    "date_modified": "2022-05-18T21:23:22.000",
    "request_status": "Pending",
    "responsible_agency": "Department of Sanitation",
    "final_address": "4319 Dumaine St",
    "address_councildis": "A",
    "status": "Assigned to Contractor",
    "contractor": "Richards Disposal",
    "rowid": "884427",
    "final_x": "3672023.57063",
    "final_y": "541458.139148",
    "longitude": "-90.09765512215259",
    "latitude": "29.983106544179797",
    "geocoded_column": {
      "latitude": "29.983106544179797",
      "longitude": "-90.09765512215259"
    }
  },
  {
    "service_request": "2022-884426",
    "request_type": "Trash/Recycling",
    "request_reason": "Request a Large Item Pick Up",
    "date_created": "2022-05-18T21:16:48.000",
    "date_modified": "2022-05-18T21:16:49.000",
    "request_status": "Pending",
    "responsible_agency": "Department of Sanitation",
    "final_address": "307 S Pierce St",
    "address_councildis": "A",
    "status": "Assigned to Contractor",
    "contractor": "Richards Disposal",
    "rowid": "884426",
    "final_x": "3670901.54734",
    "final_y": "537369.43956",
    "longitude": "-90.10133790940915",
    "latitude": "29.971897229209855",
    "geocoded_column": {
      "latitude": "29.971897229209855",
      "longitude": "-90.10133790940915"
    }
  },
  {
    "service_request": "2022-884425",
    "request_type": "Traffic Signals/Signs/Striping/Streetlights",
    "request_reason": "Street Light Outage/Malfunction",
    "date_created": "2022-05-18T21:14:24.000",
    "date_modified": "2022-05-18T21:14:25.000",
    "request_status": "Pending",
    "responsible_agency": "Department of Public Works",
    "final_address": "700 Fulton St",
    "address_councildis": "B",
    "status": "Pending",
    "contractor": "Royal Engineering",
    "rowid": "884425",
    "final_x": "3682366.08399",
    "final_y": "527998.300607",
    "longitude": "-90.06545858861404",
    "latitude": "29.945785874841356",
    "geocoded_column": {
      "latitude": "29.945785874841356",
      "longitude": "-90.06545858861404"
    }
  },
  {
    "service_request": "2022-884424",
    "request_type": "Traffic Signals/Signs/Striping/Streetlights",
    "request_reason": "Street Light Outage/Malfunction",
    "date_created": "2022-05-18T21:12:23.000",
    "date_modified": "2022-05-18T21:12:23.000",
    "request_status": "Pending",
    "responsible_agency": "Department of Public Works",
    "final_address": "700 Fulton St",
    "address_councildis": "B",
    "status": "Pending",
    "contractor": "Royal Engineering",
    "rowid": "884424",
    "final_x": "3682366.08399",
    "final_y": "527998.300607",
    "longitude": "-90.06545858861404",
    "latitude": "29.945785874841356",
    "geocoded_column": {
      "latitude": "29.945785874841356",
      "longitude": "-90.06545858861404"
    }
  },
  {
    "service_request": "2022-884423",
    "request_type": "Roads/Drainage",
    "request_reason": "Damaged Sidewalk",
    "date_created": "2022-05-18T21:10:41.000",
    "date_modified": "2022-05-18T21:10:41.000",
    "request_status": "Pending",
    "responsible_agency": "Department of Public Works",
    "final_address": "700 Fulton St",
    "address_councildis": "B",
    "status": "Pending",
    "rowid": "884423",
    "final_x": "3682366.08399",
    "final_y": "527998.300607",
    "longitude": "-90.06545858861404",
    "latitude": "29.945785874841356",
    "geocoded_column": {
      "latitude": "29.945785874841356",
      "longitude": "-90.06545858861404"
    }
  },
  {
    "service_request": "2022-884422",
    "request_type": "Traffic Signals/Signs/Striping/Streetlights",
    "request_reason": "Street Light Outage/Malfunction",
    "date_created": "2022-05-18T21:08:05.000",
    "date_modified": "2022-05-18T21:08:05.000",
    "request_status": "Pending",
    "responsible_agency": "Department of Public Works",
    "final_address": "700 Fulton St",
    "address_councildis": "B",
    "status": "Pending",
    "contractor": "Royal Engineering",
    "rowid": "884422",
    "final_x": "3682366.08399",
    "final_y": "527998.300607",
    "longitude": "-90.06545858861404",
    "latitude": "29.945785874841356",
    "geocoded_column": {
      "latitude": "29.945785874841356",
      "longitude": "-90.06545858861404"
    }
  },
  {
    "service_request": "2022-884421",
    "request_type": "Trash/Recycling",
    "request_reason": "Request a Large Item Pick Up",
    "date_created": "2022-05-18T21:08:01.000",
    "date_modified": "2022-05-18T21:08:01.000",
    "request_status": "Pending",
    "responsible_agency": "Department of Sanitation",
    "final_address": "508 S Pierce St",
    "address_councildis": "B",
    "status": "Assigned to Contractor",
    "contractor": "Richards Disposal",
    "rowid": "884421",
    "final_x": "3670478.06465",
    "final_y": "536670.062151",
    "longitude": "-90.10269906052756",
    "latitude": "29.969986689391984",
    "geocoded_column": {
      "latitude": "29.969986689391984",
      "longitude": "-90.10269906052756"
    }
  },
  {
    "service_request": "2022-884420",
    "request_type": "Abandoned Vehicles",
    "request_reason": "Abandoned/Junk Vehicles",
    "date_created": "2022-05-18T21:07:24.000",
    "date_modified": "2022-05-18T21:07:24.000",
    "request_status": "Pending",
    "responsible_agency": "Department of Public Works",
    "final_address": "428 Park Blvd",
    "address_councildis": "C",
    "status": "Pending",
    "rowid": "884420",
    "final_x": "3687039.59535",
    "final_y": "525891.166909",
    "longitude": "-90.05077726060355",
    "latitude": "29.939848951875543",
    "geocoded_column": {
      "latitude": "29.939848951875543",
      "longitude": "-90.05077726060355"
    }
  },
  {
    "service_request": "2022-884419",
    "request_type": "Traffic Signals/Signs/Striping/Streetlights",
    "request_reason": "Street Light Outage/Malfunction",
    "date_created": "2022-05-18T21:06:47.000",
    "date_modified": "2022-05-18T21:06:47.000",
    "request_status": "Pending",
    "responsible_agency": "Department of Public Works",
    "final_address": "700 Fulton St",
    "address_councildis": "B",
    "status": "Pending",
    "contractor": "Royal Engineering",
    "rowid": "884419",
    "final_x": "3682366.08399",
    "final_y": "527998.300607",
    "longitude": "-90.06545858861404",
    "latitude": "29.945785874841356",
    "geocoded_column": {
      "latitude": "29.945785874841356",
      "longitude": "-90.06545858861404"
    }
  },
  {
    "service_request": "2022-884418",
    "request_type": "Traffic Signals/Signs/Striping/Streetlights",
    "request_reason": "Request for Traffic Calming due to Speeding",
    "date_created": "2022-05-18T21:05:28.000",
    "date_modified": "2022-05-18T21:05:28.000",
    "request_status": "Pending",
    "responsible_agency": "Department of Public Works",
    "final_address": "4300 Frenchmen St",
    "address_councildis": "D",
    "status": "Pending",
    "rowid": "884418",
    "final_x": "3683527.5437",
    "final_y": "548471.924754",
    "longitude": "-90.06107374012612",
    "latitude": "30.002045825966043",
    "geocoded_column": {
      "latitude": "30.002045825966043",
      "longitude": "-90.06107374012612"
    }
  },
  {
    "service_request": "2022-884417",
    "request_type": "Traffic Signals/Signs/Striping/Streetlights",
    "request_reason": "Street Light Outage/Malfunction",
    "date_created": "2022-05-18T21:05:25.000",
    "date_modified": "2022-05-18T21:05:25.000",
    "request_status": "Pending",
    "responsible_agency": "Department of Public Works",
    "final_address": "700 Fulton St",
    "address_councildis": "B",
    "status": "Pending",
    "contractor": "Royal Engineering",
    "rowid": "884417",
    "final_x": "3682366.08399",
    "final_y": "527998.300607",
    "longitude": "-90.06545858861404",
    "latitude": "29.945785874841356",
    "geocoded_column": {
      "latitude": "29.945785874841356",
      "longitude": "-90.06545858861404"
    }
  },
  {
    "service_request": "2022-884416",
    "request_type": "Traffic Signals/Signs/Striping/Streetlights",
    "request_reason": "Street Light Outage/Malfunction",
    "date_created": "2022-05-18T21:03:13.000",
    "date_modified": "2022-05-18T21:03:14.000",
    "request_status": "Pending",
    "responsible_agency": "Department of Public Works",
    "final_address": "225 Girod St",
    "address_councildis": "B",
    "status": "Pending",
    "contractor": "Royal Engineering",
    "rowid": "884416",
    "final_x": "3682330.24213",
    "final_y": "528128.374911",
    "longitude": "-90.06556720930485",
    "latitude": "29.946144625894906",
    "geocoded_column": {
      "latitude": "29.946144625894906",
      "longitude": "-90.06556720930485"
    }
  },
  {
    "service_request": "2022-884415",
    "request_type": "Roads/Drainage",
    "request_reason": "Damaged Sidewalk",
    "date_created": "2022-05-18T21:01:17.000",
    "date_modified": "2022-05-18T21:01:17.000",
    "request_status": "Pending",
    "responsible_agency": "Department of Public Works",
    "final_address": "225 Girod St",
    "address_councildis": "B",
    "status": "Pending",
    "rowid": "884415",
    "final_x": "3682330.24213",
    "final_y": "528128.374911",
    "longitude": "-90.06556720930485",
    "latitude": "29.946144625894906",
    "geocoded_column": {
      "latitude": "29.946144625894906",
      "longitude": "-90.06556720930485"
    }
  },
  {
    "service_request": "2022-884414",
    "request_type": "Property Maintenance",
    "request_reason": "Property Maintenance",
    "date_created": "2022-05-18T20:59:38.000",
    "date_modified": "2022-05-18T20:59:38.000",
    "request_status": "Pending",
    "responsible_agency": "Department of Code Enforcement",
    "status": "Pending",
    "rowid": "884414",
    "longitude": "0.0",
    "latitude": "0.0",
    "geocoded_column": {
      "latitude": "0.0",
      "longitude": "0.0"
    }
  },
  {
    "service_request": "2022-884413",
    "request_type": "Roads/Drainage",
    "request_reason": "Man hole cover issue",
    "date_created": "2022-05-18T20:57:47.000",
    "date_modified": "2022-05-18T20:57:47.000",
    "request_status": "Pending",
    "responsible_agency": "Department of Public Works",
    "final_address": "315 Girod St",
    "address_councildis": "B",
    "status": "Pending",
    "rowid": "884413",
    "final_x": "3682098.82895",
    "final_y": "528191.42112",
    "longitude": "-90.06629565855785",
    "latitude": "29.94632501991964",
    "geocoded_column": {
      "latitude": "29.94632501991964",
      "longitude": "-90.06629565855785"
    }
  },
  {
    "service_request": "2022-884411",
    "request_type": "Trash/Recycling",
    "request_reason": "Replace Trash Cart",
    "date_created": "2022-05-18T20:49:34.000",
    "date_modified": "2022-05-18T20:49:34.000",
    "request_status": "Pending",
    "responsible_agency": "Department of Sanitation",
    "final_address": "1933 Wilton Dr",
    "address_councildis": "D",
    "status": "Assigned to Contractor",
    "contractor": "Metro Disposal",
    "rowid": "884411",
    "final_x": "3681632.35637",
    "final_y": "550995.719701",
    "longitude": "-90.06697273200152",
    "latitude": "30.009043078991517",
    "geocoded_column": {
      "latitude": "30.009043078991517",
      "longitude": "-90.06697273200152"
    }
  },
  {
    "service_request": "2022-884410",
    "request_type": "Trash/Recycling",
    "request_reason": "Request a Large Item Pick Up",
    "date_created": "2022-05-18T20:48:00.000",
    "date_modified": "2022-05-18T20:48:00.000",
    "request_status": "Pending",
    "responsible_agency": "Department of Sanitation",
    "final_address": "315 Girod St",
    "address_councildis": "B",
    "status": "Assigned to Contractor",
    "contractor": "Empire Services",
    "rowid": "884410",
    "final_x": "3682098.82895",
    "final_y": "528191.42112",
    "longitude": "-90.06629565855785",
    "latitude": "29.94632501991964",
    "geocoded_column": {
      "latitude": "29.94632501991964",
      "longitude": "-90.06629565855785"
    }
  },
  {
    "service_request": "2022-884409",
    "request_type": "Roads/Drainage",
    "request_reason": "Street Flooding / Drainage",
    "date_created": "2022-05-18T20:45:31.000",
    "date_modified": "2022-05-18T20:45:31.000",
    "request_status": "Pending",
    "responsible_agency": "Department of Public Works",
    "final_address": "8436 Cohn St",
    "address_councildis": "A",
    "status": "Pending",
    "rowid": "884409",
    "final_x": "3662570.95911",
    "final_y": "531096.193858",
    "longitude": "-90.12785579245526",
    "latitude": "29.954891509334594",
    "geocoded_column": {
      "latitude": "29.954891509334594",
      "longitude": "-90.12785579245526"
    }
  },
  {
    "service_request": "2022-884408",
    "request_type": "Roads/Drainage",
    "request_reason": "Damaged Sidewalk",
    "date_created": "2022-05-18T20:45:22.000",
    "date_modified": "2022-05-18T20:45:22.000",
    "request_status": "Pending",
    "responsible_agency": "Department of Public Works",
    "final_address": "333 Girod St",
    "address_councildis": "B",
    "status": "Pending",
    "rowid": "884408",
    "final_x": "3681881.54223",
    "final_y": "528244.71168",
    "longitude": "-90.06697984864125",
    "latitude": "29.94647815587424",
    "geocoded_column": {
      "latitude": "29.94647815587424",
      "longitude": "-90.06697984864125"
    }
  },
  {
    "service_request": "2022-884407",
    "request_type": "Roads/Drainage",
    "request_reason": "Street Flooding / Drainage",
    "date_created": "2022-05-18T20:43:42.000",
    "date_modified": "2022-05-18T20:43:42.000",
    "request_status": "Pending",
    "responsible_agency": "Department of Public Works",
    "final_address": "210 Baronne St",
    "address_councildis": "B",
    "status": "Pending",
    "rowid": "884407",
    "final_x": "3680240.2836",
    "final_y": "530605.158914",
    "longitude": "-90.0720798481",
    "latitude": "29.953018366512932",
    "geocoded_column": {
      "latitude": "29.953018366512932",
      "longitude": "-90.0720798481"
    }
  },
  {
    "service_request": "2022-884405",
    "request_type": "Mosquito, Termite & Rodent Control",
    "request_reason": "Mosquito Complaint",
    "date_created": "2022-05-18T20:35:06.000",
    "date_modified": "2022-05-18T20:35:06.000",
    "request_status": "Pending",
    "responsible_agency": "Mosquito, Termite & Rodent Control Board",
    "final_address": "1654 Jefferson Ave",
    "address_councildis": "A",
    "status": "Pending",
    "rowid": "884405",
    "final_x": "3667379.33121",
    "final_y": "522069.24505",
    "longitude": "-90.11297629652972",
    "latitude": "29.929930340096607",
    "geocoded_column": {
      "latitude": "29.929930340096607",
      "longitude": "-90.11297629652972"
    }
  },
  {
    "service_request": "2022-884404",
    "request_type": "Abandoned Vehicles",
    "request_reason": "Abandoned/Junk Vehicles",
    "date_created": "2022-05-18T20:33:06.000",
    "date_modified": "2022-05-18T20:33:06.000",
    "request_status": "Pending",
    "responsible_agency": "Department of Public Works",
    "final_address": "233 S Solomon St",
    "address_councildis": "A",
    "status": "Pending",
    "rowid": "884404",
    "final_x": "3670140.79258",
    "final_y": "538204.021769",
    "longitude": "-90.10371221573364",
    "latitude": "29.97421451843979",
    "geocoded_column": {
      "latitude": "29.97421451843979",
      "longitude": "-90.10371221573364"
    }
  },
  {
    "service_request": "2022-884403",
    "request_type": "Mayor's Request",
    "request_reason": "Requests to the Mayor",
    "date_created": "2022-05-18T20:29:03.000",
    "date_modified": "2022-05-18T20:29:03.000",
    "request_status": "Pending",
    "responsible_agency": "Executive Office of the Mayor",
    "status": "Pending",
    "rowid": "884403",
    "longitude": "0.0",
    "latitude": "0.0",
    "geocoded_column": {
      "latitude": "0.0",
      "longitude": "0.0"
    }
  },
  {
    "service_request": "2022-884402",
    "request_type": "Property Maintenance",
    "request_reason": "Property Maintenance",
    "date_created": "2022-05-18T20:23:10.000",
    "date_modified": "2022-05-18T20:23:10.000",
    "request_status": "Pending",
    "responsible_agency": "Department of Code Enforcement",
    "final_address": "605 S Genois St",
    "address_councildis": "B",
    "status": "Pending",
    "rowid": "884402",
    "final_x": "3671289.07163",
    "final_y": "535616.056006",
    "longitude": "-90.10017363772792",
    "latitude": "29.967064551247937",
    "geocoded_column": {
      "latitude": "29.967064551247937",
      "longitude": "-90.10017363772792"
    }
  },
  {
    "service_request": "2022-884401",
    "request_type": "Property Maintenance",
    "request_reason": "Property Maintenance",
    "date_created": "2022-05-18T20:18:28.000",
    "date_modified": "2022-05-18T20:18:28.000",
    "request_status": "Pending",
    "responsible_agency": "Department of Code Enforcement",
    "final_address": "601 S Telemachus St",
    "address_councildis": "B",
    "status": "Pending",
    "rowid": "884401",
    "final_x": "3671066.36743",
    "final_y": "535830.052039",
    "longitude": "-90.10086967173599",
    "latitude": "29.967659557017296",
    "geocoded_column": {
      "latitude": "29.967659557017296",
      "longitude": "-90.10086967173599"
    }
  },
  {
    "service_request": "2022-884400",
    "request_type": "Property Maintenance",
    "request_reason": "Property Maintenance",
    "date_created": "2022-05-18T20:11:42.000",
    "date_modified": "2022-05-18T20:11:42.000",
    "request_status": "Pending",
    "responsible_agency": "Department of Code Enforcement",
    "final_address": "7021 Yorktown Dr",
    "address_councildis": "E",
    "status": "Pending",
    "rowid": "884400",
    "final_x": "3706226.61015",
    "final_y": "560528.951262",
    "longitude": "-89.98891851514233",
    "latitude": "30.03448546108901",
    "geocoded_column": {
      "latitude": "30.03448546108901",
      "longitude": "-89.98891851514233"
    }
  },
  {
    "service_request": "2022-884399",
    "request_type": "Traffic Signals/Signs/Striping/Streetlights",
    "request_reason": "Street Light Outage/Malfunction",
    "date_created": "2022-05-18T20:01:45.000",
    "date_modified": "2022-05-18T20:01:46.000",
    "request_status": "Pending",
    "responsible_agency": "Department of Public Works",
    "final_address": "400 Poydras St",
    "address_councildis": "B",
    "status": "Pending",
    "contractor": "Royal Engineering",
    "rowid": "884399",
    "final_x": "3681589.68706",
    "final_y": "529065.294848",
    "longitude": "-90.06787272477939",
    "latitude": "29.948743349579406",
    "geocoded_column": {
      "latitude": "29.948743349579406",
      "longitude": "-90.06787272477939"
    }
  },
  {
    "service_request": "2022-884398",
    "request_type": "Property Maintenance",
    "request_reason": "Property Maintenance",
    "date_created": "2022-05-18T19:53:05.000",
    "date_modified": "2022-05-18T19:53:05.000",
    "request_status": "Pending",
    "responsible_agency": "Department of Code Enforcement",
    "final_address": "2601 Amelia St",
    "address_councildis": "B",
    "status": "Pending",
    "rowid": "884398",
    "final_x": "3672296.00814",
    "final_y": "524736.792572",
    "longitude": "-90.09736431160901",
    "latitude": "29.937120333404525",
    "geocoded_column": {
      "latitude": "29.937120333404525",
      "longitude": "-90.09736431160901"
    }
  },
  {
    "service_request": "2022-884397",
    "request_type": "Property Maintenance",
    "request_reason": "Property Maintenance",
    "date_created": "2022-05-18T19:52:54.000",
    "date_modified": "2022-05-18T19:52:54.000",
    "request_status": "Pending",
    "responsible_agency": "Department of Code Enforcement",
    "final_address": "3157 St Claude Ave",
    "address_councildis": "C",
    "status": "Pending",
    "rowid": "884397",
    "final_x": "3689501.8358",
    "final_y": "535998.134919",
    "longitude": "-90.04264420708174",
    "latitude": "29.967563614203264",
    "geocoded_column": {
      "latitude": "29.967563614203264",
      "longitude": "-90.04264420708174"
    }
  },
  {
    "service_request": "2022-884396",
    "request_type": "Property Maintenance",
    "request_reason": "Property Maintenance",
    "date_created": "2022-05-18T19:52:37.000",
    "date_modified": "2022-05-18T19:52:37.000",
    "request_status": "Pending",
    "responsible_agency": "Department of Code Enforcement",
    "final_address": "2523 Feliciana St",
    "address_councildis": "D",
    "status": "Pending",
    "rowid": "884396",
    "final_x": "3690182.51356",
    "final_y": "541524.181068",
    "longitude": "-90.04029768753098",
    "latitude": "29.982737184368016",
    "geocoded_column": {
      "latitude": "29.982737184368016",
      "longitude": "-90.04029768753098"
    }
  },
  {
    "service_request": "2022-884395",
    "request_type": "Traffic Signals/Signs/Striping/Streetlights",
    "request_reason": "Traffic Sign Missing/Damaged",
    "date_created": "2022-05-18T19:43:29.000",
    "date_modified": "2022-05-18T19:43:29.000",
    "request_status": "Pending",
    "responsible_agency": "Department of Public Works",
    "final_address": "600 Loyola Ave",
    "address_councildis": "B",
    "status": "Pending",
    "rowid": "884395",
    "final_x": "3679077.6276",
    "final_y": "529249.623553",
    "longitude": "-90.0757979802308",
    "latitude": "29.949326236899775",
    "geocoded_column": {
      "latitude": "29.949326236899775",
      "longitude": "-90.0757979802308"
    }
  },
  {
    "service_request": "2022-884394",
    "request_type": "Property Maintenance",
    "request_reason": "Property Maintenance",
    "date_created": "2022-05-18T19:43:05.000",
    "date_modified": "2022-05-18T19:43:05.000",
    "request_status": "Pending",
    "responsible_agency": "Department of Code Enforcement",
    "final_address": "2627 Delachaise St",
    "address_councildis": "B",
    "status": "Pending",
    "rowid": "884394",
    "final_x": "3672410.79182",
    "final_y": "524878.02182",
    "longitude": "-90.09699712123759",
    "latitude": "29.937505263045527",
    "geocoded_column": {
      "latitude": "29.937505263045527",
      "longitude": "-90.09699712123759"
    }
  },
  {
    "service_request": "2022-884392",
    "request_type": "Mosquito, Termite & Rodent Control",
    "request_reason": "Mosquito Complaint",
    "date_created": "2022-05-18T19:23:50.000",
    "date_modified": "2022-05-18T19:23:50.000",
    "request_status": "Pending",
    "responsible_agency": "Mosquito, Termite & Rodent Control Board",
    "final_address": "8404 Belfast St",
    "address_councildis": "A",
    "status": "Pending",
    "rowid": "884392",
    "final_x": "3664723.43879",
    "final_y": "533101.512132",
    "longitude": "-90.12099205332909",
    "latitude": "29.960343038576642",
    "geocoded_column": {
      "latitude": "29.960343038576642",
      "longitude": "-90.12099205332909"
    }
  },
  {
    "service_request": "2022-884391",
    "request_type": "Trash/Recycling",
    "request_reason": "Replace Trash Cart",
    "date_created": "2022-05-18T19:09:28.000",
    "date_modified": "2022-05-18T19:09:28.000",
    "request_status": "Pending",
    "responsible_agency": "Department of Sanitation",
    "final_address": "961 Harding Dr, New Orleans, Louisiana, 70119",
    "address_councildis": "A",
    "status": "Assigned to Contractor",
    "contractor": "Richards Disposal",
    "rowid": "884391",
    "final_x": "3674342.14088",
    "final_y": "540185.099915",
    "longitude": "-90.09037549243301",
    "latitude": "29.979537168531873",
    "geocoded_column": {
      "latitude": "29.979537168531873",
      "longitude": "-90.09037549243301"
    }
  },
  {
    "service_request": "2022-884390",
    "request_type": "Trash/Recycling",
    "request_reason": "Repair Trash Cart",
    "date_created": "2022-05-18T19:06:35.000",
    "date_modified": "2022-05-18T19:06:35.000",
    "request_status": "Pending",
    "responsible_agency": "Department of Sanitation",
    "final_address": "1314 State St",
    "address_councildis": "A",
    "status": "Assigned to Contractor",
    "contractor": "Richards Disposal",
    "rowid": "884390",
    "final_x": "3665164.36352",
    "final_y": "521007.745337",
    "longitude": "-90.12000408831273",
    "latitude": "29.927076230323696",
    "geocoded_column": {
      "latitude": "29.927076230323696",
      "longitude": "-90.12000408831273"
    }
  },
  {
    "service_request": "2022-884389",
    "request_type": "Traffic Signals/Signs/Striping/Streetlights",
    "request_reason": "Street Light Outage/Malfunction",
    "date_created": "2022-05-18T19:02:55.000",
    "date_modified": "2022-05-18T19:02:56.000",
    "request_status": "Pending",
    "responsible_agency": "Department of Public Works",
    "final_address": "600 Canal St",
    "address_councildis": "B",
    "status": "Pending",
    "contractor": "Royal Engineering",
    "rowid": "884389",
    "final_x": "3681390.76431",
    "final_y": "530409.599746",
    "longitude": "-90.06845395328503",
    "latitude": "29.952445774072807",
    "geocoded_column": {
      "latitude": "29.952445774072807",
      "longitude": "-90.06845395328503"
    }
  },
  {
    "service_request": "2022-884388",
    "request_type": "Trash/Recycling",
    "request_reason": "Request a Large Item Pick Up",
    "date_created": "2022-05-18T18:54:50.000",
    "date_modified": "2022-05-18T18:54:51.000",
    "request_status": "Pending",
    "responsible_agency": "Department of Sanitation",
    "final_address": "2561 N Prieur St, New Orleans, Louisiana, 70117",
    "address_councildis": "D",
    "status": "Assigned to Contractor",
    "contractor": "Metro Disposal",
    "rowid": "884388",
    "final_x": "3687502.35074",
    "final_y": "539503.886986",
    "longitude": "-90.04883449873634",
    "latitude": "29.977264980195557",
    "geocoded_column": {
      "latitude": "29.977264980195557",
      "longitude": "-90.04883449873634"
    }
  },
  {
    "service_request": "2022-884387",
    "request_type": "Traffic Signals/Signs/Striping/Streetlights",
    "request_reason": "Street Light Outage/Malfunction",
    "date_created": "2022-05-18T18:52:08.000",
    "date_modified": "2022-05-18T18:52:09.000",
    "request_status": "Pending",
    "responsible_agency": "Department of Public Works",
    "final_address": "925 Common St",
    "address_councildis": "B",
    "status": "Pending",
    "contractor": "Royal Engineering",
    "rowid": "884387",
    "final_x": "3679946.17397",
    "final_y": "530891.414786",
    "longitude": "-90.07299857527359",
    "latitude": "29.953814371996707",
    "geocoded_column": {
      "latitude": "29.953814371996707",
      "longitude": "-90.07299857527359"
    }
  },
  {
    "service_request": "2022-884386",
    "request_type": "Health Related Questions",
    "request_reason": "Noise Ordinance Complaint",
    "date_created": "2022-05-18T18:51:50.000",
    "date_modified": "2022-05-18T18:51:50.000",
    "request_status": "Pending",
    "responsible_agency": "Health Department",
    "final_address": "2317 Soniat St",
    "address_councildis": "B",
    "status": "Pending",
    "rowid": "884386",
    "final_x": "3668555.75143",
    "final_y": "524090.256124",
    "longitude": "-90.10919436509857",
    "latitude": "29.935452970217188",
    "geocoded_column": {
      "latitude": "29.935452970217188",
      "longitude": "-90.10919436509857"
    }
  },
  {
    "service_request": "2022-884385",
    "request_type": "Traffic Signals/Signs/Striping/Streetlights",
    "request_reason": "Traffic Signal Malfunctioning/Damaged",
    "date_created": "2022-05-18T18:46:43.000",
    "date_modified": "2022-05-18T18:46:43.000",
    "request_status": "Pending",
    "responsible_agency": "Department of Public Works",
    "final_address": "210 OKeefe Ave",
    "address_councildis": "B",
    "status": "Pending",
    "rowid": "884385",
    "final_x": "3679876.32213",
    "final_y": "530778.312898",
    "longitude": "-90.07322306590953",
    "latitude": "29.95350549234681",
    "geocoded_column": {
      "latitude": "29.95350549234681",
      "longitude": "-90.07322306590953"
    }
  },
  {
    "service_request": "2022-884384",
    "request_type": "Property Maintenance",
    "request_reason": "Property Maintenance",
    "date_created": "2022-05-18T18:30:37.000",
    "date_modified": "2022-05-18T18:30:37.000",
    "request_status": "Pending",
    "responsible_agency": "Department of Code Enforcement",
    "final_address": "7409 Dogwood Dr",
    "address_councildis": "E",
    "status": "Pending",
    "rowid": "884384",
    "final_x": "3701590.96471",
    "final_y": "560435.921886",
    "longitude": "-90.00357111898242",
    "latitude": "30.034378403825855",
    "geocoded_column": {
      "latitude": "30.034378403825855",
      "longitude": "-90.00357111898242"
    }
  },
  {
    "service_request": "2022-884383",
    "request_type": "Trash/Recycling",
    "request_reason": "Request a Large Item Pick Up",
    "date_created": "2022-05-18T18:29:50.000",
    "date_modified": "2022-05-18T18:29:50.000",
    "request_status": "Pending",
    "responsible_agency": "Department of Sanitation",
    "final_address": "7408 Ligustrum Dr",
    "address_councildis": "E",
    "status": "Assigned to Contractor",
    "contractor": "Metro Disposal",
    "rowid": "884383",
    "final_x": "3701687.63447",
    "final_y": "560484.74275",
    "longitude": "-90.00326384050128",
    "latitude": "30.034509557135543",
    "geocoded_column": {
      "latitude": "30.034509557135543",
      "longitude": "-90.00326384050128"
    }
  },
  {
    "service_request": "2022-884382",
    "request_type": "Trash/Recycling",
    "request_reason": "Request a Large Item Pick Up",
    "date_created": "2022-05-18T18:27:10.000",
    "date_modified": "2022-05-18T18:27:10.000",
    "request_status": "Pending",
    "responsible_agency": "Department of Sanitation",
    "final_address": "536 Nashville Ave",
    "address_councildis": "A",
    "status": "Assigned to Contractor",
    "contractor": "Richards Disposal",
    "rowid": "884382",
    "final_x": "3665307.04109",
    "final_y": "518284.246326",
    "longitude": "-90.11964475498111",
    "latitude": "29.9195833079982",
    "geocoded_column": {
      "latitude": "29.9195833079982",
      "longitude": "-90.11964475498111"
    }
  },
  {
    "service_request": "2022-884381",
    "request_type": "Property Maintenance",
    "request_reason": "Property Maintenance",
    "date_created": "2022-05-18T17:27:11.000",
    "date_modified": "2022-05-18T17:27:11.000",
    "request_status": "Pending",
    "responsible_agency": "Department of Code Enforcement",
    "final_address": "1749 Tennessee St",
    "address_councildis": "E",
    "status": "Pending",
    "rowid": "884381",
    "final_x": "3696465.43946",
    "final_y": "536932.494216",
    "longitude": "-90.02061930780344",
    "latitude": "29.969915251463725",
    "geocoded_column": {
      "latitude": "29.969915251463725",
      "longitude": "-90.02061930780344"
    }
  },
  {
    "service_request": "2022-884380",
    "request_type": "Trash/Recycling",
    "request_reason": "Request a Large Item Pick Up",
    "date_created": "2022-05-18T17:22:51.000",
    "date_modified": "2022-05-18T17:22:51.000",
    "request_status": "Pending",
    "responsible_agency": "Department of Sanitation",
    "final_address": "1225 Clouet St",
    "address_councildis": "C",
    "status": "Assigned to Contractor",
    "contractor": "Metro Disposal",
    "rowid": "884380",
    "final_x": "3689187.98019",
    "final_y": "536582.600583",
    "longitude": "-90.04361459173533",
    "latitude": "29.96918040702373",
    "geocoded_column": {
      "latitude": "29.96918040702373",
      "longitude": "-90.04361459173533"
    }
  },
  {
    "service_request": "2022-884379",
    "request_type": "Trash/Recycling",
    "request_reason": "Repair Trash Cart",
    "date_created": "2022-05-18T17:13:37.000",
    "date_modified": "2022-05-18T17:13:37.000",
    "request_status": "Pending",
    "responsible_agency": "Department of Sanitation",
    "final_address": "24 Admiralty Ct",
    "address_councildis": "C",
    "status": "Assigned to Contractor",
    "contractor": "Richards Disposal",
    "rowid": "884379",
    "final_x": "3703966.5395",
    "final_y": "522989.236219",
    "longitude": "-89.99744366905331",
    "latitude": "29.931337839741488",
    "geocoded_column": {
      "latitude": "29.931337839741488",
      "longitude": "-89.99744366905331"
    }
  },
  {
    "service_request": "2022-884378",
    "request_type": "Trash/Recycling",
    "request_reason": "Request a Large Item Pick Up",
    "date_created": "2022-05-18T17:02:47.000",
    "date_modified": "2022-05-18T17:02:48.000",
    "request_status": "Pending",
    "responsible_agency": "Department of Sanitation",
    "final_address": "6051 Pratt Dr",
    "address_councildis": "D",
    "status": "Assigned to Contractor",
    "contractor": "Metro Disposal",
    "rowid": "884378",
    "final_x": "3680281.53679",
    "final_y": "554909.038232",
    "longitude": "-90.07110422925419",
    "latitude": "30.019844268031232",
    "geocoded_column": {
      "latitude": "30.019844268031232",
      "longitude": "-90.07110422925419"
    }
  },
  {
    "service_request": "2022-884377",
    "request_type": "Roads/Drainage",
    "request_reason": "Pothole",
    "date_created": "2022-05-18T17:00:09.000",
    "date_modified": "2022-05-18T17:00:09.000",
    "request_status": "Pending",
    "responsible_agency": "Department of Public Works",
    "final_address": "800 BLK Fulton St",
    "address_councildis": "B",
    "status": "Pending",
    "rowid": "884377",
    "final_x": "3682439.98285",
    "final_y": "527220.467328",
    "longitude": "-90.0652524443081",
    "latitude": "29.943644845922066",
    "geocoded_column": {
      "latitude": "29.943644845922066",
      "longitude": "-90.0652524443081"
    }
  },
  {
    "service_request": "2022-884376",
    "request_type": "Trash/Recycling",
    "request_reason": "Illegal Dumping",
    "date_created": "2022-05-18T16:54:09.000",
    "date_modified": "2022-05-18T16:54:10.000",
    "request_status": "Pending",
    "responsible_agency": "Department of Sanitation",
    "final_address": "9022 Oleander St",
    "address_councildis": "A",
    "status": "Pending",
    "rowid": "884376",
    "final_x": "3664255.83559",
    "final_y": "535899.448263",
    "longitude": "-90.12237527987587",
    "latitude": "29.96805003973287",
    "geocoded_column": {
      "latitude": "29.96805003973287",
      "longitude": "-90.12237527987587"
    }
  },
  {
    "service_request": "2022-884375",
    "request_type": "Roads/Drainage",
    "request_reason": "Damaged Sidewalk",
    "date_created": "2022-05-18T16:52:03.000",
    "date_modified": "2022-05-18T16:52:04.000",
    "request_status": "Pending",
    "responsible_agency": "Department of Public Works",
    "final_address": "330 Broadway St",
    "address_councildis": "A",
    "status": "Pending",
    "rowid": "884375",
    "final_x": "3661560.53798",
    "final_y": "522710.43257",
    "longitude": "-90.13132410693426",
    "latitude": "29.93186252518496",
    "geocoded_column": {
      "latitude": "29.93186252518496",
      "longitude": "-90.13132410693426"
    }
  },
  {
    "service_request": "2022-884374",
    "request_type": "Trash/Recycling",
    "request_reason": "Request a Large Item Pick Up",
    "date_created": "2022-05-18T16:50:03.000",
    "date_modified": "2022-05-18T16:50:04.000",
    "request_status": "Pending",
    "responsible_agency": "Department of Sanitation",
    "final_address": "11301 S Parkwood Ct",
    "address_councildis": "E",
    "status": "Assigned to Contractor",
    "contractor": "Metro Disposal",
    "rowid": "884374",
    "final_x": "3716862.77432",
    "final_y": "559213.925084",
    "longitude": "-89.95535711082726",
    "latitude": "30.030522241796408",
    "geocoded_column": {
      "latitude": "30.030522241796408",
      "longitude": "-89.95535711082726"
    }
  },
  {
    "service_request": "2022-884373",
    "request_type": "Property Maintenance",
    "request_reason": "Property Maintenance",
    "date_created": "2022-05-18T16:46:49.000",
    "date_modified": "2022-05-18T16:46:50.000",
    "request_status": "Pending",
    "responsible_agency": "Department of Code Enforcement",
    "final_address": "1719 Monroe St",
    "address_councildis": "A",
    "status": "Pending",
    "rowid": "884373",
    "final_x": "3661689.58291",
    "final_y": "531181.358274",
    "longitude": "-90.13063603607692",
    "latitude": "29.95515115082239",
    "geocoded_column": {
      "latitude": "29.95515115082239",
      "longitude": "-90.13063603607692"
    }
  },
  {
    "service_request": "2022-884372",
    "request_type": "Property Maintenance",
    "request_reason": "Property Maintenance",
    "date_created": "2022-05-18T16:44:37.000",
    "date_modified": "2022-05-18T16:44:37.000",
    "request_status": "Pending",
    "responsible_agency": "Department of Code Enforcement",
    "final_address": "3039 N Galvez St",
    "address_councildis": "D",
    "status": "Pending",
    "rowid": "884372",
    "final_x": "3689726.63766",
    "final_y": "539872.926218",
    "longitude": "-90.04179635436185",
    "latitude": "29.978210958537975",
    "geocoded_column": {
      "latitude": "29.978210958537975",
      "longitude": "-90.04179635436185"
    }
  },
  {
    "service_request": "2022-884371",
    "request_type": "Abandoned Vehicles",
    "request_reason": "Abandoned/Junk Vehicles",
    "date_created": "2022-05-18T16:44:28.000",
    "date_modified": "2022-05-18T16:46:22.000",
    "request_status": "Pending",
    "responsible_agency": "Department of Public Works",
    "final_address": "6135 Argonne Blvd",
    "address_councildis": "A",
    "status": "Pending",
    "rowid": "884371",
    "final_x": "3670301.61492",
    "final_y": "548076.258258",
    "longitude": "-90.10286948523935",
    "latitude": "30.001355039453347",
    "geocoded_column": {
      "latitude": "30.001355039453347",
      "longitude": "-90.10286948523935"
    }
  },
  {
    "service_request": "2022-884369",
    "request_type": "Trash/Recycling",
    "request_reason": "Illegal Dumping",
    "date_created": "2022-05-18T16:44:20.000",
    "date_modified": "2022-05-18T16:44:20.000",
    "request_status": "Pending",
    "responsible_agency": "Department of Sanitation",
    "final_address": "3222 Banks St",
    "address_councildis": "B",
    "status": "Pending",
    "rowid": "884369",
    "final_x": "3672958.42964",
    "final_y": "535329.726982",
    "longitude": "-90.09491155811754",
    "latitude": "29.966227737507666",
    "geocoded_column": {
      "latitude": "29.966227737507666",
      "longitude": "-90.09491155811754"
    }
  },
  {
    "service_request": "2022-884368",
    "request_type": "Property Maintenance",
    "request_reason": "Property Maintenance",
    "date_created": "2022-05-18T16:43:37.000",
    "date_modified": "2022-05-18T16:43:37.000",
    "request_status": "Pending",
    "responsible_agency": "Department of Code Enforcement",
    "final_address": "3039 N Galvez St",
    "address_councildis": "D",
    "status": "Pending",
    "rowid": "884368",
    "final_x": "3689726.63766",
    "final_y": "539872.926218",
    "longitude": "-90.04179635436185",
    "latitude": "29.978210958537975",
    "geocoded_column": {
      "latitude": "29.978210958537975",
      "longitude": "-90.04179635436185"
    }
  },
  {
    "service_request": "2022-884367",
    "request_type": "Property Maintenance",
    "request_reason": "Property Maintenance",
    "date_created": "2022-05-18T16:43:35.000",
    "date_modified": "2022-05-18T16:43:35.000",
    "request_status": "Pending",
    "responsible_agency": "Department of Code Enforcement",
    "final_address": "3039 N Galvez St",
    "address_councildis": "D",
    "status": "Pending",
    "rowid": "884367",
    "final_x": "3689726.63766",
    "final_y": "539872.926218",
    "longitude": "-90.04179635436185",
    "latitude": "29.978210958537975",
    "geocoded_column": {
      "latitude": "29.978210958537975",
      "longitude": "-90.04179635436185"
    }
  },
  {
    "service_request": "2022-884366",
    "request_type": "Trash/Recycling",
    "request_reason": "Illegal Dumping",
    "date_created": "2022-05-18T16:43:18.000",
    "date_modified": "2022-05-18T16:43:18.000",
    "request_status": "Pending",
    "responsible_agency": "Department of Sanitation",
    "final_address": "3200 Banks St",
    "address_councildis": "B",
    "status": "Pending",
    "rowid": "884366",
    "final_x": "3673063.20206",
    "final_y": "535250.738886",
    "longitude": "-90.09458338503946",
    "latitude": "29.966007432729725",
    "geocoded_column": {
      "latitude": "29.966007432729725",
      "longitude": "-90.09458338503946"
    }
  },
  {
    "service_request": "2022-884365",
    "request_type": "Property Maintenance",
    "request_reason": "Property Maintenance",
    "date_created": "2022-05-18T16:42:22.000",
    "date_modified": "2022-05-18T16:42:23.000",
    "request_status": "Pending",
    "responsible_agency": "Department of Code Enforcement",
    "final_address": "2224 Magnolia St",
    "address_councildis": "B",
    "status": "Pending",
    "rowid": "884365",
    "final_x": "3675067.15541",
    "final_y": "526658.852414",
    "longitude": "-90.08854970612252",
    "latitude": "29.94232288613784",
    "geocoded_column": {
      "latitude": "29.94232288613784",
      "longitude": "-90.08854970612252"
    }
  },
  {
    "service_request": "2022-884364",
    "request_type": "Trash/Recycling",
    "request_reason": "Missed Trash Pick-Up",
    "date_created": "2022-05-18T16:41:26.000",
    "date_modified": "2022-05-18T16:41:27.000",
    "request_status": "Pending",
    "responsible_agency": "Department of Sanitation",
    "final_address": "3108 College Ct",
    "address_councildis": "B",
    "status": "Assigned to Contractor",
    "contractor": "Richards Disposal",
    "rowid": "884364",
    "final_x": "3668438.72218",
    "final_y": "531824.666499",
    "longitude": "-90.10930299017294",
    "latitude": "29.956723524055274",
    "geocoded_column": {
      "latitude": "29.956723524055274",
      "longitude": "-90.10930299017294"
    }
  },
  {
    "service_request": "2022-884363",
    "request_type": "Roads/Drainage",
    "request_reason": "Street Flooding / Drainage",
    "date_created": "2022-05-18T16:41:25.000",
    "date_modified": "2022-05-18T16:41:25.000",
    "request_status": "Pending",
    "responsible_agency": "Department of Public Works",
    "final_address": "4949 Francisco Verrett Dr",
    "address_councildis": "E",
    "status": "Pending",
    "rowid": "884363",
    "final_x": "3704189.04106",
    "final_y": "556265.299098",
    "longitude": "-89.99551478244346",
    "latitude": "30.022827653225015",
    "geocoded_column": {
      "latitude": "30.022827653225015",
      "longitude": "-89.99551478244346"
    }
  },
  {
    "service_request": "2022-884362",
    "request_type": "Trash/Recycling",
    "request_reason": "Request a Large Item Pick Up",
    "date_created": "2022-05-18T16:41:02.000",
    "date_modified": "2022-05-18T16:41:03.000",
    "request_status": "Pending",
    "responsible_agency": "Department of Sanitation",
    "final_address": "524 S Olympia St",
    "address_councildis": "A",
    "status": "Assigned to Contractor",
    "contractor": "Richards Disposal",
    "rowid": "884362",
    "final_x": "3668378.4971",
    "final_y": "538118.151177",
    "longitude": "-90.10928086934176",
    "latitude": "29.974030285591965",
    "geocoded_column": {
      "latitude": "29.974030285591965",
      "longitude": "-90.10928086934176"
    }
  },
  {
    "service_request": "2022-884361",
    "request_type": "Traffic Signals/Signs/Striping/Streetlights",
    "request_reason": "Street Light Outage/Malfunction",
    "date_created": "2022-05-18T16:40:28.000",
    "date_modified": "2022-05-18T16:40:28.000",
    "request_status": "Pending",
    "responsible_agency": "Department of Public Works",
    "final_address": "1020 Arabella Street",
    "address_councildis": "A",
    "status": "Pending",
    "contractor": "Royal Engineering",
    "rowid": "884361",
    "final_x": "3665967.98631",
    "final_y": "519758.070008",
    "longitude": "-90.11750910782675",
    "latitude": "29.9236165940433",
    "geocoded_column": {
      "latitude": "29.9236165940433",
      "longitude": "-90.11750910782675"
    }
  },
  {
    "service_request": "2022-884360",
    "request_type": "Traffic Signals/Signs/Striping/Streetlights",
    "request_reason": "Street Light Outage/Malfunction",
    "date_created": "2022-05-18T16:39:28.000",
    "date_modified": "2022-05-18T16:39:28.000",
    "request_status": "Pending",
    "responsible_agency": "Department of Public Works",
    "final_address": "6123 Fleur-De-Lis Dr",
    "address_councildis": "A",
    "status": "Pending",
    "contractor": "Royal Engineering",
    "rowid": "884360",
    "final_x": "3665278.29748",
    "final_y": "548311.097042",
    "longitude": "-90.118730807055",
    "latitude": "30.002148133078464",
    "geocoded_column": {
      "latitude": "30.002148133078464",
      "longitude": "-90.118730807055"
    }
  },
  {
    "service_request": "2022-884359",
    "request_type": "Trash/Recycling",
    "request_reason": "Illegal Dumping",
    "date_created": "2022-05-18T16:36:05.000",
    "date_modified": "2022-05-18T16:36:05.000",
    "request_status": "Pending",
    "responsible_agency": "Department of Sanitation",
    "final_address": "501 Wagner St",
    "address_councildis": "C",
    "status": "Pending",
    "rowid": "884359",
    "final_x": "3690539.91811",
    "final_y": "529760.344321",
    "longitude": "-90.0395883498639",
    "latitude": "29.950379668468134",
    "geocoded_column": {
      "latitude": "29.950379668468134",
      "longitude": "-90.0395883498639"
    }
  },
  {
    "service_request": "2022-884358",
    "request_type": "Trash/Recycling",
    "request_reason": "Illegal Dumping",
    "date_created": "2022-05-18T16:33:51.000",
    "date_modified": "2022-05-18T16:33:51.000",
    "request_status": "Pending",
    "responsible_agency": "Department of Sanitation",
    "final_address": "1700 Elizardi Blvd",
    "address_councildis": "C",
    "status": "Pending",
    "rowid": "884358",
    "final_x": "3694711.09744",
    "final_y": "524588.352892",
    "longitude": "-90.02660423941697",
    "latitude": "29.936028322754293",
    "geocoded_column": {
      "latitude": "29.936028322754293",
      "longitude": "-90.02660423941697"
    }
  },
  {
    "service_request": "2022-884357",
    "request_type": "Trash/Recycling",
    "request_reason": "Illegal Dumping",
    "date_created": "2022-05-18T16:31:35.000",
    "date_modified": "2022-05-18T16:31:35.000",
    "request_status": "Pending",
    "responsible_agency": "Department of Sanitation",
    "final_address": "1600 Pelican Ave",
    "address_councildis": "C",
    "status": "Pending",
    "rowid": "884357",
    "final_x": "3690388.01347",
    "final_y": "530695.857538",
    "longitude": "-90.04003464386894",
    "latitude": "29.95295672206777",
    "geocoded_column": {
      "latitude": "29.95295672206777",
      "longitude": "-90.04003464386894"
    }
  },
  {
    "service_request": "2022-884356",
    "request_type": "Trash/Recycling",
    "request_reason": "Illegal Dumping",
    "date_created": "2022-05-18T16:31:21.000",
    "date_modified": "2022-05-18T16:31:21.000",
    "request_status": "Pending",
    "responsible_agency": "Department of Sanitation",
    "final_address": "3039 N Galvez St",
    "address_councildis": "D",
    "status": "Pending",
    "rowid": "884356",
    "final_x": "3689726.63766",
    "final_y": "539872.926218",
    "longitude": "-90.04179635436185",
    "latitude": "29.978210958537975",
    "geocoded_column": {
      "latitude": "29.978210958537975",
      "longitude": "-90.04179635436185"
    }
  },
  {
    "service_request": "2022-884355",
    "request_type": "Traffic Signals/Signs/Striping/Streetlights",
    "request_reason": "Street Light Outage/Malfunction",
    "date_created": "2022-05-18T16:29:25.000",
    "date_modified": "2022-05-18T16:29:26.000",
    "request_status": "Pending",
    "responsible_agency": "Department of Public Works",
    "final_address": "1407 Killdeer St",
    "address_councildis": "D",
    "status": "Pending",
    "contractor": "Royal Engineering",
    "rowid": "884355",
    "final_x": "3677672.7707",
    "final_y": "556488.421146",
    "longitude": "-90.07929247625997",
    "latitude": "30.024265756993806",
    "geocoded_column": {
      "latitude": "30.024265756993806",
      "longitude": "-90.07929247625997"
    }
  },
  {
    "service_request": "2022-884354",
    "request_type": "Traffic Signals/Signs/Striping/Streetlights",
    "request_reason": "Street Light Outage/Malfunction",
    "date_created": "2022-05-18T16:27:59.000",
    "date_modified": "2022-05-18T16:30:47.000",
    "request_status": "Pending",
    "responsible_agency": "Department of Public Works",
    "final_address": "1329 Killdeer St",
    "address_councildis": "D",
    "status": "Pending",
    "contractor": "Royal Engineering",
    "rowid": "884354",
    "final_x": "3677512.25512",
    "final_y": "556453.403994",
    "longitude": "-90.07980088690904",
    "latitude": "30.02417430196128",
    "geocoded_column": {
      "latitude": "30.02417430196128",
      "longitude": "-90.07980088690904"
    }
  },
  {
    "service_request": "2022-884353",
    "request_type": "Trash/Recycling",
    "request_reason": "Request a Large Item Pick Up",
    "date_created": "2022-05-18T16:25:24.000",
    "date_modified": "2022-05-18T16:25:25.000",
    "request_status": "Pending",
    "responsible_agency": "Department of Sanitation",
    "final_address": "1308 Bordeaux St",
    "address_councildis": "B",
    "status": "Assigned to Contractor",
    "contractor": "Richards Disposal",
    "rowid": "884353",
    "final_x": "3669369.00487",
    "final_y": "519993.92684",
    "longitude": "-90.10676534417283",
    "latitude": "29.924165458647515",
    "geocoded_column": {
      "latitude": "29.924165458647515",
      "longitude": "-90.10676534417283"
    }
  },
  {
    "service_request": "2022-884352",
    "request_type": "Trash/Recycling",
    "request_reason": "Missed Trash Pick-Up",
    "date_created": "2022-05-18T16:23:24.000",
    "date_modified": "2022-05-18T16:23:25.000",
    "request_status": "Pending",
    "responsible_agency": "Department of Sanitation",
    "final_address": "1661 N Dupre St",
    "address_councildis": "D",
    "status": "Assigned to Contractor",
    "contractor": "Metro Disposal",
    "rowid": "884352",
    "final_x": "3678833.40456",
    "final_y": "541082.836108",
    "longitude": "-90.07615917101803",
    "latitude": "29.981870906200964",
    "geocoded_column": {
      "latitude": "29.981870906200964",
      "longitude": "-90.07615917101803"
    }
  },
  {
    "service_request": "2022-884351",
    "request_type": "Trash/Recycling",
    "request_reason": "Request a Large Item Pick Up",
    "date_created": "2022-05-18T16:16:28.000",
    "date_modified": "2022-05-18T16:16:29.000",
    "request_status": "Pending",
    "responsible_agency": "Department of Sanitation",
    "final_address": "4907 Music St",
    "address_councildis": "D",
    "status": "Assigned to Contractor",
    "contractor": "Metro Disposal",
    "rowid": "884351",
    "final_x": "3685652.36252",
    "final_y": "550939.132053",
    "longitude": "-90.0542742060209",
    "latitude": "30.008764709076527",
    "geocoded_column": {
      "latitude": "30.008764709076527",
      "longitude": "-90.0542742060209"
    }
  },
  {
    "service_request": "2022-884350",
    "request_type": "Trash/Recycling",
    "request_reason": "Repair Trash Cart",
    "date_created": "2022-05-18T16:09:36.000",
    "date_modified": "2022-05-18T16:09:37.000",
    "request_status": "Pending",
    "responsible_agency": "Department of Sanitation",
    "final_address": "2226 Magnolia St",
    "address_councildis": "B",
    "status": "Assigned to Contractor",
    "contractor": "Richards Disposal",
    "rowid": "884350",
    "final_x": "3675050.40801",
    "final_y": "526647.838206",
    "longitude": "-90.08860295922237",
    "latitude": "29.942293100938098",
    "geocoded_column": {
      "latitude": "29.942293100938098",
      "longitude": "-90.08860295922237"
    }
  },
  {
    "service_request": "2022-884349",
    "request_type": "Abandoned Vehicles",
    "request_reason": "Abandoned/Junk Vehicles",
    "date_created": "2022-05-18T16:05:22.000",
    "date_modified": "2022-05-18T16:05:23.000",
    "request_status": "Pending",
    "responsible_agency": "Department of Public Works",
    "final_address": "2339 Almonaster Ave",
    "address_councildis": "D",
    "status": "Pending",
    "rowid": "884349",
    "final_x": "3688429.41871",
    "final_y": "541289.75406",
    "longitude": "-90.04584314535275",
    "latitude": "29.982146873245046",
    "geocoded_column": {
      "latitude": "29.982146873245046",
      "longitude": "-90.04584314535275"
    }
  },
  {
    "service_request": "2022-884348",
    "request_type": "Trash/Recycling",
    "request_reason": "Illegal Dumping",
    "date_created": "2022-05-18T16:05:10.000",
    "date_modified": "2022-05-18T16:05:10.000",
    "request_status": "Pending",
    "responsible_agency": "Department of Sanitation",
    "final_address": "3041 N Galvez St",
    "address_councildis": "D",
    "status": "Pending",
    "rowid": "884348",
    "final_x": "3689763.70044",
    "final_y": "539863.710346",
    "longitude": "-90.04167962529343",
    "latitude": "29.978184469431575",
    "geocoded_column": {
      "latitude": "29.978184469431575",
      "longitude": "-90.04167962529343"
    }
  },
  {
    "service_request": "2022-884347",
    "request_type": "Trash/Recycling",
    "request_reason": "Repair Recycling Cart",
    "date_created": "2022-05-18T16:04:05.000",
    "date_modified": "2022-05-18T16:04:05.000",
    "request_status": "Pending",
    "responsible_agency": "Department of Sanitation",
    "final_address": "62 N Lark St",
    "address_councildis": "D",
    "status": "Pending",
    "rowid": "884347",
    "final_x": "3674944.21563",
    "final_y": "556716.904538",
    "longitude": "-90.08790637591845",
    "latitude": "30.02497583118646",
    "geocoded_column": {
      "latitude": "30.02497583118646",
      "longitude": "-90.08790637591845"
    }
  },
  {
    "service_request": "2022-884345",
    "request_type": "Traffic Signals/Signs/Striping/Streetlights",
    "request_reason": "Traffic Sign Missing/Damaged",
    "date_created": "2022-05-18T16:00:38.000",
    "date_modified": "2022-05-18T16:00:38.000",
    "request_status": "Pending",
    "responsible_agency": "Department of Public Works",
    "final_address": "BUNDY RD & CHEF MENTEUR HWY",
    "address_councildis": "E",
    "status": "Pending",
    "rowid": "884345",
    "final_x": "3709528.2",
    "final_y": "553799.58",
    "longitude": "-89.97873652435173",
    "latitude": "30.015875401942854",
    "geocoded_column": {
      "latitude": "30.015875401942854",
      "longitude": "-89.97873652435173"
    }
  },
  {
    "service_request": "2022-884344",
    "request_type": "Roads/Drainage",
    "request_reason": "Accessibility Ramps, Curbs and Sidewalk Repair",
    "date_created": "2022-05-18T15:59:27.000",
    "date_modified": "2022-05-18T15:59:27.000",
    "request_status": "Pending",
    "responsible_agency": "Department of Public Works",
    "final_address": "919 Touro St",
    "address_councildis": "C",
    "status": "Pending",
    "rowid": "884344",
    "final_x": "3684307.38325",
    "final_y": "535689.772039",
    "longitude": "-90.059059205684",
    "latitude": "29.966875585621363",
    "geocoded_column": {
      "latitude": "29.966875585621363",
      "longitude": "-90.059059205684"
    }
  },
  {
    "service_request": "2022-884343",
    "request_type": "Roads/Drainage",
    "request_reason": "Street Subsidence (Sinking)",
    "date_created": "2022-05-18T15:56:45.000",
    "date_modified": "2022-05-18T15:56:45.000",
    "request_status": "Pending",
    "responsible_agency": "Department of Public Works",
    "final_address": "919 Touro St",
    "address_councildis": "C",
    "status": "Pending",
    "rowid": "884343",
    "final_x": "3684307.38325",
    "final_y": "535689.772039",
    "longitude": "-90.059059205684",
    "latitude": "29.966875585621363",
    "geocoded_column": {
      "latitude": "29.966875585621363",
      "longitude": "-90.059059205684"
    }
  },
  {
    "service_request": "2022-884342",
    "request_type": "Trash/Recycling",
    "request_reason": "Request a Large Item Pick Up",
    "date_created": "2022-05-18T15:54:30.000",
    "date_modified": "2022-05-18T15:54:31.000",
    "request_status": "Pending",
    "responsible_agency": "Department of Sanitation",
    "final_address": "2715 Edna St",
    "address_councildis": "D",
    "status": "Assigned to Contractor",
    "contractor": "Metro Disposal",
    "rowid": "884342",
    "final_x": "3689526.94403",
    "final_y": "545319.454415",
    "longitude": "-90.04223322848158",
    "latitude": "29.993193149646114",
    "geocoded_column": {
      "latitude": "29.993193149646114",
      "longitude": "-90.04223322848158"
    }
  },
  {
    "service_request": "2022-884341",
    "request_type": "Trash/Recycling",
    "request_reason": "Missed Trash Pick-Up",
    "date_created": "2022-05-18T15:45:36.000",
    "date_modified": "2022-05-18T15:45:36.000",
    "request_status": "Pending",
    "responsible_agency": "Department of Sanitation",
    "final_address": "3711 St Charles Ave",
    "address_councildis": "B",
    "status": "Assigned to Contractor",
    "contractor": "Richards Disposal",
    "rowid": "884341",
    "final_x": "3673041.92776",
    "final_y": "521227.199481",
    "longitude": "-90.09512912660577",
    "latitude": "29.92744794274862",
    "geocoded_column": {
      "latitude": "29.92744794274862",
      "longitude": "-90.09512912660577"
    }
  },
  {
    "service_request": "2022-884340",
    "request_type": "Abandoned Vehicles",
    "request_reason": "Abandoned/Junk Vehicles",
    "date_created": "2022-05-18T15:45:35.000",
    "date_modified": "2022-05-18T15:45:35.000",
    "request_status": "Pending",
    "responsible_agency": "Department of Public Works",
    "final_address": "2417 Decatur St",
    "address_councildis": "C",
    "status": "Pending",
    "rowid": "884340",
    "final_x": "3686091.88719",
    "final_y": "534257.233669",
    "longitude": "-90.05347428481933",
    "latitude": "29.962881913334098",
    "geocoded_column": {
      "latitude": "29.962881913334098",
      "longitude": "-90.05347428481933"
    }
  },
  {
    "service_request": "2022-884339",
    "request_type": "Trash/Recycling",
    "request_reason": "Illegal Dumping",
    "date_created": "2022-05-18T15:45:14.000",
    "date_modified": "2022-05-18T15:45:14.000",
    "request_status": "Pending",
    "responsible_agency": "Department of Sanitation",
    "final_address": "2556 N Tonti St, New Orleans, Louisiana, 70117",
    "address_councildis": "D",
    "status": "Pending",
    "rowid": "884339",
    "final_x": "3687002.92303",
    "final_y": "540872.466123",
    "longitude": "-90.05036345483028",
    "latitude": "29.981043474526093",
    "geocoded_column": {
      "latitude": "29.981043474526093",
      "longitude": "-90.05036345483028"
    }
  },
  {
    "service_request": "2022-884338",
    "request_type": "Trash/Recycling",
    "request_reason": "Illegal Dumping",
    "date_created": "2022-05-18T15:45:12.000",
    "date_modified": "2022-05-18T16:03:53.000",
    "case_close_date": "2022-05-18T11:03:53.000",
    "request_status": "Closed",
    "responsible_agency": "Department of Sanitation",
    "final_address": "1200 BLK Foucher St",
    "address_councildis": "B",
    "status": "Referred to External Agency",
    "rowid": "884338",
    "final_x": "3673986.0388",
    "final_y": "519821.291838",
    "longitude": "-90.09219686893675",
    "latitude": "29.9235540627382",
    "geocoded_column": {
      "latitude": "29.9235540627382",
      "longitude": "-90.09219686893675"
    }
  },
  {
    "service_request": "2022-884337",
    "request_type": "Property Maintenance",
    "request_reason": "Property Maintenance",
    "date_created": "2022-05-18T15:45:01.000",
    "date_modified": "2022-05-18T15:45:01.000",
    "request_status": "Pending",
    "responsible_agency": "Department of Code Enforcement",
    "final_address": "1616 Lesseps St",
    "address_councildis": "D",
    "status": "Pending",
    "rowid": "884337",
    "final_x": "3693165.00061",
    "final_y": "537116.278472",
    "longitude": "-90.03103576986771",
    "latitude": "29.97052414722035",
    "geocoded_column": {
      "latitude": "29.97052414722035",
      "longitude": "-90.03103576986771"
    }
  },
  {
    "service_request": "2022-884335",
    "request_type": "Mosquito, Termite & Rodent Control",
    "request_reason": "Mosquito Complaint",
    "date_created": "2022-05-18T15:39:11.000",
    "date_modified": "2022-05-18T15:39:12.000",
    "request_status": "Pending",
    "responsible_agency": "Mosquito, Termite & Rodent Control Board",
    "final_address": "3700 Constance St",
    "address_councildis": "B",
    "status": "Pending",
    "rowid": "884335",
    "final_x": "3673728.93345",
    "final_y": "518707.833655",
    "longitude": "-90.09304650145924",
    "latitude": "29.92050006438145",
    "geocoded_column": {
      "latitude": "29.92050006438145",
      "longitude": "-90.09304650145924"
    }
  },
  {
    "service_request": "2022-884334",
    "request_type": "Trash/Recycling",
    "request_reason": "Request a Large Item Pick Up",
    "date_created": "2022-05-18T15:39:10.000",
    "date_modified": "2022-05-18T15:39:11.000",
    "request_status": "Pending",
    "responsible_agency": "Department of Sanitation",
    "final_address": "2556 N Tonti St, New Orleans, Louisiana, 70117",
    "address_councildis": "D",
    "status": "Assigned to Contractor",
    "contractor": "Metro Disposal",
    "rowid": "884334",
    "final_x": "3687002.92303",
    "final_y": "540872.466123",
    "longitude": "-90.05036345483028",
    "latitude": "29.981043474526093",
    "geocoded_column": {
      "latitude": "29.981043474526093",
      "longitude": "-90.05036345483028"
    }
  },
  {
    "service_request": "2022-884333",
    "request_type": "Trash/Recycling",
    "request_reason": "Request a Large Item Pick Up",
    "date_created": "2022-05-18T15:35:28.000",
    "date_modified": "2022-05-18T15:35:29.000",
    "request_status": "Pending",
    "responsible_agency": "Department of Sanitation",
    "final_address": "4815 Pauline Dr",
    "address_councildis": "D",
    "status": "Assigned to Contractor",
    "contractor": "Metro Disposal",
    "rowid": "884333",
    "final_x": "3692875.86077",
    "final_y": "551916.866582",
    "longitude": "-90.03141781678669",
    "latitude": "30.01122942630126",
    "geocoded_column": {
      "latitude": "30.01122942630126",
      "longitude": "-90.03141781678669"
    }
  },
  {
    "service_request": "2022-884332",
    "request_type": "Roads/Drainage",
    "request_reason": "Street Flooding / Drainage",
    "date_created": "2022-05-18T15:33:45.000",
    "date_modified": "2022-05-18T15:33:45.000",
    "request_status": "Pending",
    "responsible_agency": "Department of Public Works",
    "final_address": "3742 Garden Oaks Dr",
    "address_councildis": "C",
    "status": "Pending",
    "rowid": "884332",
    "final_x": "3696108.93654",
    "final_y": "517956.983158",
    "longitude": "-90.02243076233432",
    "latitude": "29.917750409925006",
    "geocoded_column": {
      "latitude": "29.917750409925006",
      "longitude": "-90.02243076233432"
    }
  },
  {
    "service_request": "2022-884331",
    "request_type": "Traffic Signals/Signs/Striping/Streetlights",
    "request_reason": "Street Light Outage/Malfunction",
    "date_created": "2022-05-18T15:33:19.000",
    "date_modified": "2022-05-18T15:33:19.000",
    "request_status": "Pending",
    "responsible_agency": "Department of Public Works",
    "final_address": "BURBANK DR & PASTEUR BLVD",
    "address_councildis": "D",
    "status": "Pending",
    "contractor": "Royal Engineering",
    "rowid": "884331",
    "final_x": "3682738.1",
    "final_y": "554710.98",
    "longitude": "-90.0633492266207",
    "latitude": "30.019225044096817",
    "geocoded_column": {
      "latitude": "30.019225044096817",
      "longitude": "-90.0633492266207"
    }
  },
  {
    "service_request": "2022-884330",
    "request_type": "Trash/Recycling",
    "request_reason": "Repair Recycling Cart",
    "date_created": "2022-05-18T15:27:07.000",
    "date_modified": "2022-05-18T15:27:08.000",
    "request_status": "Pending",
    "responsible_agency": "Department of Sanitation",
    "final_address": "2656 Hyman Pl",
    "address_councildis": "C",
    "status": "Pending",
    "rowid": "884330",
    "final_x": "3701105.29233",
    "final_y": "521186.602041",
    "longitude": "-90.00654210282562",
    "latitude": "29.926472633087375",
    "geocoded_column": {
      "latitude": "29.926472633087375",
      "longitude": "-90.00654210282562"
    }
  },
  {
    "service_request": "2022-884329",
    "request_type": "Trash/Recycling",
    "request_reason": "Replace Trash Cart",
    "date_created": "2022-05-18T15:25:39.000",
    "date_modified": "2022-05-18T15:25:40.000",
    "request_status": "Pending",
    "responsible_agency": "Department of Sanitation",
    "final_address": "519 Seguin St",
    "address_councildis": "C",
    "status": "Assigned to Contractor",
    "contractor": "Richards Disposal",
    "rowid": "884329",
    "final_x": "3686489.03958",
    "final_y": "529812.041217",
    "longitude": "-90.05237705661858",
    "latitude": "29.950646958662315",
    "geocoded_column": {
      "latitude": "29.950646958662315",
      "longitude": "-90.05237705661858"
    }
  },
  {
    "service_request": "2022-884327",
    "request_type": "Trash/Recycling",
    "request_reason": "MIssed Recycling Pick-Up",
    "date_created": "2022-05-18T15:17:58.000",
    "date_modified": "2022-05-18T15:17:59.000",
    "request_status": "Pending",
    "responsible_agency": "Department of Sanitation",
    "final_address": "931 N Tonti St",
    "address_councildis": "D",
    "status": "Assigned to Contractor",
    "contractor": "Richards Disposal",
    "rowid": "884327",
    "final_x": "3678302.37614",
    "final_y": "536986.383816",
    "longitude": "-90.07797816285691",
    "latitude": "29.97062308333351",
    "geocoded_column": {
      "latitude": "29.97062308333351",
      "longitude": "-90.07797816285691"
    }
  },
  {
    "service_request": "2022-884326",
    "request_type": "Property Maintenance",
    "request_reason": "Property Maintenance",
    "date_created": "2022-05-18T15:17:38.000",
    "date_modified": "2022-05-18T15:17:39.000",
    "request_status": "Pending",
    "responsible_agency": "Department of Code Enforcement",
    "final_address": "1725 Dumaine St",
    "address_councildis": "D",
    "status": "Pending",
    "rowid": "884326",
    "final_x": "3680003.85781",
    "final_y": "535386.453126",
    "longitude": "-90.07266027461488",
    "latitude": "29.966172456332384",
    "geocoded_column": {
      "latitude": "29.966172456332384",
      "longitude": "-90.07266027461488"
    }
  },
  {
    "service_request": "2022-884325",
    "request_type": "Trash/Recycling",
    "request_reason": "Request a Large Item Pick Up",
    "date_created": "2022-05-18T15:16:03.000",
    "date_modified": "2022-05-18T15:16:03.000",
    "request_status": "Pending",
    "responsible_agency": "Department of Sanitation",
    "final_address": "1371 Magazine St",
    "address_councildis": "B",
    "status": "Assigned to Contractor",
    "contractor": "Richards Disposal",
    "rowid": "884325",
    "final_x": "3680356.55016",
    "final_y": "524663.566012",
    "longitude": "-90.07191926179861",
    "latitude": "29.93667745167132",
    "geocoded_column": {
      "latitude": "29.93667745167132",
      "longitude": "-90.07191926179861"
    }
  },
  {
    "service_request": "2022-884324",
    "request_type": "Property Maintenance",
    "request_reason": "Property Maintenance",
    "date_created": "2022-05-18T15:14:41.000",
    "date_modified": "2022-05-18T15:14:41.000",
    "request_status": "Pending",
    "responsible_agency": "Department of Code Enforcement",
    "final_address": "WOODLAND HWY & TULLIS DR",
    "address_councildis": "C",
    "status": "Pending",
    "rowid": "884324",
    "final_x": "3707156.4",
    "final_y": "514471.98",
    "longitude": "-89.98768952717468",
    "latitude": "29.90781570561651",
    "geocoded_column": {
      "latitude": "29.90781570561651",
      "longitude": "-89.98768952717468"
    }
  },
  {
    "service_request": "2022-884323",
    "request_type": "Trash/Recycling",
    "request_reason": "Repair Trash Cart",
    "date_created": "2022-05-18T15:13:19.000",
    "date_modified": "2022-05-18T15:13:19.000",
    "request_status": "Pending",
    "responsible_agency": "Department of Sanitation",
    "final_address": "5638 Albany Ct",
    "address_councildis": "C",
    "status": "Assigned to Contractor",
    "contractor": "Richards Disposal",
    "rowid": "884323",
    "final_x": "3704586.89175",
    "final_y": "521563.977401",
    "longitude": "-89.99553784060319",
    "latitude": "29.927398974358052",
    "geocoded_column": {
      "latitude": "29.927398974358052",
      "longitude": "-89.99553784060319"
    }
  },
  {
    "service_request": "2022-884322",
    "request_type": "Abandoned Vehicles",
    "request_reason": "Abandoned/Junk Vehicles",
    "date_created": "2022-05-18T15:12:16.000",
    "date_modified": "2022-05-18T15:12:17.000",
    "request_status": "Pending",
    "responsible_agency": "Department of Public Works",
    "final_address": "2753 St Peter St",
    "address_councildis": "A",
    "status": "Pending",
    "rowid": "884322",
    "final_x": "3676313.47425",
    "final_y": "537166.139016",
    "longitude": "-90.08425316806125",
    "latitude": "29.971177113825327",
    "geocoded_column": {
      "latitude": "29.971177113825327",
      "longitude": "-90.08425316806125"
    }
  },
  {
    "service_request": "2022-884320",
    "request_type": "Trash/Recycling",
    "request_reason": "Order Trash Cart",
    "date_created": "2022-05-18T15:07:18.000",
    "date_modified": "2022-05-18T15:07:19.000",
    "request_status": "Pending",
    "responsible_agency": "Department of Sanitation",
    "final_address": "422 Newton St",
    "address_councildis": "C",
    "status": "Assigned to Contractor",
    "contractor": "Richards Disposal",
    "rowid": "884320",
    "final_x": "3686773.9533",
    "final_y": "527983.768959",
    "longitude": "-90.05154202407454",
    "latitude": "29.945611071850287",
    "geocoded_column": {
      "latitude": "29.945611071850287",
      "longitude": "-90.05154202407454"
    }
  },
  {
    "service_request": "2022-884318",
    "request_type": "Trash/Recycling",
    "request_reason": "Missed Trash Pick-Up",
    "date_created": "2022-05-18T15:04:39.000",
    "date_modified": "2022-05-18T15:04:40.000",
    "request_status": "Pending",
    "responsible_agency": "Department of Sanitation",
    "final_address": "915 Third St",
    "address_councildis": "B",
    "status": "Assigned to Contractor",
    "contractor": "Richards Disposal",
    "rowid": "884318",
    "final_x": "3677934.01608",
    "final_y": "520678.601081",
    "longitude": "-90.07970495460643",
    "latitude": "29.925793209592563",
    "geocoded_column": {
      "latitude": "29.925793209592563",
      "longitude": "-90.07970495460643"
    }
  },
  {
    "service_request": "2022-884317",
    "request_type": "Abandoned Vehicles",
    "request_reason": "Abandoned/Junk Vehicles",
    "date_created": "2022-05-18T15:01:52.000",
    "date_modified": "2022-05-18T15:01:52.000",
    "request_status": "Pending",
    "responsible_agency": "Department of Public Works",
    "final_address": "2753 St Peter St",
    "address_councildis": "A",
    "status": "Pending",
    "rowid": "884317",
    "final_x": "3676313.47425",
    "final_y": "537166.139016",
    "longitude": "-90.08425316806125",
    "latitude": "29.971177113825327",
    "geocoded_column": {
      "latitude": "29.971177113825327",
      "longitude": "-90.08425316806125"
    }
  },
  {
    "service_request": "2022-884316",
    "request_type": "Trash/Recycling",
    "request_reason": "Request a Large Item Pick Up",
    "date_created": "2022-05-18T14:59:28.000",
    "date_modified": "2022-05-18T14:59:28.000",
    "request_status": "Pending",
    "responsible_agency": "Department of Sanitation",
    "final_address": "2127 Jefferson Ave",
    "address_councildis": "B",
    "status": "Assigned to Contractor",
    "contractor": "Richards Disposal",
    "rowid": "884316",
    "final_x": "3667916.69114",
    "final_y": "523518.671675",
    "longitude": "-90.11123113493339",
    "latitude": "29.933900053306946",
    "geocoded_column": {
      "latitude": "29.933900053306946",
      "longitude": "-90.11123113493339"
    }
  },
  {
    "service_request": "2022-884315",
    "request_type": "Trash/Recycling",
    "request_reason": "Order Trash Cart",
    "date_created": "2022-05-18T14:55:00.000",
    "date_modified": "2022-05-18T14:55:01.000",
    "request_status": "Pending",
    "responsible_agency": "Department of Sanitation",
    "final_address": "13923 Wales St",
    "address_councildis": "E",
    "status": "Assigned to Contractor",
    "contractor": "Metro Disposal",
    "rowid": "884315",
    "final_x": "3717929.06841",
    "final_y": "572448.865641",
    "longitude": "-89.95148327999215",
    "latitude": "30.06687759449991",
    "geocoded_column": {
      "latitude": "30.06687759449991",
      "longitude": "-89.95148327999215"
    }
  },
  {
    "service_request": "2022-884314",
    "request_type": "Trash/Recycling",
    "request_reason": "Replace Trash Cart",
    "date_created": "2022-05-18T14:46:51.000",
    "date_modified": "2022-05-18T14:46:52.000",
    "request_status": "Pending",
    "responsible_agency": "Department of Sanitation",
    "final_address": "13260 Hayne Blvd",
    "address_councildis": "E",
    "status": "Assigned to Contractor",
    "contractor": "Metro Disposal",
    "rowid": "884314",
    "final_x": "3715771.86322",
    "final_y": "571486.55844",
    "longitude": "-89.95833899286151",
    "latitude": "30.06430300554398",
    "geocoded_column": {
      "latitude": "30.06430300554398",
      "longitude": "-89.95833899286151"
    }
  },
  {
    "service_request": "2022-884313",
    "request_type": "Roads/Drainage",
    "request_reason": "Damaged Sidewalk",
    "date_created": "2022-05-18T14:46:01.000",
    "date_modified": "2022-05-18T14:46:02.000",
    "request_status": "Pending",
    "responsible_agency": "Department of Public Works",
    "final_address": "3165 Desaix Blvd",
    "address_councildis": "D",
    "status": "Pending",
    "rowid": "884313",
    "final_x": "3678563.28565",
    "final_y": "543660.273422",
    "longitude": "-90.07692307162571",
    "latitude": "29.988966106861817",
    "geocoded_column": {
      "latitude": "29.988966106861817",
      "longitude": "-90.07692307162571"
    }
  },
  {
    "service_request": "2022-884312",
    "request_type": "Trash/Recycling",
    "request_reason": "Request a Large Item Pick Up",
    "date_created": "2022-05-18T14:43:36.000",
    "date_modified": "2022-05-18T14:43:37.000",
    "request_status": "Pending",
    "responsible_agency": "Department of Sanitation",
    "final_address": "1225 Port St",
    "address_councildis": "C",
    "status": "Assigned to Contractor",
    "contractor": "Metro Disposal",
    "rowid": "884312",
    "final_x": "3687592.20994",
    "final_y": "536952.610696",
    "longitude": "-90.04864103650357",
    "latitude": "29.970247096697783",
    "geocoded_column": {
      "latitude": "29.970247096697783",
      "longitude": "-90.04864103650357"
    }
  },
  {
    "service_request": "2022-884311",
    "request_type": "Trash/Recycling",
    "request_reason": "Replace Trash Cart",
    "date_created": "2022-05-18T14:42:31.000",
    "date_modified": "2022-05-18T14:42:31.000",
    "request_status": "Pending",
    "responsible_agency": "Department of Sanitation",
    "final_address": "6770 Memphis St, New Orleans, Louisiana, 70124",
    "address_councildis": "A",
    "status": "Assigned to Contractor",
    "contractor": "Metro Disposal",
    "rowid": "884311",
    "final_x": "3669612.87828",
    "final_y": "552566.460118",
    "longitude": "-90.10489319841149",
    "latitude": "30.0137218398084",
    "geocoded_column": {
      "latitude": "30.0137218398084",
      "longitude": "-90.10489319841149"
    }
  },
  {
    "service_request": "2022-884310",
    "request_type": "Traffic Signals/Signs/Striping/Streetlights",
    "request_reason": "Street Name Sign Damaged or Missing",
    "date_created": "2022-05-18T14:39:35.000",
    "date_modified": "2022-05-18T14:39:35.000",
    "request_status": "Pending",
    "responsible_agency": "Department of Public Works",
    "final_address": "1800 Second St",
    "address_councildis": "B",
    "status": "Pending",
    "rowid": "884310",
    "final_x": "3676245.21697",
    "final_y": "523670.318779",
    "longitude": "-90.08493309956157",
    "latitude": "29.93407015702099",
    "geocoded_column": {
      "latitude": "29.93407015702099",
      "longitude": "-90.08493309956157"
    }
  },
  {
    "service_request": "2022-884309",
    "request_type": "Trash/Recycling",
    "request_reason": "Request a Large Item Pick Up",
    "date_created": "2022-05-18T14:38:48.000",
    "date_modified": "2022-05-18T14:38:49.000",
    "request_status": "Pending",
    "responsible_agency": "Department of Sanitation",
    "final_address": "2122 Bayou Rd",
    "address_councildis": "D",
    "status": "Assigned to Contractor",
    "contractor": "Richards Disposal",
    "rowid": "884309",
    "final_x": "3679896.37429",
    "final_y": "537449.351112",
    "longitude": "-90.07292804575974",
    "latitude": "29.97184796939652",
    "geocoded_column": {
      "latitude": "29.97184796939652",
      "longitude": "-90.07292804575974"
    }
  },
  {
    "service_request": "2022-884308",
    "request_type": "Mayor's Request",
    "request_reason": "Requests to the Mayor",
    "date_created": "2022-05-18T14:38:46.000",
    "date_modified": "2022-05-18T14:38:46.000",
    "request_status": "Pending",
    "responsible_agency": "Executive Office of the Mayor",
    "final_address": "3234 Jackson Ave",
    "address_councildis": "B",
    "status": "Pending",
    "rowid": "884308",
    "final_x": "3673723.64718",
    "final_y": "528705.350528",
    "longitude": "-90.09272151178472",
    "latitude": "29.947990146798244",
    "geocoded_column": {
      "latitude": "29.947990146798244",
      "longitude": "-90.09272151178472"
    }
  },
  {
    "service_request": "2022-884307",
    "request_type": "Trash/Recycling",
    "request_reason": "Request a Large Item Pick Up",
    "date_created": "2022-05-18T14:35:14.000",
    "date_modified": "2022-05-18T14:35:15.000",
    "request_status": "Pending",
    "responsible_agency": "Department of Sanitation",
    "final_address": "CUCULLU ST & JOSEPH ST",
    "address_councildis": "A",
    "status": "Assigned to Contractor",
    "contractor": "Richards Disposal",
    "rowid": "884307",
    "final_x": "3667651.5",
    "final_y": "525769.58",
    "longitude": "-90.11199259227101",
    "latitude": "29.94009710375109",
    "geocoded_column": {
      "latitude": "29.94009710375109",
      "longitude": "-90.11199259227101"
    }
  },
  {
    "service_request": "2022-884306",
    "request_type": "Mayor's Request",
    "request_reason": "Requests to the Mayor",
    "date_created": "2022-05-18T14:33:59.000",
    "date_modified": "2022-05-18T14:33:59.000",
    "request_status": "Pending",
    "responsible_agency": "Executive Office of the Mayor",
    "final_address": "3234 Jackson Ave",
    "address_councildis": "B",
    "status": "Pending",
    "rowid": "884306",
    "final_x": "3673723.64718",
    "final_y": "528705.350528",
    "longitude": "-90.09272151178472",
    "latitude": "29.947990146798244",
    "geocoded_column": {
      "latitude": "29.947990146798244",
      "longitude": "-90.09272151178472"
    }
  },
  {
    "service_request": "2022-884303",
    "request_type": "Parks & Parkways",
    "request_reason": "Request Tree Service (Right of Way/Public Property)",
    "date_created": "2022-05-18T14:32:45.000",
    "date_modified": "2022-05-18T14:32:46.000",
    "request_status": "Pending",
    "responsible_agency": "Department of Parks & Parkway",
    "final_address": "LOWERLINE ST & FRERET ST",
    "address_councildis": "A",
    "status": "Pending",
    "rowid": "884303",
    "final_x": "3663280.1",
    "final_y": "526228.18",
    "longitude": "-90.12577857642057",
    "latitude": "29.941485502920784",
    "geocoded_column": {
      "latitude": "29.941485502920784",
      "longitude": "-90.12577857642057"
    }
  },
  {
    "service_request": "2022-884302",
    "request_type": "Trash/Recycling",
    "request_reason": "Request a Large Item Pick Up",
    "date_created": "2022-05-18T14:31:34.000",
    "date_modified": "2022-05-18T14:31:35.000",
    "request_status": "Pending",
    "responsible_agency": "Department of Sanitation",
    "final_address": "2636 Joseph St",
    "address_councildis": "A",
    "status": "Assigned to Contractor",
    "contractor": "Richards Disposal",
    "rowid": "884302",
    "final_x": "3667587.17281",
    "final_y": "525728.091453",
    "longitude": "-90.11219707967113",
    "latitude": "29.93998490877529",
    "geocoded_column": {
      "latitude": "29.93998490877529",
      "longitude": "-90.11219707967113"
    }
  },
  {
    "service_request": "2022-884301",
    "request_type": "Trash/Recycling",
    "request_reason": "Request a Large Item Pick Up",
    "date_created": "2022-05-18T14:31:14.000",
    "date_modified": "2022-05-18T14:31:14.000",
    "request_status": "Pending",
    "responsible_agency": "Department of Sanitation",
    "final_address": "2636 Joseph St",
    "address_councildis": "A",
    "status": "Assigned to Contractor",
    "contractor": "Richards Disposal",
    "rowid": "884301",
    "final_x": "3667587.17281",
    "final_y": "525728.091453",
    "longitude": "-90.11219707967113",
    "latitude": "29.93998490877529",
    "geocoded_column": {
      "latitude": "29.93998490877529",
      "longitude": "-90.11219707967113"
    }
  },
  {
    "service_request": "2022-884300",
    "request_type": "Trash/Recycling",
    "request_reason": "Repair Recycling Cart",
    "date_created": "2022-05-18T14:29:35.000",
    "date_modified": "2022-05-18T14:29:35.000",
    "request_status": "Pending",
    "responsible_agency": "Department of Sanitation",
    "final_address": "624 Sixth St",
    "address_councildis": "B",
    "status": "Pending",
    "rowid": "884300",
    "final_x": "3677459.69166",
    "final_y": "519223.019959",
    "longitude": "-90.08125246406563",
    "latitude": "29.92180509384874",
    "geocoded_column": {
      "latitude": "29.92180509384874",
      "longitude": "-90.08125246406563"
    }
  },
  {
    "service_request": "2022-884299",
    "request_type": "Trash/Recycling",
    "request_reason": "Repair Trash Cart",
    "date_created": "2022-05-18T14:23:45.000",
    "date_modified": "2022-05-18T14:23:46.000",
    "request_status": "Pending",
    "responsible_agency": "Department of Sanitation",
    "final_address": "14848 S Little Woods Dr",
    "address_councildis": "E",
    "status": "Assigned to Contractor",
    "contractor": "Metro Disposal",
    "rowid": "884299",
    "final_x": "3720378.34393",
    "final_y": "574898.737067",
    "longitude": "-89.94364688494484",
    "latitude": "30.073532261166218",
    "geocoded_column": {
      "latitude": "30.073532261166218",
      "longitude": "-89.94364688494484"
    }
  },
  {
    "service_request": "2022-884298",
    "request_type": "Mayor's Request",
    "request_reason": "Requests to the Mayor",
    "date_created": "2022-05-18T14:22:28.000",
    "date_modified": "2022-05-18T14:22:28.000",
    "request_status": "Pending",
    "responsible_agency": "Executive Office of the Mayor",
    "final_address": "3234 Jackson Ave",
    "address_councildis": "B",
    "status": "Pending",
    "rowid": "884298",
    "final_x": "3673723.64718",
    "final_y": "528705.350528",
    "longitude": "-90.09272151178472",
    "latitude": "29.947990146798244",
    "geocoded_column": {
      "latitude": "29.947990146798244",
      "longitude": "-90.09272151178472"
    }
  },
  {
    "service_request": "2022-884297",
    "request_type": "Trash/Recycling",
    "request_reason": "Replace Trash Cart",
    "date_created": "2022-05-18T14:19:38.000",
    "date_modified": "2022-05-18T14:19:39.000",
    "request_status": "Pending",
    "responsible_agency": "Department of Sanitation",
    "final_address": "1815 Halsey Ave",
    "address_councildis": "C",
    "status": "Assigned to Contractor",
    "contractor": "Richards Disposal",
    "rowid": "884297",
    "final_x": "3697735.07389",
    "final_y": "524213.158844",
    "longitude": "-90.01707113440321",
    "latitude": "29.934901498035615",
    "geocoded_column": {
      "latitude": "29.934901498035615",
      "longitude": "-90.01707113440321"
    }
  },
  {
    "service_request": "2022-884296",
    "request_type": "Property Maintenance",
    "request_reason": "Property Maintenance",
    "date_created": "2022-05-18T14:18:27.000",
    "date_modified": "2022-05-18T15:44:06.000",
    "request_status": "Pending",
    "responsible_agency": "Department of Code Enforcement",
    "final_address": "3636 St Ferdinand St",
    "address_councildis": "D",
    "status": "Pending",
    "rowid": "884296",
    "final_x": "3689904.83696",
    "final_y": "546567.724561",
    "longitude": "-90.04099505967355",
    "latitude": "29.996613727369088",
    "geocoded_column": {
      "latitude": "29.996613727369088",
      "longitude": "-90.04099505967355"
    }
  },
  {
    "service_request": "2022-884295",
    "request_type": "Trash/Recycling",
    "request_reason": "Repair Trash Cart",
    "date_created": "2022-05-18T14:17:36.000",
    "date_modified": "2022-05-18T14:17:37.000",
    "request_status": "Pending",
    "responsible_agency": "Department of Sanitation",
    "final_address": "3119 Somerset Dr",
    "address_councildis": "C",
    "status": "Assigned to Contractor",
    "contractor": "Richards Disposal",
    "rowid": "884295",
    "final_x": "3702500.13002",
    "final_y": "519642.691064",
    "longitude": "-90.00219563834867",
    "latitude": "29.922182927575733",
    "geocoded_column": {
      "latitude": "29.922182927575733",
      "longitude": "-90.00219563834867"
    }
  },