[
  {
    "service_request": "2022-945303",
    "request_type": "Trash/Recycling",
    "request_reason": "Order Recycling Cart",
    "date_created": "2022-11-20T21:57:10.000",
    "date_modified": "2022-11-20T21:57:10.000",
    "request_status": "Pending",
    "responsible_agency": "Department of Sanitation",
    "final_address": "5545 Catina St",
    "address_councildis": "A",
    "status": "Pending",
    "rowid": "945303",
    "final_x": "3666653.08717",
    "final_y": "544309.457295",
    "longitude": "-90.114522136879",
    "latitude": "29.991104855721158",
    "geocoded_column": {
      "latitude": "29.991104855721158",
      "longitude": "-90.114522136879"
    }
  },
  {
    "service_request": "2022-945302",
    "request_type": "Trash/Recycling",
    "request_reason": "Order Recycling Cart",
    "date_created": "2022-11-20T21:54:15.000",
    "date_modified": "2022-11-20T21:54:16.000",
    "request_status": "Pending",
    "responsible_agency": "Department of Sanitation",
    "final_address": "21 Spanish Fort Blvd",
    "address_councildis": "D",
    "status": "Pending",
    "rowid": "945302",
    "final_x": "3674129.95419",
    "final_y": "554897.667736",
    "longitude": "-90.09054166452135",
    "latitude": "30.019997895835125",
    "geocoded_column": {
      "latitude": "30.019997895835125",
      "longitude": "-90.09054166452135"
    }
  },
  {
    "service_request": "2022-945301",
    "request_type": "Trash/Recycling",
    "request_reason": "Order Trash Cart",
    "date_created": "2022-11-20T21:53:14.000",
    "date_modified": "2022-11-20T21:53:15.000",
    "request_status": "Pending",
    "responsible_agency": "Department of Sanitation",
    "final_address": "21 Spanish Fort Blvd",
    "address_councildis": "D",
    "status": "Assigned to Contractor",
    "contractor": "IV Waste",
    "rowid": "945301",
    "final_x": "3674129.95419",
    "final_y": "554897.667736",
    "longitude": "-90.09054166452135",
    "latitude": "30.019997895835125",
    "geocoded_column": {
      "latitude": "30.019997895835125",
      "longitude": "-90.09054166452135"
    }
  },
  {
    "service_request": "2022-945300",
    "request_type": "Trash/Recycling",
    "request_reason": "Replace Trash Cart",
    "date_created": "2022-11-20T21:31:55.000",
    "date_modified": "2022-11-20T21:31:56.000",
    "request_status": "Pending",
    "responsible_agency": "Department of Sanitation",
    "final_address": "1139 Terry St",
    "address_councildis": "C",
    "status": "Assigned to Contractor",
    "contractor": "Richards Disposal",
    "rowid": "945300",
    "final_x": "3696941.0216",
    "final_y": "527091.059967",
    "longitude": "-90.01947375727",
    "latitude": "29.942839787627104",
    "geocoded_column": {
      "latitude": "29.942839787627104",
      "longitude": "-90.01947375727"
    }
  },
  {
    "service_request": "2022-945299",
    "request_type": "Roads/Drainage",
    "request_reason": "Street Flooding / Drainage",
    "date_created": "2022-11-20T21:26:38.000",
    "date_modified": "2022-11-20T21:26:38.000",
    "request_status": "Pending",
    "responsible_agency": "Department of Public Works",
    "final_address": "6005 Painters St",
    "address_councildis": "D",
    "status": "Pending",
    "rowid": "945299",
    "final_x": "3686111.96617",
    "final_y": "555214.059673",
    "longitude": "-90.05267122112195",
    "latitude": "30.02050507596643",
    "geocoded_column": {
      "latitude": "30.02050507596643",
      "longitude": "-90.05267122112195"
    }
  },
  {
    "service_request": "2022-945298",
    "request_type": "Health Related Questions",
    "request_reason": "Noise Ordinance Complaint",
    "date_created": "2022-11-20T20:49:24.000",
    "date_modified": "2022-11-20T20:49:24.000",
    "request_status": "Pending",
    "responsible_agency": "Health Department",
    "final_address": "239 Decatur St",
    "address_councildis": "C",
    "status": "Pending",
    "rowid": "945298",
    "final_x": "3682195.63317",
    "final_y": "530830.069826",
    "longitude": "-90.06589786183099",
    "latitude": "29.95357746948798",
    "geocoded_column": {
      "latitude": "29.95357746948798",
      "longitude": "-90.06589786183099"
    }
  },
  {
    "service_request": "2022-945297",
    "request_type": "Trash/Recycling",
    "request_reason": "Order Recycling Cart",
    "date_created": "2022-11-20T20:29:31.000",
    "date_modified": "2022-11-20T20:29:31.000",
    "request_status": "Pending",
    "responsible_agency": "Department of Sanitation",
    "final_address": "319 S Scott St",
    "address_councildis": "A",
    "status": "Pending",
    "rowid": "945297",
    "final_x": "3671162.25454",
    "final_y": "537083.779976",
    "longitude": "-90.10052425897155",
    "latitude": "29.971104051425517",
    "geocoded_column": {
      "latitude": "29.971104051425517",
      "longitude": "-90.10052425897155"
    }
  },
  {
    "service_request": "2022-945296",
    "request_type": "Trash/Recycling",
    "request_reason": "Replace Trash Cart",
    "date_created": "2022-11-20T20:29:10.000",
    "date_modified": "2022-11-20T20:29:11.000",
    "request_status": "Pending",
    "responsible_agency": "Department of Sanitation",
    "final_address": "7065 W Tamaron Blvd",
    "address_councildis": "E",
    "status": "Assigned to Contractor",
    "contractor": "Waste Pro",
    "rowid": "945296",
    "final_x": "3718663.05164",
    "final_y": "568477.227557",
    "longitude": "-89.94931471151176",
    "latitude": "30.055932887045604",
    "geocoded_column": {
      "latitude": "30.055932887045604",
      "longitude": "-89.94931471151176"
    }
  },
  {
    "service_request": "2022-945295",
    "request_type": "Trash/Recycling",
    "request_reason": "Illegal Dumping",
    "date_created": "2022-11-20T20:20:57.000",
    "date_modified": "2022-11-20T20:20:57.000",
    "request_status": "Pending",
    "responsible_agency": "Department of Sanitation",
    "final_address": "3209 Banks St",
    "address_councildis": "B",
    "status": "Pending",
    "rowid": "945295",
    "final_x": "3673107.57243",
    "final_y": "535381.429894",
    "longitude": "-90.09443880201388",
    "latitude": "29.966365470018932",
    "geocoded_column": {
      "latitude": "29.966365470018932",
      "longitude": "-90.09443880201388"
    }
  },
  {
    "service_request": "2022-945294",
    "request_type": "Traffic Signals/Signs/Striping/Streetlights",
    "request_reason": "Street Light Outage/Malfunction",
    "date_created": "2022-11-20T19:59:46.000",
    "date_modified": "2022-11-20T19:59:47.000",
    "request_status": "Pending",
    "responsible_agency": "Department of Public Works",
    "final_address": "3238 DeSaix Blvd",
    "address_councildis": "A",
    "status": "Pending",
    "contractor": "Legacy Professional Services",
    "rowid": "945294",
    "final_x": "3677976.03701",
    "final_y": "543471.878542",
    "longitude": "-90.07878452958118",
    "latitude": "29.988465779126578",
    "geocoded_column": {
      "latitude": "29.988465779126578",
      "longitude": "-90.07878452958118"
    }
  },
  {
    "service_request": "2022-945293",
    "request_type": "Trash/Recycling",
    "request_reason": "MIssed Recycling Pick-Up",
    "date_created": "2022-11-20T19:45:07.000",
    "date_modified": "2022-11-20T19:45:08.000",
    "request_status": "Pending",
    "responsible_agency": "Department of Sanitation",
    "final_address": "7006 Pritchard Pl",
    "address_councildis": "B",
    "status": "Assigned to Contractor",
    "contractor": "Richards Disposal",
    "rowid": "945293",
    "final_x": "3667952.92877",
    "final_y": "531091.054402",
    "longitude": "-90.11086168922466",
    "latitude": "29.95472059168722",
    "geocoded_column": {
      "latitude": "29.95472059168722",
      "longitude": "-90.11086168922466"
    }
  },
  {
    "service_request": "2022-945292",
    "request_type": "Trash/Recycling",
    "request_reason": "Order Recycling Cart",
    "date_created": "2022-11-20T19:18:34.000",
    "date_modified": "2022-11-20T19:18:35.000",
    "request_status": "Pending",
    "responsible_agency": "Department of Sanitation",
    "final_address": "2217 Desire St",
    "address_councildis": "D",
    "status": "Pending",
    "rowid": "945292",
    "final_x": "3691296.42",
    "final_y": "539994.134923",
    "longitude": "-90.03683410536732",
    "latitude": "29.978495494017274",
    "geocoded_column": {
      "latitude": "29.978495494017274",
      "longitude": "-90.03683410536732"
    }
  },
  {
    "service_request": "2022-945291",
    "request_type": "Trash/Recycling",
    "request_reason": "Request a Large Item Pick Up",
    "date_created": "2022-11-20T18:54:24.000",
    "date_modified": "2022-11-20T18:54:25.000",
    "request_status": "Pending",
    "responsible_agency": "Department of Sanitation",
    "final_address": "501 Homer St",
    "address_councildis": "C",
    "status": "Assigned to Contractor",
    "contractor": "Richards Disposal",
    "rowid": "945291",
    "final_x": "3686978.35164",
    "final_y": "528276.801472",
    "longitude": "-90.05088631816942",
    "latitude": "29.946410522920793",
    "geocoded_column": {
      "latitude": "29.946410522920793",
      "longitude": "-90.05088631816942"
    }
  },
  {
    "service_request": "2022-945290",
    "request_type": "Roads/Drainage",
    "request_reason": "Road Shoulder Repair",
    "date_created": "2022-11-20T18:48:11.000",
    "date_modified": "2022-11-20T18:48:11.000",
    "request_status": "Pending",
    "responsible_agency": "Department of Public Works",
    "final_address": "923 N Dorgenois St",
    "address_councildis": "D",
    "status": "Pending",
    "rowid": "945290",
    "final_x": "3677662.07573",
    "final_y": "537356.449096",
    "longitude": "-90.07998752483296",
    "latitude": "29.97165990954279",
    "geocoded_column": {
      "latitude": "29.97165990954279",
      "longitude": "-90.07998752483296"
    }
  },
  {
    "service_request": "2022-945289",
    "request_type": "Trash/Recycling",
    "request_reason": "Order Recycling Cart",
    "date_created": "2022-11-20T18:36:17.000",
    "date_modified": "2022-11-20T18:36:17.000",
    "request_status": "Pending",
    "responsible_agency": "Department of Sanitation",
    "final_address": "1628 Prytania St",
    "address_councildis": "B",
    "status": "Pending",
    "rowid": "945289",
    "final_x": "3679371.34671",
    "final_y": "524736.174588",
    "longitude": "-90.07502707558233",
    "latitude": "29.936906886725744",
    "geocoded_column": {
      "latitude": "29.936906886725744",
      "longitude": "-90.07502707558233"
    }
  },
  {
    "service_request": "2022-945288",
    "request_type": "Health Related Questions",
    "request_reason": "Noise Ordinance Complaint",
    "date_created": "2022-11-20T18:26:24.000",
    "date_modified": "2022-11-20T18:26:24.000",
    "request_status": "Pending",
    "responsible_agency": "Health Department",
    "final_address": "1145 St Bernard Ave",
    "address_councildis": "C",
    "status": "Pending",
    "rowid": "945288",
    "final_x": "3683177.906",
    "final_y": "536102.722823",
    "longitude": "-90.06261162826992",
    "latitude": "29.968045547218757",
    "geocoded_column": {
      "latitude": "29.968045547218757",
      "longitude": "-90.06261162826992"
    }
  },
  {
    "service_request": "2022-945287",
    "request_type": "Trash/Recycling",
    "request_reason": "Repair Trash Cart",
    "date_created": "2022-11-20T18:16:43.000",
    "date_modified": "2022-11-20T18:16:43.000",
    "request_status": "Pending",
    "responsible_agency": "Department of Sanitation",
    "final_address": "1901 Ellen Park Pl",
    "address_councildis": "C",
    "status": "Assigned to Contractor",
    "contractor": "Richards Disposal",
    "rowid": "945287",
    "final_x": "3702880.71447",
    "final_y": "523961.918012",
    "longitude": "-90.00083575010268",
    "latitude": "29.93404713917782",
    "geocoded_column": {
      "latitude": "29.93404713917782",
      "longitude": "-90.00083575010268"
    }
  },
  {
    "service_request": "2022-945286",
    "request_type": "Traffic Signals/Signs/Striping/Streetlights",
    "request_reason": "Street Light Outage/Malfunction",
    "date_created": "2022-11-20T18:15:41.000",
    "date_modified": "2022-11-20T18:15:42.000",
    "request_status": "Pending",
    "responsible_agency": "Department of Public Works",
    "final_address": "1901 Ellen Park Pl",
    "address_councildis": "C",
    "status": "Pending",
    "contractor": "Legacy Professional Services",
    "rowid": "945286",
    "final_x": "3702880.71447",
    "final_y": "523961.918012",
    "longitude": "-90.00083575010268",
    "latitude": "29.93404713917782",
    "geocoded_column": {
      "latitude": "29.93404713917782",
      "longitude": "-90.00083575010268"
    }
  },
  {
    "service_request": "2022-945285",
    "request_type": "Abandoned Vehicles",
    "request_reason": "Abandoned/Junk Vehicles",
    "date_created": "2022-11-20T17:48:01.000",
    "date_modified": "2022-11-20T17:48:01.000",
    "request_status": "Pending",
    "responsible_agency": "Department of Public Works",
    "final_address": "5930 Eads St",
    "address_councildis": "D",
    "status": "Pending",
    "rowid": "945285",
    "final_x": "3686700.78575",
    "final_y": "555104.475481",
    "longitude": "-90.05081460875104",
    "latitude": "30.020185651475277",
    "geocoded_column": {
      "latitude": "30.020185651475277",
      "longitude": "-90.05081460875104"
    }
  },
  {
    "service_request": "2022-945284",
    "request_type": "Trash/Recycling",
    "request_reason": "Repair Recycling Cart",
    "date_created": "2022-11-20T17:27:33.000",
    "date_modified": "2022-11-20T17:27:33.000",
    "request_status": "Pending",
    "responsible_agency": "Department of Sanitation",
    "final_address": "5870 General Haig St",
    "address_councildis": "A",
    "status": "Pending",
    "rowid": "945284",
    "final_x": "3670403.6562",
    "final_y": "546341.120336",
    "longitude": "-90.10260600209519",
    "latitude": "29.99658099952378",
    "geocoded_column": {
      "latitude": "29.99658099952378",
      "longitude": "-90.10260600209519"
    }
  },
  {
    "service_request": "2022-945283",
    "request_type": "Trash/Recycling",
    "request_reason": "Order Recycling Cart",
    "date_created": "2022-11-20T17:24:01.000",
    "date_modified": "2022-11-20T17:24:01.000",
    "request_status": "Pending",
    "responsible_agency": "Department of Sanitation",
    "final_address": "3028 Marais St",
    "address_councildis": "C",
    "status": "Pending",
    "rowid": "945283",
    "final_x": "3688748.66396",
    "final_y": "536404.647047",
    "longitude": "-90.04500829911602",
    "latitude": "29.968704686321242",
    "geocoded_column": {
      "latitude": "29.968704686321242",
      "longitude": "-90.04500829911602"
    }
  },
  {
    "service_request": "2022-945282",
    "request_type": "Trash/Recycling",
    "request_reason": "Missed Trash Pick-Up",
    "date_created": "2022-11-20T17:16:08.000",
    "date_modified": "2022-11-20T17:16:08.000",
    "request_status": "Pending",
    "responsible_agency": "Department of Sanitation",
    "final_address": "18 W Park Pl",
    "address_councildis": "A",
    "status": "Assigned to Contractor",
    "contractor": "IV Waste",
    "rowid": "945282",
    "final_x": "3670117.60206",
    "final_y": "543765.082126",
    "longitude": "-90.10359696627691",
    "latitude": "29.98950622741276",
    "geocoded_column": {
      "latitude": "29.98950622741276",
      "longitude": "-90.10359696627691"
    }
  },
  {
    "service_request": "2022-945281",
    "request_type": "Trash/Recycling",
    "request_reason": "Request a Large Item Pick Up",
    "date_created": "2022-11-20T17:16:04.000",
    "date_modified": "2022-11-20T17:16:05.000",
    "request_status": "Pending",
    "responsible_agency": "Department of Sanitation",
    "final_address": "7137 E Laverne St",
    "address_councildis": "D",
    "status": "Assigned to Contractor",
    "contractor": "Waste Pro",
    "rowid": "945281",
    "final_x": "3697113.32855",
    "final_y": "557272.105243",
    "longitude": "-90.0178357723543",
    "latitude": "30.025821241027476",
    "geocoded_column": {
      "latitude": "30.025821241027476",
      "longitude": "-90.0178357723543"
    }
  },
  {
    "service_request": "2022-945280",
    "request_type": "Trash/Recycling",
    "request_reason": "Request a Large Item Pick Up",
    "date_created": "2022-11-20T17:11:09.000",
    "date_modified": "2022-11-20T17:11:09.000",
    "request_status": "Pending",
    "responsible_agency": "Department of Sanitation",
    "final_address": "7026 Louis Xiv St",
    "address_councildis": "A",
    "status": "Assigned to Contractor",
    "contractor": "IV Waste",
    "rowid": "945280",
    "final_x": "3668608.87681",
    "final_y": "554243.246424",
    "longitude": "-90.10800868155803",
    "latitude": "30.018361968180347",
    "geocoded_column": {
      "latitude": "30.018361968180347",
      "longitude": "-90.10800868155803"
    }
  },
  {
    "service_request": "2022-945279",
    "request_type": "Trash/Recycling",
    "request_reason": "Replace Trash Cart",
    "date_created": "2022-11-20T17:04:30.000",
    "date_modified": "2022-11-20T17:04:31.000",
    "request_status": "Pending",
    "responsible_agency": "Department of Sanitation",
    "final_address": "1345 Rapides Dr",
    "address_councildis": "D",
    "status": "Assigned to Contractor",
    "contractor": "IV Waste",
    "rowid": "945279",
    "final_x": "3677375.17858",
    "final_y": "552768.073878",
    "longitude": "-90.0803613607864",
    "latitude": "30.01404509986987",
    "geocoded_column": {
      "latitude": "30.01404509986987",
      "longitude": "-90.0803613607864"
    }
  },
  {
    "service_request": "2022-945277",
    "request_type": "Trash/Recycling",
    "request_reason": "Missed Trash Pick-Up",
    "date_created": "2022-11-20T16:59:03.000",
    "date_modified": "2022-11-20T16:59:04.000",
    "request_status": "Pending",
    "responsible_agency": "Department of Sanitation",
    "final_address": "524 Passera Ct",
    "address_councildis": "A",
    "status": "Assigned to Contractor",
    "contractor": "Richards Disposal",
    "rowid": "945277",
    "final_x": "3670643.04923",
    "final_y": "540842.299531",
    "longitude": "-90.10203643128871",
    "latitude": "29.981454058538585",
    "geocoded_column": {
      "latitude": "29.981454058538585",
      "longitude": "-90.10203643128871"
    }
  },
  {
    "service_request": "2022-945275",
    "request_type": "Abandoned Vehicles",
    "request_reason": "Abandoned/Junk Vehicles",
    "date_created": "2022-11-20T16:51:45.000",
    "date_modified": "2022-11-20T16:51:45.000",
    "request_status": "Pending",
    "responsible_agency": "Department of Public Works",
    "final_address": "59 Winners Cir",
    "address_councildis": "E",
    "status": "Pending",
    "rowid": "945275",
    "final_x": "3715991.0318",
    "final_y": "570330.147047",
    "longitude": "-89.95769007638843",
    "latitude": "30.061116121053015",
    "geocoded_column": {
      "latitude": "30.061116121053015",
      "longitude": "-89.95769007638843"
    }
  },
  {
    "service_request": "2022-945274",
    "request_type": "Trash/Recycling",
    "request_reason": "Request a Large Item Pick Up",
    "date_created": "2022-11-20T16:40:21.000",
    "date_modified": "2022-11-20T16:40:21.000",
    "request_status": "Pending",
    "responsible_agency": "Department of Sanitation",
    "final_address": "6346 Colbert St",
    "address_councildis": "A",
    "status": "Assigned to Contractor",
    "contractor": "IV Waste",
    "rowid": "945274",
    "final_x": "3667567.64941",
    "final_y": "549838.963924",
    "longitude": "-90.11144698148043",
    "latitude": "30.00628231106051",
    "geocoded_column": {
      "latitude": "30.00628231106051",
      "longitude": "-90.11144698148043"
    }
  },
  {
    "service_request": "2022-945273",
    "request_type": "Trash/Recycling",
    "request_reason": "Request a Large Item Pick Up",
    "date_created": "2022-11-20T16:37:35.000",
    "date_modified": "2022-11-20T16:37:36.000",
    "request_status": "Pending",
    "responsible_agency": "Department of Sanitation",
    "final_address": "6346 Colbert St",
    "address_councildis": "A",
    "status": "Assigned to Contractor",
    "contractor": "IV Waste",
    "rowid": "945273",
    "final_x": "3667567.64941",
    "final_y": "549838.963924",
    "longitude": "-90.11144698148043",
    "latitude": "30.00628231106051",
    "geocoded_column": {
      "latitude": "30.00628231106051",
      "longitude": "-90.11144698148043"
    }
  },
  {
    "service_request": "2022-945272",
    "request_type": "Trash/Recycling",
    "request_reason": "MIssed Recycling Pick-Up",
    "date_created": "2022-11-20T16:26:46.000",
    "date_modified": "2022-11-20T16:26:47.000",
    "request_status": "Pending",
    "responsible_agency": "Department of Sanitation",
    "final_address": "3108 College Ct",
    "address_councildis": "B",
    "status": "Assigned to Contractor",
    "contractor": "Richards Disposal",
    "rowid": "945272",
    "final_x": "3668438.72218",
    "final_y": "531824.666499",
    "longitude": "-90.10930299017294",
    "latitude": "29.956723524055274",
    "geocoded_column": {
      "latitude": "29.956723524055274",
      "longitude": "-90.10930299017294"
    }
  },
  {
    "service_request": "2022-945271",
    "request_type": "Trash/Recycling",
    "request_reason": "MIssed Recycling Pick-Up",
    "date_created": "2022-11-20T16:24:08.000",
    "date_modified": "2022-11-20T16:24:09.000",
    "request_status": "Pending",
    "responsible_agency": "Department of Sanitation",
    "final_address": "1334 Henry Clay Ave, New Orleans, Louisiana, 70118",
    "address_councildis": "A",
    "status": "Assigned to Contractor",
    "contractor": "Richards Disposal",
    "rowid": "945271",
    "final_x": "3664463.52551",
    "final_y": "521447.226105",
    "longitude": "-90.12220179822322",
    "latitude": "29.928305051290806",
    "geocoded_column": {
      "latitude": "29.928305051290806",
      "longitude": "-90.12220179822322"
    }
  },
  {
    "service_request": "2022-945270",
    "request_type": "Trash/Recycling",
    "request_reason": "Request a Large Item Pick Up",
    "date_created": "2022-11-20T16:13:46.000",
    "date_modified": "2022-11-20T16:13:46.000",
    "request_status": "Pending",
    "responsible_agency": "Department of Sanitation",
    "final_address": "2760 Orchid St",
    "address_councildis": "A",
    "status": "Assigned to Contractor",
    "contractor": "Richards Disposal",
    "rowid": "945270",
    "final_x": "3677336.42338",
    "final_y": "538675.804233",
    "longitude": "-90.08097044403324",
    "latitude": "29.97529747451872",
    "geocoded_column": {
      "latitude": "29.97529747451872",
      "longitude": "-90.08097044403324"
    }
  },
  {
    "service_request": "2022-945269",
    "request_type": "Trash/Recycling",
    "request_reason": "Replace Trash Cart",
    "date_created": "2022-11-20T16:09:37.000",
    "date_modified": "2022-11-20T16:09:38.000",
    "request_status": "Pending",
    "responsible_agency": "Department of Sanitation",
    "final_address": "224 Warrington Dr",
    "address_councildis": "D",
    "status": "Assigned to Contractor",
    "contractor": "IV Waste",
    "rowid": "945269",
    "final_x": "3682175.87848",
    "final_y": "547384.716049",
    "longitude": "-90.06538180650173",
    "latitude": "29.99909758820996",
    "geocoded_column": {
      "latitude": "29.99909758820996",
      "longitude": "-90.06538180650173"
    }
  },
  {
    "service_request": "2022-945268",
    "request_type": "Roads/Drainage",
    "request_reason": "Pothole",
    "date_created": "2022-11-20T16:04:14.000",
    "date_modified": "2022-11-20T16:04:14.000",
    "request_status": "Pending",
    "responsible_agency": "Department of Public Works",
    "final_address": "5218 Arts St",
    "address_councildis": "D",
    "status": "Pending",
    "rowid": "945268",
    "final_x": "3685728.71305",
    "final_y": "552291.58863",
    "longitude": "-90.05398528326633",
    "latitude": "30.012481127287916",
    "geocoded_column": {
      "latitude": "30.012481127287916",
      "longitude": "-90.05398528326633"
    }
  },
  {
    "service_request": "2022-945267",
    "request_type": "Property Maintenance",
    "request_reason": "Property Maintenance",
    "date_created": "2022-11-20T15:54:15.000",
    "date_modified": "2022-11-20T15:54:16.000",
    "request_status": "Pending",
    "responsible_agency": "Department of Code Enforcement",
    "final_address": "1225 St Bernard Ave",
    "address_councildis": "C",
    "status": "Pending",
    "rowid": "945267",
    "final_x": "3683028.94863",
    "final_y": "536342.434695",
    "longitude": "-90.06307364843165",
    "latitude": "29.968709213442118",
    "geocoded_column": {
      "latitude": "29.968709213442118",
      "longitude": "-90.06307364843165"
    }
  },
  {
    "service_request": "2022-945266",
    "request_type": "Roads/Drainage",
    "request_reason": "Man hole cover issue",
    "date_created": "2022-11-20T15:34:46.000",
    "date_modified": "2022-11-20T15:34:47.000",
    "request_status": "Pending",
    "responsible_agency": "Department of Public Works",
    "final_address": "8540 Gervais St",
    "address_councildis": "E",
    "status": "Pending",
    "rowid": "945266",
    "final_x": "3703862.3393",
    "final_y": "562645.932384",
    "longitude": "-89.99631182584628",
    "latitude": "30.040382390636385",
    "geocoded_column": {
      "latitude": "30.040382390636385",
      "longitude": "-89.99631182584628"
    }
  },
  {
    "service_request": "2022-945265",
    "request_type": "Trash/Recycling",
    "request_reason": "Order Recycling Cart",
    "date_created": "2022-11-20T15:26:47.000",
    "date_modified": "2022-11-20T15:26:47.000",
    "request_status": "Pending",
    "responsible_agency": "Department of Sanitation",
    "final_address": "5877 General Haig St",
    "address_councildis": "A",
    "status": "Pending",
    "rowid": "945265",
    "final_x": "3670507.72737",
    "final_y": "546369.924432",
    "longitude": "-90.10227626903767",
    "latitude": "29.996657126811456",
    "geocoded_column": {
      "latitude": "29.996657126811456",
      "longitude": "-90.10227626903767"
    }
  },
  {
    "service_request": "2022-945264",
    "request_type": "Trash/Recycling",
    "request_reason": "Order Recycling Cart",
    "date_created": "2022-11-20T15:14:11.000",
    "date_modified": "2022-11-20T15:14:11.000",
    "request_status": "Pending",
    "responsible_agency": "Department of Sanitation",
    "final_address": "1721 Burdette St",
    "address_councildis": "A",
    "status": "Pending",
    "rowid": "945264",
    "final_x": "3664134.7458",
    "final_y": "529017.07808",
    "longitude": "-90.12298727150088",
    "latitude": "29.94912928406882",
    "geocoded_column": {
      "latitude": "29.94912928406882",
      "longitude": "-90.12298727150088"
    }
  },
  {
    "service_request": "2022-945263",
    "request_type": "Abandoned Vehicles",
    "request_reason": "Abandoned/Junk Vehicles",
    "date_created": "2022-11-20T15:10:06.000",
    "date_modified": "2022-11-20T15:10:06.000",
    "request_status": "Pending",
    "responsible_agency": "Department of Public Works",
    "final_address": "1316 Barracks St",
    "address_councildis": "C",
    "status": "Pending",
    "rowid": "945263",
    "final_x": "3681982.97986",
    "final_y": "535615.295494",
    "longitude": "-90.06640226596032",
    "latitude": "29.966741672964705",
    "geocoded_column": {
      "latitude": "29.966741672964705",
      "longitude": "-90.06640226596032"
    }
  },
  {
    "service_request": "2022-945262",
    "request_type": "Trash/Recycling",
    "request_reason": "Order Recycling Cart",
    "date_created": "2022-11-20T15:06:23.000",
    "date_modified": "2022-11-20T15:06:23.000",
    "request_status": "Pending",
    "responsible_agency": "Department of Sanitation",
    "final_address": "4710 Mandeville St",
    "address_councildis": "D",
    "status": "Pending",
    "rowid": "945262",
    "final_x": "3684624.71177",
    "final_y": "550268.01698",
    "longitude": "-90.05754449198085",
    "latitude": "30.006950888062182",
    "geocoded_column": {
      "latitude": "30.006950888062182",
      "longitude": "-90.05754449198085"
    }
  },
  {
    "service_request": "2022-945260",
    "request_type": "Abandoned Vehicles",
    "request_reason": "Abandoned/Junk Vehicles",
    "date_created": "2022-11-20T14:55:01.000",
    "date_modified": "2022-11-20T14:55:01.000",
    "request_status": "Pending",
    "responsible_agency": "Department of Public Works",
    "final_address": "4639 Camp St",
    "address_councildis": "B",
    "status": "Pending",
    "rowid": "945260",
    "final_x": "3670033.12583",
    "final_y": "519091.324151",
    "longitude": "-90.10469949245802",
    "latitude": "29.92166402347215",
    "geocoded_column": {
      "latitude": "29.92166402347215",
      "longitude": "-90.10469949245802"
    }
  },
  {
    "service_request": "2022-945259",
    "request_type": "Trash/Recycling",
    "request_reason": "Request a Large Item Pick Up",
    "date_created": "2022-11-20T14:48:53.000",
    "date_modified": "2022-11-20T14:48:54.000",
    "request_status": "Pending",
    "responsible_agency": "Department of Sanitation",
    "final_address": "5118 Revel St",
    "address_councildis": "E",
    "status": "Assigned to Contractor",
    "contractor": "Waste Pro",
    "rowid": "945259",
    "final_x": "3725066.82579",
    "final_y": "562288.585055",
    "longitude": "-89.92931351005878",
    "latitude": "30.03870246227283",
    "geocoded_column": {
      "latitude": "30.03870246227283",
      "longitude": "-89.92931351005878"
    }
  },
  {
    "service_request": "2022-945258",
    "request_type": "Parks & Parkways",
    "request_reason": "Request Tree Service (Right of Way/Public Property)",
    "date_created": "2022-11-20T14:32:07.000",
    "date_modified": "2022-11-20T14:32:07.000",
    "request_status": "Pending",
    "responsible_agency": "Department of Parks & Parkway",
    "final_address": "5818 Marshal Foch St",
    "address_councildis": "A",
    "status": "Pending",
    "rowid": "945258",
    "final_x": "3669622.91188",
    "final_y": "546009.269328",
    "longitude": "-90.10508357088962",
    "latitude": "29.995691558935274",
    "geocoded_column": {
      "latitude": "29.995691558935274",
      "longitude": "-90.10508357088962"
    }
  },
  {
    "service_request": "2022-945257",
    "request_type": "Trash/Recycling",
    "request_reason": "Order Trash Cart",
    "date_created": "2022-11-20T14:30:15.000",
    "date_modified": "2022-11-20T14:30:15.000",
    "request_status": "Pending",
    "responsible_agency": "Department of Sanitation",
    "final_address": "5818 Marshal Foch St",
    "address_councildis": "A",
    "status": "Assigned to Contractor",
    "contractor": "IV Waste",
    "rowid": "945257",
    "final_x": "3669622.91188",
    "final_y": "546009.269328",
    "longitude": "-90.10508357088962",
    "latitude": "29.995691558935274",
    "geocoded_column": {
      "latitude": "29.995691558935274",
      "longitude": "-90.10508357088962"
    }
  },
  {
    "service_request": "2022-945256",
    "request_type": "Trash/Recycling",
    "request_reason": "Order Recycling Cart",
    "date_created": "2022-11-20T14:28:45.000",
    "date_modified": "2022-11-20T14:28:45.000",
    "request_status": "Pending",
    "responsible_agency": "Department of Sanitation",
    "final_address": "5818 Marshal Foch St",
    "address_councildis": "A",
    "status": "Pending",
    "rowid": "945256",
    "final_x": "3669622.91188",
    "final_y": "546009.269328",
    "longitude": "-90.10508357088962",
    "latitude": "29.995691558935274",
    "geocoded_column": {
      "latitude": "29.995691558935274",
      "longitude": "-90.10508357088962"
    }
  },
  {
    "service_request": "2022-945255",
    "request_type": "Trash/Recycling",
    "request_reason": "Request a Large Item Pick Up",
    "date_created": "2022-11-20T14:24:24.000",
    "date_modified": "2022-11-20T14:24:24.000",
    "request_status": "Pending",
    "responsible_agency": "Department of Sanitation",
    "final_address": "1229 Governor Nicholls St",
    "address_councildis": "C",
    "status": "Assigned to Contractor",
    "contractor": "Richards Disposal",
    "rowid": "945255",
    "final_x": "3682014.20962",
    "final_y": "535274.299718",
    "longitude": "-90.06631555004992",
    "latitude": "29.965803102282084",
    "geocoded_column": {
      "latitude": "29.965803102282084",
      "longitude": "-90.06631555004992"
    }
  },
  {
    "service_request": "2022-945252",
    "request_type": "Trash/Recycling",
    "request_reason": "MIssed Recycling Pick-Up",
    "date_created": "2022-11-20T13:55:50.000",
    "date_modified": "2022-11-20T13:55:50.000",
    "request_status": "Pending",
    "responsible_agency": "Department of Sanitation",
    "final_address": "6017 Painters St",
    "address_councildis": "D",
    "status": "Assigned to Contractor",
    "contractor": "IV Waste",
    "rowid": "945252",
    "final_x": "3686104.49609",
    "final_y": "555305.431257",
    "longitude": "-90.05269159756041",
    "latitude": "30.020756543606986",
    "geocoded_column": {
      "latitude": "30.020756543606986",
      "longitude": "-90.05269159756041"
    }
  },
  {
    "service_request": "2022-945250",
    "request_type": "Trash/Recycling",
    "request_reason": "Order Recycling Cart",
    "date_created": "2022-11-20T13:48:31.000",
    "date_modified": "2022-11-20T13:48:31.000",
    "request_status": "Pending",
    "responsible_agency": "Department of Sanitation",
    "final_address": "2820 St Philip St",
    "address_councildis": "A",
    "status": "Pending",
    "rowid": "945250",
    "final_x": "3676791.52437",
    "final_y": "538273.255177",
    "longitude": "-90.08270525785792",
    "latitude": "29.974206967036565",
    "geocoded_column": {
      "latitude": "29.974206967036565",
      "longitude": "-90.08270525785792"
    }
  },
  {
    "service_request": "2022-945249",
    "request_type": "Trash/Recycling",
    "request_reason": "Order Recycling Cart",
    "date_created": "2022-11-20T13:48:21.000",
    "date_modified": "2022-11-20T13:48:22.000",
    "request_status": "Pending",
    "responsible_agency": "Department of Sanitation",
    "final_address": "324 28Th St",
    "address_councildis": "A",
    "status": "Pending",
    "rowid": "945249",
    "final_x": "3665035.15322",
    "final_y": "550195.641556",
    "longitude": "-90.11943586026749",
    "latitude": "30.007337064012678",
    "geocoded_column": {
      "latitude": "30.007337064012678",
      "longitude": "-90.11943586026749"
    }
  },
  {
    "service_request": "2022-945248",
    "request_type": "Trash/Recycling",
    "request_reason": "Order Recycling Cart",
    "date_created": "2022-11-20T13:40:32.000",
    "date_modified": "2022-11-20T13:40:32.000",
    "request_status": "Pending",
    "responsible_agency": "Department of Sanitation",
    "final_address": "2006 Painters St",
    "address_councildis": "D",
    "status": "Pending",
    "rowid": "945248",
    "final_x": "3687254.66639",
    "final_y": "539900.27489",
    "longitude": "-90.04960273965669",
    "latitude": "29.978362539394205",
    "geocoded_column": {
      "latitude": "29.978362539394205",
      "longitude": "-90.04960273965669"
    }
  },
  {
    "service_request": "2022-945247",
    "request_type": "Traffic Signals/Signs/Striping/Streetlights",
    "request_reason": "Additional signage",
    "date_created": "2022-11-20T13:39:11.000",
    "date_modified": "2022-11-20T13:39:11.000",
    "request_status": "Pending",
    "responsible_agency": "Department of Public Works",
    "final_address": "624 St Ferdinand St",
    "address_councildis": "C",
    "status": "Pending",
    "rowid": "945247",
    "final_x": "3687280.7693",
    "final_y": "534727.561478",
    "longitude": "-90.04970331626227",
    "latitude": "29.964138584362733",
    "geocoded_column": {
      "latitude": "29.964138584362733",
      "longitude": "-90.04970331626227"
    }
  },
  {
    "service_request": "2022-945246",
    "request_type": "Traffic Signals/Signs/Striping/Streetlights",
    "request_reason": "Street Light Knocked Down/Leaning",
    "date_created": "2022-11-20T13:38:09.000",
    "date_modified": "2022-11-20T13:38:11.000",
    "request_status": "Pending",
    "responsible_agency": "Department of Public Works",
    "final_address": "1000 St Charles Ave",
    "address_councildis": "B",
    "status": "Pending",
    "contractor": "Legacy Professional Services",
    "rowid": "945246",
    "final_x": "3680334.074",
    "final_y": "526964.819646",
    "longitude": "-90.0719102399457",
    "latitude": "29.943005814995683",
    "geocoded_column": {
      "latitude": "29.943005814995683",
      "longitude": "-90.0719102399457"
    }
  },
  {
    "service_request": "2022-945245",
    "request_type": "Trash/Recycling",
    "request_reason": "Repair Recycling Cart",
    "date_created": "2022-11-20T13:18:41.000",
    "date_modified": "2022-11-20T13:18:41.000",
    "request_status": "Pending",
    "responsible_agency": "Department of Sanitation",
    "final_address": "1106 Cambronne St",
    "address_councildis": "A",
    "status": "Pending",
    "rowid": "945245",
    "final_x": "3660947.77626",
    "final_y": "528920.654784",
    "longitude": "-90.13305317522425",
    "latitude": "29.94895633043406",
    "geocoded_column": {
      "latitude": "29.94895633043406",
      "longitude": "-90.13305317522425"
    }
  },
  {
    "service_request": "2022-945244",
    "request_type": "Trash/Recycling",
    "request_reason": "Order Recycling Cart",
    "date_created": "2022-11-20T13:08:44.000",
    "date_modified": "2022-11-20T13:08:44.000",
    "request_status": "Pending",
    "responsible_agency": "Department of Sanitation",
    "final_address": "1912 Bartholomew St",
    "address_councildis": "D",
    "status": "Pending",
    "rowid": "945244",
    "final_x": "3692527.61712",
    "final_y": "538448.207945",
    "longitude": "-90.03300095706598",
    "latitude": "29.97420638387885",
    "geocoded_column": {
      "latitude": "29.97420638387885",
      "longitude": "-90.03300095706598"
    }
  },
  {
    "service_request": "2022-945243",
    "request_type": "Trash/Recycling",
    "request_reason": "Order Trash Cart",
    "date_created": "2022-11-20T13:07:46.000",
    "date_modified": "2022-11-20T13:07:47.000",
    "request_status": "Pending",
    "responsible_agency": "Department of Sanitation",
    "final_address": "1912 Bartholomew St",
    "address_councildis": "D",
    "status": "Assigned to Contractor",
    "contractor": "IV Waste",
    "rowid": "945243",
    "final_x": "3692527.61712",
    "final_y": "538448.207945",
    "longitude": "-90.03300095706598",
    "latitude": "29.97420638387885",
    "geocoded_column": {
      "latitude": "29.97420638387885",
      "longitude": "-90.03300095706598"
    }
  },
  {
    "service_request": "2022-945242",
    "request_type": "Trash/Recycling",
    "request_reason": "MIssed Recycling Pick-Up",
    "date_created": "2022-11-20T13:06:56.000",
    "date_modified": "2022-11-20T13:06:57.000",
    "request_status": "Pending",
    "responsible_agency": "Department of Sanitation",
    "final_address": "2319 Short St",
    "address_councildis": "A",
    "status": "Assigned to Contractor",
    "contractor": "Richards Disposal",
    "rowid": "945242",
    "final_x": "3665039.41959",
    "final_y": "531026.666434",
    "longitude": "-90.12006362212367",
    "latitude": "29.954628693597694",
    "geocoded_column": {
      "latitude": "29.954628693597694",
      "longitude": "-90.12006362212367"
    }
  },
  {
    "service_request": "2022-945241",
    "request_type": "Trash/Recycling",
    "request_reason": "Repair Trash Cart",
    "date_created": "2022-11-20T13:00:31.000",
    "date_modified": "2022-11-20T13:00:31.000",
    "request_status": "Pending",
    "responsible_agency": "Department of Sanitation",
    "final_address": "3117 Nashville Ave",
    "address_councildis": "A",
    "status": "Assigned to Contractor",
    "contractor": "Richards Disposal",
    "rowid": "945241",
    "final_x": "3667872.80705",
    "final_y": "527275.313599",
    "longitude": "-90.11124318796075",
    "latitude": "29.94423089700483",
    "geocoded_column": {
      "latitude": "29.94423089700483",
      "longitude": "-90.11124318796075"
    }
  },
  {
    "service_request": "2022-945240",
    "request_type": "Trash/Recycling",
    "request_reason": "Order Recycling Cart",
    "date_created": "2022-11-20T12:56:57.000",
    "date_modified": "2022-11-20T12:56:57.000",
    "request_status": "Pending",
    "responsible_agency": "Department of Sanitation",
    "final_address": "828 Allen Toussaint Blvd",
    "address_councildis": "A",
    "status": "Pending",
    "rowid": "945240",
    "final_x": "3670114.10964",
    "final_y": "554472.057496",
    "longitude": "-90.10324492816987",
    "latitude": "30.018946771877665",
    "geocoded_column": {
      "latitude": "30.018946771877665",
      "longitude": "-90.10324492816987"
    }
  },
  {
    "service_request": "2022-945239",
    "request_type": "Trash/Recycling",
    "request_reason": "Order Recycling Cart",
    "date_created": "2022-11-20T12:54:08.000",
    "date_modified": "2022-11-20T12:54:08.000",
    "request_status": "Pending",
    "responsible_agency": "Department of Sanitation",
    "final_address": "45 Warbler St",
    "address_councildis": "D",
    "status": "Pending",
    "rowid": "945239",
    "final_x": "3673342.8548",
    "final_y": "556537.650074",
    "longitude": "-90.09297256004078",
    "latitude": "30.024530707311076",
    "geocoded_column": {
      "latitude": "30.024530707311076",
      "longitude": "-90.09297256004078"
    }
  },
  {
    "service_request": "2022-945238",
    "request_type": "Traffic Signals/Signs/Striping/Streetlights",
    "request_reason": "Traffic Signal Malfunctioning/Damaged",
    "date_created": "2022-11-20T12:53:51.000",
    "date_modified": "2022-11-20T12:53:51.000",
    "request_status": "Pending",
    "responsible_agency": "Department of Public Works",
    "final_address": "7000 Crowder Blvd",
    "address_councildis": "E",
    "status": "Pending",
    "rowid": "945238",
    "final_x": "3704342.0833",
    "final_y": "559373.338333",
    "longitude": "-89.99491649583028",
    "latitude": "30.031368640039002",
    "geocoded_column": {
      "latitude": "30.031368640039002",
      "longitude": "-89.99491649583028"
    }
  },
  {
    "service_request": "2022-945236",
    "request_type": "Trash/Recycling",
    "request_reason": "Order Recycling Cart",
    "date_created": "2022-11-20T12:49:27.000",
    "date_modified": "2022-11-20T12:49:27.000",
    "request_status": "Pending",
    "responsible_agency": "Department of Sanitation",
    "final_address": "1910 N Rampart St",
    "address_councildis": "C",
    "status": "Pending",
    "rowid": "945236",
    "final_x": "3684010.57737",
    "final_y": "535825.721287",
    "longitude": "-90.05999174628495",
    "latitude": "29.96725847162101",
    "geocoded_column": {
      "latitude": "29.96725847162101",
      "longitude": "-90.05999174628495"
    }
  },
  {
    "service_request": "2022-945235",
    "request_type": "Traffic Signals/Signs/Striping/Streetlights",
    "request_reason": "Street Light Outage/Malfunction",
    "date_created": "2022-11-20T12:45:49.000",
    "date_modified": "2022-11-20T12:45:50.000",
    "request_status": "Pending",
    "responsible_agency": "Department of Public Works",
    "final_address": "501 St Ann St",
    "address_councildis": "C",
    "status": "Pending",
    "contractor": "Legacy Professional Services",
    "rowid": "945235",
    "final_x": "3683351.33794",
    "final_y": "532367.594819",
    "longitude": "-90.06219477974763",
    "latitude": "29.95776993857039",
    "geocoded_column": {
      "latitude": "29.95776993857039",
      "longitude": "-90.06219477974763"
    }
  },
  {
    "service_request": "2022-945234",
    "request_type": "Trash/Recycling",
    "request_reason": "Order Recycling Cart",
    "date_created": "2022-11-20T12:20:24.000",
    "date_modified": "2022-11-20T12:20:24.000",
    "request_status": "Pending",
    "responsible_agency": "Department of Sanitation",
    "final_address": "702 Independence St",
    "address_councildis": "C",
    "status": "Pending",
    "rowid": "945234",
    "final_x": "3690572.61366",
    "final_y": "534060.976709",
    "longitude": "-90.03933176509243",
    "latitude": "29.96220389981583",
    "geocoded_column": {
      "latitude": "29.96220389981583",
      "longitude": "-90.03933176509243"
    }
  },
  {
    "service_request": "2022-945233",
    "request_type": "Trash/Recycling",
    "request_reason": "Order Recycling Cart",
    "date_created": "2022-11-20T12:13:33.000",
    "date_modified": "2022-11-20T12:13:33.000",
    "request_status": "Pending",
    "responsible_agency": "Department of Sanitation",
    "final_address": "6541 Colbert St",
    "address_councildis": "A",
    "status": "Pending",
    "rowid": "945233",
    "final_x": "3667844.85357",
    "final_y": "551119.081109",
    "longitude": "-90.1105280633459",
    "latitude": "30.009794055483763",
    "geocoded_column": {
      "latitude": "30.009794055483763",
      "longitude": "-90.1105280633459"
    }
  },
  {
    "service_request": "2022-945232",
    "request_type": "Trash/Recycling",
    "request_reason": "Missed Trash Pick-Up",
    "date_created": "2022-11-20T12:06:55.000",
    "date_modified": "2022-11-20T12:06:56.000",
    "request_status": "Pending",
    "responsible_agency": "Department of Sanitation",
    "final_address": "1165 Eagle St",
    "address_councildis": "A",
    "status": "Assigned to Contractor",
    "contractor": "Richards Disposal",
    "rowid": "945232",
    "final_x": "3660110.24717",
    "final_y": "529967.022849",
    "longitude": "-90.13566309925724",
    "latitude": "29.95185760491217",
    "geocoded_column": {
      "latitude": "29.95185760491217",
      "longitude": "-90.13566309925724"
    }
  },
  {
    "service_request": "2022-945231",
    "request_type": "Safety & Permits",
    "request_reason": "Construction permit",
    "date_created": "2022-11-20T11:38:55.000",
    "date_modified": "2022-11-20T11:38:55.000",
    "request_status": "Pending",
    "responsible_agency": "Department of Code Enforcement",
    "status": "Pending",
    "rowid": "945231",
    "longitude": "0.0",
    "latitude": "0.0",
    "geocoded_column": {
      "latitude": "0.0",
      "longitude": "0.0"
    }
  },
  {
    "service_request": "2022-945230",
    "request_type": "Mayor's Request",
    "request_reason": "Requests to the Mayor",
    "date_created": "2022-11-20T11:29:30.000",
    "date_modified": "2022-11-20T11:29:30.000",
    "request_status": "Pending",
    "responsible_agency": "Executive Office of the Mayor",
    "status": "Pending",
    "rowid": "945230",
    "longitude": "0.0",
    "latitude": "0.0",
    "geocoded_column": {
      "latitude": "0.0",
      "longitude": "0.0"
    }
  },
  {
    "service_request": "2022-945229",
    "request_type": "Trash/Recycling",
    "request_reason": "Order Recycling Cart",
    "date_created": "2022-11-20T11:28:57.000",
    "date_modified": "2022-11-20T11:28:57.000",
    "request_status": "Pending",
    "responsible_agency": "Department of Sanitation",
    "final_address": "1720 N Gayoso St",
    "address_councildis": "D",
    "status": "Pending",
    "rowid": "945229",
    "final_x": "3678793.44584",
    "final_y": "541505.62734",
    "longitude": "-90.07627072968822",
    "latitude": "29.983034640607254",
    "geocoded_column": {
      "latitude": "29.983034640607254",
      "longitude": "-90.07627072968822"
    }
  },
  {
    "service_request": "2022-945228",
    "request_type": "Trash/Recycling",
    "request_reason": "MIssed Recycling Pick-Up",
    "date_created": "2022-11-20T11:20:38.000",
    "date_modified": "2022-11-20T11:20:39.000",
    "request_status": "Pending",
    "responsible_agency": "Department of Sanitation",
    "final_address": "1469 Arabella St",
    "address_councildis": "A",
    "status": "Assigned to Contractor",
    "contractor": "Richards Disposal",
    "rowid": "945228",
    "final_x": "3666442.53703",
    "final_y": "521539.317881",
    "longitude": "-90.11595138226711",
    "latitude": "29.92850060905488",
    "geocoded_column": {
      "latitude": "29.92850060905488",
      "longitude": "-90.11595138226711"
    }
  },
  {
    "service_request": "2022-945227",
    "request_type": "Trash/Recycling",
    "request_reason": "Request a Large Item Pick Up",
    "date_created": "2022-11-20T11:19:00.000",
    "date_modified": "2022-11-20T11:19:01.000",
    "request_status": "Pending",
    "responsible_agency": "Department of Sanitation",
    "final_address": "3410 Livingston St",
    "address_councildis": "A",
    "status": "Assigned to Contractor",
    "contractor": "Richards Disposal",
    "rowid": "945227",
    "final_x": "3663634.95719",
    "final_y": "537601.45844",
    "longitude": "-90.12427933052054",
    "latitude": "29.972748033244194",
    "geocoded_column": {
      "latitude": "29.972748033244194",
      "longitude": "-90.12427933052054"
    }
  },
  {
    "service_request": "2022-945226",
    "request_type": "Trash/Recycling",
    "request_reason": "Order Recycling Cart",
    "date_created": "2022-11-20T11:08:58.000",
    "date_modified": "2022-11-20T11:08:58.000",
    "request_status": "Pending",
    "responsible_agency": "Department of Sanitation",
    "final_address": "23068 Chef Menteur Hwy",
    "address_councildis": "E",
    "status": "Pending",
    "rowid": "945226",
    "final_x": "3776013.36836",
    "final_y": "583102.081011",
    "longitude": "-89.76741479536956",
    "latitude": "30.094114811210197",
    "geocoded_column": {
      "latitude": "30.094114811210197",
      "longitude": "-89.76741479536956"
    }
  },
  {
    "service_request": "2022-945225",
    "request_type": "Trash/Recycling",
    "request_reason": "Missed Trash Pick-Up",
    "date_created": "2022-11-20T11:04:13.000",
    "date_modified": "2022-11-20T11:04:14.000",
    "request_status": "Pending",
    "responsible_agency": "Department of Sanitation",
    "final_address": "7602 Hampson St",
    "address_councildis": "A",
    "status": "Assigned to Contractor",
    "contractor": "Richards Disposal",
    "rowid": "945225",
    "final_x": "3662068.96128",
    "final_y": "525889.555645",
    "longitude": "-90.12961363003518",
    "latitude": "29.94058943397732",
    "geocoded_column": {
      "latitude": "29.94058943397732",
      "longitude": "-90.12961363003518"
    }
  },
  {
    "service_request": "2022-945224",
    "request_type": "Roads/Drainage",
    "request_reason": "Pothole",
    "date_created": "2022-11-20T11:01:35.000",
    "date_modified": "2022-11-20T11:01:35.000",
    "request_status": "Pending",
    "responsible_agency": "Department of Public Works",
    "final_address": "618 Hillary St",
    "address_councildis": "A",
    "status": "Pending",
    "rowid": "945224",
    "final_x": "3661996.5824",
    "final_y": "525795.712317",
    "longitude": "-90.12984525536224",
    "latitude": "29.940333485133444",
    "geocoded_column": {
      "latitude": "29.940333485133444",
      "longitude": "-90.12984525536224"
    }
  },
  {
    "service_request": "2022-945223",
    "request_type": "Trash/Recycling",
    "request_reason": "MIssed Recycling Pick-Up",
    "date_created": "2022-11-20T10:59:15.000",
    "date_modified": "2022-11-20T10:59:16.000",
    "request_status": "Pending",
    "responsible_agency": "Department of Sanitation",
    "final_address": "5538 Prytania St",
    "address_councildis": "A",
    "status": "Assigned to Contractor",
    "contractor": "Richards Disposal",
    "rowid": "945223",
    "final_x": "3666492.70023",
    "final_y": "520400.531",
    "longitude": "-90.11583122457182",
    "latitude": "29.925367839634323",
    "geocoded_column": {
      "latitude": "29.925367839634323",
      "longitude": "-90.11583122457182"
    }
  },
  {
    "service_request": "2022-945222",
    "request_type": "Abandoned Vehicles",
    "request_reason": "Abandoned/Junk Vehicles",
    "date_created": "2022-11-20T10:49:27.000",
    "date_modified": "2022-11-20T10:49:27.000",
    "request_status": "Pending",
    "responsible_agency": "Department of Public Works",
    "final_address": "925 Poland Ave",
    "address_councildis": "C",
    "status": "Pending",
    "rowid": "945222",
    "final_x": "3692955.21667",
    "final_y": "534392.511877",
    "longitude": "-90.03179599689916",
    "latitude": "29.963041305378372",
    "geocoded_column": {
      "latitude": "29.963041305378372",
      "longitude": "-90.03179599689916"
    }
  },
  {
    "service_request": "2022-945221",
    "request_type": "Abandoned Vehicles",
    "request_reason": "Abandoned/Junk Vehicles",
    "date_created": "2022-11-20T10:46:36.000",
    "date_modified": "2022-11-20T10:46:36.000",
    "request_status": "Pending",
    "responsible_agency": "Department of Public Works",
    "final_address": "925 Poland Ave",
    "address_councildis": "C",
    "status": "Pending",
    "rowid": "945221",
    "final_x": "3692955.21667",
    "final_y": "534392.511877",
    "longitude": "-90.03179599689916",
    "latitude": "29.963041305378372",
    "geocoded_column": {
      "latitude": "29.963041305378372",
      "longitude": "-90.03179599689916"
    }
  },
  {
    "service_request": "2022-945220",
    "request_type": "Trash/Recycling",
    "request_reason": "Request a Large Item Pick Up",
    "date_created": "2022-11-20T10:43:54.000",
    "date_modified": "2022-11-20T10:43:55.000",
    "request_status": "Pending",
    "responsible_agency": "Department of Sanitation",
    "final_address": "125 26Th St",
    "address_councildis": "A",
    "status": "Assigned to Contractor",
    "contractor": "IV Waste",
    "rowid": "945220",
    "final_x": "3666046.74893",
    "final_y": "549932.772628",
    "longitude": "-90.11624875369074",
    "latitude": "30.006584759560358",
    "geocoded_column": {
      "latitude": "30.006584759560358",
      "longitude": "-90.11624875369074"
    }
  },
  {
    "service_request": "2022-945219",
    "request_type": "Trash/Recycling",
    "request_reason": "Order Recycling Cart",
    "date_created": "2022-11-20T10:41:40.000",
    "date_modified": "2022-11-20T10:41:40.000",
    "request_status": "Pending",
    "responsible_agency": "Department of Sanitation",
    "final_address": "1326 Frenchmen St",
    "address_councildis": "C",
    "status": "Pending",
    "rowid": "945219",
    "final_x": "3684477.35324",
    "final_y": "537238.431368",
    "longitude": "-90.05846802765818",
    "latitude": "29.971128663111926",
    "geocoded_column": {
      "latitude": "29.971128663111926",
      "longitude": "-90.05846802765818"
    }
  },
  {
    "service_request": "2022-945218",
    "request_type": "Abandoned Vehicles",
    "request_reason": "Abandoned/Junk Vehicles",
    "date_created": "2022-11-20T10:38:45.000",
    "date_modified": "2022-11-20T10:38:45.000",
    "request_status": "Pending",
    "responsible_agency": "Department of Public Works",
    "final_address": "1010 Bartholomew St",
    "address_councildis": "C",
    "status": "Pending",
    "rowid": "945218",
    "final_x": "3691677.10051",
    "final_y": "534966.571014",
    "longitude": "-90.03581158939974",
    "latitude": "29.9646596237881",
    "geocoded_column": {
      "latitude": "29.9646596237881",
      "longitude": "-90.03581158939974"
    }
  },
  {
    "service_request": "2022-945217",
    "request_type": "Trash/Recycling",
    "request_reason": "Request a Large Item Pick Up",
    "date_created": "2022-11-20T10:26:14.000",
    "date_modified": "2022-11-20T10:26:14.000",
    "request_status": "Pending",
    "responsible_agency": "Department of Sanitation",
    "final_address": "2482 Royal St",
    "address_councildis": "C",
    "status": "Assigned to Contractor",
    "contractor": "IV Waste",
    "rowid": "945217",
    "final_x": "3686582.82998",
    "final_y": "534956.381638",
    "longitude": "-90.05189926220055",
    "latitude": "29.964789240670054",
    "geocoded_column": {
      "latitude": "29.964789240670054",
      "longitude": "-90.05189926220055"
    }
  },
  {
    "service_request": "2022-945216",
    "request_type": "Trash/Recycling",
    "request_reason": "Request a Large Item Pick Up",
    "date_created": "2022-11-20T10:25:22.000",
    "date_modified": "2022-11-20T10:25:22.000",
    "request_status": "Pending",
    "responsible_agency": "Department of Sanitation",
    "final_address": "1013 Desire St",
    "address_councildis": "C",
    "status": "Assigned to Contractor",
    "contractor": "IV Waste",
    "rowid": "945216",
    "final_x": "3690139.9791",
    "final_y": "535395.447494",
    "longitude": "-90.04065041549634",
    "latitude": "29.965886654873714",
    "geocoded_column": {
      "latitude": "29.965886654873714",
      "longitude": "-90.04065041549634"
    }
  },
  {
    "service_request": "2022-945215",
    "request_type": "Trash/Recycling",
    "request_reason": "Request a Large Item Pick Up",
    "date_created": "2022-11-20T10:25:00.000",
    "date_modified": "2022-11-20T10:25:00.000",
    "request_status": "Pending",
    "responsible_agency": "Department of Sanitation",
    "final_address": "4538 S Liberty St",
    "address_councildis": "B",
    "status": "Assigned to Contractor",
    "contractor": "Richards Disposal",
    "rowid": "945215",
    "final_x": "3669895.91207",
    "final_y": "523244.388091",
    "longitude": "-90.1049920851556",
    "latitude": "29.93308766899235",
    "geocoded_column": {
      "latitude": "29.93308766899235",
      "longitude": "-90.1049920851556"
    }
  },
  {
    "service_request": "2022-945214",
    "request_type": "Trash/Recycling",
    "request_reason": "Replace Trash Cart",
    "date_created": "2022-11-20T10:19:54.000",
    "date_modified": "2022-11-20T10:19:54.000",
    "request_status": "Pending",
    "responsible_agency": "Department of Sanitation",
    "final_address": "1612 Ursulines Ave",
    "address_councildis": "D",
    "status": "Assigned to Contractor",
    "contractor": "Richards Disposal",
    "rowid": "945214",
    "final_x": "3680840.75528",
    "final_y": "535603.101702",
    "longitude": "-90.07000982913375",
    "latitude": "29.966742821120697",
    "geocoded_column": {
      "latitude": "29.966742821120697",
      "longitude": "-90.07000982913375"
    }
  },
  {
    "service_request": "2022-945213",
    "request_type": "EMS",
    "request_reason": "EMS Lost & Found",
    "date_created": "2022-11-20T10:13:15.000",
    "date_modified": "2022-11-20T18:35:07.000",
    "case_close_date": "2022-11-20T12:35:07.000",
    "request_status": "Closed",
    "responsible_agency": "Emergency Medical Services",
    "status": "Resolved",
    "rowid": "945213",
    "longitude": "0.0",
    "latitude": "0.0",
    "geocoded_column": {
      "latitude": "0.0",
      "longitude": "0.0"
    }
  },
  {
    "service_request": "2022-945212",
    "request_type": "Trash/Recycling",
    "request_reason": "Missed Trash Pick-Up",
    "date_created": "2022-11-20T10:10:14.000",
    "date_modified": "2022-11-20T10:10:15.000",
    "request_status": "Pending",
    "responsible_agency": "Department of Sanitation",
    "final_address": "2919 Sixth St",
    "address_councildis": "B",
    "status": "Assigned to Contractor",
    "contractor": "Richards Disposal",
    "rowid": "945212",
    "final_x": "3672913.21166",
    "final_y": "526259.713982",
    "longitude": "-90.09536381497094",
    "latitude": "29.941289550656407",
    "geocoded_column": {
      "latitude": "29.941289550656407",
      "longitude": "-90.09536381497094"
    }
  },
  {
    "service_request": "2022-945211",
    "request_type": "Trash/Recycling",
    "request_reason": "Order Recycling Cart",
    "date_created": "2022-11-20T09:48:28.000",
    "date_modified": "2022-11-20T09:48:29.000",
    "request_status": "Pending",
    "responsible_agency": "Department of Sanitation",
    "final_address": "4615 Deanne St",
    "address_councildis": "D",
    "status": "Pending",
    "rowid": "945211",
    "final_x": "3696475.15191",
    "final_y": "553694.520919",
    "longitude": "-90.01998188773965",
    "latitude": "30.016004369309893",
    "geocoded_column": {
      "latitude": "30.016004369309893",
      "longitude": "-90.01998188773965"
    }
  },
  {
    "service_request": "2022-945210",
    "request_type": "Trash/Recycling",
    "request_reason": "Replace Trash Cart",
    "date_created": "2022-11-20T09:47:48.000",
    "date_modified": "2022-11-20T09:47:49.000",
    "request_status": "Pending",
    "responsible_agency": "Department of Sanitation",
    "final_address": "4615 Deanne St",
    "address_councildis": "D",
    "status": "Assigned to Contractor",
    "contractor": "Waste Pro",
    "rowid": "945210",
    "final_x": "3696475.15191",
    "final_y": "553694.520919",
    "longitude": "-90.01998188773965",
    "latitude": "30.016004369309893",
    "geocoded_column": {
      "latitude": "30.016004369309893",
      "longitude": "-90.01998188773965"
    }
  },
  {
    "service_request": "2022-945209",
    "request_type": "Trash/Recycling",
    "request_reason": "MIssed Recycling Pick-Up",
    "date_created": "2022-11-20T09:47:46.000",
    "date_modified": "2022-11-20T09:47:47.000",
    "request_status": "Pending",
    "responsible_agency": "Department of Sanitation",
    "final_address": "5316 Wickfield Dr",
    "address_councildis": "D",
    "status": "Assigned to Contractor",
    "contractor": "IV Waste",
    "rowid": "945209",
    "final_x": "3681087.29307",
    "final_y": "552512.96367",
    "longitude": "-90.06864186183476",
    "latitude": "30.01323150401495",
    "geocoded_column": {
      "latitude": "30.01323150401495",
      "longitude": "-90.06864186183476"
    }
  },
  {
    "service_request": "2022-945208",
    "request_type": "Trash/Recycling",
    "request_reason": "Missed Trash Pick-Up",
    "date_created": "2022-11-20T09:10:07.000",
    "date_modified": "2022-11-20T09:10:08.000",
    "request_status": "Pending",
    "responsible_agency": "Department of Sanitation",
    "final_address": "4512 N Robertson St",
    "address_councildis": "D",
    "status": "Assigned to Contractor",
    "contractor": "IV Waste",
    "rowid": "945208",
    "final_x": "3693811.04937",
    "final_y": "536349.077575",
    "longitude": "-90.029023062384",
    "latitude": "29.968394411602734",
    "geocoded_column": {
      "latitude": "29.968394411602734",
      "longitude": "-90.029023062384"
    }
  },
  {
    "service_request": "2022-945207",
    "request_type": "Trash/Recycling",
    "request_reason": "Order Trash Cart",
    "date_created": "2022-11-20T08:59:22.000",
    "date_modified": "2022-11-20T08:59:22.000",
    "request_status": "Pending",
    "responsible_agency": "Department of Sanitation",
    "final_address": "2400 Independence St",
    "address_councildis": "D",
    "status": "Assigned to Contractor",
    "contractor": "IV Waste",
    "rowid": "945207",
    "final_x": "3692134.05654",
    "final_y": "540457.191755",
    "longitude": "-90.0341719696679",
    "latitude": "29.97974264782047",
    "geocoded_column": {
      "latitude": "29.97974264782047",
      "longitude": "-90.0341719696679"
    }
  },
  {
    "service_request": "2022-945205",
    "request_type": "Trash/Recycling",
    "request_reason": "Order Recycling Cart",
    "date_created": "2022-11-20T08:43:24.000",
    "date_modified": "2022-11-20T08:43:24.000",
    "request_status": "Pending",
    "responsible_agency": "Department of Sanitation",
    "final_address": "6120 Law St",
    "address_councildis": "E",
    "status": "Pending",
    "rowid": "945205",
    "final_x": "3701816.47895",
    "final_y": "538559.798473",
    "longitude": "-90.0036606924821",
    "latitude": "29.974220099732527",
    "geocoded_column": {
      "latitude": "29.974220099732527",
      "longitude": "-90.0036606924821"
    }
  },
  {
    "service_request": "2022-945204",
    "request_type": "Trash/Recycling",
    "request_reason": "Return Recycling Cart",
    "date_created": "2022-11-20T08:08:30.000",
    "date_modified": "2022-11-20T08:08:30.000",
    "request_status": "Pending",
    "responsible_agency": "Department of Sanitation",
    "final_address": "11296 Notaway Ln, New Orleans, Louisiana, 70128",
    "address_councildis": "E",
    "status": "Pending",
    "rowid": "945204",
    "final_x": "3718453.16607",
    "final_y": "559780.510237",
    "longitude": "-89.95030990061292",
    "latitude": "30.032027437831545",
    "geocoded_column": {
      "latitude": "30.032027437831545",
      "longitude": "-89.95030990061292"
    }
  },
  {
    "service_request": "2022-945203",
    "request_type": "Trash/Recycling",
    "request_reason": "Missed Trash Pick-Up",
    "date_created": "2022-11-20T07:56:17.000",
    "date_modified": "2022-11-20T07:56:18.000",
    "request_status": "Pending",
    "responsible_agency": "Department of Sanitation",
    "final_address": "314 Henry Clay Avenue, NOLA 70118",
    "status": "Assigned to Contractor",
    "rowid": "945203",
    "longitude": "0.0",
    "latitude": "0.0",
    "geocoded_column": {
      "latitude": "0.0",
      "longitude": "0.0"
    }
  },
  {
    "service_request": "2022-945202",
    "request_type": "Trash/Recycling",
    "request_reason": "Order Trash Cart",
    "date_created": "2022-11-20T07:44:03.000",
    "date_modified": "2022-11-20T07:44:04.000",
    "request_status": "Pending",
    "responsible_agency": "Department of Sanitation",
    "final_address": "4759 Warren dr New Orleans 70127",
    "address_councildis": "E",
    "status": "Assigned to Contractor",
    "contractor": "Waste Pro",
    "rowid": "945202",
    "final_x": "3713513.14642",
    "final_y": "556441.914522",
    "longitude": "-89.96604639716669",
    "latitude": "30.023010647377525",
    "geocoded_column": {
      "latitude": "30.023010647377525",
      "longitude": "-89.96604639716669"
    }
  },
  {
    "service_request": "2022-945201",
    "request_type": "Trash/Recycling",
    "request_reason": "Order Recycling Cart",
    "date_created": "2022-11-20T07:21:58.000",
    "date_modified": "2022-11-20T07:21:58.000",
    "request_status": "Pending",
    "responsible_agency": "Department of Sanitation",
    "final_address": "3135 Dumaine St",
    "address_councildis": "A",
    "status": "Pending",
    "rowid": "945201",
    "final_x": "3675484.42043",
    "final_y": "538834.479113",
    "longitude": "-90.08681411790732",
    "latitude": "29.975789304008455",
    "geocoded_column": {
      "latitude": "29.975789304008455",
      "longitude": "-90.08681411790732"
    }
  },
  {
    "service_request": "2022-945200",
    "request_type": "Trash/Recycling",
    "request_reason": "Order Recycling Cart",
    "date_created": "2022-11-20T07:03:02.000",
    "date_modified": "2022-11-20T07:03:02.000",
    "request_status": "Pending",
    "responsible_agency": "Department of Sanitation",
    "final_address": "1608 Mirabeau Ave",
    "address_councildis": "D",
    "status": "Pending",
    "rowid": "945200",
    "final_x": "3679740.79887",
    "final_y": "550240.952916",
    "longitude": "-90.07297502387908",
    "latitude": "30.007025087189586",
    "geocoded_column": {
      "latitude": "30.007025087189586",
      "longitude": "-90.07297502387908"
    }
  },
  {
    "service_request": "2022-945199",
    "request_type": "Roads/Drainage",
    "request_reason": "Pothole",
    "date_created": "2022-11-20T06:27:06.000",
    "date_modified": "2022-11-20T06:27:06.000",
    "request_status": "Pending",
    "responsible_agency": "Department of Public Works",
    "final_address": "1510 General Pershing St",
    "address_councildis": "B",
    "status": "Pending",
    "rowid": "945199",
    "final_x": "3671217.23899",
    "final_y": "520692.078713",
    "longitude": "-90.10090740050725",
    "latitude": "29.926030623080177",
    "geocoded_column": {
      "latitude": "29.926030623080177",
      "longitude": "-90.10090740050725"
    }
  },
  {
    "service_request": "2022-945197",
    "request_type": "Health Related Questions",
    "request_reason": "Noise Ordinance Complaint",
    "date_created": "2022-11-20T01:54:27.000",
    "date_modified": "2022-11-20T01:54:27.000",
    "request_status": "Pending",
    "responsible_agency": "Health Department",
    "final_address": "1200 St Bernard Ave",
    "address_councildis": "C",
    "status": "Pending",
    "rowid": "945197",
    "final_x": "3683033.3165",
    "final_y": "536132.891847",
    "longitude": "-90.06306719052876",
    "latitude": "29.96813290984115",
    "geocoded_column": {
      "latitude": "29.96813290984115",
      "longitude": "-90.06306719052876"
    }
  },
  {
    "service_request": "2022-945195",
    "request_type": "Trash/Recycling",
    "request_reason": "Replace Recycling Cart",
    "date_created": "2022-11-19T23:55:00.000",
    "date_modified": "2022-11-19T23:55:00.000",
    "request_status": "Pending",
    "responsible_agency": "Department of Sanitation",
    "final_address": "321 Audubon Blvd",
    "address_councildis": "A",
    "status": "Pending",
    "rowid": "945195",
    "final_x": "3667278.90535",
    "final_y": "529985.895873",
    "longitude": "-90.11302716807042",
    "latitude": "29.95170152224647",
    "geocoded_column": {
      "latitude": "29.95170152224647",
      "longitude": "-90.11302716807042"
    }
  },
  {
    "service_request": "2022-945194",
    "request_type": "Trash/Recycling",
    "request_reason": "Replace Trash Cart",
    "date_created": "2022-11-19T23:51:22.000",
    "date_modified": "2022-11-19T23:51:23.000",
    "request_status": "Pending",
    "responsible_agency": "Department of Sanitation",
    "final_address": "321 Audubon Blvd",
    "address_councildis": "A",
    "status": "Assigned to Contractor",
    "contractor": "Richards Disposal",
    "rowid": "945194",
    "final_x": "3667278.90535",
    "final_y": "529985.895873",
    "longitude": "-90.11302716807042",
    "latitude": "29.95170152224647",
    "geocoded_column": {
      "latitude": "29.95170152224647",
      "longitude": "-90.11302716807042"
    }
  },
  {
    "service_request": "2022-945192",
    "request_type": "Trash/Recycling",
    "request_reason": "Change Size of Trash Cart",
    "date_created": "2022-11-19T23:34:05.000",
    "date_modified": "2022-11-19T23:34:06.000",
    "request_status": "Pending",
    "responsible_agency": "Department of Sanitation",
    "final_address": "5656 Campus Blvd",
    "address_councildis": "D",
    "status": "Assigned to Contractor",
    "contractor": "IV Waste",
    "rowid": "945192",
    "final_x": "3688939.50095",
    "final_y": "554133.983192",
    "longitude": "-90.04377549866281",
    "latitude": "30.017448068972417",
    "geocoded_column": {
      "latitude": "30.017448068972417",
      "longitude": "-90.04377549866281"
    }
  },
  {
    "service_request": "2022-945191",
    "request_type": "Traffic Signals/Signs/Striping/Streetlights",
    "request_reason": "Street Light Outage/Malfunction",
    "date_created": "2022-11-19T23:24:18.000",
    "date_modified": "2022-11-19T23:24:19.000",
    "request_status": "Pending",
    "responsible_agency": "Department of Public Works",
    "final_address": "6361 Louisville St",
    "address_councildis": "A",
    "status": "Pending",
    "contractor": "Legacy Professional Services",
    "rowid": "945191",
    "final_x": "3668066.15316",
    "final_y": "549814.744788",
    "longitude": "-90.10987289640458",
    "latitude": "30.006201090675304",
    "geocoded_column": {
      "latitude": "30.006201090675304",
      "longitude": "-90.10987289640458"
    }
  },
  {
    "service_request": "2022-945190",
    "request_type": "Health Related Questions",
    "request_reason": "Noise Ordinance Complaint",
    "date_created": "2022-11-19T22:51:26.000",
    "date_modified": "2022-11-19T22:51:27.000",
    "request_status": "Pending",
    "responsible_agency": "Health Department",
    "final_address": "10501 Curran Rd Apt 1W",
    "address_councildis": "E",
    "status": "Pending",
    "rowid": "945190",
    "final_x": "3709163.55832",
    "final_y": "565429.036322",
    "longitude": "-89.97945446828055",
    "latitude": "30.04786366309886",
    "geocoded_column": {
      "latitude": "30.04786366309886",
      "longitude": "-89.97945446828055"
    }
  },
  {
    "service_request": "2022-945189",
    "request_type": "Trash/Recycling",
    "request_reason": "Order Recycling Cart",
    "date_created": "2022-11-19T22:40:40.000",
    "date_modified": "2022-11-19T22:40:40.000",
    "request_status": "Pending",
    "responsible_agency": "Department of Sanitation",
    "final_address": "6588 Bellaire Dr",
    "address_councildis": "A",
    "status": "Pending",
    "rowid": "945189",
    "final_x": "3664465.9737",
    "final_y": "551861.462038",
    "longitude": "-90.12117839239632",
    "latitude": "30.011934059823503",
    "geocoded_column": {
      "latitude": "30.011934059823503",
      "longitude": "-90.12117839239632"
    }
  },
  {
    "service_request": "2022-945188",
    "request_type": "Trash/Recycling",
    "request_reason": "Replace Trash Cart",
    "date_created": "2022-11-19T22:38:24.000",
    "date_modified": "2022-11-19T22:38:24.000",
    "request_status": "Pending",
    "responsible_agency": "Department of Sanitation",
    "final_address": "6588 Bellaire Dr",
    "address_councildis": "A",
    "status": "Assigned to Contractor",
    "contractor": "IV Waste",
    "rowid": "945188",
    "final_x": "3664465.9737",
    "final_y": "551861.462038",
    "longitude": "-90.12117839239632",
    "latitude": "30.011934059823503",
    "geocoded_column": {
      "latitude": "30.011934059823503",
      "longitude": "-90.12117839239632"
    }
  },
  {
    "service_request": "2022-945187",
    "request_type": "Roads/Drainage",
    "request_reason": "Pothole",
    "date_created": "2022-11-19T21:52:10.000",
    "date_modified": "2022-11-19T21:52:10.000",
    "request_status": "Pending",
    "responsible_agency": "Department of Public Works",
    "final_address": "5944 Argonne Blvd",
    "address_councildis": "A",
    "status": "Pending",
    "rowid": "945187",
    "final_x": "3670066.86791",
    "final_y": "546827.277457",
    "longitude": "-90.1036534180396",
    "latitude": "29.997927705448376",
    "geocoded_column": {
      "latitude": "29.997927705448376",
      "longitude": "-90.1036534180396"
    }
  },
  {
    "service_request": "2022-945186",
    "request_type": "Roads/Drainage",
    "request_reason": "Damaged Sidewalk",
    "date_created": "2022-11-19T21:49:26.000",
    "date_modified": "2022-11-19T21:49:26.000",
    "request_status": "Pending",
    "responsible_agency": "Department of Public Works",
    "final_address": "18 Sullivan Pl",
    "address_councildis": "C",
    "status": "Pending",
    "rowid": "945186",
    "final_x": "3702268.95754",
    "final_y": "522129.36057",
    "longitude": "-90.00283420559116",
    "latitude": "29.929027791144915",
    "geocoded_column": {
      "latitude": "29.929027791144915",
      "longitude": "-90.00283420559116"
    }
  },
  {
    "service_request": "2022-945185",
    "request_type": "Trash/Recycling",
    "request_reason": "MIssed Recycling Pick-Up",
    "date_created": "2022-11-19T21:48:03.000",
    "date_modified": "2022-11-19T21:48:04.000",
    "request_status": "Pending",
    "responsible_agency": "Department of Sanitation",
    "final_address": "5944 Argonne Blvd",
    "address_councildis": "A",
    "status": "Assigned to Contractor",
    "contractor": "IV Waste",
    "rowid": "945185",
    "final_x": "3670066.86791",
    "final_y": "546827.277457",
    "longitude": "-90.1036534180396",
    "latitude": "29.997927705448376",
    "geocoded_column": {
      "latitude": "29.997927705448376",
      "longitude": "-90.1036534180396"
    }
  },
  {
    "service_request": "2022-945184",
    "request_type": "Traffic Signals/Signs/Striping/Streetlights",
    "request_reason": "Street Light Outage/Malfunction",
    "date_created": "2022-11-19T21:18:26.000",
    "date_modified": "2022-11-19T21:18:26.000",
    "request_status": "Pending",
    "responsible_agency": "Department of Public Works",
    "final_address": "443 Audubon St",
    "address_councildis": "A",
    "status": "Pending",
    "contractor": "Legacy Professional Services",
    "rowid": "945184",
    "final_x": "3662394.62656",
    "final_y": "523226.991675",
    "longitude": "-90.12867382168234",
    "latitude": "29.933258814712353",
    "geocoded_column": {
      "latitude": "29.933258814712353",
      "longitude": "-90.12867382168234"
    }
  },
  {
    "service_request": "2022-945183",
    "request_type": "Trash/Recycling",
    "request_reason": "Replace Trash Cart",
    "date_created": "2022-11-19T21:14:45.000",
    "date_modified": "2022-11-19T21:14:46.000",
    "request_status": "Pending",
    "responsible_agency": "Department of Sanitation",
    "final_address": "443 Audubon St",
    "address_councildis": "A",
    "status": "Assigned to Contractor",
    "contractor": "Richards Disposal",
    "rowid": "945183",
    "final_x": "3662394.62656",
    "final_y": "523226.991675",
    "longitude": "-90.12867382168234",
    "latitude": "29.933258814712353",
    "geocoded_column": {
      "latitude": "29.933258814712353",
      "longitude": "-90.12867382168234"
    }
  },
  {
    "service_request": "2022-945182",
    "request_type": "Trash/Recycling",
    "request_reason": "Replace Recycling Cart",
    "date_created": "2022-11-19T21:12:46.000",
    "date_modified": "2022-11-19T21:12:46.000",
    "request_status": "Pending",
    "responsible_agency": "Department of Sanitation",
    "final_address": "443 Audubon St",
    "address_councildis": "A",
    "status": "Pending",
    "rowid": "945182",
    "final_x": "3662394.62656",
    "final_y": "523226.991675",
    "longitude": "-90.12867382168234",
    "latitude": "29.933258814712353",
    "geocoded_column": {
      "latitude": "29.933258814712353",
      "longitude": "-90.12867382168234"
    }
  },
  {
    "service_request": "2022-945181",
    "request_type": "Trash/Recycling",
    "request_reason": "Request a Large Item Pick Up",
    "date_created": "2022-11-19T21:09:37.000",
    "date_modified": "2022-11-19T21:09:38.000",
    "request_status": "Pending",
    "responsible_agency": "Department of Sanitation",
    "final_address": "4101 Dauphine St",
    "address_councildis": "C",
    "status": "Assigned to Contractor",
    "contractor": "IV Waste",
    "rowid": "945181",
    "final_x": "3691862.08694",
    "final_y": "534112.240517",
    "longitude": "-90.03525798103014",
    "latitude": "29.962304753636957",
    "geocoded_column": {
      "latitude": "29.962304753636957",
      "longitude": "-90.03525798103014"
    }
  },
  {
    "service_request": "2022-945180",
    "request_type": "Health Related Questions",
    "request_reason": "Noise Ordinance Complaint",
    "date_created": "2022-11-19T21:02:06.000",
    "date_modified": "2022-11-19T21:02:06.000",
    "request_status": "Pending",
    "responsible_agency": "Health Department",
    "final_address": "239 Decatur St",
    "address_councildis": "C",
    "status": "Pending",
    "rowid": "945180",
    "final_x": "3682195.63317",
    "final_y": "530830.069826",
    "longitude": "-90.06589786183099",
    "latitude": "29.95357746948798",
    "geocoded_column": {
      "latitude": "29.95357746948798",
      "longitude": "-90.06589786183099"
    }
  },
  {
    "service_request": "2022-945179",
    "request_type": "Trash/Recycling",
    "request_reason": "Missed Trash Pick-Up",
    "date_created": "2022-11-19T20:35:48.000",
    "date_modified": "2022-11-19T20:35:49.000",
    "request_status": "Pending",
    "responsible_agency": "Department of Sanitation",
    "final_address": "6710 Bamberry St",
    "address_councildis": "E",
    "status": "Assigned to Contractor",
    "contractor": "Waste Pro",
    "rowid": "945179",
    "final_x": "3698237.66013",
    "final_y": "558788.183324",
    "longitude": "-90.0142279055608",
    "latitude": "30.02995433433007",
    "geocoded_column": {
      "latitude": "30.02995433433007",
      "longitude": "-90.0142279055608"
    }
  },
  {
    "service_request": "2022-945178",
    "request_type": "Roads/Drainage",
    "request_reason": "Pothole",
    "date_created": "2022-11-19T20:34:54.000",
    "date_modified": "2022-11-19T20:34:55.000",
    "request_status": "Pending",
    "responsible_agency": "Department of Public Works",
    "final_address": "1100 BLK S Peters St",
    "address_councildis": "B",
    "status": "Pending",
    "rowid": "945178",
    "final_x": "3682309.33548",
    "final_y": "526066.340372",
    "longitude": "-90.06570524408423",
    "latitude": "29.940475358025083",
    "geocoded_column": {
      "latitude": "29.940475358025083",
      "longitude": "-90.06570524408423"
    }
  },
  {
    "service_request": "2022-945177",
    "request_type": "Trash/Recycling",
    "request_reason": "Order Recycling Cart",
    "date_created": "2022-11-19T20:18:12.000",
    "date_modified": "2022-11-19T20:18:12.000",
    "request_status": "Pending",
    "responsible_agency": "Department of Sanitation",
    "final_address": "6525 Elysian Fields Ave",
    "address_councildis": "D",
    "status": "Pending",
    "rowid": "945177",
    "final_x": "3683489.91868",
    "final_y": "557142.758362",
    "longitude": "-90.06088841461394",
    "latitude": "30.02588860546786",
    "geocoded_column": {
      "latitude": "30.02588860546786",
      "longitude": "-90.06088841461394"
    }
  },
  {
    "service_request": "2022-945176",
    "request_type": "Roads/Drainage",
    "request_reason": "Catch Basin - Clogged",
    "date_created": "2022-11-19T20:17:54.000",
    "date_modified": "2022-11-19T20:17:54.000",
    "request_status": "Pending",
    "responsible_agency": "Department of Public Works",
    "final_address": "1020 Pauline St",
    "address_councildis": "C",
    "status": "Pending",
    "rowid": "945176",
    "final_x": "3691117.51459",
    "final_y": "535195.48679",
    "longitude": "-90.03757054119713",
    "latitude": "29.965306473488177",
    "geocoded_column": {
      "latitude": "29.965306473488177",
      "longitude": "-90.03757054119713"
    }
  },
  {
    "service_request": "2022-945175",
    "request_type": "Roads/Drainage",
    "request_reason": "Catch Basin - Clogged",
    "date_created": "2022-11-19T20:17:11.000",
    "date_modified": "2022-11-19T20:17:11.000",
    "request_status": "Pending",
    "responsible_agency": "Department of Public Works",
    "final_address": "1020 Pauline St",
    "address_councildis": "C",
    "status": "Pending",
    "rowid": "945175",
    "final_x": "3691117.51459",
    "final_y": "535195.48679",
    "longitude": "-90.03757054119713",
    "latitude": "29.965306473488177",
    "geocoded_column": {
      "latitude": "29.965306473488177",
      "longitude": "-90.03757054119713"
    }
  },
  {
    "service_request": "2022-945174",
    "request_type": "Traffic Signals/Signs/Striping/Streetlights",
    "request_reason": "Street Light Outage/Malfunction",
    "date_created": "2022-11-19T20:15:49.000",
    "date_modified": "2022-11-19T20:15:50.000",
    "request_status": "Pending",
    "responsible_agency": "Department of Public Works",
    "final_address": "1020 Pauline St",
    "address_councildis": "C",
    "status": "Pending",
    "contractor": "Legacy Professional Services",
    "rowid": "945174",
    "final_x": "3691117.51459",
    "final_y": "535195.48679",
    "longitude": "-90.03757054119713",
    "latitude": "29.965306473488177",
    "geocoded_column": {
      "latitude": "29.965306473488177",
      "longitude": "-90.03757054119713"
    }
  },
  {
    "service_request": "2022-945173",
    "request_type": "Traffic Signals/Signs/Striping/Streetlights",
    "request_reason": "Street Light Outage/Malfunction",
    "date_created": "2022-11-19T20:13:51.000",
    "date_modified": "2022-11-19T20:13:52.000",
    "request_status": "Pending",
    "responsible_agency": "Department of Public Works",
    "final_address": "1020 Pauline St",
    "address_councildis": "C",
    "status": "Pending",
    "contractor": "Legacy Professional Services",
    "rowid": "945173",
    "final_x": "3691117.51459",
    "final_y": "535195.48679",
    "longitude": "-90.03757054119713",
    "latitude": "29.965306473488177",
    "geocoded_column": {
      "latitude": "29.965306473488177",
      "longitude": "-90.03757054119713"
    }
  },
  {
    "service_request": "2022-945172",
    "request_type": "Trash/Recycling",
    "request_reason": "Return Recycling Cart",
    "date_created": "2022-11-19T19:47:48.000",
    "date_modified": "2022-11-19T19:47:48.000",
    "request_status": "Pending",
    "responsible_agency": "Department of Sanitation",
    "final_address": "5934 Memphis St",
    "address_councildis": "A",
    "status": "Pending",
    "rowid": "945172",
    "final_x": "3669061.58055",
    "final_y": "546845.512337",
    "longitude": "-90.10682849683545",
    "latitude": "29.99800747114059",
    "geocoded_column": {
      "latitude": "29.99800747114059",
      "longitude": "-90.10682849683545"
    }
  },
  {
    "service_request": "2022-945171",
    "request_type": "Trash/Recycling",
    "request_reason": "Order Trash Cart",
    "date_created": "2022-11-19T19:46:14.000",
    "date_modified": "2022-11-19T19:46:14.000",
    "request_status": "Pending",
    "responsible_agency": "Department of Sanitation",
    "final_address": "5934 Memphis St",
    "address_councildis": "A",
    "status": "Assigned to Contractor",
    "contractor": "IV Waste",
    "rowid": "945171",
    "final_x": "3669061.58055",
    "final_y": "546845.512337",
    "longitude": "-90.10682849683545",
    "latitude": "29.99800747114059",
    "geocoded_column": {
      "latitude": "29.99800747114059",
      "longitude": "-90.10682849683545"
    }
  },
  {
    "service_request": "2022-945170",
    "request_type": "Trash/Recycling",
    "request_reason": "Request a Large Item Pick Up",
    "date_created": "2022-11-19T19:33:29.000",
    "date_modified": "2022-11-19T19:33:29.000",
    "request_status": "Pending",
    "responsible_agency": "Department of Sanitation",
    "final_address": "417 Warrington Dr",
    "address_councildis": "D",
    "status": "Assigned to Contractor",
    "contractor": "IV Waste",
    "rowid": "945170",
    "final_x": "3681561.27669",
    "final_y": "548326.51285",
    "longitude": "-90.06729047194948",
    "latitude": "30.00170587900364",
    "geocoded_column": {
      "latitude": "30.00170587900364",
      "longitude": "-90.06729047194948"
    }
  },
  {
    "service_request": "2022-945169",
    "request_type": "Trash/Recycling",
    "request_reason": "Repair Trash Cart",
    "date_created": "2022-11-19T19:27:10.000",
    "date_modified": "2022-11-19T19:27:11.000",
    "request_status": "Pending",
    "responsible_agency": "Department of Sanitation",
    "final_address": "1128 Fourth St",
    "address_councildis": "B",
    "status": "Assigned to Contractor",
    "contractor": "Richards Disposal",
    "rowid": "945169",
    "final_x": "3677133.84693",
    "final_y": "521173.455865",
    "longitude": "-90.08221379408636",
    "latitude": "29.927177947075553",
    "geocoded_column": {
      "latitude": "29.927177947075553",
      "longitude": "-90.08221379408636"
    }
  },
  {
    "service_request": "2022-945168",
    "request_type": "Trash/Recycling",
    "request_reason": "Order Recycling Cart",
    "date_created": "2022-11-19T19:08:22.000",
    "date_modified": "2022-11-19T19:08:22.000",
    "request_status": "Pending",
    "responsible_agency": "Department of Sanitation",
    "final_address": "350 12Th St",
    "address_councildis": "A",
    "status": "Pending",
    "rowid": "945168",
    "final_x": "3664733.11085",
    "final_y": "547806.51221",
    "longitude": "-90.12046999551558",
    "latitude": "30.000776577329432",
    "geocoded_column": {
      "latitude": "30.000776577329432",
      "longitude": "-90.12046999551558"
    }
  },
  {
    "service_request": "2022-945167",
    "request_type": "Trash/Recycling",
    "request_reason": "Replace Recycling Cart",
    "date_created": "2022-11-19T19:06:58.000",
    "date_modified": "2022-11-19T19:06:58.000",
    "request_status": "Pending",
    "responsible_agency": "Department of Sanitation",
    "final_address": "1 S Lark St",
    "address_councildis": "D",
    "status": "Pending",
    "rowid": "945167",
    "final_x": "3675266.02107",
    "final_y": "556294.06505",
    "longitude": "-90.08690405501969",
    "latitude": "30.023803554352554",
    "geocoded_column": {
      "latitude": "30.023803554352554",
      "longitude": "-90.08690405501969"
    }
  },
  {
    "service_request": "2022-945166",
    "request_type": "Traffic Signals/Signs/Striping/Streetlights",
    "request_reason": "Street Light Outage/Malfunction",
    "date_created": "2022-11-19T18:45:52.000",
    "date_modified": "2022-11-19T18:45:53.000",
    "request_status": "Pending",
    "responsible_agency": "Department of Public Works",
    "final_address": "18 Sullivan Pl",
    "address_councildis": "C",
    "status": "Pending",
    "contractor": "Legacy Professional Services",
    "rowid": "945166",
    "final_x": "3702268.95754",
    "final_y": "522129.36057",
    "longitude": "-90.00283420559116",
    "latitude": "29.929027791144915",
    "geocoded_column": {
      "latitude": "29.929027791144915",
      "longitude": "-90.00283420559116"
    }
  },
  {
    "service_request": "2022-945165",
    "request_type": "Trash/Recycling",
    "request_reason": "Order Recycling Cart",
    "date_created": "2022-11-19T18:35:50.000",
    "date_modified": "2022-11-19T18:35:50.000",
    "request_status": "Pending",
    "responsible_agency": "Department of Sanitation",
    "final_address": "3155 Dauphine St",
    "address_councildis": "C",
    "status": "Pending",
    "rowid": "945165",
    "final_x": "3689150.02121",
    "final_y": "534776.49543",
    "longitude": "-90.04379865952242",
    "latitude": "29.964215424539617",
    "geocoded_column": {
      "latitude": "29.964215424539617",
      "longitude": "-90.04379865952242"
    }
  },
  {
    "service_request": "2022-945164",
    "request_type": "Trash/Recycling",
    "request_reason": "Order Recycling Cart",
    "date_created": "2022-11-19T18:31:07.000",
    "date_modified": "2022-11-19T18:31:07.000",
    "request_status": "Pending",
    "responsible_agency": "Department of Sanitation",
    "final_address": "910 Clouet St",
    "address_councildis": "C",
    "status": "Pending",
    "rowid": "945164",
    "final_x": "3688803.77449",
    "final_y": "535322.53223",
    "longitude": "-90.0448726846948",
    "latitude": "29.96572754520051",
    "geocoded_column": {
      "latitude": "29.96572754520051",
      "longitude": "-90.0448726846948"
    }
  },
  {
    "service_request": "2022-945163",
    "request_type": "Trash/Recycling",
    "request_reason": "Replace Trash Cart",
    "date_created": "2022-11-19T18:28:44.000",
    "date_modified": "2022-11-19T18:28:45.000",
    "request_status": "Pending",
    "responsible_agency": "Department of Sanitation",
    "final_address": "3155 Dauphine St",
    "address_councildis": "C",
    "status": "Assigned to Contractor",
    "contractor": "IV Waste",
    "rowid": "945163",
    "final_x": "3689150.02121",
    "final_y": "534776.49543",
    "longitude": "-90.04379865952242",
    "latitude": "29.964215424539617",
    "geocoded_column": {
      "latitude": "29.964215424539617",
      "longitude": "-90.04379865952242"
    }
  },
  {
    "service_request": "2022-945162",
    "request_type": "Trash/Recycling",
    "request_reason": "Missed Trash Pick-Up",
    "date_created": "2022-11-19T18:10:13.000",
    "date_modified": "2022-11-19T18:10:14.000",
    "request_status": "Pending",
    "responsible_agency": "Department of Sanitation",
    "final_address": "3 LaSalle Pl",
    "address_councildis": "A",
    "status": "Assigned to Contractor",
    "contractor": "Richards Disposal",
    "rowid": "945162",
    "final_x": "3666110.66004",
    "final_y": "524253.984764",
    "longitude": "-90.11690807566515",
    "latitude": "29.93597477146194",
    "geocoded_column": {
      "latitude": "29.93597477146194",
      "longitude": "-90.11690807566515"
    }
  },
  {
    "service_request": "2022-945161",
    "request_type": "Roads/Drainage",
    "request_reason": "Street Flooding / Drainage",
    "date_created": "2022-11-19T18:09:56.000",
    "date_modified": "2022-11-19T18:09:56.000",
    "request_status": "Pending",
    "responsible_agency": "Department of Public Works",
    "final_address": "3325 Calhoun St",
    "address_councildis": "A",
    "status": "Pending",
    "rowid": "945161",
    "final_x": "3667614.26746",
    "final_y": "528962.107712",
    "longitude": "-90.1120027079601",
    "latitude": "29.948876613351132",
    "geocoded_column": {
      "latitude": "29.948876613351132",
      "longitude": "-90.1120027079601"
    }
  },
  {
    "service_request": "2022-945160",
    "request_type": "Trash/Recycling",
    "request_reason": "Request a Large Item Pick Up",
    "date_created": "2022-11-19T17:59:47.000",
    "date_modified": "2022-11-19T17:59:48.000",
    "request_status": "Pending",
    "responsible_agency": "Department of Sanitation",
    "final_address": "2203 Palmer Ave New Orleans LA 70118",
    "address_councildis": "A",
    "status": "Assigned to Contractor",
    "contractor": "Richards Disposal",
    "rowid": "945160",
    "final_x": "3666154.34241",
    "final_y": "524950.004285",
    "longitude": "-90.11674683871095",
    "latitude": "29.93788732756657",
    "geocoded_column": {
      "latitude": "29.93788732756657",
      "longitude": "-90.11674683871095"
    }
  },
  {
    "service_request": "2022-945159",
    "request_type": "Trash/Recycling",
    "request_reason": "Order Recycling Cart",
    "date_created": "2022-11-19T17:37:27.000",
    "date_modified": "2022-11-19T17:37:27.000",
    "request_status": "Pending",
    "responsible_agency": "Department of Sanitation",
    "final_address": "5611 Samovar Dr",
    "address_councildis": "E",
    "status": "Pending",
    "rowid": "945159",
    "final_x": "3703673.93994",
    "final_y": "556655.93545",
    "longitude": "-89.99712797817246",
    "latitude": "30.023918278641958",
    "geocoded_column": {
      "latitude": "30.023918278641958",
      "longitude": "-89.99712797817246"
    }
  },
  {
    "service_request": "2022-945158",
    "request_type": "Trash/Recycling",
    "request_reason": "Replace Recycling Cart",
    "date_created": "2022-11-19T17:35:29.000",
    "date_modified": "2022-11-19T17:35:29.000",
    "request_status": "Pending",
    "responsible_agency": "Department of Sanitation",
    "final_address": "2813 Ursulines Ave",
    "address_councildis": "A",
    "status": "Pending",
    "rowid": "945158",
    "final_x": "3677060.56309",
    "final_y": "538673.368841",
    "longitude": "-90.08184176893941",
    "latitude": "29.975299065505464",
    "geocoded_column": {
      "latitude": "29.975299065505464",
      "longitude": "-90.08184176893941"
    }
  },
  {
    "service_request": "2022-945157",
    "request_type": "Trash/Recycling",
    "request_reason": "Repair Recycling Cart",
    "date_created": "2022-11-19T17:24:05.000",
    "date_modified": "2022-11-19T17:24:05.000",
    "request_status": "Pending",
    "responsible_agency": "Department of Sanitation",
    "final_address": "111 Bellaire Dr",
    "address_councildis": "A",
    "status": "Pending",
    "rowid": "945157",
    "final_x": "3663931.63802",
    "final_y": "540347.645259",
    "longitude": "-90.12325076070603",
    "latitude": "29.98029052158656",
    "geocoded_column": {
      "latitude": "29.98029052158656",
      "longitude": "-90.12325076070603"
    }
  },
  {
    "service_request": "2022-945156",
    "request_type": "Abandoned Vehicles",
    "request_reason": "Vehicle Blocking Your Driveway",
    "date_created": "2022-11-19T17:23:54.000",
    "date_modified": "2022-11-19T17:23:54.000",
    "request_status": "Pending",
    "responsible_agency": "Department of Public Works",
    "final_address": "3114 Palmyra St",
    "address_councildis": "B",
    "status": "Pending",
    "rowid": "945156",
    "final_x": "3673443.72692",
    "final_y": "535454.375302",
    "longitude": "-90.09337473689752",
    "latitude": "29.966556047309634",
    "geocoded_column": {
      "latitude": "29.966556047309634",
      "longitude": "-90.09337473689752"
    }
  },
  {
    "service_request": "2022-945155",
    "request_type": "Trash/Recycling",
    "request_reason": "MIssed Recycling Pick-Up",
    "date_created": "2022-11-19T16:51:08.000",
    "date_modified": "2022-11-19T16:51:09.000",
    "request_status": "Pending",
    "responsible_agency": "Department of Sanitation",
    "final_address": "1220 Leonidas St",
    "address_councildis": "A",
    "status": "Assigned to Contractor",
    "contractor": "Richards Disposal",
    "rowid": "945155",
    "final_x": "3660741.74854",
    "final_y": "529732.308737",
    "longitude": "-90.13367686638833",
    "latitude": "29.951194051621812",
    "geocoded_column": {
      "latitude": "29.951194051621812",
      "longitude": "-90.13367686638833"
    }
  },
  {
    "service_request": "2022-945154",
    "request_type": "Trash/Recycling",
    "request_reason": "Replace Recycling Cart",
    "date_created": "2022-11-19T16:27:07.000",
    "date_modified": "2022-11-19T16:27:07.000",
    "request_status": "Pending",
    "responsible_agency": "Department of Sanitation",
    "final_address": "734 Louque Pl",
    "address_councildis": "A",
    "status": "Pending",
    "rowid": "945154",
    "final_x": "3668528.94017",
    "final_y": "543482.595214",
    "longitude": "-90.10862465179494",
    "latitude": "29.988776270322468",
    "geocoded_column": {
      "latitude": "29.988776270322468",
      "longitude": "-90.10862465179494"
    }
  },
  {
    "service_request": "2022-945153",
    "request_type": "Trash/Recycling",
    "request_reason": "Missed Trash Pick-Up",
    "date_created": "2022-11-19T16:17:41.000",
    "date_modified": "2022-11-19T16:17:42.000",
    "request_status": "Pending",
    "responsible_agency": "Department of Sanitation",
    "final_address": "213 Norland Ave",
    "address_councildis": "C",
    "status": "Assigned to Contractor",
    "contractor": "Richards Disposal",
    "rowid": "945153",
    "final_x": "3706616.78596",
    "final_y": "520320.968056",
    "longitude": "-89.98917605448422",
    "latitude": "29.92391581156898",
    "geocoded_column": {
      "latitude": "29.92391581156898",
      "longitude": "-89.98917605448422"
    }
  },
  {
    "service_request": "2022-945152",
    "request_type": "Trash/Recycling",
    "request_reason": "MIssed Recycling Pick-Up",
    "date_created": "2022-11-19T16:09:42.000",
    "date_modified": "2022-11-19T16:09:42.000",
    "request_status": "Pending",
    "responsible_agency": "Department of Sanitation",
    "final_address": "815 Exposition Blvd",
    "address_councildis": "A",
    "status": "Assigned to Contractor",
    "contractor": "Richards Disposal",
    "rowid": "945152",
    "final_x": "3663256.24935",
    "final_y": "519989.847928",
    "longitude": "-90.12606139405106",
    "latitude": "29.924332750520335",
    "geocoded_column": {
      "latitude": "29.924332750520335",
      "longitude": "-90.12606139405106"
    }
  },