[
  {
    "service_request": "2025-1179661",
    "request_type": "Trash/Recycling",
    "request_reason": "Order Trash Cart",
    "date_created": "2025-03-29T23:28:26.000",
    "date_modified": "2025-03-29T23:28:27.000",
    "request_status": "Pending",
    "responsible_agency": "Department of Sanitation",
    "final_address": "6207 Warrington Dr",
    "address_councildis": "D",
    "status": "Assigned to Contractor",
    "contractor": "IV Waste",
    "rowid": "1179661",
    "final_x": "3680887.92008",
    "final_y": "555675.380889",
    "longitude": "-90.06916154019532",
    "latitude": "30.02193304942994",
    "geocoded_column": {
      "latitude": "30.02193304942994",
      "longitude": "-90.06916154019532"
    }
  },
  {
    "service_request": "2025-1179660",
    "request_type": "Trash/Recycling",
    "request_reason": "Order Second Trash Cart",
    "date_created": "2025-03-29T23:01:36.000",
    "date_modified": "2025-03-29T23:01:39.000",
    "request_status": "Pending",
    "responsible_agency": "Department of Sanitation",
    "final_address": "4722 Mithra St",
    "address_councildis": "D",
    "status": "Assigned to Contractor",
    "contractor": "IV Waste",
    "rowid": "1179660",
    "final_x": "3691284.72425",
    "final_y": "553499.961751",
    "longitude": "-90.036388229678",
    "latitude": "30.015631964437297",
    "geocoded_column": {
      "latitude": "30.015631964437297",
      "longitude": "-90.036388229678"
    }
  },
  {
    "service_request": "2025-1179659",
    "request_type": "Trash/Recycling",
    "request_reason": "Request a Large Item Pick Up",
    "date_created": "2025-03-29T22:54:01.000",
    "date_modified": "2025-03-29T22:54:03.000",
    "request_status": "Pending",
    "responsible_agency": "Department of Sanitation",
    "final_address": "7006 Northgate Dr",
    "address_councildis": "E",
    "status": "Assigned to Contractor",
    "contractor": "Waste Pro",
    "rowid": "1179659",
    "final_x": "3713808.80363",
    "final_y": "564792.330914",
    "longitude": "-89.96479706240268",
    "latitude": "30.04596124701696",
    "geocoded_column": {
      "latitude": "30.04596124701696",
      "longitude": "-89.96479706240268"
    }
  },
  {
    "service_request": "2025-1179658",
    "request_type": "Trash/Recycling",
    "request_reason": "Request a Large Item Pick Up",
    "date_created": "2025-03-29T22:27:36.000",
    "date_modified": "2025-03-29T22:27:38.000",
    "request_status": "Pending",
    "responsible_agency": "Department of Sanitation",
    "final_address": "4448 Eastern St",
    "address_councildis": "D",
    "status": "Assigned to Contractor",
    "contractor": "IV Waste",
    "rowid": "1179658",
    "final_x": "3688048.92406",
    "final_y": "549536.728211",
    "longitude": "-90.0467524551009",
    "latitude": "30.00483483504089",
    "geocoded_column": {
      "latitude": "30.00483483504089",
      "longitude": "-90.0467524551009"
    }
  },
  {
    "service_request": "2025-1179657",
    "request_type": "Trash/Recycling",
    "request_reason": "Request a Large Item Pick Up",
    "date_created": "2025-03-29T22:11:40.000",
    "date_modified": "2025-03-29T22:11:42.000",
    "request_status": "Pending",
    "responsible_agency": "Department of Sanitation",
    "final_address": "4601 Lafaye St",
    "address_councildis": "D",
    "status": "Assigned to Contractor",
    "contractor": "IV Waste",
    "rowid": "1179657",
    "final_x": "3687540.63062",
    "final_y": "549770.351892",
    "longitude": "-90.04834997567558",
    "latitude": "30.0054928981776",
    "geocoded_column": {
      "latitude": "30.0054928981776",
      "longitude": "-90.04834997567558"
    }
  },
  {
    "service_request": "2025-1179656",
    "request_type": "Trash/Recycling",
    "request_reason": "Replace Trash Cart",
    "date_created": "2025-03-29T21:00:34.000",
    "date_modified": "2025-03-29T21:00:36.000",
    "request_status": "Pending",
    "responsible_agency": "Department of Sanitation",
    "final_address": "2236 Baronne St",
    "address_councildis": "B",
    "status": "Assigned to Contractor",
    "contractor": "IV Waste",
    "rowid": "1179656",
    "final_x": "3676794.0331",
    "final_y": "524257.581372",
    "longitude": "-90.08318027913576",
    "latitude": "29.935668484103658",
    "geocoded_column": {
      "latitude": "29.935668484103658",
      "longitude": "-90.08318027913576"
    }
  },
  {
    "service_request": "2025-1179655",
    "request_type": "Street and Traffic Signs",
    "request_reason": "Stop Sign Missing or Damaged",
    "date_created": "2025-03-29T20:59:28.000",
    "date_modified": "2025-03-29T20:59:30.000",
    "request_status": "Pending",
    "responsible_agency": "Department of Public Works",
    "final_address": "7329 Cohn St",
    "address_councildis": "A",
    "status": "Pending",
    "rowid": "1179655",
    "final_x": "3665140.30439",
    "final_y": "528921.668992",
    "longitude": "-90.11981545926325",
    "latitude": "29.94883769552744",
    "geocoded_column": {
      "latitude": "29.94883769552744",
      "longitude": "-90.11981545926325"
    }
  },
  {
    "service_request": "2025-1179654",
    "request_type": "Trash/Recycling",
    "request_reason": "Order Recycling Cart",
    "date_created": "2025-03-29T20:50:14.000",
    "date_modified": "2025-03-29T20:50:16.000",
    "request_status": "Pending",
    "responsible_agency": "Department of Sanitation",
    "final_address": "2236 Baronne St",
    "address_councildis": "B",
    "status": "Pending",
    "rowid": "1179654",
    "final_x": "3676794.0331",
    "final_y": "524257.581372",
    "longitude": "-90.08318027913576",
    "latitude": "29.935668484103658",
    "geocoded_column": {
      "latitude": "29.935668484103658",
      "longitude": "-90.08318027913576"
    }
  },
  {
    "service_request": "2025-1179653",
    "request_type": "Streetlights",
    "request_reason": "Streetlight Outage/Malfunction",
    "date_created": "2025-03-29T20:01:55.000",
    "date_modified": "2025-03-29T20:01:57.000",
    "request_status": "Pending",
    "responsible_agency": "Department of Public Works",
    "final_address": "4839 Elysian Fields Ave",
    "address_councildis": "D",
    "status": "Pending",
    "contractor": "Legacy Professional Services",
    "rowid": "1179653",
    "final_x": "3683975.28962",
    "final_y": "550614.385492",
    "longitude": "-90.05958402393432",
    "latitude": "30.007923141917136",
    "geocoded_column": {
      "latitude": "30.007923141917136",
      "longitude": "-90.05958402393432"
    }
  },
  {
    "service_request": "2025-1179652",
    "request_type": "Trash/Recycling",
    "request_reason": "Illegal Dumping",
    "date_created": "2025-03-29T18:10:10.000",
    "date_modified": "2025-03-29T18:10:12.000",
    "request_status": "Pending",
    "responsible_agency": "Department of Sanitation",
    "final_address": "4557 Feliciana Dr",
    "address_councildis": "D",
    "status": "Pending",
    "rowid": "1179652",
    "final_x": "3690305.03299",
    "final_y": "550509.61506",
    "longitude": "-90.0395902732798",
    "latitude": "30.007440069427407",
    "geocoded_column": {
      "latitude": "30.007440069427407",
      "longitude": "-90.0395902732798"
    }
  },
  {
    "service_request": "2025-1179651",
    "request_type": "Abandoned Vehicles",
    "request_reason": "Abandoned/Junk Vehicles",
    "date_created": "2025-03-29T18:06:52.000",
    "date_modified": "2025-03-29T18:06:54.000",
    "request_status": "Pending",
    "responsible_agency": "Department of Public Works",
    "final_address": "1011 Treme St",
    "address_councildis": "C",
    "status": "Pending",
    "rowid": "1179651",
    "final_x": "3681507.71624",
    "final_y": "534791.690438",
    "longitude": "-90.06793186874009",
    "latitude": "29.96449148215058",
    "geocoded_column": {
      "latitude": "29.96449148215058",
      "longitude": "-90.06793186874009"
    }
  },
  {
    "service_request": "2025-1179650",
    "request_type": "Abandoned Vehicles",
    "request_reason": "Abandoned/Junk Vehicles",
    "date_created": "2025-03-29T18:05:45.000",
    "date_modified": "2025-03-29T18:05:47.000",
    "request_status": "Pending",
    "responsible_agency": "Department of Public Works",
    "final_address": "1011 Treme St",
    "address_councildis": "C",
    "status": "Pending",
    "rowid": "1179650",
    "final_x": "3681507.71624",
    "final_y": "534791.690438",
    "longitude": "-90.06793186874009",
    "latitude": "29.96449148215058",
    "geocoded_column": {
      "latitude": "29.96449148215058",
      "longitude": "-90.06793186874009"
    }
  },
  {
    "service_request": "2025-1179649",
    "request_type": "Drainage",
    "request_reason": "Catch Basin Clogged",
    "date_created": "2025-03-29T17:49:33.000",
    "date_modified": "2025-03-29T17:49:34.000",
    "request_status": "Pending",
    "responsible_agency": "Sewerage & Water Board ",
    "final_address": "4403 Pauger St",
    "address_councildis": "D",
    "status": "Pending",
    "rowid": "1179649",
    "final_x": "3682920.28456",
    "final_y": "548793.303763",
    "longitude": "-90.06298088253477",
    "latitude": "30.00294802848574",
    "geocoded_column": {
      "latitude": "30.00294802848574",
      "longitude": "-90.06298088253477"
    }
  },
  {
    "service_request": "2025-1179648",
    "request_type": "Property Maintenance",
    "request_reason": "Property Maintenance",
    "date_created": "2025-03-29T17:39:19.000",
    "date_modified": "2025-03-29T17:39:21.000",
    "request_status": "Pending",
    "responsible_agency": "Department of Code Enforcement",
    "final_address": "2232 Arts St",
    "address_councildis": "D",
    "status": "Pending",
    "rowid": "1179648",
    "final_x": "3686821.9471",
    "final_y": "540793.401163",
    "longitude": "-90.05093785147879",
    "latitude": "29.980831644338952",
    "geocoded_column": {
      "latitude": "29.980831644338952",
      "longitude": "-90.05093785147879"
    }
  },
  {
    "service_request": "2025-1179647",
    "request_type": "Drainage",
    "request_reason": "Catch Basin Clogged",
    "date_created": "2025-03-29T17:38:09.000",
    "date_modified": "2025-03-29T17:38:11.000",
    "request_status": "Pending",
    "responsible_agency": "Sewerage & Water Board ",
    "final_address": "4162 Vincennes Pl",
    "address_councildis": "B",
    "status": "Pending",
    "rowid": "1179647",
    "final_x": "3668635.0089",
    "final_y": "530969.576194",
    "longitude": "-90.1087120352657",
    "latitude": "29.954366539636094",
    "geocoded_column": {
      "latitude": "29.954366539636094",
      "longitude": "-90.1087120352657"
    }
  },
  {
    "service_request": "2025-1179646",
    "request_type": "Property Maintenance",
    "request_reason": "Property Maintenance",
    "date_created": "2025-03-29T17:32:59.000",
    "date_modified": "2025-03-29T17:33:01.000",
    "request_status": "Pending",
    "responsible_agency": "Department of Code Enforcement",
    "final_address": "2230 Arts St",
    "address_councildis": "D",
    "status": "Pending",
    "rowid": "1179646",
    "final_x": "3686823.0582",
    "final_y": "540762.984523",
    "longitude": "-90.0509354173254",
    "latitude": "29.980747975139792",
    "geocoded_column": {
      "latitude": "29.980747975139792",
      "longitude": "-90.0509354173254"
    }
  },
  {
    "service_request": "2025-1179645",
    "request_type": "General Services",
    "request_reason": "General Service Request",
    "date_created": "2025-03-29T17:31:36.000",
    "date_modified": "2025-03-29T17:31:38.000",
    "request_status": "Pending",
    "responsible_agency": "Orleans Parish Communication District",
    "final_address": "7653 Lafourche St",
    "address_councildis": "E",
    "status": "Pending",
    "rowid": "1179645",
    "final_x": "3710172.26597",
    "final_y": "565670.635618",
    "longitude": "-89.97625736947083",
    "latitude": "30.048495153946828",
    "geocoded_column": {
      "latitude": "30.048495153946828",
      "longitude": "-89.97625736947083"
    }
  },
  {
    "service_request": "2025-1179644",
    "request_type": "Trash/Recycling",
    "request_reason": "Request a Large Item Pick Up",
    "date_created": "2025-03-29T17:25:38.000",
    "date_modified": "2025-03-29T17:25:39.000",
    "request_status": "Pending",
    "responsible_agency": "Department of Sanitation",
    "final_address": "7805 Spruce St",
    "address_councildis": "A",
    "status": "Assigned to Contractor",
    "contractor": "IV Waste",
    "rowid": "1179644",
    "final_x": "3664659.56551",
    "final_y": "529768.650945",
    "longitude": "-90.12130507715986",
    "latitude": "29.951180612872168",
    "geocoded_column": {
      "latitude": "29.951180612872168",
      "longitude": "-90.12130507715986"
    }
  },
  {
    "service_request": "2025-1179643",
    "request_type": "Trash/Recycling",
    "request_reason": "Request a Large Item Pick Up",
    "date_created": "2025-03-29T17:21:52.000",
    "date_modified": "2025-03-29T17:21:54.000",
    "request_status": "Pending",
    "responsible_agency": "Department of Sanitation",
    "final_address": "7805 Spruce St",
    "address_councildis": "A",
    "status": "Assigned to Contractor",
    "contractor": "IV Waste",
    "rowid": "1179643",
    "final_x": "3664659.56551",
    "final_y": "529768.650945",
    "longitude": "-90.12130507715986",
    "latitude": "29.951180612872168",
    "geocoded_column": {
      "latitude": "29.951180612872168",
      "longitude": "-90.12130507715986"
    }
  },
  {
    "service_request": "2025-1179642",
    "request_type": "Abandoned Vehicles",
    "request_reason": "Abandoned/Junk Vehicles",
    "date_created": "2025-03-29T17:09:29.000",
    "date_modified": "2025-03-29T17:09:31.000",
    "request_status": "Pending",
    "responsible_agency": "Department of Public Works",
    "final_address": "2313 Terpsichore St",
    "address_councildis": "B",
    "status": "Pending",
    "rowid": "1179642",
    "final_x": "3676396.86158",
    "final_y": "526973.994878",
    "longitude": "-90.08434067800117",
    "latitude": "29.943149637251018",
    "geocoded_column": {
      "latitude": "29.943149637251018",
      "longitude": "-90.08434067800117"
    }
  },
  {
    "service_request": "2025-1179641",
    "request_type": "Abandoned Vehicles",
    "request_reason": "Abandoned/Junk Vehicles",
    "date_created": "2025-03-29T17:06:57.000",
    "date_modified": "2025-03-29T17:06:58.000",
    "request_status": "Pending",
    "responsible_agency": "Department of Public Works",
    "final_address": "6419 Marque St",
    "address_councildis": "E",
    "status": "Pending",
    "rowid": "1179641",
    "final_x": "3700826.87095",
    "final_y": "533400.505156",
    "longitude": "-90.00697469602076",
    "latitude": "29.960065440570506",
    "geocoded_column": {
      "latitude": "29.960065440570506",
      "longitude": "-90.00697469602076"
    }
  },
  {
    "service_request": "2025-1179640",
    "request_type": "Abandoned Vehicles",
    "request_reason": "Abandoned/Junk Vehicles",
    "date_created": "2025-03-29T17:06:19.000",
    "date_modified": "2025-03-29T17:06:21.000",
    "request_status": "Pending",
    "responsible_agency": "Department of Public Works",
    "final_address": "2313 Terpsichore St",
    "address_councildis": "B",
    "status": "Pending",
    "rowid": "1179640",
    "final_x": "3676396.86158",
    "final_y": "526973.994878",
    "longitude": "-90.08434067800117",
    "latitude": "29.943149637251018",
    "geocoded_column": {
      "latitude": "29.943149637251018",
      "longitude": "-90.08434067800117"
    }
  },
  {
    "service_request": "2025-1179639",
    "request_type": "Abandoned Vehicles",
    "request_reason": "Abandoned/Junk Vehicles",
    "date_created": "2025-03-29T16:29:30.000",
    "date_modified": "2025-03-29T16:29:32.000",
    "request_status": "Pending",
    "responsible_agency": "Department of Public Works",
    "final_address": "123 Walnut St",
    "address_councildis": "A",
    "status": "Pending",
    "rowid": "1179639",
    "final_x": "3660918.02195",
    "final_y": "520524.618232",
    "longitude": "-90.13342473179333",
    "latitude": "29.925870736132104",
    "geocoded_column": {
      "latitude": "29.925870736132104",
      "longitude": "-90.13342473179333"
    }
  },
  {
    "service_request": "2025-1179638",
    "request_type": "General Services",
    "request_reason": "General Service Request",
    "date_created": "2025-03-29T16:28:50.000",
    "date_modified": "2025-03-29T16:28:51.000",
    "request_status": "Pending",
    "responsible_agency": "Orleans Parish Communication District",
    "final_address": "5725 General Diaz St",
    "address_councildis": "A",
    "status": "Pending",
    "rowid": "1179638",
    "final_x": "3669398.32666",
    "final_y": "545538.721616",
    "longitude": "-90.10580894181041",
    "latitude": "29.99440433255263",
    "geocoded_column": {
      "latitude": "29.99440433255263",
      "longitude": "-90.10580894181041"
    }
  },
  {
    "service_request": "2025-1179637",
    "request_type": "Abandoned Vehicles",
    "request_reason": "Abandoned/Junk Vehicles",
    "date_created": "2025-03-29T16:27:51.000",
    "date_modified": "2025-03-29T16:27:54.000",
    "request_status": "Pending",
    "responsible_agency": "Department of Public Works",
    "final_address": "1901 St Ann St",
    "address_councildis": "D",
    "status": "Pending",
    "rowid": "1179637",
    "final_x": "3679408.00795",
    "final_y": "535372.975366",
    "longitude": "-90.07454242268761",
    "latitude": "29.96615340941629",
    "geocoded_column": {
      "latitude": "29.96615340941629",
      "longitude": "-90.07454242268761"
    }
  },
  {
    "service_request": "2025-1179636",
    "request_type": "Abandoned Vehicles",
    "request_reason": "Abandoned/Junk Vehicles",
    "date_created": "2025-03-29T16:24:29.000",
    "date_modified": "2025-03-29T16:24:30.000",
    "request_status": "Pending",
    "responsible_agency": "Department of Public Works",
    "final_address": "1919 Dumaine St",
    "address_councildis": "D",
    "status": "Pending",
    "rowid": "1179636",
    "final_x": "3679523.84949",
    "final_y": "535761.907015",
    "longitude": "-90.0741631006211",
    "latitude": "29.96721933878606",
    "geocoded_column": {
      "latitude": "29.96721933878606",
      "longitude": "-90.0741631006211"
    }
  },
  {
    "service_request": "2025-1179635",
    "request_type": "Trash/Recycling",
    "request_reason": "Request a Large Item Pick Up",
    "date_created": "2025-03-29T16:23:00.000",
    "date_modified": "2025-03-29T16:23:02.000",
    "request_status": "Pending",
    "responsible_agency": "Department of Sanitation",
    "final_address": "127 Country Club Dr",
    "address_councildis": "A",
    "status": "Assigned to Contractor",
    "contractor": "IV Waste",
    "rowid": "1179635",
    "final_x": "3665593.68276",
    "final_y": "544415.725071",
    "longitude": "-90.1178650014143",
    "latitude": "29.991427998431163",
    "geocoded_column": {
      "latitude": "29.991427998431163",
      "longitude": "-90.1178650014143"
    }
  },
  {
    "service_request": "2025-1179634",
    "request_type": "Safety & Permits",
    "request_reason": "Zoning Enforcement",
    "date_created": "2025-03-29T16:21:43.000",
    "date_modified": "2025-03-29T16:21:45.000",
    "request_status": "Pending",
    "responsible_agency": "Safety and Permits",
    "final_address": "1329 Annette St",
    "address_councildis": "C",
    "status": "Pending",
    "rowid": "1179634",
    "final_x": "3683137.79906",
    "final_y": "536763.857608",
    "longitude": "-90.06271513481612",
    "latitude": "29.96986466226304",
    "geocoded_column": {
      "latitude": "29.96986466226304",
      "longitude": "-90.06271513481612"
    }
  },
  {
    "service_request": "2025-1179633",
    "request_type": "Trash/Recycling",
    "request_reason": "Order Trash Cart",
    "date_created": "2025-03-29T16:19:05.000",
    "date_modified": "2025-03-29T16:19:07.000",
    "request_status": "Pending",
    "responsible_agency": "Department of Sanitation",
    "final_address": "9032 Marks St",
    "address_councildis": "A",
    "status": "Assigned to Contractor",
    "contractor": "IV Waste",
    "rowid": "1179633",
    "final_x": "3666315.89908",
    "final_y": "538290.363273",
    "longitude": "-90.11578926679749",
    "latitude": "29.974564235710766",
    "geocoded_column": {
      "latitude": "29.974564235710766",
      "longitude": "-90.11578926679749"
    }
  },
  {
    "service_request": "2025-1179632",
    "request_type": "Property Maintenance",
    "request_reason": "Property Maintenance",
    "date_created": "2025-03-29T16:18:21.000",
    "date_modified": "2025-03-29T16:18:23.000",
    "request_status": "Pending",
    "responsible_agency": "Department of Code Enforcement",
    "final_address": "800 BLK N Derbigny St",
    "address_councildis": "D",
    "status": "Pending",
    "rowid": "1179632",
    "final_x": "3679774.11679",
    "final_y": "535288.759591",
    "longitude": "-90.07338918388304",
    "latitude": "29.96591078066911",
    "geocoded_column": {
      "latitude": "29.96591078066911",
      "longitude": "-90.07338918388304"
    }
  },
  {
    "service_request": "2025-1179631",
    "request_type": "Abandoned Vehicles",
    "request_reason": "Abandoned/Junk Vehicles",
    "date_created": "2025-03-29T16:17:13.000",
    "date_modified": "2025-03-29T16:17:14.000",
    "request_status": "Pending",
    "responsible_agency": "Department of Public Works",
    "final_address": "1519 Lowerline St",
    "address_councildis": "A",
    "status": "Pending",
    "rowid": "1179631",
    "final_x": "3664439.59015",
    "final_y": "527798.926783",
    "longitude": "-90.12206539863567",
    "latitude": "29.945770902700563",
    "geocoded_column": {
      "latitude": "29.945770902700563",
      "longitude": "-90.12206539863567"
    }
  },
  {
    "service_request": "2025-1179630",
    "request_type": "Graffiti Removal",
    "request_reason": "Graffiti Removal",
    "date_created": "2025-03-29T16:16:11.000",
    "date_modified": "2025-03-29T16:16:13.000",
    "request_status": "Pending",
    "responsible_agency": "Department of Code Enforcement",
    "final_address": "2650 Canal St",
    "address_councildis": "B",
    "status": "Pending",
    "rowid": "1179630",
    "final_x": "3675384.02734",
    "final_y": "534913.722694",
    "longitude": "-90.08726584790539",
    "latitude": "29.96501155880365",
    "geocoded_column": {
      "latitude": "29.96501155880365",
      "longitude": "-90.08726584790539"
    }
  },
  {
    "service_request": "2025-1179629",
    "request_type": "Abandoned Vehicles",
    "request_reason": "Abandoned/Junk Vehicles",
    "date_created": "2025-03-29T16:13:18.000",
    "date_modified": "2025-03-29T16:13:21.000",
    "request_status": "Pending",
    "responsible_agency": "Department of Public Works",
    "final_address": "2039 St Ann St",
    "address_councildis": "D",
    "status": "Pending",
    "rowid": "1179629",
    "final_x": "3678959.86414",
    "final_y": "535823.605511",
    "longitude": "-90.0759420345008",
    "latitude": "29.967406017985976",
    "geocoded_column": {
      "latitude": "29.967406017985976",
      "longitude": "-90.0759420345008"
    }
  },
  {
    "service_request": "2025-1179628",
    "request_type": "Abandoned Vehicles",
    "request_reason": "Abandoned/Junk Vehicles",
    "date_created": "2025-03-29T16:10:19.000",
    "date_modified": "2025-03-29T16:10:20.000",
    "request_status": "Pending",
    "responsible_agency": "Department of Public Works",
    "final_address": "819 N Roman St",
    "address_councildis": "D",
    "status": "Pending",
    "rowid": "1179628",
    "final_x": "3679485.76309",
    "final_y": "535475.28455",
    "longitude": "-90.07429332366557",
    "latitude": "29.966432375742862",
    "geocoded_column": {
      "latitude": "29.966432375742862",
      "longitude": "-90.07429332366557"
    }
  },
  {
    "service_request": "2025-1179627",
    "request_type": "Graffiti Removal",
    "request_reason": "Graffiti Removal",
    "date_created": "2025-03-29T16:09:51.000",
    "date_modified": "2025-03-29T16:09:52.000",
    "request_status": "Pending",
    "responsible_agency": "Department of Code Enforcement",
    "final_address": "2640 Canal St",
    "address_councildis": "B",
    "status": "Pending",
    "rowid": "1179627",
    "final_x": "3675469.22606",
    "final_y": "534847.834566",
    "longitude": "-90.08699905826327",
    "latitude": "29.96482784083854",
    "geocoded_column": {
      "latitude": "29.96482784083854",
      "longitude": "-90.08699905826327"
    }
  },
  {
    "service_request": "2025-1179626",
    "request_type": "Trash/Recycling",
    "request_reason": "Illegal Dumping",
    "date_created": "2025-03-29T15:58:27.000",
    "date_modified": "2025-03-29T15:58:29.000",
    "request_status": "Pending",
    "responsible_agency": "Department of Sanitation",
    "final_address": "2308 Dauphine St",
    "address_councildis": "C",
    "status": "Pending",
    "rowid": "1179626",
    "final_x": "3685603.80105",
    "final_y": "535244.20519",
    "longitude": "-90.0549808244843",
    "latitude": "29.965610724972848",
    "geocoded_column": {
      "latitude": "29.965610724972848",
      "longitude": "-90.0549808244843"
    }
  },
  {
    "service_request": "2025-1179625",
    "request_type": "Traffic Signals",
    "request_reason": "Traffic Signal Malfunctioning or Damaged",
    "date_created": "2025-03-29T15:54:31.000",
    "date_modified": "2025-03-29T15:54:33.000",
    "request_status": "Pending",
    "responsible_agency": "Department of Public Works",
    "final_address": "401 Jackson Ave",
    "address_councildis": "B",
    "status": "Pending",
    "rowid": "1179625",
    "final_x": "3680594.77397",
    "final_y": "519900.537912",
    "longitude": "-90.07133279372636",
    "latitude": "29.923573477639128",
    "geocoded_column": {
      "latitude": "29.923573477639128",
      "longitude": "-90.07133279372636"
    }
  },
  {
    "service_request": "2025-1179624",
    "request_type": "Streetlights",
    "request_reason": "Streetlight Outage/Malfunction",
    "date_created": "2025-03-29T15:42:22.000",
    "date_modified": "2025-03-29T15:42:24.000",
    "request_status": "Pending",
    "responsible_agency": "Department of Public Works",
    "final_address": "9548 Palmetto St",
    "address_councildis": "A",
    "status": "Pending",
    "contractor": "Legacy Professional Services",
    "rowid": "1179624",
    "final_x": "3664117.4201",
    "final_y": "538631.138185",
    "longitude": "-90.12272125866446",
    "latitude": "29.975565303770072",
    "geocoded_column": {
      "latitude": "29.975565303770072",
      "longitude": "-90.12272125866446"
    }
  },
  {
    "service_request": "2025-1179623",
    "request_type": "Abandoned Vehicles",
    "request_reason": "Abandoned/Junk Vehicles",
    "date_created": "2025-03-29T15:42:20.000",
    "date_modified": "2025-03-29T15:42:22.000",
    "request_status": "Pending",
    "responsible_agency": "Department of Public Works",
    "final_address": "4318 Mendez St",
    "address_councildis": "D",
    "status": "Pending",
    "rowid": "1179623",
    "final_x": "3689849.43267",
    "final_y": "553734.114007",
    "longitude": "-90.04091473700183",
    "latitude": "30.01632038786491",
    "geocoded_column": {
      "latitude": "30.01632038786491",
      "longitude": "-90.04091473700183"
    }
  },
  {
    "service_request": "2025-1179622",
    "request_type": "Trash/Recycling",
    "request_reason": "Order Recycling Cart",
    "date_created": "2025-03-29T15:37:18.000",
    "date_modified": "2025-03-29T15:37:19.000",
    "request_status": "Pending",
    "responsible_agency": "Department of Sanitation",
    "final_address": "2919 Chelsea Dr",
    "address_councildis": "C",
    "status": "Pending",
    "rowid": "1179622",
    "final_x": "3704131.75569",
    "final_y": "520214.51692",
    "longitude": "-89.9970242607821",
    "latitude": "29.923703030284422",
    "geocoded_column": {
      "latitude": "29.923703030284422",
      "longitude": "-89.9970242607821"
    }
  },
  {
    "service_request": "2025-1179621",
    "request_type": "Drainage",
    "request_reason": "Catch Basin Damaged",
    "date_created": "2025-03-29T15:37:07.000",
    "date_modified": "2025-03-29T15:37:09.000",
    "request_status": "Pending",
    "responsible_agency": "Sewerage & Water Board ",
    "final_address": "1516 Calhoun St",
    "address_councildis": "A",
    "status": "Pending",
    "rowid": "1179621",
    "final_x": "3664529.3369",
    "final_y": "522403.802938",
    "longitude": "-90.12196212121161",
    "latitude": "29.930933422853226",
    "geocoded_column": {
      "latitude": "29.930933422853226",
      "longitude": "-90.12196212121161"
    }
  },
  {
    "service_request": "2025-1179620",
    "request_type": "Trash/Recycling",
    "request_reason": "Dead Animal Pick Up",
    "date_created": "2025-03-29T15:33:24.000",
    "date_modified": "2025-03-29T15:33:25.000",
    "request_status": "Pending",
    "responsible_agency": "Department of Sanitation",
    "final_address": "5300 Vermillion Blvd",
    "address_councildis": "D",
    "status": "Assigned to Contractor",
    "contractor": "IV Waste",
    "rowid": "1179620",
    "final_x": "3683242.06095",
    "final_y": "552305.441558",
    "longitude": "-90.06184122605703",
    "latitude": "30.01259532392382",
    "geocoded_column": {
      "latitude": "30.01259532392382",
      "longitude": "-90.06184122605703"
    }
  },
  {
    "service_request": "2025-1179619",
    "request_type": "Trash/Recycling",
    "request_reason": "Replace Trash Cart",
    "date_created": "2025-03-29T15:33:20.000",
    "date_modified": "2025-03-29T15:33:22.000",
    "request_status": "Pending",
    "responsible_agency": "Department of Sanitation",
    "final_address": "2919 Chelsea Dr",
    "address_councildis": "C",
    "status": "Assigned to Contractor",
    "contractor": "Richards Disposal",
    "rowid": "1179619",
    "final_x": "3704131.75569",
    "final_y": "520214.51692",
    "longitude": "-89.9970242607821",
    "latitude": "29.923703030284422",
    "geocoded_column": {
      "latitude": "29.923703030284422",
      "longitude": "-89.9970242607821"
    }
  },
  {
    "service_request": "2025-1179618",
    "request_type": "Trash/Recycling",
    "request_reason": "Request a Large Item Pick Up",
    "date_created": "2025-03-29T15:31:13.000",
    "date_modified": "2025-03-29T15:31:15.000",
    "request_status": "Pending",
    "responsible_agency": "Department of Sanitation",
    "final_address": "411 S Norman C Francis Prkwy",
    "address_councildis": "B",
    "status": "Assigned to Contractor",
    "contractor": "IV Waste",
    "rowid": "1179618",
    "final_x": "3672300.56398",
    "final_y": "535769.950471",
    "longitude": "-90.09697408827694",
    "latitude": "29.967457738470944",
    "geocoded_column": {
      "latitude": "29.967457738470944",
      "longitude": "-90.09697408827694"
    }
  },
  {
    "service_request": "2025-1179617",
    "request_type": "Abandoned Vehicles",
    "request_reason": "Abandoned/Junk Vehicles",
    "date_created": "2025-03-29T15:09:45.000",
    "date_modified": "2025-03-29T15:09:47.000",
    "request_status": "Pending",
    "responsible_agency": "Department of Public Works",
    "final_address": "828 N Roman St",
    "address_councildis": "D",
    "status": "Pending",
    "rowid": "1179617",
    "final_x": "3679576.24411",
    "final_y": "535496.398406",
    "longitude": "-90.0740068530934",
    "latitude": "29.96648769761665",
    "geocoded_column": {
      "latitude": "29.96648769761665",
      "longitude": "-90.0740068530934"
    }
  },
  {
    "service_request": "2025-1179616",
    "request_type": "Drainage",
    "request_reason": "Catch Basin Damaged",
    "date_created": "2025-03-29T15:00:29.000",
    "date_modified": "2025-03-29T15:00:30.000",
    "request_status": "Pending",
    "responsible_agency": "Sewerage & Water Board ",
    "final_address": "3225 Bienville Ave",
    "address_councildis": "B",
    "status": "Pending",
    "rowid": "1179616",
    "final_x": "3674210.87969",
    "final_y": "537044.910408",
    "longitude": "-90.09089760926469",
    "latitude": "29.97090663192734",
    "geocoded_column": {
      "latitude": "29.97090663192734",
      "longitude": "-90.09089760926469"
    }
  },
  {
    "service_request": "2025-1179615",
    "request_type": "Trash/Recycling",
    "request_reason": "Order Trash Cart",
    "date_created": "2025-03-29T14:43:05.000",
    "date_modified": "2025-03-29T14:43:07.000",
    "request_status": "Pending",
    "responsible_agency": "Department of Sanitation",
    "final_address": "2213 Port St",
    "address_councildis": "D",
    "status": "Assigned to Contractor",
    "contractor": "IV Waste",
    "rowid": "1179615",
    "final_x": "3688538.73692",
    "final_y": "540639.253835",
    "longitude": "-90.04552095819025",
    "latitude": "29.980354850759085",
    "geocoded_column": {
      "latitude": "29.980354850759085",
      "longitude": "-90.04552095819025"
    }
  },
  {
    "service_request": "2025-1179614",
    "request_type": "Abandoned Vehicles",
    "request_reason": "Vehicle Blocking Your Driveway",
    "date_created": "2025-03-29T14:37:27.000",
    "date_modified": "2025-03-29T14:37:28.000",
    "request_status": "Pending",
    "responsible_agency": "Department of Public Works",
    "final_address": "807 Eleonore St",
    "address_councildis": "A",
    "status": "Pending",
    "rowid": "1179614",
    "final_x": "3665273.36576",
    "final_y": "519140.744375",
    "longitude": "-90.1197224172993",
    "latitude": "29.921939390312406",
    "geocoded_column": {
      "latitude": "29.921939390312406",
      "longitude": "-90.1197224172993"
    }
  },
  {
    "service_request": "2025-1179613",
    "request_type": "Trash/Recycling",
    "request_reason": "Request a Large Item Pick Up",
    "date_created": "2025-03-29T14:02:58.000",
    "date_modified": "2025-03-29T14:03:00.000",
    "request_status": "Pending",
    "responsible_agency": "Department of Sanitation",
    "final_address": "4900 Nottingham Dr",
    "address_councildis": "E",
    "status": "Assigned to Contractor",
    "contractor": "Waste Pro",
    "rowid": "1179613",
    "final_x": "3716252.18584",
    "final_y": "557544.817499",
    "longitude": "-89.9573498948114",
    "latitude": "30.02595303886343",
    "geocoded_column": {
      "latitude": "30.02595303886343",
      "longitude": "-89.9573498948114"
    }
  },
  {
    "service_request": "2025-1179612",
    "request_type": "Street and Traffic Signs",
    "request_reason": "Traffic or Parking Sign Damaged or Missing",
    "date_created": "2025-03-29T14:00:20.000",
    "date_modified": "2025-03-29T14:00:23.000",
    "request_status": "Pending",
    "responsible_agency": "Department of Public Works",
    "final_address": "4900 Nottingham Dr",
    "address_councildis": "E",
    "status": "Pending",
    "rowid": "1179612",
    "final_x": "3716252.18584",
    "final_y": "557544.817499",
    "longitude": "-89.9573498948114",
    "latitude": "30.02595303886343",
    "geocoded_column": {
      "latitude": "30.02595303886343",
      "longitude": "-89.9573498948114"
    }
  },
  {
    "service_request": "2025-1179611",
    "request_type": "Street and Traffic Signs",
    "request_reason": "Street Name Sign Damaged or Missing",
    "date_created": "2025-03-29T13:57:43.000",
    "date_modified": "2025-03-29T13:57:45.000",
    "request_status": "Pending",
    "responsible_agency": "Department of Public Works",
    "final_address": "4900 Nottingham Dr",
    "address_councildis": "E",
    "status": "Pending",
    "rowid": "1179611",
    "final_x": "3716252.18584",
    "final_y": "557544.817499",
    "longitude": "-89.9573498948114",
    "latitude": "30.02595303886343",
    "geocoded_column": {
      "latitude": "30.02595303886343",
      "longitude": "-89.9573498948114"
    }
  },
  {
    "service_request": "2025-1179610",
    "request_type": "Streetlights",
    "request_reason": "Streetlight Outage/Malfunction",
    "date_created": "2025-03-29T13:51:30.000",
    "date_modified": "2025-03-29T13:51:32.000",
    "request_status": "Pending",
    "responsible_agency": "Department of Public Works",
    "final_address": "1200 BLK Frenchmen St",
    "address_councildis": "C",
    "status": "Pending",
    "contractor": "Legacy Professional Services",
    "rowid": "1179610",
    "final_x": "3684546.36709",
    "final_y": "536819.302133",
    "longitude": "-90.05826480247414",
    "latitude": "29.9699740918622",
    "geocoded_column": {
      "latitude": "29.9699740918622",
      "longitude": "-90.05826480247414"
    }
  },
  {
    "service_request": "2025-1179609",
    "request_type": "Roads and Streets",
    "request_reason": "Street Subsidence (Sinking)",
    "date_created": "2025-03-29T13:51:02.000",
    "date_modified": "2025-03-29T13:51:04.000",
    "request_status": "Pending",
    "responsible_agency": "Department of Public Works",
    "final_address": "1628 N Broad St",
    "address_councildis": "D",
    "status": "Pending",
    "rowid": "1179609",
    "final_x": "3679319.49947",
    "final_y": "540307.383499",
    "longitude": "-90.0746507570968",
    "latitude": "29.97972400722889",
    "geocoded_column": {
      "latitude": "29.97972400722889",
      "longitude": "-90.0746507570968"
    }
  },
  {
    "service_request": "2025-1179608",
    "request_type": "Trash/Recycling",
    "request_reason": "Request a Large Item Pick Up",
    "date_created": "2025-03-29T13:49:25.000",
    "date_modified": "2025-03-29T13:49:27.000",
    "request_status": "Pending",
    "responsible_agency": "Department of Sanitation",
    "final_address": "7540 Ebbtide Dr",
    "address_councildis": "E",
    "status": "Assigned to Contractor",
    "contractor": "Waste Pro",
    "rowid": "1179608",
    "final_x": "3702194.13937",
    "final_y": "561277.619678",
    "longitude": "-90.00163410444648",
    "latitude": "30.036673483360016",
    "geocoded_column": {
      "latitude": "30.036673483360016",
      "longitude": "-90.00163410444648"
    }
  },
  {
    "service_request": "2025-1179607",
    "request_type": "Property Maintenance",
    "request_reason": "Property Maintenance",
    "date_created": "2025-03-29T13:37:16.000",
    "date_modified": "2025-03-29T13:37:18.000",
    "request_status": "Pending",
    "responsible_agency": "Department of Code Enforcement",
    "final_address": "3046 St Peter St",
    "address_councildis": "A",
    "status": "Pending",
    "rowid": "1179607",
    "final_x": "3675279.45032",
    "final_y": "537834.632201",
    "longitude": "-90.08749580591306",
    "latitude": "29.973046195849616",
    "geocoded_column": {
      "latitude": "29.973046195849616",
      "longitude": "-90.08749580591306"
    }
  },
  {
    "service_request": "2025-1179606",
    "request_type": "Abandoned Vehicles",
    "request_reason": "Abandoned/Junk Vehicles",
    "date_created": "2025-03-29T13:30:37.000",
    "date_modified": "2025-03-29T13:30:39.000",
    "request_status": "Pending",
    "responsible_agency": "Department of Public Works",
    "final_address": "1001 Kentucky St",
    "address_councildis": "C",
    "status": "Pending",
    "rowid": "1179606",
    "final_x": "3693260.45398",
    "final_y": "534528.608645",
    "longitude": "-90.03082721330206",
    "latitude": "29.963405986632843",
    "geocoded_column": {
      "latitude": "29.963405986632843",
      "longitude": "-90.03082721330206"
    }
  },
  {
    "service_request": "2025-1179605",
    "request_type": "Trash/Recycling",
    "request_reason": "Request a Large Item Pick Up",
    "date_created": "2025-03-29T13:15:07.000",
    "date_modified": "2025-03-29T13:15:09.000",
    "request_status": "Pending",
    "responsible_agency": "Department of Sanitation",
    "final_address": "1206 N White St",
    "address_councildis": "A",
    "status": "Assigned to Contractor",
    "contractor": "IV Waste",
    "rowid": "1179605",
    "final_x": "3677437.13627",
    "final_y": "539205.68673",
    "longitude": "-90.08063406992206",
    "latitude": "29.976751442158253",
    "geocoded_column": {
      "latitude": "29.976751442158253",
      "longitude": "-90.08063406992206"
    }
  },
  {
    "service_request": "2025-1179604",
    "request_type": "Trash/Recycling",
    "request_reason": "Request a Large Item Pick Up",
    "date_created": "2025-03-29T13:02:55.000",
    "date_modified": "2025-03-29T13:02:56.000",
    "request_status": "Pending",
    "responsible_agency": "Department of Sanitation",
    "final_address": "813 Jackson Ave",
    "address_councildis": "B",
    "status": "Assigned to Contractor",
    "contractor": "IV Waste",
    "rowid": "1179604",
    "final_x": "3679485.09115",
    "final_y": "521334.655801",
    "longitude": "-90.07478592907057",
    "latitude": "29.927550393122768",
    "geocoded_column": {
      "latitude": "29.927550393122768",
      "longitude": "-90.07478592907057"
    }
  },
  {
    "service_request": "2025-1179603",
    "request_type": "Trash/Recycling",
    "request_reason": "Request a Large Item Pick Up",
    "date_created": "2025-03-29T13:02:26.000",
    "date_modified": "2025-03-29T13:02:27.000",
    "request_status": "Pending",
    "responsible_agency": "Department of Sanitation",
    "final_address": "1706 S Rampart St",
    "address_councildis": "B",
    "status": "Assigned to Contractor",
    "contractor": "IV Waste",
    "rowid": "1179603",
    "final_x": "3677420.85685",
    "final_y": "525843.496829",
    "longitude": "-90.08114667319602",
    "latitude": "29.940010410237925",
    "geocoded_column": {
      "latitude": "29.940010410237925",
      "longitude": "-90.08114667319602"
    }
  },
  {
    "service_request": "2025-1179602",
    "request_type": "Health Related Request",
    "request_reason": "Noise Ordinance Complaint",
    "date_created": "2025-03-29T12:51:39.000",
    "date_modified": "2025-03-29T12:51:41.000",
    "request_status": "Pending",
    "responsible_agency": "Health Department",
    "final_address": "1123 Burgundy St",
    "address_councildis": "C",
    "status": "Pending",
    "rowid": "1179602",
    "final_x": "3682676.81999",
    "final_y": "534463.445061",
    "longitude": "-90.06425141181059",
    "latitude": "29.96355336765647",
    "geocoded_column": {
      "latitude": "29.96355336765647",
      "longitude": "-90.06425141181059"
    }
  },
  {
    "service_request": "2025-1179601",
    "request_type": "Trash/Recycling",
    "request_reason": "Replace Recycling Cart",
    "date_created": "2025-03-29T12:50:40.000",
    "date_modified": "2025-03-29T12:50:41.000",
    "request_status": "Pending",
    "responsible_agency": "Department of Sanitation",
    "final_address": "1340 St Roch Ave",
    "address_councildis": "C",
    "status": "Pending",
    "rowid": "1179601",
    "final_x": "3686267.02588",
    "final_y": "537473.560072",
    "longitude": "-90.05280771420779",
    "latitude": "29.97172031256349",
    "geocoded_column": {
      "latitude": "29.97172031256349",
      "longitude": "-90.05280771420779"
    }
  },
  {
    "service_request": "2025-1179600",
    "request_type": "Trash/Recycling",
    "request_reason": "Order Trash Cart",
    "date_created": "2025-03-29T12:48:48.000",
    "date_modified": "2025-03-29T12:48:49.000",
    "request_status": "Pending",
    "responsible_agency": "Department of Sanitation",
    "final_address": "5117 Lakeview Ct",
    "address_councildis": "E",
    "status": "Assigned to Contractor",
    "contractor": "Waste Pro",
    "rowid": "1179600",
    "final_x": "3698914.1242",
    "final_y": "556132.724698",
    "longitude": "-90.01218704403654",
    "latitude": "30.022631410592243",
    "geocoded_column": {
      "latitude": "30.022631410592243",
      "longitude": "-90.01218704403654"
    }
  },
  {
    "service_request": "2025-1179599",
    "request_type": "Trash/Recycling",
    "request_reason": "Replace Trash Cart",
    "date_created": "2025-03-29T12:47:27.000",
    "date_modified": "2025-03-29T12:47:28.000",
    "request_status": "Pending",
    "responsible_agency": "Department of Sanitation",
    "final_address": "1340 St Roch Ave",
    "address_councildis": "C",
    "status": "Assigned to Contractor",
    "contractor": "IV Waste",
    "rowid": "1179599",
    "final_x": "3686267.02588",
    "final_y": "537473.560072",
    "longitude": "-90.05280771420779",
    "latitude": "29.97172031256349",
    "geocoded_column": {
      "latitude": "29.97172031256349",
      "longitude": "-90.05280771420779"
    }
  },
  {
    "service_request": "2025-1179598",
    "request_type": "Trash/Recycling",
    "request_reason": "Return Recycling Cart",
    "date_created": "2025-03-29T12:45:40.000",
    "date_modified": "2025-03-29T12:45:42.000",
    "request_status": "Pending",
    "responsible_agency": "Department of Sanitation",
    "final_address": "1340 St Roch Ave",
    "address_councildis": "C",
    "status": "Pending",
    "rowid": "1179598",
    "final_x": "3686267.02588",
    "final_y": "537473.560072",
    "longitude": "-90.05280771420779",
    "latitude": "29.97172031256349",
    "geocoded_column": {
      "latitude": "29.97172031256349",
      "longitude": "-90.05280771420779"
    }
  },
  {
    "service_request": "2025-1179597",
    "request_type": "Parks & Parkways",
    "request_reason": "Park Maintenance/Clean Up",
    "date_created": "2025-03-29T12:42:10.000",
    "date_modified": "2025-03-29T12:42:11.000",
    "request_status": "Pending",
    "responsible_agency": "Department of Parks & Parkway",
    "final_address": "718 Valence St",
    "address_councildis": "B",
    "status": "Pending",
    "rowid": "1179597",
    "final_x": "3669911.15399",
    "final_y": "518085.468534",
    "longitude": "-90.10511853926164",
    "latitude": "29.918901834539867",
    "geocoded_column": {
      "latitude": "29.918901834539867",
      "longitude": "-90.10511853926164"
    }
  },
  {
    "service_request": "2025-1179596",
    "request_type": "Abandoned Vehicles",
    "request_reason": "Abandoned/Junk Vehicles",
    "date_created": "2025-03-29T12:19:57.000",
    "date_modified": "2025-03-29T12:19:59.000",
    "request_status": "Pending",
    "responsible_agency": "Department of Public Works",
    "final_address": "2313 Terpsichore St",
    "address_councildis": "B",
    "status": "Pending",
    "rowid": "1179596",
    "final_x": "3676396.86158",
    "final_y": "526973.994878",
    "longitude": "-90.08434067800117",
    "latitude": "29.943149637251018",
    "geocoded_column": {
      "latitude": "29.943149637251018",
      "longitude": "-90.08434067800117"
    }
  },
  {
    "service_request": "2025-1179595",
    "request_type": "Alley Ways",
    "request_reason": "Alley Way Regrading",
    "date_created": "2025-03-29T12:14:25.000",
    "date_modified": "2025-03-29T12:14:26.000",
    "request_status": "Pending",
    "responsible_agency": "Department of Public Works",
    "final_address": "6424 General Diaz St",
    "address_councildis": "A",
    "status": "Pending",
    "rowid": "1179595",
    "final_x": "3669684.181",
    "final_y": "550169.125652",
    "longitude": "-90.10474913107771",
    "latitude": "30.007127910959657",
    "geocoded_column": {
      "latitude": "30.007127910959657",
      "longitude": "-90.10474913107771"
    }
  },
  {
    "service_request": "2025-1179594",
    "request_type": "Trash/Recycling",
    "request_reason": "Illegal Dumping",
    "date_created": "2025-03-29T12:10:46.000",
    "date_modified": "2025-03-29T12:10:49.000",
    "request_status": "Pending",
    "responsible_agency": "Department of Sanitation",
    "final_address": "939 Iberville St Apt 601",
    "address_councildis": "C",
    "status": "Pending",
    "rowid": "1179594",
    "final_x": "3680647.85333",
    "final_y": "531647.994947",
    "longitude": "-90.07075663932154",
    "latitude": "29.955873471285088",
    "geocoded_column": {
      "latitude": "29.955873471285088",
      "longitude": "-90.07075663932154"
    }
  },
  {
    "service_request": "2025-1179593",
    "request_type": "Roads and Streets",
    "request_reason": "Street Subsidence (Sinking)",
    "date_created": "2025-03-29T12:03:47.000",
    "date_modified": "2025-03-29T12:03:48.000",
    "request_status": "Pending",
    "responsible_agency": "Department of Public Works",
    "final_address": "2227 Easter Ln",
    "address_councildis": "C",
    "status": "Pending",
    "rowid": "1179593",
    "final_x": "3699216.92746",
    "final_y": "523003.939643",
    "longitude": "-90.01243697585005",
    "latitude": "29.931529674116884",
    "geocoded_column": {
      "latitude": "29.931529674116884",
      "longitude": "-90.01243697585005"
    }
  },
  {
    "service_request": "2025-1179592",
    "request_type": "Drainage",
    "request_reason": "Street Flooding",
    "date_created": "2025-03-29T11:58:35.000",
    "date_modified": "2025-03-29T11:58:37.000",
    "request_status": "Pending",
    "responsible_agency": "Sewerage & Water Board ",
    "final_address": "2227 Easter Ln",
    "address_councildis": "C",
    "status": "Pending",
    "rowid": "1179592",
    "final_x": "3699216.92746",
    "final_y": "523003.939643",
    "longitude": "-90.01243697585005",
    "latitude": "29.931529674116884",
    "geocoded_column": {
      "latitude": "29.931529674116884",
      "longitude": "-90.01243697585005"
    }
  },
  {
    "service_request": "2025-1179591",
    "request_type": "Parks & Parkways",
    "request_reason": "Request Tree Service (Right of Way/Public Property)",
    "date_created": "2025-03-29T11:45:50.000",
    "date_modified": "2025-03-29T11:45:52.000",
    "request_status": "Pending",
    "responsible_agency": "Department of Parks & Parkway",
    "final_address": "2735 Ursulines Ave",
    "address_councildis": "A",
    "status": "Pending",
    "rowid": "1179591",
    "final_x": "3677239.89301",
    "final_y": "538535.757769",
    "longitude": "-90.08128014588729",
    "latitude": "29.97491529545918",
    "geocoded_column": {
      "latitude": "29.97491529545918",
      "longitude": "-90.08128014588729"
    }
  },
  {
    "service_request": "2025-1179590",
    "request_type": "Trash/Recycling",
    "request_reason": "Request a Large Item Pick Up",
    "date_created": "2025-03-29T11:40:20.000",
    "date_modified": "2025-03-29T11:40:22.000",
    "request_status": "Pending",
    "responsible_agency": "Department of Sanitation",
    "final_address": "1718 Philip St",
    "address_councildis": "B",
    "status": "Assigned to Contractor",
    "contractor": "IV Waste",
    "rowid": "1179590",
    "final_x": "3676818.45397",
    "final_y": "523782.331323",
    "longitude": "-90.08311955246246",
    "latitude": "29.9343609694746",
    "geocoded_column": {
      "latitude": "29.9343609694746",
      "longitude": "-90.08311955246246"
    }
  },
  {
    "service_request": "2025-1179589",
    "request_type": "Trash/Recycling",
    "request_reason": "Request a Large Item Pick Up",
    "date_created": "2025-03-29T11:33:26.000",
    "date_modified": "2025-03-29T11:33:29.000",
    "request_status": "Pending",
    "responsible_agency": "Department of Sanitation",
    "final_address": "219 Helena St",
    "address_councildis": "A",
    "status": "Assigned to Contractor",
    "contractor": "IV Waste",
    "rowid": "1179589",
    "final_x": "3668526.25972",
    "final_y": "541056.57742",
    "longitude": "-90.10871501752418",
    "latitude": "29.98210562561673",
    "geocoded_column": {
      "latitude": "29.98210562561673",
      "longitude": "-90.10871501752418"
    }
  },
  {
    "service_request": "2025-1179588",
    "request_type": "Roads and Streets",
    "request_reason": "Pothole",
    "date_created": "2025-03-29T11:28:32.000",
    "date_modified": "2025-03-29T11:28:34.000",
    "request_status": "Pending",
    "responsible_agency": "Department of Public Works",
    "final_address": "4528 Elba St",
    "address_councildis": "B",
    "status": "Pending",
    "rowid": "1179588",
    "final_x": "3669272.89255",
    "final_y": "530661.622658",
    "longitude": "-90.10670825473696",
    "latitude": "29.95350100754141",
    "geocoded_column": {
      "latitude": "29.95350100754141",
      "longitude": "-90.10670825473696"
    }
  },
  {
    "service_request": "2025-1179587",
    "request_type": "Trash/Recycling",
    "request_reason": "Illegal Dumping",
    "date_created": "2025-03-29T11:15:02.000",
    "date_modified": "2025-03-29T11:15:03.000",
    "request_status": "Pending",
    "responsible_agency": "Department of Sanitation",
    "final_address": "5489 Canal Blvd",
    "address_councildis": "A",
    "status": "Pending",
    "rowid": "1179587",
    "final_x": "3668279.53652",
    "final_y": "543716.798926",
    "longitude": "-90.10940454206076",
    "latitude": "29.98942757793269",
    "geocoded_column": {
      "latitude": "29.98942757793269",
      "longitude": "-90.10940454206076"
    }
  },
  {
    "service_request": "2025-1179586",
    "request_type": "Drainage",
    "request_reason": "Catch Basin Clogged",
    "date_created": "2025-03-29T11:14:29.000",
    "date_modified": "2025-03-29T11:14:31.000",
    "request_status": "Pending",
    "responsible_agency": "Sewerage & Water Board ",
    "final_address": "586 Walnut St",
    "address_councildis": "A",
    "status": "Pending",
    "rowid": "1179586",
    "final_x": "3663183.05024",
    "final_y": "524127.912572",
    "longitude": "-90.12615484235931",
    "latitude": "29.935713246786555",
    "geocoded_column": {
      "latitude": "29.935713246786555",
      "longitude": "-90.12615484235931"
    }
  },
  {
    "service_request": "2025-1179585",
    "request_type": "Property Maintenance",
    "request_reason": "Property Maintenance",
    "date_created": "2025-03-29T11:10:39.000",
    "date_modified": "2025-03-29T11:10:41.000",
    "request_status": "Pending",
    "responsible_agency": "Department of Code Enforcement",
    "final_address": "5489 Canal Blvd",
    "address_councildis": "A",
    "status": "Pending",
    "rowid": "1179585",
    "final_x": "3668279.53652",
    "final_y": "543716.798926",
    "longitude": "-90.10940454206076",
    "latitude": "29.98942757793269",
    "geocoded_column": {
      "latitude": "29.98942757793269",
      "longitude": "-90.10940454206076"
    }
  },
  {
    "service_request": "2025-1179584",
    "request_type": "Trash/Recycling",
    "request_reason": "Request a Large Item Pick Up",
    "date_created": "2025-03-29T11:01:31.000",
    "date_modified": "2025-03-29T11:59:26.000",
    "case_close_date": "2025-03-29T06:59:25.000",
    "request_status": "Closed",
    "responsible_agency": "Department of Sanitation",
    "final_address": "7700 Lucerne St",
    "address_councildis": "E",
    "status": "Duplicate Request",
    "contractor": "Waste Pro",
    "contractor_action": "Duplicate",
    "rowid": "1179584",
    "final_x": "3710499.07518",
    "final_y": "566249.638563",
    "longitude": "-89.97520278104568",
    "latitude": "30.050076531565757",
    "geocoded_column": {
      "latitude": "30.050076531565757",
      "longitude": "-89.97520278104568"
    }
  },
  {
    "service_request": "2025-1179583",
    "request_type": "Abandoned Vehicles",
    "request_reason": "Abandoned/Junk Vehicles",
    "date_created": "2025-03-29T10:41:49.000",
    "date_modified": "2025-03-29T10:41:50.000",
    "request_status": "Pending",
    "responsible_agency": "Department of Public Works",
    "final_address": "5320 Warrington Dr",
    "address_councildis": "D",
    "status": "Pending",
    "rowid": "1179583",
    "final_x": "3680816.56239",
    "final_y": "552513.79823",
    "longitude": "-90.0694971971973",
    "latitude": "30.013242012223024",
    "geocoded_column": {
      "latitude": "30.013242012223024",
      "longitude": "-90.0694971971973"
    }
  },
  {
    "service_request": "2025-1179582",
    "request_type": "Trash/Recycling",
    "request_reason": "Request a Large Item Pick Up",
    "date_created": "2025-03-29T10:39:29.000",
    "date_modified": "2025-03-29T10:39:32.000",
    "request_status": "Pending",
    "responsible_agency": "Department of Sanitation",
    "final_address": "2525 Marengo St",
    "address_councildis": "B",
    "status": "Assigned to Contractor",
    "contractor": "IV Waste",
    "rowid": "1179582",
    "final_x": "3671667.62215",
    "final_y": "524361.476732",
    "longitude": "-90.09936092778838",
    "latitude": "29.93610695907553",
    "geocoded_column": {
      "latitude": "29.93610695907553",
      "longitude": "-90.09936092778838"
    }
  },
  {
    "service_request": "2025-1179581",
    "request_type": "Abandoned Vehicles",
    "request_reason": "Abandoned/Junk Vehicles",
    "date_created": "2025-03-29T10:15:52.000",
    "date_modified": "2025-03-29T10:15:54.000",
    "request_status": "Pending",
    "responsible_agency": "Department of Public Works",
    "final_address": "3934 Peach Tree Ct",
    "address_councildis": "C",
    "status": "Pending",
    "rowid": "1179581",
    "final_x": "3704249.04874",
    "final_y": "512655.431857",
    "longitude": "-89.99693230714693",
    "latitude": "29.90291437911953",
    "geocoded_column": {
      "latitude": "29.90291437911953",
      "longitude": "-89.99693230714693"
    }
  },
  {
    "service_request": "2025-1179580",
    "request_type": "Parks & Parkways",
    "request_reason": "Park Maintenance/Clean Up",
    "date_created": "2025-03-29T10:06:36.000",
    "date_modified": "2025-03-29T10:06:38.000",
    "request_status": "Pending",
    "responsible_agency": "Department of Parks & Parkway",
    "final_address": "3301 Royal St",
    "address_councildis": "C",
    "status": "Pending",
    "rowid": "1179580",
    "final_x": "3689507.60585",
    "final_y": "534299.647045",
    "longitude": "-90.04268640237082",
    "latitude": "29.962893187662416",
    "geocoded_column": {
      "latitude": "29.962893187662416",
      "longitude": "-90.04268640237082"
    }
  },
  {
    "service_request": "2025-1179579",
    "request_type": "Parks & Parkways",
    "request_reason": "Park Maintenance/Clean Up",
    "date_created": "2025-03-29T10:05:31.000",
    "date_modified": "2025-03-29T10:05:33.000",
    "request_status": "Pending",
    "responsible_agency": "Department of Parks & Parkway",
    "final_address": "3301 Royal St",
    "address_councildis": "C",
    "status": "Pending",
    "rowid": "1179579",
    "final_x": "3689507.60585",
    "final_y": "534299.647045",
    "longitude": "-90.04268640237082",
    "latitude": "29.962893187662416",
    "geocoded_column": {
      "latitude": "29.962893187662416",
      "longitude": "-90.04268640237082"
    }
  },
  {
    "service_request": "2025-1179578",
    "request_type": "Parks & Parkways",
    "request_reason": "Park Maintenance/Clean Up",
    "date_created": "2025-03-29T10:04:17.000",
    "date_modified": "2025-03-29T10:04:19.000",
    "request_status": "Pending",
    "responsible_agency": "Department of Parks & Parkway",
    "final_address": "3301 Royal St",
    "address_councildis": "C",
    "status": "Pending",
    "rowid": "1179578",
    "final_x": "3689507.60585",
    "final_y": "534299.647045",
    "longitude": "-90.04268640237082",
    "latitude": "29.962893187662416",
    "geocoded_column": {
      "latitude": "29.962893187662416",
      "longitude": "-90.04268640237082"
    }
  },
  {
    "service_request": "2025-1179577",
    "request_type": "Streetlights",
    "request_reason": "Streetlight Outage/Malfunction",
    "date_created": "2025-03-29T09:44:09.000",
    "date_modified": "2025-03-29T09:44:11.000",
    "request_status": "Pending",
    "responsible_agency": "Department of Public Works",
    "final_address": "2010 Chippewa St",
    "address_councildis": "B",
    "status": "Pending",
    "contractor": "Legacy Professional Services",
    "rowid": "1179577",
    "final_x": "3680378.26312",
    "final_y": "521342.119673",
    "longitude": "-90.0719661447872",
    "latitude": "29.927543911102457",
    "geocoded_column": {
      "latitude": "29.927543911102457",
      "longitude": "-90.0719661447872"
    }
  },
  {
    "service_request": "2025-1179576",
    "request_type": "Trash/Recycling",
    "request_reason": "Missed Trash Pick-Up",
    "date_created": "2025-03-29T09:35:41.000",
    "date_modified": "2025-03-29T12:31:59.000",
    "case_close_date": "2025-03-29T07:31:57.000",
    "request_status": "Closed",
    "responsible_agency": "Department of Sanitation",
    "final_address": "727 Jackson Ave",
    "address_councildis": "B",
    "status": "Invalid Request",
    "contractor": "IV Waste",
    "contractor_action": "Invalid Request",
    "rowid": "1179576",
    "final_x": "3679652.78773",
    "final_y": "521138.432313",
    "longitude": "-90.0742633583718",
    "latitude": "29.927005776977918",
    "geocoded_column": {
      "latitude": "29.927005776977918",
      "longitude": "-90.0742633583718"
    }
  },
  {
    "service_request": "2025-1179575",
    "request_type": "Parks & Parkways",
    "request_reason": "Park Maintenance/Clean Up",
    "date_created": "2025-03-29T09:25:19.000",
    "date_modified": "2025-03-29T09:25:20.000",
    "request_status": "Pending",
    "responsible_agency": "Department of Parks & Parkway",
    "final_address": "4721 Crowder Blvd",
    "address_councildis": "E",
    "status": "Pending",
    "rowid": "1179575",
    "final_x": "3706515.82654",
    "final_y": "555573.013081",
    "longitude": "-89.98818841358248",
    "latitude": "30.02084923297922",
    "geocoded_column": {
      "latitude": "30.02084923297922",
      "longitude": "-89.98818841358248"
    }
  },
  {
    "service_request": "2025-1179574",
    "request_type": "Drainage",
    "request_reason": "Street Flooding",
    "date_created": "2025-03-29T09:22:28.000",
    "date_modified": "2025-03-29T09:22:31.000",
    "request_status": "Pending",
    "responsible_agency": "Sewerage & Water Board ",
    "final_address": "1714 Audubon St",
    "address_councildis": "A",
    "status": "Pending",
    "rowid": "1179574",
    "final_x": "3665468.74132",
    "final_y": "527969.694527",
    "longitude": "-90.11881029831396",
    "latitude": "29.94621050473401",
    "geocoded_column": {
      "latitude": "29.94621050473401",
      "longitude": "-90.11881029831396"
    }
  },
  {
    "service_request": "2025-1179573",
    "request_type": "Trash/Recycling",
    "request_reason": "Request a Large Item Pick Up",
    "date_created": "2025-03-29T09:03:43.000",
    "date_modified": "2025-03-29T09:03:48.000",
    "request_status": "Pending",
    "responsible_agency": "Department of Sanitation",
    "final_address": "7525 Ligustrum Dr",
    "address_councildis": "E",
    "status": "Assigned to Contractor",
    "contractor": "Waste Pro",
    "rowid": "1179573",
    "final_x": "3701682.72593",
    "final_y": "560916.528286",
    "longitude": "-90.00326351321371",
    "latitude": "30.035696955801864",
    "geocoded_column": {
      "latitude": "30.035696955801864",
      "longitude": "-90.00326351321371"
    }
  },
  {
    "service_request": "2025-1179572",
    "request_type": "Trash/Recycling",
    "request_reason": "Request a Large Item Pick Up",
    "date_created": "2025-03-29T09:01:57.000",
    "date_modified": "2025-03-29T09:01:59.000",
    "request_status": "Pending",
    "responsible_agency": "Department of Sanitation",
    "final_address": "5627 Albany Ct",
    "address_councildis": "C",
    "status": "Assigned to Contractor",
    "contractor": "Richards Disposal",
    "rowid": "1179572",
    "final_x": "3704447.14385",
    "final_y": "521474.261369",
    "longitude": "-89.99598229192155",
    "latitude": "29.92715677210804",
    "geocoded_column": {
      "latitude": "29.92715677210804",
      "longitude": "-89.99598229192155"
    }
  },
  {
    "service_request": "2025-1179571",
    "request_type": "Parks & Parkways",
    "request_reason": "Park Maintenance/Clean Up",
    "date_created": "2025-03-29T08:54:42.000",
    "date_modified": "2025-03-29T08:54:44.000",
    "request_status": "Pending",
    "responsible_agency": "Department of Parks & Parkway",
    "final_address": "3419 Palmyra St",
    "address_councildis": "B",
    "status": "Pending",
    "rowid": "1179571",
    "final_x": "3672529.76955",
    "final_y": "536311.319559",
    "longitude": "-90.09623179320079",
    "latitude": "29.968939519004447",
    "geocoded_column": {
      "latitude": "29.968939519004447",
      "longitude": "-90.09623179320079"
    }
  },
  {
    "service_request": "2025-1179570",
    "request_type": "Streetlights",
    "request_reason": "Streetlight Outage/Malfunction",
    "date_created": "2025-03-29T08:50:17.000",
    "date_modified": "2025-03-29T08:50:19.000",
    "request_status": "Pending",
    "responsible_agency": "Department of Public Works",
    "final_address": "2717 Amelia St",
    "address_councildis": "B",
    "status": "Pending",
    "contractor": "Legacy Professional Services",
    "rowid": "1179570",
    "final_x": "3672195.23092",
    "final_y": "525111.996285",
    "longitude": "-90.09766969788724",
    "latitude": "29.93815501041464",
    "geocoded_column": {
      "latitude": "29.93815501041464",
      "longitude": "-90.09766969788724"
    }
  },
  {
    "service_request": "2025-1179569",
    "request_type": "Trash/Recycling",
    "request_reason": "Request a Large Item Pick Up",
    "date_created": "2025-03-29T08:48:50.000",
    "date_modified": "2025-03-29T08:48:53.000",
    "request_status": "Pending",
    "responsible_agency": "Department of Sanitation",
    "final_address": "5514 Wingate Dr",
    "address_councildis": "D",
    "status": "Assigned to Contractor",
    "contractor": "IV Waste",
    "rowid": "1179569",
    "final_x": "3681318.57128",
    "final_y": "553219.771799",
    "longitude": "-90.06788648386083",
    "latitude": "30.015167948929903",
    "geocoded_column": {
      "latitude": "30.015167948929903",
      "longitude": "-90.06788648386083"
    }
  },
  {
    "service_request": "2025-1179568",
    "request_type": "Abandoned Vehicles",
    "request_reason": "Abandoned/Junk Vehicles",
    "date_created": "2025-03-29T08:40:19.000",
    "date_modified": "2025-03-29T08:40:22.000",
    "request_status": "Pending",
    "responsible_agency": "Department of Public Works",
    "final_address": "4316 Baronne St",
    "address_councildis": "B",
    "status": "Pending",
    "rowid": "1179568",
    "final_x": "3671020.40827",
    "final_y": "521587.044281",
    "longitude": "-90.10149836738734",
    "latitude": "29.92849731176201",
    "geocoded_column": {
      "latitude": "29.92849731176201",
      "longitude": "-90.10149836738734"
    }
  },
  {
    "service_request": "2025-1179567",
    "request_type": "Abandoned Vehicles",
    "request_reason": "Abandoned/Junk Vehicles",
    "date_created": "2025-03-29T08:29:22.000",
    "date_modified": "2025-03-29T08:29:25.000",
    "request_status": "Pending",
    "responsible_agency": "Department of Public Works",
    "final_address": "4956 Painters St",
    "address_councildis": "D",
    "status": "Pending",
    "rowid": "1179567",
    "final_x": "3686061.26358",
    "final_y": "551388.691797",
    "longitude": "-90.05296648630976",
    "latitude": "30.00998827755513",
    "geocoded_column": {
      "latitude": "30.00998827755513",
      "longitude": "-90.05296648630976"
    }
  },
  {
    "service_request": "2025-1179566",
    "request_type": "Trash/Recycling",
    "request_reason": "Illegal Dumping",
    "date_created": "2025-03-29T08:17:24.000",
    "date_modified": "2025-03-29T08:17:25.000",
    "request_status": "Pending",
    "responsible_agency": "Department of Sanitation",
    "final_address": "3081 Elmwood Park Dr",
    "address_councildis": "C",
    "status": "Pending",
    "rowid": "1179566",
    "final_x": "3694215.14493",
    "final_y": "518897.075767",
    "longitude": "-90.02837459162545",
    "latitude": "29.92039478679399",
    "geocoded_column": {
      "latitude": "29.92039478679399",
      "longitude": "-90.02837459162545"
    }
  },
  {
    "service_request": "2025-1179565",
    "request_type": "Trash/Recycling",
    "request_reason": "MIssed Recycling Pick-Up",
    "date_created": "2025-03-29T08:17:17.000",
    "date_modified": "2025-03-29T08:17:18.000",
    "request_status": "Pending",
    "responsible_agency": "Department of Sanitation",
    "final_address": "2426 Saint Claude Ave, New Orleans, Louisiana, 70117",
    "status": "Assigned to Contractor",
    "rowid": "1179565",
    "longitude": "0.0",
    "latitude": "0.0",
    "geocoded_column": {
      "latitude": "0.0",
      "longitude": "0.0"
    }
  },
  {
    "service_request": "2025-1179564",
    "request_type": "Parks & Parkways",
    "request_reason": "Request Tree Service (Right of Way/Public Property)",
    "date_created": "2025-03-29T07:55:05.000",
    "date_modified": "2025-03-29T07:55:07.000",
    "request_status": "Pending",
    "responsible_agency": "Department of Parks & Parkway",
    "final_address": "1943 N Rampart St",
    "address_councildis": "C",
    "status": "Pending",
    "rowid": "1179564",
    "final_x": "3684229.0758",
    "final_y": "535901.470151",
    "longitude": "-90.05929906686211",
    "latitude": "29.967460076499936",
    "geocoded_column": {
      "latitude": "29.967460076499936",
      "longitude": "-90.05929906686211"
    }
  },
  {
    "service_request": "2025-1179563",
    "request_type": "Health Related Request",
    "request_reason": "Noise Ordinance Complaint",
    "date_created": "2025-03-29T07:48:10.000",
    "date_modified": "2025-03-29T07:48:12.000",
    "request_status": "Pending",
    "responsible_agency": "Health Department",
    "final_address": "625 Dauphine St, New Orleans, Louisiana, 70112",
    "address_councildis": "C",
    "status": "Pending",
    "rowid": "1179563",
    "final_x": "3681801.77039",
    "final_y": "532833.459844",
    "longitude": "-90.0670716070408",
    "latitude": "29.959098084840257",
    "geocoded_column": {
      "latitude": "29.959098084840257",
      "longitude": "-90.0670716070408"
    }
  },
  {
    "service_request": "2025-1179562",
    "request_type": "Street and Traffic Signs",
    "request_reason": "Street Name Sign Damaged or Missing",
    "date_created": "2025-03-29T07:10:42.000",
    "date_modified": "2025-03-29T07:10:44.000",
    "request_status": "Pending",
    "responsible_agency": "Department of Public Works",
    "final_address": "1525 Dufossat St",
    "address_councildis": "B",
    "status": "Pending",
    "rowid": "1179562",
    "final_x": "3668161.69364",
    "final_y": "520678.110521",
    "longitude": "-90.11055336688219",
    "latitude": "29.926082227758133",
    "geocoded_column": {
      "latitude": "29.926082227758133",
      "longitude": "-90.11055336688219"
    }
  },
  {
    "service_request": "2025-1179561",
    "request_type": "Health Related Request",
    "request_reason": "Noise Ordinance Complaint",
    "date_created": "2025-03-29T04:04:55.000",
    "date_modified": "2025-03-29T04:04:57.000",
    "request_status": "Pending",
    "responsible_agency": "Health Department",
    "final_address": "1216 Kentucky St",
    "address_councildis": "D",
    "status": "Pending",
    "rowid": "1179561",
    "final_x": "3693367.39357",
    "final_y": "535392.806406",
    "longitude": "-90.03045848084125",
    "latitude": "29.96577888274793",
    "geocoded_column": {
      "latitude": "29.96577888274793",
      "longitude": "-90.03045848084125"
    }
  },
  {
    "service_request": "2025-1179560",
    "request_type": "Streetlights",
    "request_reason": "Streetlight Outage/Malfunction",
    "date_created": "2025-03-29T02:45:53.000",
    "date_modified": "2025-03-29T02:45:56.000",
    "request_status": "Pending",
    "responsible_agency": "Department of Public Works",
    "final_address": "5525 Wingate Dr",
    "address_councildis": "D",
    "status": "Pending",
    "contractor": "Legacy Professional Services",
    "rowid": "1179560",
    "final_x": "3681375.06786",
    "final_y": "553545.529687",
    "longitude": "-90.06769661291494",
    "latitude": "30.016061948970155",
    "geocoded_column": {
      "latitude": "30.016061948970155",
      "longitude": "-90.06769661291494"
    }
  },
  {
    "service_request": "2025-1179559",
    "request_type": "Streetlights",
    "request_reason": "Streetlight Outage/Malfunction",
    "date_created": "2025-03-29T02:12:16.000",
    "date_modified": "2025-03-29T02:12:18.000",
    "request_status": "Pending",
    "responsible_agency": "Department of Public Works",
    "final_address": "5525 Wingate Dr",
    "address_councildis": "D",
    "status": "Pending",
    "contractor": "Legacy Professional Services",
    "rowid": "1179559",
    "final_x": "3681375.06786",
    "final_y": "553545.529687",
    "longitude": "-90.06769661291494",
    "latitude": "30.016061948970155",
    "geocoded_column": {
      "latitude": "30.016061948970155",
      "longitude": "-90.06769661291494"
    }
  },
  {
    "service_request": "2025-1179558",
    "request_type": "Trash/Recycling",
    "request_reason": "Illegal Dumping",
    "date_created": "2025-03-28T23:28:45.000",
    "date_modified": "2025-03-28T23:28:47.000",
    "request_status": "Pending",
    "responsible_agency": "Department of Sanitation",
    "final_address": "2801 Mansfield Ave",
    "address_councildis": "C",
    "status": "Pending",
    "rowid": "1179558",
    "final_x": "3709157.69214",
    "final_y": "519650.444088",
    "longitude": "-89.98118037818743",
    "latitude": "29.921989902861856",
    "geocoded_column": {
      "latitude": "29.921989902861856",
      "longitude": "-89.98118037818743"
    }
  },
  {
    "service_request": "2025-1179557",
    "request_type": "Street and Traffic Signs",
    "request_reason": "Stop Sign Missing or Damaged",
    "date_created": "2025-03-28T23:22:49.000",
    "date_modified": "2025-03-28T23:22:52.000",
    "request_status": "Pending",
    "responsible_agency": "Department of Public Works",
    "final_address": "2801 Mansfield Ave",
    "address_councildis": "C",
    "status": "Pending",
    "rowid": "1179557",
    "final_x": "3709157.69214",
    "final_y": "519650.444088",
    "longitude": "-89.98118037818743",
    "latitude": "29.921989902861856",
    "geocoded_column": {
      "latitude": "29.921989902861856",
      "longitude": "-89.98118037818743"
    }
  },
  {
    "service_request": "2025-1179556",
    "request_type": "General Services",
    "request_reason": "General Service Request",
    "date_created": "2025-03-28T22:42:19.000",
    "date_modified": "2025-03-28T22:42:20.000",
    "request_status": "Pending",
    "responsible_agency": "Orleans Parish Communication District",
    "final_address": "8023 Arcadia Ln",
    "address_councildis": "E",
    "status": "Pending",
    "rowid": "1179556",
    "final_x": "3711681.85842",
    "final_y": "568166.063461",
    "longitude": "-89.97139247837278",
    "latitude": "30.055307320524985",
    "geocoded_column": {
      "latitude": "30.055307320524985",
      "longitude": "-89.97139247837278"
    }
  },
  {
    "service_request": "2025-1179555",
    "request_type": "Health Related Request",
    "request_reason": "Noise Ordinance Complaint",
    "date_created": "2025-03-28T22:40:49.000",
    "date_modified": "2025-03-28T22:40:51.000",
    "request_status": "Pending",
    "responsible_agency": "Health Department",
    "final_address": "824 Valence St",
    "address_councildis": "B",
    "status": "Pending",
    "rowid": "1179555",
    "final_x": "3669912.71527",
    "final_y": "518504.180087",
    "longitude": "-90.10509944416881",
    "latitude": "29.920053112866274",
    "geocoded_column": {
      "latitude": "29.920053112866274",
      "longitude": "-90.10509944416881"
    }
  },
  {
    "service_request": "2025-1179554",
    "request_type": "Health Related Request",
    "request_reason": "Noise Ordinance Complaint",
    "date_created": "2025-03-28T22:02:15.000",
    "date_modified": "2025-03-28T22:02:17.000",
    "request_status": "Pending",
    "responsible_agency": "Health Department",
    "final_address": "1943 N Rampart St, New Orleans, LA 70116 Loud music at 9:50 PM from Iggy's bar. Their jukebox is by the front door. They tie the door open with a bungee cord so the music pours out the door and into the homes of the residents who live here at Touro and Rampart. It's a nightly disturbance around 9:30 PM until 1 AM  7 days week.",
    "address_councildis": "C",
    "status": "Pending",
    "rowid": "1179554",
    "final_x": "3684229.0758",
    "final_y": "535901.470151",
    "longitude": "-90.05929906686211",
    "latitude": "29.967460076499936",
    "geocoded_column": {
      "latitude": "29.967460076499936",
      "longitude": "-90.05929906686211"
    }
  },
  {
    "service_request": "2025-1179553",
    "request_type": "General Services",
    "request_reason": "General Service Request",
    "date_created": "2025-03-28T21:59:44.000",
    "date_modified": "2025-03-28T21:59:47.000",
    "request_status": "Pending",
    "responsible_agency": "Orleans Parish Communication District",
    "final_address": "929 Touro St",
    "address_councildis": "C",
    "status": "Pending",
    "rowid": "1179553",
    "final_x": "3684299.09391",
    "final_y": "535769.414919",
    "longitude": "-90.05908258639768",
    "latitude": "29.967094829467204",
    "geocoded_column": {
      "latitude": "29.967094829467204",
      "longitude": "-90.05908258639768"
    }
  },
  {
    "service_request": "2025-1179552",
    "request_type": "General Services",
    "request_reason": "General Service Request",
    "date_created": "2025-03-28T21:57:48.000",
    "date_modified": "2025-03-28T21:57:49.000",
    "request_status": "Pending",
    "responsible_agency": "Orleans Parish Communication District",
    "final_address": "MORRISON RD & GANNON RD",
    "address_councildis": "E",
    "status": "Pending",
    "rowid": "1179552",
    "final_x": "3716844.9",
    "final_y": "569274.68",
    "longitude": "-89.9550311752423",
    "latitude": "30.058185809886584",
    "geocoded_column": {
      "latitude": "30.058185809886584",
      "longitude": "-89.9550311752423"
    }
  },
  {
    "service_request": "2025-1179551",
    "request_type": "Abandoned Vehicles",
    "request_reason": "Abandoned/Junk Vehicles",
    "date_created": "2025-03-28T21:37:30.000",
    "date_modified": "2025-03-28T21:37:31.000",
    "request_status": "Pending",
    "responsible_agency": "Department of Public Works",
    "final_address": "2521 Dryades St",
    "address_councildis": "B",
    "status": "Pending",
    "rowid": "1179551",
    "final_x": "3675923.48942",
    "final_y": "523880.847356",
    "longitude": "-90.08594154690756",
    "latitude": "29.934658676203817",
    "geocoded_column": {
      "latitude": "29.934658676203817",
      "longitude": "-90.08594154690756"
    }
  },
  {
    "service_request": "2025-1179550",
    "request_type": "Trash/Recycling",
    "request_reason": "Request a Large Item Pick Up",
    "date_created": "2025-03-28T21:33:58.000",
    "date_modified": "2025-03-28T21:34:00.000",
    "request_status": "Pending",
    "responsible_agency": "Department of Sanitation",
    "final_address": "62 Spanish Fort Blvd",
    "address_councildis": "D",
    "status": "Assigned to Contractor",
    "contractor": "IV Waste",
    "rowid": "1179550",
    "final_x": "3674285.45588",
    "final_y": "555481.313177",
    "longitude": "-90.09003031795021",
    "latitude": "30.021598072311335",
    "geocoded_column": {
      "latitude": "30.021598072311335",
      "longitude": "-90.09003031795021"
    }
  },
  {
    "service_request": "2025-1179549",
    "request_type": "Trash/Recycling",
    "request_reason": "Order Trash Cart",
    "date_created": "2025-03-28T20:59:40.000",
    "date_modified": "2025-03-28T20:59:42.000",
    "request_status": "Pending",
    "responsible_agency": "Department of Sanitation",
    "final_address": "2538 Flood St",
    "address_councildis": "E",
    "status": "Assigned to Contractor",
    "contractor": "Waste Pro",
    "rowid": "1179549",
    "final_x": "3699170.7937",
    "final_y": "539408.264202",
    "longitude": "-90.01198542891714",
    "latitude": "29.976637226281213",
    "geocoded_column": {
      "latitude": "29.976637226281213",
      "longitude": "-90.01198542891714"
    }
  },
  {
    "service_request": "2025-1179548",
    "request_type": "Trash/Recycling",
    "request_reason": "Request a Large Item Pick Up",
    "date_created": "2025-03-28T20:38:25.000",
    "date_modified": "2025-03-28T20:38:28.000",
    "request_status": "Pending",
    "responsible_agency": "Department of Sanitation",
    "final_address": "6021 Brighton Pl",
    "address_councildis": "C",
    "status": "Assigned to Contractor",
    "contractor": "Richards Disposal",
    "rowid": "1179548",
    "final_x": "3706231.87742",
    "final_y": "520053.783096",
    "longitude": "-89.99040094705246",
    "latitude": "29.923193555936457",
    "geocoded_column": {
      "latitude": "29.923193555936457",
      "longitude": "-89.99040094705246"
    }
  },
  {
    "service_request": "2025-1179547",
    "request_type": "Traffic Signals",
    "request_reason": "Traffic Signal Malfunctioning or Damaged",
    "date_created": "2025-03-28T20:37:38.000",
    "date_modified": "2025-03-28T20:37:39.000",
    "request_status": "Pending",
    "responsible_agency": "Department of Public Works",
    "final_address": "WASHINGTON AVE & EARHART BLVD",
    "address_councildis": "B",
    "status": "Pending",
    "rowid": "1179547",
    "final_x": "3670143.4",
    "final_y": "531994.58",
    "longitude": "-90.10391439397223",
    "latitude": "29.957140548523952",
    "geocoded_column": {
      "latitude": "29.957140548523952",
      "longitude": "-90.10391439397223"
    }
  },
  {
    "service_request": "2025-1179546",
    "request_type": "Streetlights",
    "request_reason": "Streetlight Outage/Malfunction",
    "date_created": "2025-03-28T20:37:05.000",
    "date_modified": "2025-03-28T20:37:07.000",
    "request_status": "Pending",
    "responsible_agency": "Department of Public Works",
    "final_address": "3334 Louisiana Avenue Prkwy",
    "address_councildis": "B",
    "status": "Pending",
    "contractor": "Legacy Professional Services",
    "rowid": "1179546",
    "final_x": "3671675.9938",
    "final_y": "527486.754687",
    "longitude": "-90.09922823199823",
    "latitude": "29.944700208965234",
    "geocoded_column": {
      "latitude": "29.944700208965234",
      "longitude": "-90.09922823199823"
    }
  },
  {
    "service_request": "2025-1179545",
    "request_type": "Abandoned Vehicles",
    "request_reason": "Abandoned/Junk Vehicles",
    "date_created": "2025-03-28T20:35:10.000",
    "date_modified": "2025-03-28T20:35:12.000",
    "request_status": "Pending",
    "responsible_agency": "Department of Public Works",
    "final_address": "4773 Painters St",
    "address_councildis": "D",
    "status": "Pending",
    "rowid": "1179545",
    "final_x": "3686269.37423",
    "final_y": "550851.093653",
    "longitude": "-90.05232797842413",
    "latitude": "30.008503683082665",
    "geocoded_column": {
      "latitude": "30.008503683082665",
      "longitude": "-90.05232797842413"
    }
  },
  {
    "service_request": "2025-1179544",
    "request_type": "Parks & Parkways",
    "request_reason": "Request Tree Service (Right of Way/Public Property)",
    "date_created": "2025-03-28T20:08:34.000",
    "date_modified": "2025-03-28T20:08:36.000",
    "request_status": "Pending",
    "responsible_agency": "Department of Parks & Parkway",
    "final_address": "5342 St Charles Ave",
    "address_councildis": "B",
    "status": "Pending",
    "rowid": "1179544",
    "final_x": "3667474.89831",
    "final_y": "521397.581753",
    "longitude": "-90.11269719363567",
    "latitude": "29.928080680395222",
    "geocoded_column": {
      "latitude": "29.928080680395222",
      "longitude": "-90.11269719363567"
    }
  },
  {
    "service_request": "2025-1179543",
    "request_type": "Property Maintenance",
    "request_reason": "Property Maintenance",
    "date_created": "2025-03-28T18:28:24.000",
    "date_modified": "2025-03-28T18:28:26.000",
    "request_status": "Pending",
    "responsible_agency": "Department of Code Enforcement",
    "final_address": "9212 Fig St",
    "address_councildis": "A",
    "status": "Pending",
    "rowid": "1179543",
    "final_x": "3663292.51853",
    "final_y": "535829.975367",
    "longitude": "-90.12541979816926",
    "latitude": "29.967886970229014",
    "geocoded_column": {
      "latitude": "29.967886970229014",
      "longitude": "-90.12541979816926"
    }
  },
  {
    "service_request": "2025-1179542",
    "request_type": "General Services",
    "request_reason": "General Service Request",
    "date_created": "2025-03-28T18:20:15.000",
    "date_modified": "2025-03-28T18:20:17.000",
    "request_status": "Pending",
    "responsible_agency": "Orleans Parish Communication District",
    "final_address": "2311 Chippewa St",
    "address_councildis": "B",
    "status": "Pending",
    "rowid": "1179542",
    "final_x": "3679304.95983",
    "final_y": "520621.808632",
    "longitude": "-90.07537926427997",
    "latitude": "29.925595735148086",
    "geocoded_column": {
      "latitude": "29.925595735148086",
      "longitude": "-90.07537926427997"
    }
  },
  {
    "service_request": "2025-1179541",
    "request_type": "Trash/Recycling",
    "request_reason": "Order Trash Cart",
    "date_created": "2025-03-28T17:56:36.000",
    "date_modified": "2025-03-28T17:56:39.000",
    "request_status": "Pending",
    "responsible_agency": "Department of Sanitation",
    "final_address": "1705 Eagle St",
    "address_councildis": "A",
    "status": "Assigned to Contractor",
    "contractor": "IV Waste",
    "rowid": "1179541",
    "final_x": "3661380.66662",
    "final_y": "531372.81933",
    "longitude": "-90.13160514374219",
    "latitude": "29.95568651899174",
    "geocoded_column": {
      "latitude": "29.95568651899174",
      "longitude": "-90.13160514374219"
    }
  },
  {
    "service_request": "2025-1179540",
    "request_type": "Trash/Recycling",
    "request_reason": "Order Recycling Cart",
    "date_created": "2025-03-28T17:51:32.000",
    "date_modified": "2025-03-28T17:51:35.000",
    "request_status": "Pending",
    "responsible_agency": "Department of Sanitation",
    "final_address": "231 S Cortez St",
    "address_councildis": "A",
    "status": "Pending",
    "rowid": "1179540",
    "final_x": "3671631.60475",
    "final_y": "537083.60916",
    "longitude": "-90.09904199063348",
    "latitude": "29.971089688339767",
    "geocoded_column": {
      "latitude": "29.971089688339767",
      "longitude": "-90.09904199063348"
    }
  },
  {
    "service_request": "2025-1179539",
    "request_type": "Trash/Recycling",
    "request_reason": "Order Trash Cart",
    "date_created": "2025-03-28T17:16:57.000",
    "date_modified": "2025-03-28T17:16:59.000",
    "request_status": "Pending",
    "responsible_agency": "Department of Sanitation",
    "final_address": "25157 Chef Menteur Hwy",
    "address_councildis": "E",
    "status": "Assigned to Contractor",
    "contractor": "Waste Pro",
    "rowid": "1179539",
    "final_x": "3778152.02635",
    "final_y": "598349.335233",
    "longitude": "-89.7599905276201",
    "latitude": "30.135956572092105",
    "geocoded_column": {
      "latitude": "30.135956572092105",
      "longitude": "-89.7599905276201"
    }
  },
  {
    "service_request": "2025-1179538",
    "request_type": "Trash/Recycling",
    "request_reason": "Replace Trash Cart",
    "date_created": "2025-03-28T17:08:59.000",
    "date_modified": "2025-03-28T17:09:01.000",
    "request_status": "Pending",
    "responsible_agency": "Department of Sanitation",
    "final_address": "1418 Melpomene St",
    "address_councildis": "B",
    "status": "Assigned to Contractor",
    "contractor": "IV Waste",
    "rowid": "1179538",
    "final_x": "3679850.99349",
    "final_y": "525070.897149",
    "longitude": "-90.07350118749274",
    "latitude": "29.93781277110656",
    "geocoded_column": {
      "latitude": "29.93781277110656",
      "longitude": "-90.07350118749274"
    }
  },
  {
    "service_request": "2025-1179537",
    "request_type": "Trash/Recycling",
    "request_reason": "Request a Large Item Pick Up",
    "date_created": "2025-03-28T17:00:02.000",
    "date_modified": "2025-03-28T17:00:04.000",
    "request_status": "Pending",
    "responsible_agency": "Department of Sanitation",
    "final_address": "2244 Killdeer St",
    "address_councildis": "D",
    "status": "Assigned to Contractor",
    "contractor": "IV Waste",
    "rowid": "1179537",
    "final_x": "3684063.82626",
    "final_y": "557452.551451",
    "longitude": "-90.05906405841488",
    "latitude": "30.026722885274488",
    "geocoded_column": {
      "latitude": "30.026722885274488",
      "longitude": "-90.05906405841488"
    }
  },
  {
    "service_request": "2025-1179536",
    "request_type": "Trash/Recycling",
    "request_reason": "Request a Large Item Pick Up",
    "date_created": "2025-03-28T16:58:21.000",
    "date_modified": "2025-03-28T16:58:23.000",
    "request_status": "Pending",
    "responsible_agency": "Department of Sanitation",
    "final_address": "1802 Cambronne St",
    "address_councildis": "A",
    "status": "Assigned to Contractor",
    "contractor": "IV Waste",
    "rowid": "1179536",
    "final_x": "3662584.68282",
    "final_y": "530717.40109",
    "longitude": "-90.1278250416714",
    "latitude": "29.95384955464348",
    "geocoded_column": {
      "latitude": "29.95384955464348",
      "longitude": "-90.1278250416714"
    }
  },
  {
    "service_request": "2025-1179535",
    "request_type": "Parks & Parkways",
    "request_reason": "Request Tree Service (Right of Way/Public Property)",
    "date_created": "2025-03-28T16:53:53.000",
    "date_modified": "2025-03-28T16:53:54.000",
    "request_status": "Pending",
    "responsible_agency": "Department of Parks & Parkway",
    "final_address": "6733 Catina St",
    "address_councildis": "A",
    "status": "Pending",
    "rowid": "1179535",
    "final_x": "3667092.52461",
    "final_y": "552413.384534",
    "longitude": "-90.11286139400003",
    "latitude": "30.013374991220093",
    "geocoded_column": {
      "latitude": "30.013374991220093",
      "longitude": "-90.11286139400003"
    }
  },
  {
    "service_request": "2025-1179534",
    "request_type": "Safety & Permits",
    "request_reason": "Licenses & Permits",
    "date_created": "2025-03-28T16:48:00.000",
    "date_modified": "2025-03-28T16:48:02.000",
    "request_status": "Pending",
    "responsible_agency": "Safety and Permits",
    "final_address": "1300 Montegut St",
    "address_councildis": "C",
    "status": "Pending",
    "rowid": "1179534",
    "final_x": "3688596.72604",
    "final_y": "536921.995144",
    "longitude": "-90.04546976328999",
    "latitude": "29.970131908658484",
    "geocoded_column": {
      "latitude": "29.970131908658484",
      "longitude": "-90.04546976328999"
    }
  },
  {
    "service_request": "2025-1179533",
    "request_type": "Trash/Recycling",
    "request_reason": "Repair Trash Cart",
    "date_created": "2025-03-28T16:47:11.000",
    "date_modified": "2025-03-28T16:47:13.000",
    "request_status": "Pending",
    "responsible_agency": "Department of Sanitation",
    "final_address": "6054 Dorothea St",
    "address_councildis": "D",
    "status": "Assigned to Contractor",
    "contractor": "Waste Pro",
    "rowid": "1179533",
    "final_x": "3695841.96131",
    "final_y": "557210.707739",
    "longitude": "-90.02185532316165",
    "latitude": "30.02569249382889",
    "geocoded_column": {
      "latitude": "30.02569249382889",
      "longitude": "-90.02185532316165"
    }
  },
  {
    "service_request": "2025-1179532",
    "request_type": "Abandoned Vehicles",
    "request_reason": "Abandoned/Junk Vehicles",
    "date_created": "2025-03-28T16:45:34.000",
    "date_modified": "2025-03-28T16:45:36.000",
    "request_status": "Pending",
    "responsible_agency": "Department of Public Works",
    "final_address": "1728 Jackson Ave",
    "address_councildis": "B",
    "status": "Pending",
    "rowid": "1179532",
    "final_x": "3677195.66453",
    "final_y": "524177.176764",
    "longitude": "-90.08191509512355",
    "latitude": "29.935435342795145",
    "geocoded_column": {
      "latitude": "29.935435342795145",
      "longitude": "-90.08191509512355"
    }
  },
  {
    "service_request": "2025-1179531",
    "request_type": "Abandoned Vehicles",
    "request_reason": "Abandoned/Junk Vehicles",
    "date_created": "2025-03-28T16:44:25.000",
    "date_modified": "2025-03-28T16:44:26.000",
    "request_status": "Pending",
    "responsible_agency": "Department of Public Works",
    "final_address": "3601 Conti St",
    "address_councildis": "B",
    "status": "Pending",
    "rowid": "1179531",
    "final_x": "3673355.81339",
    "final_y": "538436.863433",
    "longitude": "-90.09355045873869",
    "latitude": "29.974759496447952",
    "geocoded_column": {
      "latitude": "29.974759496447952",
      "longitude": "-90.09355045873869"
    }
  },
  {
    "service_request": "2025-1179530",
    "request_type": "Trash/Recycling",
    "request_reason": "Repair Trash Cart",
    "date_created": "2025-03-28T16:43:42.000",
    "date_modified": "2025-03-28T16:43:44.000",
    "request_status": "Pending",
    "responsible_agency": "Department of Sanitation",
    "final_address": "13027 Deauville Ct",
    "address_councildis": "E",
    "status": "Assigned to Contractor",
    "contractor": "Waste Pro",
    "rowid": "1179530",
    "final_x": "3723992.14777",
    "final_y": "560765.24131",
    "longitude": "-89.93276858299791",
    "latitude": "30.034550056012435",
    "geocoded_column": {
      "latitude": "30.034550056012435",
      "longitude": "-89.93276858299791"
    }
  },
  {
    "service_request": "2025-1179529",
    "request_type": "Trash/Recycling",
    "request_reason": "Request a Large Item Pick Up",
    "date_created": "2025-03-28T16:40:52.000",
    "date_modified": "2025-03-28T16:40:54.000",
    "request_status": "Pending",
    "responsible_agency": "Department of Sanitation",
    "final_address": "137 Mary Jane Ln",
    "address_councildis": "E",
    "status": "Assigned to Contractor",
    "contractor": "Waste Pro",
    "rowid": "1179529",
    "final_x": "3718264.99839",
    "final_y": "571529.030888",
    "longitude": "-89.95045645459774",
    "latitude": "30.064337290475148",
    "geocoded_column": {
      "latitude": "30.064337290475148",
      "longitude": "-89.95045645459774"
    }
  },
  {
    "service_request": "2025-1179528",
    "request_type": "Trash/Recycling",
    "request_reason": "Request a Large Item Pick Up",
    "date_created": "2025-03-28T16:38:44.000",
    "date_modified": "2025-03-28T16:38:46.000",
    "request_status": "Pending",
    "responsible_agency": "Department of Sanitation",
    "final_address": "1029 Bordeaux St",
    "address_councildis": "B",
    "status": "Assigned to Contractor",
    "contractor": "IV Waste",
    "rowid": "1179528",
    "final_x": "3669686.41953",
    "final_y": "519237.920311",
    "longitude": "-90.10578894083294",
    "latitude": "29.92207733403813",
    "geocoded_column": {
      "latitude": "29.92207733403813",
      "longitude": "-90.10578894083294"
    }
  },
  {
    "service_request": "2025-1179527",
    "request_type": "Trash/Recycling",
    "request_reason": "Order Recycling Cart",
    "date_created": "2025-03-28T16:38:30.000",
    "date_modified": "2025-03-28T16:38:31.000",
    "request_status": "Pending",
    "responsible_agency": "Department of Sanitation",
    "final_address": "1429 Jackson Ave",
    "address_councildis": "B",
    "status": "Pending",
    "rowid": "1179527",
    "final_x": "3678141.54766",
    "final_y": "523121.205243",
    "longitude": "-90.07896543067724",
    "latitude": "29.932503328706236",
    "geocoded_column": {
      "latitude": "29.932503328706236",
      "longitude": "-90.07896543067724"
    }
  },
  {
    "service_request": "2025-1179526",
    "request_type": "Street and Traffic Signs",
    "request_reason": "Traffic or Parking Sign Damaged or Missing",
    "date_created": "2025-03-28T16:38:27.000",
    "date_modified": "2025-03-28T16:38:28.000",
    "request_status": "Pending",
    "responsible_agency": "Department of Public Works",
    "final_address": "3814 Dumaine St",
    "address_councildis": "A",
    "status": "Pending",
    "rowid": "1179526",
    "final_x": "3673671.65089",
    "final_y": "540114.235595",
    "longitude": "-90.09249559580684",
    "latitude": "29.97936229759645",
    "geocoded_column": {
      "latitude": "29.97936229759645",
      "longitude": "-90.09249559580684"
    }
  },
  {
    "service_request": "2025-1179525",
    "request_type": "Property Maintenance",
    "request_reason": "Property Maintenance",
    "date_created": "2025-03-28T16:32:37.000",
    "date_modified": "2025-03-28T16:32:39.000",
    "request_status": "Pending",
    "responsible_agency": "Department of Code Enforcement",
    "final_address": "7936 W Laverne St",
    "address_councildis": "D",
    "status": "Pending",
    "rowid": "1179525",
    "final_x": "3694768.72669",
    "final_y": "559627.083677",
    "longitude": "-90.0251594094778",
    "latitude": "30.032370339513168",
    "geocoded_column": {
      "latitude": "30.032370339513168",
      "longitude": "-90.0251594094778"
    }
  },
  {
    "service_request": "2025-1179524",
    "request_type": "Healthy Homes",
    "request_reason": "Healthy Homes",
    "date_created": "2025-03-28T16:32:05.000",
    "date_modified": "2025-03-28T16:32:07.000",
    "request_status": "Pending",
    "responsible_agency": "Department of Code Enforcement",
    "final_address": "1700 BLK Saint Andrew St",
    "address_councildis": "B",
    "status": "Pending",
    "rowid": "1179524",
    "final_x": "3677669.69777",
    "final_y": "524774.834096",
    "longitude": "-90.08039793741895",
    "latitude": "29.93706446017494",
    "geocoded_column": {
      "latitude": "29.93706446017494",
      "longitude": "-90.08039793741895"
    }
  },
  {
    "service_request": "2025-1179523",
    "request_type": "Trash/Recycling",
    "request_reason": "Request a Large Item Pick Up",
    "date_created": "2025-03-28T16:29:22.000",
    "date_modified": "2025-03-28T16:29:23.000",
    "request_status": "Pending",
    "responsible_agency": "Department of Sanitation",
    "final_address": "8613 Chase St",
    "address_councildis": "E",
    "status": "Assigned to Contractor",
    "contractor": "Waste Pro",
    "rowid": "1179523",
    "final_x": "3703659.56919",
    "final_y": "563493.405472",
    "longitude": "-89.99692140374893",
    "latitude": "30.042719111591417",
    "geocoded_column": {
      "latitude": "30.042719111591417",
      "longitude": "-89.99692140374893"
    }
  },
  {
    "service_request": "2025-1179522",
    "request_type": "Trash/Recycling",
    "request_reason": "Request a Large Item Pick Up",
    "date_created": "2025-03-28T16:24:24.000",
    "date_modified": "2025-03-28T16:24:26.000",
    "request_status": "Pending",
    "responsible_agency": "Department of Sanitation",
    "final_address": "1468 Pressburg St",
    "address_councildis": "D",
    "status": "Assigned to Contractor",
    "contractor": "IV Waste",
    "rowid": "1179522",
    "final_x": "3678023.1325",
    "final_y": "553910.785687",
    "longitude": "-90.07827460858677",
    "latitude": "30.01716764705418",
    "geocoded_column": {
      "latitude": "30.01716764705418",
      "longitude": "-90.07827460858677"
    }
  },