[
  {
    "service_request": "2025-1178288",
    "request_type": "Health Related Request",
    "request_reason": "Noise Ordinance Complaint",
    "date_created": "2025-03-24T23:28:29.000",
    "date_modified": "2025-03-24T23:28:31.000",
    "request_status": "Pending",
    "responsible_agency": "Health Department",
    "final_address": "2327 Robert St",
    "address_councildis": "B",
    "status": "Pending",
    "rowid": "1178288",
    "final_x": "3668857.92858",
    "final_y": "524203.936444",
    "longitude": "-90.10823654998266",
    "latitude": "29.935756674469093",
    "geocoded_column": {
      "latitude": "29.935756674469093",
      "longitude": "-90.10823654998266"
    }
  },
  {
    "service_request": "2025-1178287",
    "request_type": "Health Related Request",
    "request_reason": "Noise Ordinance Complaint",
    "date_created": "2025-03-24T22:24:08.000",
    "date_modified": "2025-03-24T22:24:09.000",
    "request_status": "Pending",
    "responsible_agency": "Health Department",
    "final_address": "Iggy's",
    "status": "Pending",
    "rowid": "1178287",
    "longitude": "0.0",
    "latitude": "0.0",
    "geocoded_column": {
      "latitude": "0.0",
      "longitude": "0.0"
    }
  },
  {
    "service_request": "2025-1178286",
    "request_type": "Health Related Request",
    "request_reason": "Noise Ordinance Complaint",
    "date_created": "2025-03-24T22:20:47.000",
    "date_modified": "2025-03-24T22:20:49.000",
    "request_status": "Pending",
    "responsible_agency": "Health Department",
    "final_address": "Iggy's",
    "status": "Pending",
    "rowid": "1178286",
    "longitude": "0.0",
    "latitude": "0.0",
    "geocoded_column": {
      "latitude": "0.0",
      "longitude": "0.0"
    }
  },
  {
    "service_request": "2025-1178285",
    "request_type": "Safety & Permits",
    "request_reason": "Zoning Enforcement",
    "date_created": "2025-03-24T22:07:20.000",
    "date_modified": "2025-03-24T22:07:23.000",
    "request_status": "Pending",
    "responsible_agency": "Safety and Permits",
    "final_address": "1215 St Anthony St",
    "address_councildis": "C",
    "status": "Pending",
    "rowid": "1178285",
    "final_x": "3683554.72373",
    "final_y": "536318.237191",
    "longitude": "-90.06141407059715",
    "latitude": "29.968626641401414",
    "geocoded_column": {
      "latitude": "29.968626641401414",
      "longitude": "-90.06141407059715"
    }
  },
  {
    "service_request": "2025-1178284",
    "request_type": "Property Maintenance",
    "request_reason": "Property Maintenance",
    "date_created": "2025-03-24T21:53:15.000",
    "date_modified": "2025-03-24T21:53:17.000",
    "request_status": "Pending",
    "responsible_agency": "Department of Code Enforcement",
    "final_address": "1215 St Anthony St",
    "address_councildis": "C",
    "status": "Pending",
    "rowid": "1178284",
    "final_x": "3683554.72373",
    "final_y": "536318.237191",
    "longitude": "-90.06141407059715",
    "latitude": "29.968626641401414",
    "geocoded_column": {
      "latitude": "29.968626641401414",
      "longitude": "-90.06141407059715"
    }
  },
  {
    "service_request": "2025-1178283",
    "request_type": "Trash/Recycling",
    "request_reason": "Replace Trash Cart",
    "date_created": "2025-03-24T21:44:40.000",
    "date_modified": "2025-03-24T21:44:42.000",
    "request_status": "Pending",
    "responsible_agency": "Department of Sanitation",
    "final_address": "2815 Dumaine St",
    "address_councildis": "A",
    "status": "Assigned to Contractor",
    "contractor": "IV Waste",
    "rowid": "1178283",
    "final_x": "3676616.5547",
    "final_y": "537979.284489",
    "longitude": "-90.08326798188206",
    "latitude": "29.97340389811301",
    "geocoded_column": {
      "latitude": "29.97340389811301",
      "longitude": "-90.08326798188206"
    }
  },
  {
    "service_request": "2025-1178282",
    "request_type": "Trash/Recycling",
    "request_reason": "Request a Large Item Pick Up",
    "date_created": "2025-03-24T21:41:07.000",
    "date_modified": "2025-03-24T21:41:09.000",
    "request_status": "Pending",
    "responsible_agency": "Department of Sanitation",
    "final_address": "3610 Rue Michelle",
    "address_councildis": "C",
    "status": "Assigned to Contractor",
    "contractor": "Richards Disposal",
    "rowid": "1178282",
    "final_x": "3703662.7745",
    "final_y": "517321.582709",
    "longitude": "-89.99861102389069",
    "latitude": "29.91576348980939",
    "geocoded_column": {
      "latitude": "29.91576348980939",
      "longitude": "-89.99861102389069"
    }
  },
  {
    "service_request": "2025-1178281",
    "request_type": "Trash/Recycling",
    "request_reason": "Replace Trash Cart",
    "date_created": "2025-03-24T21:38:13.000",
    "date_modified": "2025-03-24T21:38:15.000",
    "request_status": "Pending",
    "responsible_agency": "Department of Sanitation",
    "final_address": "8502 Edinburgh St",
    "address_councildis": "A",
    "status": "Assigned to Contractor",
    "contractor": "IV Waste",
    "rowid": "1178281",
    "final_x": "3666365.22727",
    "final_y": "535400.287942",
    "longitude": "-90.11573046797395",
    "latitude": "29.96661604827536",
    "geocoded_column": {
      "latitude": "29.96661604827536",
      "longitude": "-90.11573046797395"
    }
  },
  {
    "service_request": "2025-1178280",
    "request_type": "Trash/Recycling",
    "request_reason": "Request a Large Item Pick Up",
    "date_created": "2025-03-24T21:37:05.000",
    "date_modified": "2025-03-24T21:37:07.000",
    "request_status": "Pending",
    "responsible_agency": "Department of Sanitation",
    "final_address": "1928 Dublin St",
    "address_councildis": "A",
    "status": "Assigned to Contractor",
    "contractor": "IV Waste",
    "rowid": "1178280",
    "final_x": "3663494.81843",
    "final_y": "530635.368386",
    "longitude": "-90.12495392679794",
    "latitude": "29.953597630995834",
    "geocoded_column": {
      "latitude": "29.953597630995834",
      "longitude": "-90.12495392679794"
    }
  },
  {
    "service_request": "2025-1178279",
    "request_type": "Trash/Recycling",
    "request_reason": "Order Trash Cart",
    "date_created": "2025-03-24T21:33:54.000",
    "date_modified": "2025-03-24T21:33:55.000",
    "request_status": "Pending",
    "responsible_agency": "Department of Sanitation",
    "final_address": "1928 Dublin St",
    "address_councildis": "A",
    "status": "Assigned to Contractor",
    "contractor": "IV Waste",
    "rowid": "1178279",
    "final_x": "3663494.81843",
    "final_y": "530635.368386",
    "longitude": "-90.12495392679794",
    "latitude": "29.953597630995834",
    "geocoded_column": {
      "latitude": "29.953597630995834",
      "longitude": "-90.12495392679794"
    }
  },
  {
    "service_request": "2025-1178278",
    "request_type": "Trash/Recycling",
    "request_reason": "MIssed Recycling Pick-Up",
    "date_created": "2025-03-24T21:26:59.000",
    "date_modified": "2025-03-24T21:27:01.000",
    "request_status": "Pending",
    "responsible_agency": "Department of Sanitation",
    "final_address": "4551 Francesco Rd",
    "address_councildis": "E",
    "status": "Assigned to Contractor",
    "contractor": "Waste Pro",
    "rowid": "1178278",
    "final_x": "3762239.28797",
    "final_y": "573674.898474",
    "longitude": "-89.81136360822383",
    "latitude": "30.068704854941917",
    "geocoded_column": {
      "latitude": "30.068704854941917",
      "longitude": "-89.81136360822383"
    }
  },
  {
    "service_request": "2025-1178277",
    "request_type": "Streetlights",
    "request_reason": "Streetlight Outage/Malfunction",
    "date_created": "2025-03-24T21:13:57.000",
    "date_modified": "2025-03-24T21:13:59.000",
    "request_status": "Pending",
    "responsible_agency": "Department of Public Works",
    "final_address": "4524 Bancroft Dr",
    "address_councildis": "D",
    "status": "Pending",
    "contractor": "Legacy Professional Services",
    "rowid": "1178277",
    "final_x": "3676211.06273",
    "final_y": "548833.307795",
    "longitude": "-90.08417490897072",
    "latitude": "30.00326084524604",
    "geocoded_column": {
      "latitude": "30.00326084524604",
      "longitude": "-90.08417490897072"
    }
  },
  {
    "service_request": "2025-1178276",
    "request_type": "General Services",
    "request_reason": "General Service Request",
    "date_created": "2025-03-24T21:13:12.000",
    "date_modified": "2025-03-24T21:13:14.000",
    "request_status": "Pending",
    "responsible_agency": "Orleans Parish Communication District",
    "final_address": "145 Pinewood Ct",
    "address_councildis": "C",
    "status": "Pending",
    "rowid": "1178276",
    "final_x": "3695834.54787",
    "final_y": "523401.953147",
    "longitude": "-90.02310032605288",
    "latitude": "29.93273085444177",
    "geocoded_column": {
      "latitude": "29.93273085444177",
      "longitude": "-90.02310032605288"
    }
  },
  {
    "service_request": "2025-1178274",
    "request_type": "Trash/Recycling",
    "request_reason": "Replace Trash Cart",
    "date_created": "2025-03-24T20:52:30.000",
    "date_modified": "2025-03-24T20:52:32.000",
    "request_status": "Pending",
    "responsible_agency": "Department of Sanitation",
    "final_address": "14050 Kingswood Dr",
    "address_councildis": "E",
    "status": "Assigned to Contractor",
    "contractor": "Waste Pro",
    "rowid": "1178274",
    "final_x": "3719552.09394",
    "final_y": "568577.908581",
    "longitude": "-89.94650079235394",
    "latitude": "30.056180161634703",
    "geocoded_column": {
      "latitude": "30.056180161634703",
      "longitude": "-89.94650079235394"
    }
  },
  {
    "service_request": "2025-1178273",
    "request_type": "Streetlights",
    "request_reason": "Streetlight Outage/Malfunction",
    "date_created": "2025-03-24T20:15:37.000",
    "date_modified": "2025-03-24T20:15:39.000",
    "request_status": "Pending",
    "responsible_agency": "Department of Public Works",
    "final_address": "3643 Franklin Ave",
    "address_councildis": "D",
    "status": "Pending",
    "contractor": "Legacy Professional Services",
    "rowid": "1178273",
    "final_x": "3687200.34562",
    "final_y": "546460.220113",
    "longitude": "-90.04954217347279",
    "latitude": "29.996401723085338",
    "geocoded_column": {
      "latitude": "29.996401723085338",
      "longitude": "-90.04954217347279"
    }
  },
  {
    "service_request": "2025-1178272",
    "request_type": "Trash/Recycling",
    "request_reason": "Request a Large Item Pick Up",
    "date_created": "2025-03-24T20:06:52.000",
    "date_modified": "2025-03-24T20:06:54.000",
    "request_status": "Pending",
    "responsible_agency": "Department of Sanitation",
    "final_address": "4418 Annette St",
    "address_councildis": "D",
    "status": "Assigned to Contractor",
    "contractor": "IV Waste",
    "rowid": "1178272",
    "final_x": "3682075.79535",
    "final_y": "548856.000403",
    "longitude": "-90.06564655029767",
    "latitude": "30.00314613839222",
    "geocoded_column": {
      "latitude": "30.00314613839222",
      "longitude": "-90.06564655029767"
    }
  },
  {
    "service_request": "2025-1178271",
    "request_type": "Abandoned Vehicles",
    "request_reason": "Abandoned/Junk Vehicles",
    "date_created": "2025-03-24T19:52:52.000",
    "date_modified": "2025-03-24T19:52:54.000",
    "request_status": "Pending",
    "responsible_agency": "Department of Public Works",
    "final_address": "6419 Marque St",
    "address_councildis": "E",
    "status": "Pending",
    "rowid": "1178271",
    "final_x": "3700826.87095",
    "final_y": "533400.505156",
    "longitude": "-90.00697469602076",
    "latitude": "29.960065440570506",
    "geocoded_column": {
      "latitude": "29.960065440570506",
      "longitude": "-90.00697469602076"
    }
  },
  {
    "service_request": "2025-1178270",
    "request_type": "Trash/Recycling",
    "request_reason": "Illegal Dumping",
    "date_created": "2025-03-24T19:18:52.000",
    "date_modified": "2025-03-24T19:18:54.000",
    "request_status": "Pending",
    "responsible_agency": "Department of Sanitation",
    "final_address": "4300 BLK Iberville St",
    "address_councildis": "A",
    "status": "Pending",
    "rowid": "1178270",
    "final_x": "3670407.15849",
    "final_y": "539411.854035",
    "longitude": "-90.10283000340668",
    "latitude": "29.977527786675758",
    "geocoded_column": {
      "latitude": "29.977527786675758",
      "longitude": "-90.10283000340668"
    }
  },
  {
    "service_request": "2025-1178269",
    "request_type": "Abandoned Vehicles",
    "request_reason": "Abandoned/Junk Vehicles",
    "date_created": "2025-03-24T19:17:35.000",
    "date_modified": "2025-03-24T19:17:36.000",
    "request_status": "Pending",
    "responsible_agency": "Department of Public Works",
    "final_address": "3615 Cadiz St",
    "address_councildis": "B",
    "status": "Pending",
    "rowid": "1178269",
    "final_x": "3669432.71342",
    "final_y": "527912.500735",
    "longitude": "-90.10629656351773",
    "latitude": "29.945937115711835",
    "geocoded_column": {
      "latitude": "29.945937115711835",
      "longitude": "-90.10629656351773"
    }
  },
  {
    "service_request": "2025-1178268",
    "request_type": "Abandoned Vehicles",
    "request_reason": "Abandoned/Junk Vehicles",
    "date_created": "2025-03-24T19:17:28.000",
    "date_modified": "2025-03-24T19:17:30.000",
    "request_status": "Pending",
    "responsible_agency": "Department of Public Works",
    "final_address": "3615 Cadiz St",
    "address_councildis": "B",
    "status": "Pending",
    "rowid": "1178268",
    "final_x": "3669432.71342",
    "final_y": "527912.500735",
    "longitude": "-90.10629656351773",
    "latitude": "29.945937115711835",
    "geocoded_column": {
      "latitude": "29.945937115711835",
      "longitude": "-90.10629656351773"
    }
  },
  {
    "service_request": "2025-1178267",
    "request_type": "Trash/Recycling",
    "request_reason": "Request a Large Item Pick Up",
    "date_created": "2025-03-24T19:05:53.000",
    "date_modified": "2025-03-24T19:05:54.000",
    "request_status": "Pending",
    "responsible_agency": "Department of Sanitation",
    "final_address": "4609 Loyola Ave",
    "address_councildis": "B",
    "status": "Assigned to Contractor",
    "contractor": "IV Waste",
    "rowid": "1178267",
    "final_x": "3669791.60743",
    "final_y": "522948.781499",
    "longitude": "-90.10533136989399",
    "latitude": "29.93227791985147",
    "geocoded_column": {
      "latitude": "29.93227791985147",
      "longitude": "-90.10533136989399"
    }
  },
  {
    "service_request": "2025-1178266",
    "request_type": "Drainage",
    "request_reason": "Street Flooding",
    "date_created": "2025-03-24T19:01:03.000",
    "date_modified": "2025-03-24T19:01:05.000",
    "request_status": "Pending",
    "responsible_agency": "Sewerage & Water Board ",
    "final_address": "2037 Elysian Fields Ave",
    "address_councildis": "D",
    "status": "Pending",
    "rowid": "1178266",
    "final_x": "3684834.14172",
    "final_y": "539929.826506",
    "longitude": "-90.05724658411629",
    "latitude": "29.97851813927744",
    "geocoded_column": {
      "latitude": "29.97851813927744",
      "longitude": "-90.05724658411629"
    }
  },
  {
    "service_request": "2025-1178265",
    "request_type": "Mosquito, Termite & Rodent Control",
    "request_reason": "Mosquito Complaint",
    "date_created": "2025-03-24T19:00:06.000",
    "date_modified": "2025-03-24T19:00:08.000",
    "request_status": "Pending",
    "responsible_agency": "Mosquito, Termite & Rodent Control Board",
    "final_address": "1116 Tennessee St",
    "address_councildis": "E",
    "status": "Pending",
    "rowid": "1178265",
    "final_x": "3695688.2392",
    "final_y": "534558.282181",
    "longitude": "-90.0231595017008",
    "latitude": "29.963411472077706",
    "geocoded_column": {
      "latitude": "29.963411472077706",
      "longitude": "-90.0231595017008"
    }
  },
  {
    "service_request": "2025-1178264",
    "request_type": "Drainage",
    "request_reason": "Catch Basin Clogged",
    "date_created": "2025-03-24T18:59:25.000",
    "date_modified": "2025-03-24T18:59:26.000",
    "request_status": "Pending",
    "responsible_agency": "Sewerage & Water Board ",
    "final_address": "2037 Elysian Fields Ave",
    "address_councildis": "D",
    "status": "Pending",
    "rowid": "1178264",
    "final_x": "3684834.14172",
    "final_y": "539929.826506",
    "longitude": "-90.05724658411629",
    "latitude": "29.97851813927744",
    "geocoded_column": {
      "latitude": "29.97851813927744",
      "longitude": "-90.05724658411629"
    }
  },
  {
    "service_request": "2025-1178263",
    "request_type": "Property Maintenance",
    "request_reason": "Property Maintenance",
    "date_created": "2025-03-24T18:53:57.000",
    "date_modified": "2025-03-24T18:53:58.000",
    "request_status": "Pending",
    "responsible_agency": "Department of Code Enforcement",
    "final_address": "4100 Encampment St",
    "address_councildis": "D",
    "status": "Pending",
    "rowid": "1178263",
    "final_x": "3676430.78459",
    "final_y": "547293.912401",
    "longitude": "-90.0835338177322",
    "latitude": "29.99902146352071",
    "geocoded_column": {
      "latitude": "29.99902146352071",
      "longitude": "-90.0835338177322"
    }
  },
  {
    "service_request": "2025-1178262",
    "request_type": "Drainage",
    "request_reason": "Catch Basin Clogged",
    "date_created": "2025-03-24T18:50:38.000",
    "date_modified": "2025-03-24T18:50:40.000",
    "request_status": "Pending",
    "responsible_agency": "Sewerage & Water Board ",
    "final_address": "700 BLK Germain St",
    "address_councildis": "A",
    "status": "Pending",
    "rowid": "1178262",
    "final_x": "3668846.88307",
    "final_y": "547905.473202",
    "longitude": "-90.10747090271131",
    "latitude": "30.000928313701042",
    "geocoded_column": {
      "latitude": "30.000928313701042",
      "longitude": "-90.10747090271131"
    }
  },
  {
    "service_request": "2025-1178261",
    "request_type": "Trash/Recycling",
    "request_reason": "Request a Large Item Pick Up",
    "date_created": "2025-03-24T18:42:48.000",
    "date_modified": "2025-03-24T18:42:51.000",
    "request_status": "Pending",
    "responsible_agency": "Department of Sanitation",
    "final_address": "22 Tennyson Pl",
    "address_councildis": "C",
    "status": "Assigned to Contractor",
    "contractor": "Richards Disposal",
    "rowid": "1178261",
    "final_x": "3705253.45867",
    "final_y": "517830.350134",
    "longitude": "-89.99357147953206",
    "latitude": "29.917111380289263",
    "geocoded_column": {
      "latitude": "29.917111380289263",
      "longitude": "-89.99357147953206"
    }
  },
  {
    "service_request": "2025-1178260",
    "request_type": "Roads and Streets",
    "request_reason": "Sidewalk Damaged or Missing",
    "date_created": "2025-03-24T18:37:47.000",
    "date_modified": "2025-03-24T18:37:49.000",
    "request_status": "Pending",
    "responsible_agency": "Department of Public Works",
    "final_address": "217 Audubon Blvd",
    "address_councildis": "A",
    "status": "Pending",
    "rowid": "1178260",
    "final_x": "3666413.79194",
    "final_y": "528492.687936",
    "longitude": "-90.11580888926207",
    "latitude": "29.947620990239518",
    "geocoded_column": {
      "latitude": "29.947620990239518",
      "longitude": "-90.11580888926207"
    }
  },
  {
    "service_request": "2025-1178259",
    "request_type": "Trash/Recycling",
    "request_reason": "Request a Large Item Pick Up",
    "date_created": "2025-03-24T18:29:36.000",
    "date_modified": "2025-03-24T18:37:02.000",
    "case_close_date": "2025-03-24T13:37:01.000",
    "request_status": "Closed",
    "responsible_agency": "Department of Sanitation",
    "final_address": "7880 Means Ave",
    "address_councildis": "E",
    "status": "Duplicate Request",
    "contractor": "Waste Pro",
    "contractor_action": "Duplicate",
    "rowid": "1178259",
    "final_x": "3707611.89572",
    "final_y": "565449.050274",
    "longitude": "-89.98435781075472",
    "latitude": "30.047969013102396",
    "geocoded_column": {
      "latitude": "30.047969013102396",
      "longitude": "-89.98435781075472"
    }
  },
  {
    "service_request": "2025-1178258",
    "request_type": "Trash/Recycling",
    "request_reason": "Request a Large Item Pick Up",
    "date_created": "2025-03-24T18:27:55.000",
    "date_modified": "2025-03-24T18:27:56.000",
    "request_status": "Pending",
    "responsible_agency": "Department of Sanitation",
    "final_address": "11308 Will Stutley Dr",
    "address_councildis": "E",
    "status": "Assigned to Contractor",
    "contractor": "Waste Pro",
    "rowid": "1178258",
    "final_x": "3716953.59775",
    "final_y": "558190.720283",
    "longitude": "-89.95510900151461",
    "latitude": "30.027705834949188",
    "geocoded_column": {
      "latitude": "30.027705834949188",
      "longitude": "-89.95510900151461"
    }
  },
  {
    "service_request": "2025-1178257",
    "request_type": "Trash/Recycling",
    "request_reason": "Return Trash Cart",
    "date_created": "2025-03-24T18:24:06.000",
    "date_modified": "2025-03-24T18:24:15.000",
    "request_status": "Pending",
    "responsible_agency": "Department of Sanitation",
    "final_address": "628 Seguin St",
    "address_councildis": "C",
    "status": "Assigned to Contractor",
    "contractor": "Richards Disposal",
    "rowid": "1178257",
    "final_x": "3686814.40886",
    "final_y": "529483.436609",
    "longitude": "-90.0513613182147",
    "latitude": "29.949733402687173",
    "geocoded_column": {
      "latitude": "29.949733402687173",
      "longitude": "-90.0513613182147"
    }
  },
  {
    "service_request": "2025-1178256",
    "request_type": "Drainage",
    "request_reason": "Street Flooding",
    "date_created": "2025-03-24T18:20:34.000",
    "date_modified": "2025-03-24T18:20:35.000",
    "request_status": "Pending",
    "responsible_agency": "Sewerage & Water Board ",
    "final_address": "2031 Elysian Fields Ave",
    "address_councildis": "D",
    "status": "Pending",
    "rowid": "1178256",
    "final_x": "3684831.37506",
    "final_y": "539868.132746",
    "longitude": "-90.05725749221516",
    "latitude": "29.97834858780583",
    "geocoded_column": {
      "latitude": "29.97834858780583",
      "longitude": "-90.05725749221516"
    }
  },
  {
    "service_request": "2025-1178255",
    "request_type": "Property Maintenance",
    "request_reason": "Property Maintenance",
    "date_created": "2025-03-24T18:19:41.000",
    "date_modified": "2025-03-24T18:19:43.000",
    "request_status": "Pending",
    "responsible_agency": "Department of Code Enforcement",
    "final_address": "1835 N Claiborne Ave",
    "address_councildis": "D",
    "status": "Pending",
    "rowid": "1178255",
    "final_x": "3683652.03285",
    "final_y": "538082.854281",
    "longitude": "-90.0610448861041",
    "latitude": "29.973475755729595",
    "geocoded_column": {
      "latitude": "29.973475755729595",
      "longitude": "-90.0610448861041"
    }
  },
  {
    "service_request": "2025-1178254",
    "request_type": "Parks & Parkways",
    "request_reason": "Request Tree Service (Right of Way/Public Property)",
    "date_created": "2025-03-24T18:15:34.000",
    "date_modified": "2025-03-24T18:15:36.000",
    "request_status": "Pending",
    "responsible_agency": "Department of Parks & Parkway",
    "final_address": "4610 Lennox Blvd",
    "address_councildis": "C",
    "status": "Pending",
    "rowid": "1178254",
    "final_x": "3700851.62321",
    "final_y": "513751.210866",
    "longitude": "-90.007614420725",
    "latitude": "29.906035919005962",
    "geocoded_column": {
      "latitude": "29.906035919005962",
      "longitude": "-90.007614420725"
    }
  },
  {
    "service_request": "2025-1178253",
    "request_type": "Parks & Parkways",
    "request_reason": "Park Maintenance/Clean Up",
    "date_created": "2025-03-24T18:15:27.000",
    "date_modified": "2025-03-24T18:15:29.000",
    "request_status": "Pending",
    "responsible_agency": "Department of Parks & Parkway",
    "final_address": "1455 N Claiborne Ave",
    "address_councildis": "D",
    "status": "Pending",
    "rowid": "1178253",
    "final_x": "3681494.12885",
    "final_y": "537060.22836",
    "longitude": "-90.06789566066682",
    "latitude": "29.97072959413572",
    "geocoded_column": {
      "latitude": "29.97072959413572",
      "longitude": "-90.06789566066682"
    }
  },
  {
    "service_request": "2025-1178252",
    "request_type": "Streetlights",
    "request_reason": "Streetlight Outage/Malfunction",
    "date_created": "2025-03-24T18:12:35.000",
    "date_modified": "2025-03-24T18:12:36.000",
    "request_status": "Pending",
    "responsible_agency": "Department of Public Works",
    "final_address": "2329 Esplanade Ave",
    "address_councildis": "D",
    "status": "Pending",
    "contractor": "Legacy Professional Services",
    "rowid": "1178252",
    "final_x": "3679148.23259",
    "final_y": "538283.500233",
    "longitude": "-90.07526187101531",
    "latitude": "29.974164199467133",
    "geocoded_column": {
      "latitude": "29.974164199467133",
      "longitude": "-90.07526187101531"
    }
  },
  {
    "service_request": "2025-1178251",
    "request_type": "Property Maintenance",
    "request_reason": "Property Maintenance",
    "date_created": "2025-03-24T18:11:55.000",
    "date_modified": "2025-03-24T18:11:57.000",
    "request_status": "Pending",
    "responsible_agency": "Department of Code Enforcement",
    "final_address": "1135 N Claiborne Ave",
    "address_councildis": "D",
    "status": "Pending",
    "rowid": "1178251",
    "final_x": "3680772.15675",
    "final_y": "536098.397511",
    "longitude": "-90.07020922048949",
    "latitude": "29.96810679409845",
    "geocoded_column": {
      "latitude": "29.96810679409845",
      "longitude": "-90.07020922048949"
    }
  },
  {
    "service_request": "2025-1178250",
    "request_type": "Property Maintenance",
    "request_reason": "Property Maintenance",
    "date_created": "2025-03-24T18:08:19.000",
    "date_modified": "2025-03-24T18:08:20.000",
    "request_status": "Pending",
    "responsible_agency": "Department of Code Enforcement",
    "final_address": "1450 N Claiborne Ave",
    "address_councildis": "C",
    "status": "Pending",
    "rowid": "1178250",
    "final_x": "3681655.26767",
    "final_y": "536894.82868",
    "longitude": "-90.06739253601529",
    "latitude": "29.970269907878787",
    "geocoded_column": {
      "latitude": "29.970269907878787",
      "longitude": "-90.06739253601529"
    }
  },
  {
    "service_request": "2025-1178249",
    "request_type": "Trash/Recycling",
    "request_reason": "Change Size of Trash Cart",
    "date_created": "2025-03-24T18:06:42.000",
    "date_modified": "2025-03-24T18:06:44.000",
    "request_status": "Pending",
    "responsible_agency": "Department of Sanitation",
    "final_address": "2329 Esplanade Ave",
    "address_councildis": "D",
    "status": "Assigned to Contractor",
    "contractor": "IV Waste",
    "rowid": "1178249",
    "final_x": "3679148.23259",
    "final_y": "538283.500233",
    "longitude": "-90.07526187101531",
    "latitude": "29.974164199467133",
    "geocoded_column": {
      "latitude": "29.974164199467133",
      "longitude": "-90.07526187101531"
    }
  },
  {
    "service_request": "2025-1178248",
    "request_type": "Abandoned Vehicles",
    "request_reason": "Abandoned/Junk Vehicles",
    "date_created": "2025-03-24T18:05:26.000",
    "date_modified": "2025-03-24T18:05:27.000",
    "request_status": "Pending",
    "responsible_agency": "Department of Public Works",
    "final_address": "1452 N Claiborne Ave",
    "address_councildis": "C",
    "status": "Pending",
    "rowid": "1178248",
    "final_x": "3681664.68732",
    "final_y": "536906.133384",
    "longitude": "-90.06736239332652",
    "latitude": "29.970300705755832",
    "geocoded_column": {
      "latitude": "29.970300705755832",
      "longitude": "-90.06736239332652"
    }
  },
  {
    "service_request": "2025-1178247",
    "request_type": "Roads and Streets",
    "request_reason": "Debris in Driving Lanes",
    "date_created": "2025-03-24T18:01:44.000",
    "date_modified": "2025-03-24T18:01:45.000",
    "request_status": "Pending",
    "responsible_agency": "Department of Public Works",
    "final_address": "3837 Lennox Blvd",
    "address_councildis": "C",
    "status": "Pending",
    "rowid": "1178247",
    "final_x": "3700463.73149",
    "final_y": "517051.671413",
    "longitude": "-90.00871821162383",
    "latitude": "29.915123401230446",
    "geocoded_column": {
      "latitude": "29.915123401230446",
      "longitude": "-90.00871821162383"
    }
  },
  {
    "service_request": "2025-1178246",
    "request_type": "Trash/Recycling",
    "request_reason": "Request a Large Item Pick Up",
    "date_created": "2025-03-24T17:49:36.000",
    "date_modified": "2025-03-24T17:49:38.000",
    "request_status": "Pending",
    "responsible_agency": "Department of Sanitation",
    "final_address": "4888 Savoie Ct",
    "address_councildis": "E",
    "status": "Assigned to Contractor",
    "contractor": "Waste Pro",
    "rowid": "1178246",
    "final_x": "3725175.74617",
    "final_y": "561478.792991",
    "longitude": "-89.929000661561",
    "latitude": "30.036472197569157",
    "geocoded_column": {
      "latitude": "30.036472197569157",
      "longitude": "-89.929000661561"
    }
  },
  {
    "service_request": "2025-1178245",
    "request_type": "Trash/Recycling",
    "request_reason": "Request a Large Item Pick Up",
    "date_created": "2025-03-24T17:24:56.000",
    "date_modified": "2025-03-24T17:24:58.000",
    "request_status": "Pending",
    "responsible_agency": "Department of Sanitation",
    "final_address": "10940 Roger Dr",
    "address_councildis": "E",
    "status": "Assigned to Contractor",
    "contractor": "Waste Pro",
    "rowid": "1178245",
    "final_x": "3712138.98622",
    "final_y": "563385.519136",
    "longitude": "-89.97012737042596",
    "latitude": "30.042147812759573",
    "geocoded_column": {
      "latitude": "30.042147812759573",
      "longitude": "-89.97012737042596"
    }
  },
  {
    "service_request": "2025-1178244",
    "request_type": "Trash/Recycling",
    "request_reason": "Request a Large Item Pick Up",
    "date_created": "2025-03-24T17:23:29.000",
    "date_modified": "2025-03-24T17:23:31.000",
    "request_status": "Pending",
    "responsible_agency": "Department of Sanitation",
    "final_address": "10921 Roger Dr",
    "address_councildis": "E",
    "status": "Assigned to Contractor",
    "contractor": "Waste Pro",
    "rowid": "1178244",
    "final_x": "3711943.27314",
    "final_y": "563342.982176",
    "longitude": "-89.97074749115428",
    "latitude": "30.04203725396578",
    "geocoded_column": {
      "latitude": "30.04203725396578",
      "longitude": "-89.97074749115428"
    }
  },
  {
    "service_request": "2025-1178243",
    "request_type": "Trash/Recycling",
    "request_reason": "Request a Large Item Pick Up",
    "date_created": "2025-03-24T17:21:26.000",
    "date_modified": "2025-03-24T17:21:28.000",
    "request_status": "Pending",
    "responsible_agency": "Department of Sanitation",
    "final_address": "11000 Roger Dr",
    "address_councildis": "E",
    "status": "Assigned to Contractor",
    "contractor": "Waste Pro",
    "rowid": "1178243",
    "final_x": "3712182.46053",
    "final_y": "563418.54384",
    "longitude": "-89.96998873451886",
    "latitude": "30.042237195202617",
    "geocoded_column": {
      "latitude": "30.042237195202617",
      "longitude": "-89.96998873451886"
    }
  },
  {
    "service_request": "2025-1178242",
    "request_type": "Trash/Recycling",
    "request_reason": "Request a Large Item Pick Up",
    "date_created": "2025-03-24T17:19:04.000",
    "date_modified": "2025-03-24T17:19:07.000",
    "request_status": "Pending",
    "responsible_agency": "Department of Sanitation",
    "final_address": "11030 Roger Dr",
    "address_councildis": "E",
    "status": "Assigned to Contractor",
    "contractor": "Waste Pro",
    "rowid": "1178242",
    "final_x": "3712354.63301",
    "final_y": "563548.12368",
    "longitude": "-89.96943973403509",
    "latitude": "30.04258785378137",
    "geocoded_column": {
      "latitude": "30.04258785378137",
      "longitude": "-89.96943973403509"
    }
  },
  {
    "service_request": "2025-1178241",
    "request_type": "Streetlights",
    "request_reason": "Streetlight Outage/Malfunction",
    "date_created": "2025-03-24T17:17:34.000",
    "date_modified": "2025-03-24T17:17:36.000",
    "request_status": "Pending",
    "responsible_agency": "Department of Public Works",
    "final_address": "4941 Palace St",
    "address_councildis": "E",
    "status": "Pending",
    "contractor": "Legacy Professional Services",
    "rowid": "1178241",
    "final_x": "3729145.20122",
    "final_y": "562674.060256",
    "longitude": "-89.91640986595014",
    "latitude": "30.03962432115323",
    "geocoded_column": {
      "latitude": "30.03962432115323",
      "longitude": "-89.91640986595014"
    }
  },
  {
    "service_request": "2025-1178240",
    "request_type": "Streetlights",
    "request_reason": "Streetlight Outage/Malfunction",
    "date_created": "2025-03-24T17:13:13.000",
    "date_modified": "2025-03-24T17:13:16.000",
    "request_status": "Pending",
    "responsible_agency": "Department of Public Works",
    "final_address": "4941 Palace St",
    "address_councildis": "E",
    "status": "Pending",
    "contractor": "Legacy Professional Services",
    "rowid": "1178240",
    "final_x": "3729145.20122",
    "final_y": "562674.060256",
    "longitude": "-89.91640986595014",
    "latitude": "30.03962432115323",
    "geocoded_column": {
      "latitude": "30.03962432115323",
      "longitude": "-89.91640986595014"
    }
  },
  {
    "service_request": "2025-1178239",
    "request_type": "Trash/Recycling",
    "request_reason": "Request a Large Item Pick Up",
    "date_created": "2025-03-24T17:04:30.000",
    "date_modified": "2025-03-24T17:04:32.000",
    "request_status": "Pending",
    "responsible_agency": "Department of Sanitation",
    "final_address": "11040 Roger Dr",
    "address_councildis": "E",
    "status": "Assigned to Contractor",
    "contractor": "Waste Pro",
    "rowid": "1178239",
    "final_x": "3712397.49253",
    "final_y": "563579.453024",
    "longitude": "-89.96930310364468",
    "latitude": "30.042672594059926",
    "geocoded_column": {
      "latitude": "30.042672594059926",
      "longitude": "-89.96930310364468"
    }
  },
  {
    "service_request": "2025-1178238",
    "request_type": "Roads and Streets",
    "request_reason": "Debris in Driving Lanes",
    "date_created": "2025-03-24T17:03:18.000",
    "date_modified": "2025-03-24T17:03:19.000",
    "request_status": "Pending",
    "responsible_agency": "Department of Public Works",
    "final_address": "109 W Brooks St",
    "address_councildis": "A",
    "status": "Pending",
    "rowid": "1178238",
    "final_x": "3665890.01837",
    "final_y": "546636.976273",
    "longitude": "-90.11685444957635",
    "latitude": "29.99752703326075",
    "geocoded_column": {
      "latitude": "29.99752703326075",
      "longitude": "-90.11685444957635"
    }
  },
  {
    "service_request": "2025-1178237",
    "request_type": "Trash/Recycling",
    "request_reason": "Request a Large Item Pick Up",
    "date_created": "2025-03-24T17:01:38.000",
    "date_modified": "2025-03-24T17:01:40.000",
    "request_status": "Pending",
    "responsible_agency": "Department of Sanitation",
    "final_address": "1679 N Broad St",
    "address_councildis": "D",
    "status": "Assigned to Contractor",
    "contractor": "IV Waste",
    "rowid": "1178237",
    "final_x": "3679458.47765",
    "final_y": "540729.876811",
    "longitude": "-90.07419714405697",
    "latitude": "29.980881518689365",
    "geocoded_column": {
      "latitude": "29.980881518689365",
      "longitude": "-90.07419714405697"
    }
  },
  {
    "service_request": "2025-1178236",
    "request_type": "Safety & Permits",
    "request_reason": "Zoning Enforcement",
    "date_created": "2025-03-24T16:57:18.000",
    "date_modified": "2025-03-24T16:58:08.000",
    "request_status": "Pending",
    "responsible_agency": "Safety and Permits",
    "final_address": "CRAIGIE RD & CAROLE LN",
    "address_councildis": "E",
    "status": "Pending",
    "rowid": "1178236",
    "final_x": "3696031.4",
    "final_y": "558858.18",
    "longitude": "-90.02119711314063",
    "latitude": "30.030216450914224",
    "geocoded_column": {
      "latitude": "30.030216450914224",
      "longitude": "-90.02119711314063"
    }
  },
  {
    "service_request": "2025-1178235",
    "request_type": "Trash/Recycling",
    "request_reason": "Request a Large Item Pick Up",
    "date_created": "2025-03-24T16:57:03.000",
    "date_modified": "2025-03-24T16:57:04.000",
    "request_status": "Pending",
    "responsible_agency": "Department of Sanitation",
    "final_address": "5961 Eastover Dr",
    "address_councildis": "E",
    "status": "Assigned to Contractor",
    "contractor": "Waste Pro",
    "rowid": "1178235",
    "final_x": "3718968.45829",
    "final_y": "564949.12605",
    "longitude": "-89.94848416547583",
    "latitude": "30.046221916475794",
    "geocoded_column": {
      "latitude": "30.046221916475794",
      "longitude": "-89.94848416547583"
    }
  },
  {
    "service_request": "2025-1178234",
    "request_type": "Drainage",
    "request_reason": "Catch Basin Clogged",
    "date_created": "2025-03-24T16:50:47.000",
    "date_modified": "2025-03-24T16:50:49.000",
    "request_status": "Pending",
    "responsible_agency": "Sewerage & Water Board ",
    "final_address": "4700 BLK Magazine St",
    "address_councildis": "B",
    "status": "Pending",
    "rowid": "1178234",
    "final_x": "3669768.69192",
    "final_y": "518659.805316",
    "longitude": "-90.10554879422342",
    "latitude": "29.920485277156327",
    "geocoded_column": {
      "latitude": "29.920485277156327",
      "longitude": "-90.10554879422342"
    }
  },
  {
    "service_request": "2025-1178233",
    "request_type": "Trash/Recycling",
    "request_reason": "Missed Trash Pick-Up",
    "date_created": "2025-03-24T16:43:06.000",
    "date_modified": "2025-03-24T17:38:43.000",
    "case_close_date": "2025-03-24T12:38:43.000",
    "request_status": "Closed",
    "responsible_agency": "Department of Sanitation",
    "final_address": "7661 Jonlee Dr",
    "address_councildis": "E",
    "status": "Invalid Request",
    "contractor": "Waste Pro",
    "contractor_action": "Invalid Request",
    "rowid": "1178233",
    "final_x": "3716996.91205",
    "final_y": "570808.271143",
    "longitude": "-89.95449235515908",
    "latitude": "30.062397520594082",
    "geocoded_column": {
      "latitude": "30.062397520594082",
      "longitude": "-89.95449235515908"
    }
  },
  {
    "service_request": "2025-1178232",
    "request_type": "Trash/Recycling",
    "request_reason": "Order Trash Cart",
    "date_created": "2025-03-24T16:43:05.000",
    "date_modified": "2025-03-24T16:43:33.000",
    "request_status": "Pending",
    "responsible_agency": "Department of Sanitation",
    "final_address": "3315 Dryades St",
    "address_councildis": "B",
    "status": "Assigned to Contractor",
    "contractor": "IV Waste",
    "rowid": "1178232",
    "final_x": "3673989.47592",
    "final_y": "522690.437178",
    "longitude": "-90.09208790997135",
    "latitude": "29.931443184864438",
    "geocoded_column": {
      "latitude": "29.931443184864438",
      "longitude": "-90.09208790997135"
    }
  },
  {
    "service_request": "2025-1178231",
    "request_type": "Trash/Recycling",
    "request_reason": "Request a Large Item Pick Up",
    "date_created": "2025-03-24T16:42:18.000",
    "date_modified": "2025-03-24T16:42:20.000",
    "request_status": "Pending",
    "responsible_agency": "Department of Sanitation",
    "final_address": "3044 St Claude Ave",
    "address_councildis": "C",
    "status": "Assigned to Contractor",
    "contractor": "IV Waste",
    "rowid": "1178231",
    "final_x": "3688771.79644",
    "final_y": "536002.086791",
    "longitude": "-90.04494954020726",
    "latitude": "29.967597071392024",
    "geocoded_column": {
      "latitude": "29.967597071392024",
      "longitude": "-90.04494954020726"
    }
  },
  {
    "service_request": "2025-1178230",
    "request_type": "Trash/Recycling",
    "request_reason": "Order Trash Cart",
    "date_created": "2025-03-24T16:41:35.000",
    "date_modified": "2025-03-24T16:43:53.000",
    "request_status": "Pending",
    "responsible_agency": "Department of Sanitation",
    "final_address": "3313 Dryades St",
    "address_councildis": "B",
    "status": "Assigned to Contractor",
    "contractor": "IV Waste",
    "rowid": "1178230",
    "final_x": "3674000.64302",
    "final_y": "522695.358458",
    "longitude": "-90.0920524884331",
    "latitude": "29.93145638416063",
    "geocoded_column": {
      "latitude": "29.93145638416063",
      "longitude": "-90.0920524884331"
    }
  },
  {
    "service_request": "2025-1178229",
    "request_type": "Graffiti Removal",
    "request_reason": "Graffiti Removal",
    "date_created": "2025-03-24T16:41:16.000",
    "date_modified": "2025-03-24T16:41:18.000",
    "request_status": "Pending",
    "responsible_agency": "Department of Code Enforcement",
    "final_address": "1901 Conti St",
    "address_councildis": "B",
    "status": "Pending",
    "rowid": "1178229",
    "final_x": "3678462.0763",
    "final_y": "534264.874309",
    "longitude": "-90.07756800456491",
    "latitude": "29.963135048265883",
    "geocoded_column": {
      "latitude": "29.963135048265883",
      "longitude": "-90.07756800456491"
    }
  },
  {
    "service_request": "2025-1178228",
    "request_type": "Property Maintenance",
    "request_reason": "Property Maintenance",
    "date_created": "2025-03-24T16:38:03.000",
    "date_modified": "2025-03-24T16:38:05.000",
    "request_status": "Pending",
    "responsible_agency": "Department of Code Enforcement",
    "final_address": "1935 Conti St",
    "address_councildis": "B",
    "status": "Pending",
    "rowid": "1178228",
    "final_x": "3678306.68469",
    "final_y": "534369.432453",
    "longitude": "-90.0780550958343",
    "latitude": "29.963427229398352",
    "geocoded_column": {
      "latitude": "29.963427229398352",
      "longitude": "-90.0780550958343"
    }
  },
  {
    "service_request": "2025-1178227",
    "request_type": "Trash/Recycling",
    "request_reason": "Order Trash Cart",
    "date_created": "2025-03-24T16:33:54.000",
    "date_modified": "2025-03-24T16:33:56.000",
    "request_status": "Pending",
    "responsible_agency": "Department of Sanitation",
    "final_address": "3630 Kim O Gray Ave",
    "address_councildis": "D",
    "status": "Assigned to Contractor",
    "contractor": "IV Waste",
    "rowid": "1178227",
    "final_x": "3693325.36733",
    "final_y": "545231.992335",
    "longitude": "-90.03023783718638",
    "latitude": "29.99283443041392",
    "geocoded_column": {
      "latitude": "29.99283443041392",
      "longitude": "-90.03023783718638"
    }
  },
  {
    "service_request": "2025-1178226",
    "request_type": "Safety & Permits",
    "request_reason": "Zoning Enforcement",
    "date_created": "2025-03-24T16:31:58.000",
    "date_modified": "2025-03-24T16:32:00.000",
    "request_status": "Pending",
    "responsible_agency": "Safety and Permits",
    "final_address": "4722 Haydel St",
    "address_councildis": "E",
    "status": "Pending",
    "rowid": "1178226",
    "final_x": "3698967.59402",
    "final_y": "554318.401304",
    "longitude": "-90.01208419720629",
    "latitude": "30.01764101646689",
    "geocoded_column": {
      "latitude": "30.01764101646689",
      "longitude": "-90.01208419720629"
    }
  },
  {
    "service_request": "2025-1178225",
    "request_type": "Roads and Streets",
    "request_reason": "Pothole",
    "date_created": "2025-03-24T16:26:43.000",
    "date_modified": "2025-03-24T16:26:45.000",
    "request_status": "Pending",
    "responsible_agency": "Department of Public Works",
    "final_address": "8901 Oak St",
    "address_councildis": "A",
    "status": "Pending",
    "rowid": "1178225",
    "final_x": "3659833.08896",
    "final_y": "530377.476418",
    "longitude": "-90.1365247014995",
    "latitude": "29.952994183512143",
    "geocoded_column": {
      "latitude": "29.952994183512143",
      "longitude": "-90.1365247014995"
    }
  },
  {
    "service_request": "2025-1178224",
    "request_type": "Abandoned Vehicles",
    "request_reason": "Abandoned/Junk Vehicles",
    "date_created": "2025-03-24T16:22:14.000",
    "date_modified": "2025-03-24T16:22:16.000",
    "request_status": "Pending",
    "responsible_agency": "Department of Public Works",
    "final_address": "2830 Burgundy St",
    "address_councildis": "C",
    "status": "Pending",
    "rowid": "1178224",
    "final_x": "3687768.35676",
    "final_y": "535443.856966",
    "longitude": "-90.04813819036315",
    "latitude": "29.96609311941086",
    "geocoded_column": {
      "latitude": "29.96609311941086",
      "longitude": "-90.04813819036315"
    }
  },
  {
    "service_request": "2025-1178223",
    "request_type": "Trash/Recycling",
    "request_reason": "Request a Large Item Pick Up",
    "date_created": "2025-03-24T16:21:13.000",
    "date_modified": "2025-03-24T16:21:15.000",
    "request_status": "Pending",
    "responsible_agency": "Department of Sanitation",
    "final_address": "331 Jewel St",
    "address_councildis": "D",
    "status": "Assigned to Contractor",
    "contractor": "IV Waste",
    "rowid": "1178223",
    "final_x": "3667679.67303",
    "final_y": "555904.146585",
    "longitude": "-90.11088864532053",
    "latitude": "30.02295614423978",
    "geocoded_column": {
      "latitude": "30.02295614423978",
      "longitude": "-90.11088864532053"
    }
  },
  {
    "service_request": "2025-1178222",
    "request_type": "General Services",
    "request_reason": "General Service Request",
    "date_created": "2025-03-24T16:21:06.000",
    "date_modified": "2025-03-24T16:32:06.000",
    "case_close_date": "2025-03-24T11:32:05.000",
    "request_status": "Closed",
    "responsible_agency": "Orleans Parish Communication District",
    "final_address": "9900 BLK Lake Forest Blvd",
    "address_councildis": "E",
    "status": "Referred to Risk Management",
    "rowid": "1178222",
    "final_x": "3711096.48",
    "final_y": "559796.274552",
    "longitude": "-89.97355666975629",
    "latitude": "30.032312883531013",
    "geocoded_column": {
      "latitude": "30.032312883531013",
      "longitude": "-89.97355666975629"
    }
  },
  {
    "service_request": "2025-1178221",
    "request_type": "Trash/Recycling",
    "request_reason": "Damaged Caused By Contractor",
    "date_created": "2025-03-24T16:20:03.000",
    "date_modified": "2025-03-24T16:20:04.000",
    "request_status": "Pending",
    "responsible_agency": "Department of Sanitation",
    "final_address": "2111 Easter Ln",
    "address_councildis": "C",
    "status": "Assigned to Contractor",
    "contractor": "Richards Disposal",
    "rowid": "1178221",
    "final_x": "3699433.48176",
    "final_y": "523582.236603",
    "longitude": "-90.01173228739772",
    "latitude": "29.93311292480641",
    "geocoded_column": {
      "latitude": "29.93311292480641",
      "longitude": "-90.01173228739772"
    }
  },
  {
    "service_request": "2025-1178220",
    "request_type": "Trash/Recycling",
    "request_reason": "Request a Large Item Pick Up",
    "date_created": "2025-03-24T16:19:39.000",
    "date_modified": "2025-03-24T16:19:41.000",
    "request_status": "Pending",
    "responsible_agency": "Department of Sanitation",
    "final_address": "7512 Jeannette St",
    "address_councildis": "A",
    "status": "Assigned to Contractor",
    "contractor": "IV Waste",
    "rowid": "1178220",
    "final_x": "3664178.18068",
    "final_y": "527738.111551",
    "longitude": "-90.12289278725686",
    "latitude": "29.945611276084964",
    "geocoded_column": {
      "latitude": "29.945611276084964",
      "longitude": "-90.12289278725686"
    }
  },
  {
    "service_request": "2025-1178219",
    "request_type": "Trash/Recycling",
    "request_reason": "Request a Large Item Pick Up",
    "date_created": "2025-03-24T16:15:25.000",
    "date_modified": "2025-03-24T18:36:14.000",
    "case_close_date": "2025-03-24T13:36:13.000",
    "request_status": "Closed",
    "responsible_agency": "Department of Sanitation",
    "final_address": "4558 Rosemont Pl",
    "address_councildis": "E",
    "status": "Assigned to Contractor",
    "contractor": "Waste Pro",
    "contractor_action": "Completed",
    "rowid": "1178219",
    "final_x": "3702720.1546",
    "final_y": "553983.735384",
    "longitude": "-90.00023996775927",
    "latitude": "30.01660130244286",
    "geocoded_column": {
      "latitude": "30.01660130244286",
      "longitude": "-90.00023996775927"
    }
  },
  {
    "service_request": "2025-1178218",
    "request_type": "Trash/Recycling",
    "request_reason": "Order Trash Cart",
    "date_created": "2025-03-24T16:13:32.000",
    "date_modified": "2025-03-24T16:13:34.000",
    "request_status": "Pending",
    "responsible_agency": "Department of Sanitation",
    "final_address": "1307 Elmira Ave",
    "address_councildis": "C",
    "status": "Assigned to Contractor",
    "contractor": "Richards Disposal",
    "rowid": "1178218",
    "final_x": "3688036.83299",
    "final_y": "526700.490814",
    "longitude": "-90.04760017436526",
    "latitude": "29.942043588098027",
    "geocoded_column": {
      "latitude": "29.942043588098027",
      "longitude": "-90.04760017436526"
    }
  },
  {
    "service_request": "2025-1178217",
    "request_type": "Trash/Recycling",
    "request_reason": "Request a Large Item Pick Up",
    "date_created": "2025-03-24T16:11:37.000",
    "date_modified": "2025-03-24T16:11:39.000",
    "request_status": "Pending",
    "responsible_agency": "Department of Sanitation",
    "final_address": "7150 Salem Dr",
    "address_councildis": "E",
    "status": "Assigned to Contractor",
    "contractor": "Waste Pro",
    "rowid": "1178217",
    "final_x": "3706342.37815",
    "final_y": "561334.250526",
    "longitude": "-89.98852280748055",
    "latitude": "30.0366959814863",
    "geocoded_column": {
      "latitude": "30.0366959814863",
      "longitude": "-89.98852280748055"
    }
  },
  {
    "service_request": "2025-1178216",
    "request_type": "Streetlights",
    "request_reason": "Streetlight Outage/Malfunction",
    "date_created": "2025-03-24T16:11:17.000",
    "date_modified": "2025-03-24T16:11:19.000",
    "request_status": "Pending",
    "responsible_agency": "Department of Public Works",
    "final_address": "5200 Timber Crest Dr",
    "address_councildis": "C",
    "status": "Pending",
    "contractor": "Legacy Professional Services",
    "rowid": "1178216",
    "final_x": "3703361.9393",
    "final_y": "511254.186672",
    "longitude": "-89.99978345050444",
    "latitude": "29.899089848267874",
    "geocoded_column": {
      "latitude": "29.899089848267874",
      "longitude": "-89.99978345050444"
    }
  },
  {
    "service_request": "2025-1178215",
    "request_type": "Trash/Recycling",
    "request_reason": "Request a Large Item Pick Up",
    "date_created": "2025-03-24T16:08:25.000",
    "date_modified": "2025-03-24T16:08:27.000",
    "request_status": "Pending",
    "responsible_agency": "Department of Sanitation",
    "final_address": "1505 Bodenger Blvd",
    "address_councildis": "C",
    "status": "Assigned to Contractor",
    "contractor": "Richards Disposal",
    "rowid": "1178215",
    "final_x": "3688443.93724",
    "final_y": "526188.519102",
    "longitude": "-90.04633301795738",
    "latitude": "29.94062327282339",
    "geocoded_column": {
      "latitude": "29.94062327282339",
      "longitude": "-90.04633301795738"
    }
  },
  {
    "service_request": "2025-1178214",
    "request_type": "Trash/Recycling",
    "request_reason": "Request a Large Item Pick Up",
    "date_created": "2025-03-24T16:06:22.000",
    "date_modified": "2025-03-24T16:06:24.000",
    "request_status": "Pending",
    "responsible_agency": "Department of Sanitation",
    "final_address": "5536 Grand Bayou Dr",
    "address_councildis": "E",
    "status": "Assigned to Contractor",
    "contractor": "Waste Pro",
    "rowid": "1178214",
    "final_x": "3725040.57004",
    "final_y": "563985.910689",
    "longitude": "-89.92933075906245",
    "latitude": "30.0433702906223",
    "geocoded_column": {
      "latitude": "30.0433702906223",
      "longitude": "-89.92933075906245"
    }
  },
  {
    "service_request": "2025-1178213",
    "request_type": "Roads and Streets",
    "request_reason": "Pothole",
    "date_created": "2025-03-24T16:05:41.000",
    "date_modified": "2025-03-24T16:05:42.000",
    "request_status": "Pending",
    "responsible_agency": "Department of Public Works",
    "final_address": "14421 Morrison Rd",
    "address_councildis": "E",
    "status": "Pending",
    "rowid": "1178213",
    "final_x": "3720343.1701",
    "final_y": "572332.240361",
    "longitude": "-89.94385646940712",
    "latitude": "30.066476652847204",
    "geocoded_column": {
      "latitude": "30.066476652847204",
      "longitude": "-89.94385646940712"
    }
  },
  {
    "service_request": "2025-1178212",
    "request_type": "Trash/Recycling",
    "request_reason": "Illegal Dumping",
    "date_created": "2025-03-24T16:05:05.000",
    "date_modified": "2025-03-24T16:05:16.000",
    "request_status": "Pending",
    "responsible_agency": "Department of Sanitation",
    "final_address": "6300 BLK Peoples Ave",
    "address_councildis": "D",
    "status": "Pending",
    "rowid": "1178212",
    "final_x": "3687700.34733",
    "final_y": "556674.32804",
    "longitude": "-90.04760065594036",
    "latitude": "30.02447136178789",
    "geocoded_column": {
      "latitude": "30.02447136178789",
      "longitude": "-90.04760065594036"
    }
  },
  {
    "service_request": "2025-1178211",
    "request_type": "Trash/Recycling",
    "request_reason": "Request a Large Item Pick Up",
    "date_created": "2025-03-24T16:04:07.000",
    "date_modified": "2025-03-24T16:04:09.000",
    "request_status": "Pending",
    "responsible_agency": "Department of Sanitation",
    "final_address": "7600 Read Blvd",
    "address_councildis": "E",
    "status": "Assigned to Contractor",
    "contractor": "Waste Pro",
    "rowid": "1178211",
    "final_x": "3708453.71224",
    "final_y": "564443.736225",
    "longitude": "-89.98173469545425",
    "latitude": "30.045177525372484",
    "geocoded_column": {
      "latitude": "30.045177525372484",
      "longitude": "-89.98173469545425"
    }
  },
  {
    "service_request": "2025-1178210",
    "request_type": "Trash/Recycling",
    "request_reason": "Request a Large Item Pick Up",
    "date_created": "2025-03-24T16:02:16.000",
    "date_modified": "2025-03-24T16:02:18.000",
    "request_status": "Pending",
    "responsible_agency": "Department of Sanitation",
    "final_address": "1621 Bordeaux St",
    "address_councildis": "B",
    "status": "Assigned to Contractor",
    "contractor": "IV Waste",
    "rowid": "1178210",
    "final_x": "3669403.42964",
    "final_y": "520900.215225",
    "longitude": "-90.10662604955981",
    "latitude": "29.92665645023131",
    "geocoded_column": {
      "latitude": "29.92665645023131",
      "longitude": "-90.10662604955981"
    }
  },
  {
    "service_request": "2025-1178209",
    "request_type": "Trash/Recycling",
    "request_reason": "Request a Large Item Pick Up",
    "date_created": "2025-03-24T16:00:57.000",
    "date_modified": "2025-03-24T16:01:00.000",
    "request_status": "Pending",
    "responsible_agency": "Department of Sanitation",
    "final_address": "7818 Berg Rd",
    "address_councildis": "E",
    "status": "Assigned to Contractor",
    "contractor": "Waste Pro",
    "rowid": "1178209",
    "final_x": "3711485.44094",
    "final_y": "567360.653604",
    "longitude": "-89.97204355265852",
    "latitude": "30.053099189100823",
    "geocoded_column": {
      "latitude": "30.053099189100823",
      "longitude": "-89.97204355265852"
    }
  },
  {
    "service_request": "2025-1178208",
    "request_type": "Traffic Signals",
    "request_reason": "Traffic Signal Malfunctioning or Damaged",
    "date_created": "2025-03-24T16:00:08.000",
    "date_modified": "2025-03-24T16:00:10.000",
    "request_status": "Pending",
    "responsible_agency": "Department of Public Works",
    "final_address": "CITY PARK AVE & N CARROLLTON AVE",
    "address_councildis": "A",
    "status": "Pending",
    "rowid": "1178208",
    "final_x": "3673935.5",
    "final_y": "541481.78",
    "longitude": "-90.091615448132",
    "latitude": "29.983114716650917",
    "geocoded_column": {
      "latitude": "29.983114716650917",
      "longitude": "-90.091615448132"
    }
  },
  {
    "service_request": "2025-1178207",
    "request_type": "Trash/Recycling",
    "request_reason": "Request a Large Item Pick Up",
    "date_created": "2025-03-24T15:58:57.000",
    "date_modified": "2025-03-24T15:58:59.000",
    "request_status": "Pending",
    "responsible_agency": "Department of Sanitation",
    "final_address": "910 Flood St",
    "address_councildis": "E",
    "status": "Assigned to Contractor",
    "contractor": "Waste Pro",
    "rowid": "1178207",
    "final_x": "3697463.50704",
    "final_y": "533166.995972",
    "longitude": "-90.01760388141307",
    "latitude": "29.959529995026077",
    "geocoded_column": {
      "latitude": "29.959529995026077",
      "longitude": "-90.01760388141307"
    }
  },
  {
    "service_request": "2025-1178206",
    "request_type": "Streetlights",
    "request_reason": "Streetlight Outage/Malfunction",
    "date_created": "2025-03-24T15:57:24.000",
    "date_modified": "2025-03-24T15:57:26.000",
    "request_status": "Pending",
    "responsible_agency": "Department of Public Works",
    "final_address": "13220 St Helena Pl",
    "address_councildis": "E",
    "status": "Pending",
    "contractor": "Legacy Professional Services",
    "rowid": "1178206",
    "final_x": "3726755.30784",
    "final_y": "564399.097185",
    "longitude": "-89.92389548294817",
    "latitude": "30.044448498567743",
    "geocoded_column": {
      "latitude": "30.044448498567743",
      "longitude": "-89.92389548294817"
    }
  },
  {
    "service_request": "2025-1178205",
    "request_type": "General Services",
    "request_reason": "General Service Request",
    "date_created": "2025-03-24T15:54:01.000",
    "date_modified": "2025-03-24T15:56:14.000",
    "case_close_date": "2025-03-24T10:56:13.000",
    "request_status": "Closed",
    "responsible_agency": "Orleans Parish Communication District",
    "final_address": "1603 S Rendon St",
    "address_councildis": "B",
    "status": "Referred to Risk Management",
    "rowid": "1178205",
    "final_x": "3669768.59278",
    "final_y": "531052.97197",
    "longitude": "-90.10512979338195",
    "latitude": "29.954562489088413",
    "geocoded_column": {
      "latitude": "29.954562489088413",
      "longitude": "-90.10512979338195"
    }
  },
  {
    "service_request": "2025-1178204",
    "request_type": "Roads and Streets",
    "request_reason": "Sidewalk Damaged or Missing",
    "date_created": "2025-03-24T15:48:52.000",
    "date_modified": "2025-03-24T15:48:54.000",
    "request_status": "Pending",
    "responsible_agency": "Department of Public Works",
    "final_address": "1603 S Rendon St",
    "address_councildis": "B",
    "status": "Pending",
    "rowid": "1178204",
    "final_x": "3669768.59278",
    "final_y": "531052.97197",
    "longitude": "-90.10512979338195",
    "latitude": "29.954562489088413",
    "geocoded_column": {
      "latitude": "29.954562489088413",
      "longitude": "-90.10512979338195"
    }
  },
  {
    "service_request": "2025-1178203",
    "request_type": "Street and Traffic Signs",
    "request_reason": "Street Name Sign Damaged or Missing",
    "date_created": "2025-03-24T15:48:49.000",
    "date_modified": "2025-03-24T15:48:50.000",
    "request_status": "Pending",
    "responsible_agency": "Department of Public Works",
    "final_address": "ROYAL ST & ALABO ST",
    "address_councildis": "E",
    "status": "Pending",
    "rowid": "1178203",
    "final_x": "3698505.6",
    "final_y": "532052.58",
    "longitude": "-90.01435372171959",
    "latitude": "29.95643280271326",
    "geocoded_column": {
      "latitude": "29.95643280271326",
      "longitude": "-90.01435372171959"
    }
  },
  {
    "service_request": "2025-1178202",
    "request_type": "Trash/Recycling",
    "request_reason": "Replace Trash Cart",
    "date_created": "2025-03-24T15:47:44.000",
    "date_modified": "2025-03-24T17:36:56.000",
    "case_close_date": "2025-03-24T12:36:55.000",
    "request_status": "Closed",
    "responsible_agency": "Department of Sanitation",
    "final_address": "2866 Fortin St",
    "address_councildis": "A",
    "status": "Assigned to Contractor",
    "contractor": "IV Waste",
    "contractor_action": "Completed",
    "rowid": "1178202",
    "final_x": "3677824.49211",
    "final_y": "540877.812811",
    "longitude": "-90.07935288351557",
    "latitude": "29.981337561616314",
    "geocoded_column": {
      "latitude": "29.981337561616314",
      "longitude": "-90.07935288351557"
    }
  },
  {
    "service_request": "2025-1178201",
    "request_type": "Street and Traffic Signs",
    "request_reason": "Street Name Sign Damaged or Missing",
    "date_created": "2025-03-24T15:47:30.000",
    "date_modified": "2025-03-24T15:47:32.000",
    "request_status": "Pending",
    "responsible_agency": "Department of Public Works",
    "final_address": "ROYAL ST & GORDON ST",
    "address_councildis": "E",
    "status": "Pending",
    "rowid": "1178201",
    "final_x": "3698580.9",
    "final_y": "532017.38",
    "longitude": "-90.01411723030681",
    "latitude": "29.95633363161213",
    "geocoded_column": {
      "latitude": "29.95633363161213",
      "longitude": "-90.01411723030681"
    }
  },
  {
    "service_request": "2025-1178200",
    "request_type": "Drainage",
    "request_reason": "Ditch and Culvert Maintenance",
    "date_created": "2025-03-24T15:46:30.000",
    "date_modified": "2025-03-24T16:03:08.000",
    "request_status": "Pending",
    "responsible_agency": "Department of Public Works",
    "final_address": "641 Gordon St",
    "address_councildis": "E",
    "status": "Pending",
    "rowid": "1178200",
    "final_x": "3698610.748",
    "final_y": "531958.523139",
    "longitude": "-90.01402512070268",
    "latitude": "29.956170851146332",
    "geocoded_column": {
      "latitude": "29.956170851146332",
      "longitude": "-90.01402512070268"
    }
  },
  {
    "service_request": "2025-1178199",
    "request_type": "Trash/Recycling",
    "request_reason": "Request a Large Item Pick Up",
    "date_created": "2025-03-24T15:45:09.000",
    "date_modified": "2025-03-24T15:45:11.000",
    "request_status": "Pending",
    "responsible_agency": "Department of Sanitation",
    "final_address": "216 N Olympia St",
    "address_councildis": "A",
    "status": "Assigned to Contractor",
    "contractor": "IV Waste",
    "rowid": "1178199",
    "final_x": "3669802.13102",
    "final_y": "540078.334347",
    "longitude": "-90.10471831919989",
    "latitude": "29.979378233466303",
    "geocoded_column": {
      "latitude": "29.979378233466303",
      "longitude": "-90.10471831919989"
    }
  },
  {
    "service_request": "2025-1178198",
    "request_type": "Trash/Recycling",
    "request_reason": "Illegal Dumping",
    "date_created": "2025-03-24T15:41:42.000",
    "date_modified": "2025-03-24T15:41:43.000",
    "request_status": "Pending",
    "responsible_agency": "Department of Sanitation",
    "final_address": "1000 BLK Alabo St",
    "address_councildis": "E",
    "status": "Pending",
    "rowid": "1178198",
    "final_x": "3698845.48908",
    "final_y": "533323.290425",
    "longitude": "-90.0132342439612",
    "latitude": "29.959916043027782",
    "geocoded_column": {
      "latitude": "29.959916043027782",
      "longitude": "-90.0132342439612"
    }
  },
  {
    "service_request": "2025-1178197",
    "request_type": "Abandoned Vehicles",
    "request_reason": "Abandoned/Junk Vehicles",
    "date_created": "2025-03-24T15:41:32.000",
    "date_modified": "2025-03-24T15:42:51.000",
    "request_status": "Pending",
    "responsible_agency": "Department of Public Works",
    "final_address": "2416 Urquhart St",
    "address_councildis": "C",
    "status": "Pending",
    "rowid": "1178197",
    "final_x": "3686629.94358",
    "final_y": "537127.63188",
    "longitude": "-90.05167378694782",
    "latitude": "29.970757974020632",
    "geocoded_column": {
      "latitude": "29.970757974020632",
      "longitude": "-90.05167378694782"
    }
  },
  {
    "service_request": "2025-1178196",
    "request_type": "Trash/Recycling",
    "request_reason": "Request a Large Item Pick Up",
    "date_created": "2025-03-24T15:39:05.000",
    "date_modified": "2025-03-24T16:44:58.000",
    "case_close_date": "2025-03-24T11:44:58.000",
    "request_status": "Closed",
    "responsible_agency": "Department of Sanitation",
    "final_address": "1025 Charbonnet St",
    "address_councildis": "E",
    "status": "Invalid Request",
    "contractor": "Waste Pro",
    "contractor_action": "Invalid Request",
    "rowid": "1178196",
    "final_x": "3698628.30704",
    "final_y": "533448.349124",
    "longitude": "-90.0139155055903",
    "latitude": "29.960266788144317",
    "geocoded_column": {
      "latitude": "29.960266788144317",
      "longitude": "-90.0139155055903"
    }
  },
  {
    "service_request": "2025-1178195",
    "request_type": "Abandoned Vehicles",
    "request_reason": "Abandoned/Junk Vehicles",
    "date_created": "2025-03-24T15:37:04.000",
    "date_modified": "2025-03-24T15:37:06.000",
    "request_status": "Pending",
    "responsible_agency": "Department of Public Works",
    "final_address": "2416 Urquhart St",
    "address_councildis": "C",
    "status": "Pending",
    "rowid": "1178195",
    "final_x": "3686629.94358",
    "final_y": "537127.63188",
    "longitude": "-90.05167378694782",
    "latitude": "29.970757974020632",
    "geocoded_column": {
      "latitude": "29.970757974020632",
      "longitude": "-90.05167378694782"
    }
  },
  {
    "service_request": "2025-1178194",
    "request_type": "Property Maintenance",
    "request_reason": "Property Maintenance",
    "date_created": "2025-03-24T15:36:33.000",
    "date_modified": "2025-03-24T15:36:34.000",
    "request_status": "Pending",
    "responsible_agency": "Department of Code Enforcement",
    "final_address": "5724 St Claude Ave",
    "address_councildis": "E",
    "status": "Pending",
    "rowid": "1178194",
    "final_x": "3698524.19223",
    "final_y": "533590.151685",
    "longitude": "-90.01423912154203",
    "latitude": "29.960659990828013",
    "geocoded_column": {
      "latitude": "29.960659990828013",
      "longitude": "-90.01423912154203"
    }
  },
  {
    "service_request": "2025-1178193",
    "request_type": "Trash/Recycling",
    "request_reason": "Order Trash Cart",
    "date_created": "2025-03-24T15:36:31.000",
    "date_modified": "2025-03-24T15:36:34.000",
    "request_status": "Pending",
    "responsible_agency": "Department of Sanitation",
    "final_address": "1935 Mirabeau Ave",
    "address_councildis": "D",
    "status": "Assigned to Contractor",
    "contractor": "IV Waste",
    "rowid": "1178193",
    "final_x": "3681929.54172",
    "final_y": "550682.226516",
    "longitude": "-90.06604477872393",
    "latitude": "30.008172051535357",
    "geocoded_column": {
      "latitude": "30.008172051535357",
      "longitude": "-90.06604477872393"
    }
  },
  {
    "service_request": "2025-1178192",
    "request_type": "Trash/Recycling",
    "request_reason": "Request a Large Item Pick Up",
    "date_created": "2025-03-24T15:36:29.000",
    "date_modified": "2025-03-24T15:36:53.000",
    "request_status": "Pending",
    "responsible_agency": "Department of Sanitation",
    "final_address": "2740 Potomac St",
    "address_councildis": "C",
    "status": "Assigned to Contractor",
    "contractor": "Richards Disposal",
    "rowid": "1178192",
    "final_x": "3692591.80374",
    "final_y": "519771.247672",
    "longitude": "-90.0334673925334",
    "latitude": "29.922849201061883",
    "geocoded_column": {
      "latitude": "29.922849201061883",
      "longitude": "-90.0334673925334"
    }
  },
  {
    "service_request": "2025-1178191",
    "request_type": "Trash/Recycling",
    "request_reason": "Illegal Dumping",
    "date_created": "2025-03-24T15:34:49.000",
    "date_modified": "2025-03-24T15:34:51.000",
    "request_status": "Pending",
    "responsible_agency": "Department of Sanitation",
    "final_address": "5724 St Claude Ave",
    "address_councildis": "E",
    "status": "Pending",
    "rowid": "1178191",
    "final_x": "3698524.19223",
    "final_y": "533590.151685",
    "longitude": "-90.01423912154203",
    "latitude": "29.960659990828013",
    "geocoded_column": {
      "latitude": "29.960659990828013",
      "longitude": "-90.01423912154203"
    }
  },
  {
    "service_request": "2025-1178190",
    "request_type": "Property Maintenance",
    "request_reason": "Property Maintenance",
    "date_created": "2025-03-24T15:33:52.000",
    "date_modified": "2025-03-24T15:33:53.000",
    "request_status": "Pending",
    "responsible_agency": "Department of Code Enforcement",
    "final_address": "1329 Mandolin St",
    "address_councildis": "D",
    "status": "Pending",
    "rowid": "1178190",
    "final_x": "3677456.01672",
    "final_y": "548108.25301",
    "longitude": "-90.08026695708274",
    "latitude": "30.00122982448429",
    "geocoded_column": {
      "latitude": "30.00122982448429",
      "longitude": "-90.08026695708274"
    }
  },
  {
    "service_request": "2025-1178189",
    "request_type": "Trash/Recycling",
    "request_reason": "Request a Large Item Pick Up",
    "date_created": "2025-03-24T15:31:49.000",
    "date_modified": "2025-03-24T15:31:53.000",
    "request_status": "Pending",
    "responsible_agency": "Department of Sanitation",
    "final_address": "7818 Briarwood Dr",
    "address_councildis": "E",
    "status": "Assigned to Contractor",
    "contractor": "Waste Pro",
    "rowid": "1178189",
    "final_x": "3716778.98962",
    "final_y": "571789.899368",
    "longitude": "-89.95514388399341",
    "latitude": "30.065103798122706",
    "geocoded_column": {
      "latitude": "30.065103798122706",
      "longitude": "-89.95514388399341"
    }
  },
  {
    "service_request": "2025-1178188",
    "request_type": "Trash/Recycling",
    "request_reason": "Request a Large Item Pick Up",
    "date_created": "2025-03-24T15:29:33.000",
    "date_modified": "2025-03-24T15:30:03.000",
    "request_status": "Pending",
    "responsible_agency": "Department of Sanitation",
    "final_address": "700 N Scott St",
    "address_councildis": "A",
    "status": "Assigned to Contractor",
    "contractor": "IV Waste",
    "rowid": "1178188",
    "final_x": "3673140.98427",
    "final_y": "539550.981706",
    "longitude": "-90.094190892154",
    "latitude": "29.977829332160702",
    "geocoded_column": {
      "latitude": "29.977829332160702",
      "longitude": "-90.094190892154"
    }
  },
  {
    "service_request": "2025-1178187",
    "request_type": "Abandoned Vehicles",
    "request_reason": "Abandoned/Junk Vehicles",
    "date_created": "2025-03-24T15:24:12.000",
    "date_modified": "2025-03-24T15:24:13.000",
    "request_status": "Pending",
    "responsible_agency": "Department of Public Works",
    "final_address": "3950 Laurel St",
    "address_councildis": "B",
    "status": "Pending",
    "rowid": "1178187",
    "final_x": "3672819.6763",
    "final_y": "518131.266486",
    "longitude": "-90.09593626090395",
    "latitude": "29.918941719533713",
    "geocoded_column": {
      "latitude": "29.918941719533713",
      "longitude": "-90.09593626090395"
    }
  },
  {
    "service_request": "2025-1178186",
    "request_type": "Trash/Recycling",
    "request_reason": "Request a Large Item Pick Up",
    "date_created": "2025-03-24T15:23:11.000",
    "date_modified": "2025-03-24T15:23:13.000",
    "request_status": "Pending",
    "responsible_agency": "Department of Sanitation",
    "final_address": "4843 Perelli Dr",
    "address_councildis": "E",
    "status": "Assigned to Contractor",
    "contractor": "Waste Pro",
    "rowid": "1178186",
    "final_x": "3711737.12882",
    "final_y": "556666.698394",
    "longitude": "-89.97164971965289",
    "latitude": "30.023686866546228",
    "geocoded_column": {
      "latitude": "30.023686866546228",
      "longitude": "-89.97164971965289"
    }
  },
  {
    "service_request": "2025-1178185",
    "request_type": "Traffic Signals",
    "request_reason": "Traffic Signal Malfunctioning or Damaged",
    "date_created": "2025-03-24T15:20:00.000",
    "date_modified": "2025-03-24T15:20:02.000",
    "request_status": "Pending",
    "responsible_agency": "Department of Public Works",
    "final_address": "100 Lelong Dr",
    "address_councildis": "A",
    "status": "Pending",
    "rowid": "1178185",
    "final_x": "3674376.482",
    "final_y": "541910.052172",
    "longitude": "-90.09020792274487",
    "latitude": "29.98427917022839",
    "geocoded_column": {
      "latitude": "29.98427917022839",
      "longitude": "-90.09020792274487"
    }
  },
  {
    "service_request": "2025-1178184",
    "request_type": "Trash/Recycling",
    "request_reason": "Request a Large Item Pick Up",
    "date_created": "2025-03-24T15:17:29.000",
    "date_modified": "2025-03-24T15:17:31.000",
    "request_status": "Pending",
    "responsible_agency": "Department of Sanitation",
    "final_address": "2101 Governor Nicholls St",
    "address_councildis": "D",
    "status": "Assigned to Contractor",
    "contractor": "IV Waste",
    "rowid": "1178184",
    "final_x": "3679739.23746",
    "final_y": "536985.009928",
    "longitude": "-90.07344043280496",
    "latitude": "29.970575942539483",
    "geocoded_column": {
      "latitude": "29.970575942539483",
      "longitude": "-90.07344043280496"
    }
  },
  {
    "service_request": "2025-1178183",
    "request_type": "Health Related Request",
    "request_reason": "Noise Ordinance Complaint",
    "date_created": "2025-03-24T15:14:45.000",
    "date_modified": "2025-03-24T15:22:07.000",
    "case_close_date": "2025-03-24T10:22:07.000",
    "request_status": "Closed",
    "responsible_agency": "Health Department",
    "final_address": "4223 S Carrollton Ave",
    "address_councildis": "A",
    "status": "Unfounded",
    "rowid": "1178183",
    "final_x": "3669571.91873",
    "final_y": "536778.471176",
    "longitude": "-90.1055570983385",
    "latitude": "29.970311506528155",
    "geocoded_column": {
      "latitude": "29.970311506528155",
      "longitude": "-90.1055570983385"
    }
  },
  {
    "service_request": "2025-1178182",
    "request_type": "Trash/Recycling",
    "request_reason": "Request a Large Item Pick Up",
    "date_created": "2025-03-24T15:09:54.000",
    "date_modified": "2025-03-24T15:09:56.000",
    "request_status": "Pending",
    "responsible_agency": "Department of Sanitation",
    "final_address": "81 Allard Blvd",
    "address_councildis": "A",
    "status": "Assigned to Contractor",
    "contractor": "IV Waste",
    "rowid": "1178182",
    "final_x": "3672756.03553",
    "final_y": "540322.265867",
    "longitude": "-90.09538037799916",
    "latitude": "29.979961541595568",
    "geocoded_column": {
      "latitude": "29.979961541595568",
      "longitude": "-90.09538037799916"
    }
  },
  {
    "service_request": "2025-1178181",
    "request_type": "Traffic Signals",
    "request_reason": "Traffic Signal Malfunctioning or Damaged",
    "date_created": "2025-03-24T15:09:20.000",
    "date_modified": "2025-03-24T15:09:22.000",
    "request_status": "Pending",
    "responsible_agency": "Department of Public Works",
    "final_address": "POLAND AVE & ST CLAUDE AVE",
    "address_councildis": "C",
    "status": "Pending",
    "rowid": "1178181",
    "final_x": "3693011.2",
    "final_y": "535005.18",
    "longitude": "-90.03159722953174",
    "latitude": "29.964724178363277",
    "geocoded_column": {
      "latitude": "29.964724178363277",
      "longitude": "-90.03159722953174"
    }
  },
  {
    "service_request": "2025-1178180",
    "request_type": "Trash/Recycling",
    "request_reason": "Request a Large Item Pick Up",
    "date_created": "2025-03-24T15:08:07.000",
    "date_modified": "2025-03-24T15:08:09.000",
    "request_status": "Pending",
    "responsible_agency": "Department of Sanitation",
    "final_address": "11130 N Idlewood Ct",
    "address_councildis": "E",
    "status": "Assigned to Contractor",
    "contractor": "Waste Pro",
    "rowid": "1178180",
    "final_x": "3716039.81464",
    "final_y": "560093.223261",
    "longitude": "-89.95792429316029",
    "latitude": "30.032967146083504",
    "geocoded_column": {
      "latitude": "30.032967146083504",
      "longitude": "-89.95792429316029"
    }
  },
  {
    "service_request": "2025-1178179",
    "request_type": "Trash/Recycling",
    "request_reason": "Request a Large Item Pick Up",
    "date_created": "2025-03-24T15:07:10.000",
    "date_modified": "2025-03-24T15:07:12.000",
    "request_status": "Pending",
    "responsible_agency": "Department of Sanitation",
    "final_address": "4316 Prytania St",
    "address_councildis": "B",
    "status": "Assigned to Contractor",
    "contractor": "IV Waste",
    "rowid": "1178179",
    "final_x": "3671152.56679",
    "final_y": "520266.268408",
    "longitude": "-90.10112600699054",
    "latitude": "29.924861693239798",
    "geocoded_column": {
      "latitude": "29.924861693239798",
      "longitude": "-90.10112600699054"
    }
  },
  {
    "service_request": "2025-1178178",
    "request_type": "Trash/Recycling",
    "request_reason": "Repair Trash Cart",
    "date_created": "2025-03-24T15:06:21.000",
    "date_modified": "2025-03-24T15:06:33.000",
    "request_status": "Pending",
    "responsible_agency": "Department of Sanitation",
    "final_address": "4951 Pentland Dr",
    "address_councildis": "E",
    "status": "Assigned to Contractor",
    "contractor": "Waste Pro",
    "rowid": "1178178",
    "final_x": "3718738.32793",
    "final_y": "558283.710428",
    "longitude": "-89.94946590764432",
    "latitude": "30.027902374015472",
    "geocoded_column": {
      "latitude": "30.027902374015472",
      "longitude": "-89.94946590764432"
    }
  },
  {
    "service_request": "2025-1178177",
    "request_type": "Drainage",
    "request_reason": "Ditch and Culvert Maintenance",
    "date_created": "2025-03-24T15:06:14.000",
    "date_modified": "2025-03-24T15:06:17.000",
    "request_status": "Pending",
    "responsible_agency": "Department of Public Works",
    "final_address": "2915 Chippewa St",
    "address_councildis": "B",
    "status": "Pending",
    "rowid": "1178177",
    "final_x": "3677322.77838",
    "final_y": "519234.245367",
    "longitude": "-90.0816842541874",
    "latitude": "29.921840073108086",
    "geocoded_column": {
      "latitude": "29.921840073108086",
      "longitude": "-90.0816842541874"
    }
  },
  {
    "service_request": "2025-1178176",
    "request_type": "Trash/Recycling",
    "request_reason": "Request a Large Item Pick Up",
    "date_created": "2025-03-24T15:02:43.000",
    "date_modified": "2025-03-24T15:02:45.000",
    "request_status": "Pending",
    "responsible_agency": "Department of Sanitation",
    "final_address": "11400 Curran Rd",
    "address_councildis": "E",
    "status": "Assigned to Contractor",
    "contractor": "Waste Pro",
    "rowid": "1178176",
    "final_x": "3711422.16146",
    "final_y": "566650.698403",
    "longitude": "-89.97227021459479",
    "latitude": "30.051149167532337",
    "geocoded_column": {
      "latitude": "30.051149167532337",
      "longitude": "-89.97227021459479"
    }
  },
  {
    "service_request": "2025-1178175",
    "request_type": "Trash/Recycling",
    "request_reason": "Illegal Dumping",
    "date_created": "2025-03-24T15:02:43.000",
    "date_modified": "2025-03-24T15:02:45.000",
    "request_status": "Pending",
    "responsible_agency": "Department of Sanitation",
    "final_address": "7112 Barrington Ct",
    "address_councildis": "E",
    "status": "Pending",
    "rowid": "1178175",
    "final_x": "3713931.4908",
    "final_y": "565224.572578",
    "longitude": "-89.96439299243755",
    "latitude": "30.047145706583247",
    "geocoded_column": {
      "latitude": "30.047145706583247",
      "longitude": "-89.96439299243755"
    }
  },
  {
    "service_request": "2025-1178174",
    "request_type": "Trash/Recycling",
    "request_reason": "Request a Large Item Pick Up",
    "date_created": "2025-03-24T15:01:42.000",
    "date_modified": "2025-03-24T15:01:44.000",
    "request_status": "Pending",
    "responsible_agency": "Department of Sanitation",
    "final_address": "1731 Lesseps St",
    "address_councildis": "D",
    "status": "Assigned to Contractor",
    "contractor": "IV Waste",
    "rowid": "1178174",
    "final_x": "3693360.74006",
    "final_y": "537584.966088",
    "longitude": "-90.03040077382468",
    "latitude": "29.971806753150652",
    "geocoded_column": {
      "latitude": "29.971806753150652",
      "longitude": "-90.03040077382468"
    }
  },
  {
    "service_request": "2025-1178173",
    "request_type": "Trash/Recycling",
    "request_reason": "Order Trash Cart",
    "date_created": "2025-03-24T14:58:11.000",
    "date_modified": "2025-03-24T14:58:14.000",
    "request_status": "Pending",
    "responsible_agency": "Department of Sanitation",
    "final_address": "1722 Port St",
    "address_councildis": "D",
    "status": "Assigned to Contractor",
    "contractor": "IV Waste",
    "rowid": "1178173",
    "final_x": "3688021.25455",
    "final_y": "538853.193161",
    "longitude": "-90.04721870117402",
    "latitude": "29.975459796885367",
    "geocoded_column": {
      "latitude": "29.975459796885367",
      "longitude": "-90.04721870117402"
    }
  },
  {
    "service_request": "2025-1178172",
    "request_type": "Trash/Recycling",
    "request_reason": "Request a Large Item Pick Up",
    "date_created": "2025-03-24T14:56:51.000",
    "date_modified": "2025-03-24T14:56:53.000",
    "request_status": "Pending",
    "responsible_agency": "Department of Sanitation",
    "final_address": "2325 Constance St",
    "address_councildis": "B",
    "status": "Assigned to Contractor",
    "contractor": "IV Waste",
    "rowid": "1178172",
    "final_x": "3678538.76923",
    "final_y": "521496.812601",
    "longitude": "-90.07776762792575",
    "latitude": "29.928024817697104",
    "geocoded_column": {
      "latitude": "29.928024817697104",
      "longitude": "-90.07776762792575"
    }
  },
  {
    "service_request": "2025-1178171",
    "request_type": "Trash/Recycling",
    "request_reason": "Repair Trash Cart",
    "date_created": "2025-03-24T14:53:34.000",
    "date_modified": "2025-03-24T14:54:56.000",
    "request_status": "Pending",
    "responsible_agency": "Department of Sanitation",
    "final_address": "103 Pinewood Ct",
    "address_councildis": "C",
    "status": "Assigned to Contractor",
    "contractor": "Richards Disposal",
    "rowid": "1178171",
    "final_x": "3695828.29706",
    "final_y": "523251.873467",
    "longitude": "-90.02312547677981",
    "latitude": "29.93231838328769",
    "geocoded_column": {
      "latitude": "29.93231838328769",
      "longitude": "-90.02312547677981"
    }
  },
  {
    "service_request": "2025-1178170",
    "request_type": "Trash/Recycling",
    "request_reason": "Request a Large Item Pick Up",
    "date_created": "2025-03-24T14:53:16.000",
    "date_modified": "2025-03-24T14:53:25.000",
    "request_status": "Pending",
    "responsible_agency": "Department of Sanitation",
    "final_address": "7141 Whitmore Pl",
    "address_councildis": "E",
    "status": "Assigned to Contractor",
    "contractor": "Waste Pro",
    "rowid": "1178170",
    "final_x": "3718705.64204",
    "final_y": "569735.848742",
    "longitude": "-89.94913203428686",
    "latitude": "30.059392158071127",
    "geocoded_column": {
      "latitude": "30.059392158071127",
      "longitude": "-89.94913203428686"
    }
  },
  {
    "service_request": "2025-1178169",
    "request_type": "Trash/Recycling",
    "request_reason": "Request a Large Item Pick Up",
    "date_created": "2025-03-24T14:52:51.000",
    "date_modified": "2025-03-24T14:52:53.000",
    "request_status": "Pending",
    "responsible_agency": "Department of Sanitation",
    "final_address": "6598 Milne Blvd",
    "address_councildis": "A",
    "status": "Assigned to Contractor",
    "contractor": "IV Waste",
    "rowid": "1178169",
    "final_x": "3667323.71124",
    "final_y": "551545.376597",
    "longitude": "-90.11216019115976",
    "latitude": "30.01098150075405",
    "geocoded_column": {
      "latitude": "30.01098150075405",
      "longitude": "-90.11216019115976"
    }
  },
  {
    "service_request": "2025-1178168",
    "request_type": "Trash/Recycling",
    "request_reason": "Missed Trash Pick-Up",
    "date_created": "2025-03-24T14:47:58.000",
    "date_modified": "2025-03-24T14:48:01.000",
    "request_status": "Pending",
    "responsible_agency": "Department of Sanitation",
    "final_address": "4752 Pecan St",
    "address_councildis": "E",
    "status": "Assigned to Contractor",
    "contractor": "Waste Pro",
    "rowid": "1178168",
    "final_x": "3701723.19953",
    "final_y": "554360.126232",
    "longitude": "-90.00337609630766",
    "latitude": "30.017668088281557",
    "geocoded_column": {
      "latitude": "30.017668088281557",
      "longitude": "-90.00337609630766"
    }
  },
  {
    "service_request": "2025-1178167",
    "request_type": "Health Related Request",
    "request_reason": "Homeless Encampment Complaint",
    "date_created": "2025-03-24T14:46:44.000",
    "date_modified": "2025-03-24T14:46:45.000",
    "request_status": "Pending",
    "responsible_agency": "Health Department",
    "final_address": "4600 Dreux Ave",
    "address_councildis": "D",
    "status": "Pending",
    "rowid": "1178167",
    "final_x": "3690638.17699",
    "final_y": "552898.644887",
    "longitude": "-90.03845248695937",
    "latitude": "30.013998672404433",
    "geocoded_column": {
      "latitude": "30.013998672404433",
      "longitude": "-90.03845248695937"
    }
  },
  {
    "service_request": "2025-1178166",
    "request_type": "Trash/Recycling",
    "request_reason": "Request a Large Item Pick Up",
    "date_created": "2025-03-24T14:41:04.000",
    "date_modified": "2025-03-24T14:41:05.000",
    "request_status": "Pending",
    "responsible_agency": "Department of Sanitation",
    "final_address": "11509 Curran Rd",
    "address_councildis": "E",
    "status": "Assigned to Contractor",
    "contractor": "Waste Pro",
    "rowid": "1178166",
    "final_x": "3711840.4051",
    "final_y": "567055.943588",
    "longitude": "-89.97093306916945",
    "latitude": "30.052249760392563",
    "geocoded_column": {
      "latitude": "30.052249760392563",
      "longitude": "-89.97093306916945"
    }
  },
  {
    "service_request": "2025-1178165",
    "request_type": "Trash/Recycling",
    "request_reason": "Request a Large Item Pick Up",
    "date_created": "2025-03-24T14:35:17.000",
    "date_modified": "2025-03-24T14:35:19.000",
    "request_status": "Pending",
    "responsible_agency": "Department of Sanitation",
    "final_address": "3811 Red Cypress Dr",
    "address_councildis": "C",
    "status": "Assigned to Contractor",
    "contractor": "Richards Disposal",
    "rowid": "1178165",
    "final_x": "3703630.7347",
    "final_y": "512166.636465",
    "longitude": "-89.99890164242139",
    "latitude": "29.901590172061162",
    "geocoded_column": {
      "latitude": "29.901590172061162",
      "longitude": "-89.99890164242139"
    }
  },
  {
    "service_request": "2025-1178164",
    "request_type": "Property Maintenance",
    "request_reason": "Property Maintenance",
    "date_created": "2025-03-24T14:34:26.000",
    "date_modified": "2025-03-24T14:34:27.000",
    "request_status": "Pending",
    "responsible_agency": "Department of Code Enforcement",
    "final_address": "3501 Inwood Ave",
    "address_councildis": "C",
    "status": "Pending",
    "rowid": "1178164",
    "final_x": "3703205.49111",
    "final_y": "515217.290227",
    "longitude": "-90.00013165461723",
    "latitude": "29.90999204402429",
    "geocoded_column": {
      "latitude": "29.90999204402429",
      "longitude": "-90.00013165461723"
    }
  },
  {
    "service_request": "2025-1178163",
    "request_type": "Trash/Recycling",
    "request_reason": "Request a Large Item Pick Up",
    "date_created": "2025-03-24T14:33:29.000",
    "date_modified": "2025-03-24T14:33:32.000",
    "request_status": "Pending",
    "responsible_agency": "Department of Sanitation",
    "final_address": "2145 Beck St",
    "address_councildis": "C",
    "status": "Assigned to Contractor",
    "contractor": "Richards Disposal",
    "rowid": "1178163",
    "final_x": "3700423.12317",
    "final_y": "523036.440827",
    "longitude": "-90.00862799750014",
    "latitude": "29.931580752663848",
    "geocoded_column": {
      "latitude": "29.931580752663848",
      "longitude": "-90.00862799750014"
    }
  },
  {
    "service_request": "2025-1178162",
    "request_type": "Trash/Recycling",
    "request_reason": "Request a Large Item Pick Up",
    "date_created": "2025-03-24T14:32:44.000",
    "date_modified": "2025-03-24T14:32:46.000",
    "request_status": "Pending",
    "responsible_agency": "Department of Sanitation",
    "final_address": "7360 Shaw Ave",
    "address_councildis": "E",
    "status": "Assigned to Contractor",
    "contractor": "Waste Pro",
    "rowid": "1178162",
    "final_x": "3707570.45105",
    "final_y": "563480.8632",
    "longitude": "-89.98456202080328",
    "latitude": "30.04255862635348",
    "geocoded_column": {
      "latitude": "30.04255862635348",
      "longitude": "-89.98456202080328"
    }
  },
  {
    "service_request": "2025-1178161",
    "request_type": "Trash/Recycling",
    "request_reason": "Request a Large Item Pick Up",
    "date_created": "2025-03-24T14:32:24.000",
    "date_modified": "2025-03-24T14:32:26.000",
    "request_status": "Pending",
    "responsible_agency": "Department of Sanitation",
    "final_address": "7309 Ligustrum Dr",
    "address_councildis": "E",
    "status": "Assigned to Contractor",
    "contractor": "Waste Pro",
    "rowid": "1178161",
    "final_x": "3701926.16458",
    "final_y": "560208.045085",
    "longitude": "-90.00252021238698",
    "latitude": "30.033741130948115",
    "geocoded_column": {
      "latitude": "30.033741130948115",
      "longitude": "-90.00252021238698"
    }
  },
  {
    "service_request": "2025-1178160",
    "request_type": "Trash/Recycling",
    "request_reason": "Request a Large Item Pick Up",
    "date_created": "2025-03-24T14:30:46.000",
    "date_modified": "2025-03-24T14:30:48.000",
    "request_status": "Pending",
    "responsible_agency": "Department of Sanitation",
    "final_address": "10940 Harrow Rd",
    "address_councildis": "E",
    "status": "Assigned to Contractor",
    "contractor": "Waste Pro",
    "rowid": "1178160",
    "final_x": "3711778.88235",
    "final_y": "563817.623201",
    "longitude": "-89.97124919197346",
    "latitude": "30.043347700071017",
    "geocoded_column": {
      "latitude": "30.043347700071017",
      "longitude": "-89.97124919197346"
    }
  },
  {
    "service_request": "2025-1178159",
    "request_type": "Utility Poles",
    "request_reason": "Wires Sagging/Hanging Low",
    "date_created": "2025-03-24T14:30:40.000",
    "date_modified": "2025-03-24T14:30:44.000",
    "request_status": "Pending",
    "responsible_agency": "Utility Company Collective",
    "final_address": "6520 Avenue A",
    "address_councildis": "A",
    "status": "Pending",
    "rowid": "1178159",
    "final_x": "3665956.47911",
    "final_y": "551536.858581",
    "longitude": "-90.11648012243575",
    "latitude": "30.01099807393219",
    "geocoded_column": {
      "latitude": "30.01099807393219",
      "longitude": "-90.11648012243575"
    }
  },
  {
    "service_request": "2025-1178158",
    "request_type": "Property Maintenance",
    "request_reason": "Property Maintenance",
    "date_created": "2025-03-24T14:30:13.000",
    "date_modified": "2025-03-24T14:30:16.000",
    "request_status": "Pending",
    "responsible_agency": "Department of Code Enforcement",
    "final_address": "6866 Milne Blvd",
    "address_councildis": "A",
    "status": "Pending",
    "rowid": "1178158",
    "final_x": "3667489.80506",
    "final_y": "553291.347543",
    "longitude": "-90.11157661617497",
    "latitude": "30.015777439482186",
    "geocoded_column": {
      "latitude": "30.015777439482186",
      "longitude": "-90.11157661617497"
    }
  },
  {
    "service_request": "2025-1178157",
    "request_type": "Healthy Homes",
    "request_reason": "Healthy Homes",
    "date_created": "2025-03-24T14:29:45.000",
    "date_modified": "2025-03-24T14:29:47.000",
    "request_status": "Pending",
    "responsible_agency": "Department of Code Enforcement",
    "final_address": "10500 Hayne Blvd Apt 307",
    "address_councildis": "E",
    "status": "Pending",
    "rowid": "1178157",
    "final_x": "3708608.76228",
    "final_y": "566310.436067",
    "longitude": "-89.98117504812481",
    "latitude": "30.050305170690827",
    "geocoded_column": {
      "latitude": "30.050305170690827",
      "longitude": "-89.98117504812481"
    }
  },
  {
    "service_request": "2025-1178156",
    "request_type": "Trash/Recycling",
    "request_reason": "Request a Large Item Pick Up",
    "date_created": "2025-03-24T14:29:41.000",
    "date_modified": "2025-03-24T14:29:42.000",
    "request_status": "Pending",
    "responsible_agency": "Department of Sanitation",
    "final_address": "10 Fortress Rd",
    "address_councildis": "D",
    "status": "Assigned to Contractor",
    "contractor": "IV Waste",
    "rowid": "1178156",
    "final_x": "3676558.97902",
    "final_y": "554613.978968",
    "longitude": "-90.08287649402884",
    "latitude": "30.01914518999604",
    "geocoded_column": {
      "latitude": "30.01914518999604",
      "longitude": "-90.08287649402884"
    }
  },
  {
    "service_request": "2025-1178155",
    "request_type": "Trash/Recycling",
    "request_reason": "Request a Large Item Pick Up",
    "date_created": "2025-03-24T14:29:05.000",
    "date_modified": "2025-03-24T14:29:41.000",
    "request_status": "Pending",
    "responsible_agency": "Department of Sanitation",
    "final_address": "1520 Bartholomew St",
    "address_councildis": "D",
    "status": "Assigned to Contractor",
    "contractor": "IV Waste",
    "rowid": "1178155",
    "final_x": "3692169.89763",
    "final_y": "536988.433928",
    "longitude": "-90.03418298514738",
    "latitude": "29.970203680418766",
    "geocoded_column": {
      "latitude": "29.970203680418766",
      "longitude": "-90.03418298514738"
    }
  },
  {
    "service_request": "2025-1178154",
    "request_type": "Abandoned Vehicles",
    "request_reason": "Abandoned/Junk Vehicles",
    "date_created": "2025-03-24T14:27:36.000",
    "date_modified": "2025-03-24T14:29:31.000",
    "request_status": "Pending",
    "responsible_agency": "Department of Public Works",
    "final_address": "1301 Magazine St",
    "address_councildis": "B",
    "status": "Pending",
    "rowid": "1178154",
    "final_x": "3680489.77416",
    "final_y": "525194.666493",
    "longitude": "-90.07148020316626",
    "latitude": "29.938133768587747",
    "geocoded_column": {
      "latitude": "29.938133768587747",
      "longitude": "-90.07148020316626"
    }
  },
  {
    "service_request": "2025-1178153",
    "request_type": "Trash/Recycling",
    "request_reason": "Request a Large Item Pick Up",
    "date_created": "2025-03-24T14:27:24.000",
    "date_modified": "2025-03-24T14:27:25.000",
    "request_status": "Pending",
    "responsible_agency": "Department of Sanitation",
    "final_address": "4634 Gawain Dr",
    "address_councildis": "E",
    "status": "Assigned to Contractor",
    "contractor": "Waste Pro",
    "rowid": "1178153",
    "final_x": "3706972.99998",
    "final_y": "554663.207064",
    "longitude": "-89.98677767379988",
    "latitude": "30.01833285389902",
    "geocoded_column": {
      "latitude": "30.01833285389902",
      "longitude": "-89.98677767379988"
    }
  },
  {
    "service_request": "2025-1178152",
    "request_type": "Trash/Recycling",
    "request_reason": "Repair Trash Cart",
    "date_created": "2025-03-24T14:25:49.000",
    "date_modified": "2025-03-24T14:26:32.000",
    "request_status": "Pending",
    "responsible_agency": "Department of Sanitation",
    "final_address": "2715 N Miro St",
    "address_councildis": "D",
    "status": "Assigned to Contractor",
    "contractor": "IV Waste",
    "rowid": "1178152",
    "final_x": "3688634.19791",
    "final_y": "540526.357771",
    "longitude": "-90.04522346098771",
    "latitude": "29.98004147622982",
    "geocoded_column": {
      "latitude": "29.98004147622982",
      "longitude": "-90.04522346098771"
    }
  },
  {
    "service_request": "2025-1178151",
    "request_type": "Abandoned Vehicles",
    "request_reason": "Abandoned/Junk Vehicles",
    "date_created": "2025-03-24T14:25:41.000",
    "date_modified": "2025-03-24T14:27:50.000",
    "request_status": "Pending",
    "responsible_agency": "Department of Public Works",
    "final_address": "4401 America St",
    "address_councildis": "E",
    "status": "Pending",
    "rowid": "1178151",
    "final_x": "3699944.0426",
    "final_y": "553148.030743",
    "longitude": "-90.00904176092706",
    "latitude": "30.014391946747747",
    "geocoded_column": {
      "latitude": "30.014391946747747",
      "longitude": "-90.00904176092706"
    }
  },
  {
    "service_request": "2025-1178150",
    "request_type": "Trash/Recycling",
    "request_reason": "Request a Large Item Pick Up",
    "date_created": "2025-03-24T14:25:17.000",
    "date_modified": "2025-03-24T14:25:19.000",
    "request_status": "Pending",
    "responsible_agency": "Department of Sanitation",
    "final_address": "4858 Tulip St",
    "address_councildis": "E",
    "status": "Assigned to Contractor",
    "contractor": "Waste Pro",
    "rowid": "1178150",
    "final_x": "3701933.72567",
    "final_y": "554988.474648",
    "longitude": "-90.00268786556178",
    "latitude": "30.019389085588884",
    "geocoded_column": {
      "latitude": "30.019389085588884",
      "longitude": "-90.00268786556178"
    }
  },