[
  {
    "service_request": "2024-1086556",
    "request_type": "Property Maintenance",
    "request_reason": "Property Maintenance",
    "date_created": "2024-04-20T22:29:29.000",
    "date_modified": "2024-04-20T22:29:29.000",
    "request_status": "Pending",
    "responsible_agency": "Department of Code Enforcement",
    "final_address": "4910 Alsace St",
    "address_councildis": "E",
    "status": "Pending",
    "rowid": "1086556",
    "final_x": "3730445.84192",
    "final_y": "562973.046624",
    "longitude": "-89.91228779555362",
    "latitude": "30.040402121247237",
    "geocoded_column": {
      "latitude": "30.040402121247237",
      "longitude": "-89.91228779555362"
    }
  },
  {
    "service_request": "2024-1086555",
    "request_type": "Roads/Drainage",
    "request_reason": "Pothole",
    "date_created": "2024-04-20T22:27:25.000",
    "date_modified": "2024-04-20T22:27:25.000",
    "request_status": "Pending",
    "responsible_agency": "Department of Public Works",
    "final_address": "4723 Rhodes Dr",
    "address_councildis": "E",
    "status": "Pending",
    "rowid": "1086555",
    "final_x": "3702579.14807",
    "final_y": "554425.649304",
    "longitude": "-90.00066924606017",
    "latitude": "30.017820906717727",
    "geocoded_column": {
      "latitude": "30.017820906717727",
      "longitude": "-90.00066924606017"
    }
  },
  {
    "service_request": "2024-1086554",
    "request_type": "Graffiti Removal",
    "request_reason": "Graffiti Removal",
    "date_created": "2024-04-20T21:59:46.000",
    "date_modified": "2024-04-20T21:59:46.000",
    "request_status": "Pending",
    "responsible_agency": "Department of Code Enforcement",
    "final_address": "815 N Derbigny St",
    "address_councildis": "D",
    "status": "Pending",
    "rowid": "1086554",
    "final_x": "3679698.88495",
    "final_y": "535292.512454",
    "longitude": "-90.07362663341081",
    "latitude": "29.96592337415934",
    "geocoded_column": {
      "latitude": "29.96592337415934",
      "longitude": "-90.07362663341081"
    }
  },
  {
    "service_request": "2024-1086553",
    "request_type": "Roads/Drainage",
    "request_reason": "Catch Basin - Clogged",
    "date_created": "2024-04-20T21:40:57.000",
    "date_modified": "2024-04-20T21:40:57.000",
    "request_status": "Pending",
    "responsible_agency": "Department of Public Works",
    "final_address": "2524 St Thomas St",
    "address_councildis": "B",
    "status": "Pending",
    "rowid": "1086553",
    "final_x": "3678671.40603",
    "final_y": "519663.211",
    "longitude": "-90.07741236722671",
    "latitude": "29.922979013342065",
    "geocoded_column": {
      "latitude": "29.922979013342065",
      "longitude": "-90.07741236722671"
    }
  },
  {
    "service_request": "2024-1086552",
    "request_type": "Trash/Recycling",
    "request_reason": "Request a Large Item Pick Up",
    "date_created": "2024-04-20T21:39:38.000",
    "date_modified": "2024-04-20T21:39:39.000",
    "request_status": "Pending",
    "responsible_agency": "Department of Sanitation",
    "final_address": "2213 Onzaga St Apt A",
    "address_councildis": "D",
    "status": "Assigned to Contractor",
    "contractor": "IV Waste",
    "rowid": "1086552",
    "final_x": "3680647.89819",
    "final_y": "539490.400778",
    "longitude": "-90.07048357411448",
    "latitude": "29.977437398255123",
    "geocoded_column": {
      "latitude": "29.977437398255123",
      "longitude": "-90.07048357411448"
    }
  },
  {
    "service_request": "2024-1086551",
    "request_type": "Traffic Signals/Signs/Striping/Streetlights",
    "request_reason": "Street Light Outage/Malfunction",
    "date_created": "2024-04-20T20:51:17.000",
    "date_modified": "2024-04-20T20:51:18.000",
    "request_status": "Pending",
    "responsible_agency": "Department of Public Works",
    "final_address": "841 Taft Pl",
    "address_councildis": "A",
    "status": "Assigned to Contractor",
    "contractor": "Legacy Professional Services",
    "rowid": "1086551",
    "final_x": "3673754.60507",
    "final_y": "539662.045194",
    "longitude": "-90.0922490623937",
    "latitude": "29.978116458230247",
    "geocoded_column": {
      "latitude": "29.978116458230247",
      "longitude": "-90.0922490623937"
    }
  },
  {
    "service_request": "2024-1086550",
    "request_type": "Trash/Recycling",
    "request_reason": "Replace Trash Cart",
    "date_created": "2024-04-20T20:51:15.000",
    "date_modified": "2024-04-20T20:51:16.000",
    "request_status": "Pending",
    "responsible_agency": "Department of Sanitation",
    "final_address": "7932 Arcadia Ln",
    "address_councildis": "E",
    "status": "Assigned to Contractor",
    "contractor": "Waste Pro",
    "rowid": "1086550",
    "final_x": "3711769.1203",
    "final_y": "567922.811429",
    "longitude": "-89.97112580427756",
    "latitude": "30.05463562445214",
    "geocoded_column": {
      "latitude": "30.05463562445214",
      "longitude": "-89.97112580427756"
    }
  },
  {
    "service_request": "2024-1086549",
    "request_type": "Trash/Recycling",
    "request_reason": "Order Recycling Cart",
    "date_created": "2024-04-20T20:50:30.000",
    "date_modified": "2024-04-20T20:50:30.000",
    "request_status": "Pending",
    "responsible_agency": "Department of Sanitation",
    "final_address": "7932 Arcadia Ln",
    "address_councildis": "E",
    "status": "Pending",
    "rowid": "1086549",
    "final_x": "3711769.1203",
    "final_y": "567922.811429",
    "longitude": "-89.97112580427756",
    "latitude": "30.05463562445214",
    "geocoded_column": {
      "latitude": "30.05463562445214",
      "longitude": "-89.97112580427756"
    }
  },
  {
    "service_request": "2024-1086548",
    "request_type": "Abandoned Vehicles",
    "request_reason": "Abandoned/Junk Vehicles",
    "date_created": "2024-04-20T20:38:38.000",
    "date_modified": "2024-04-20T20:38:38.000",
    "request_status": "Pending",
    "responsible_agency": "Department of Public Works",
    "final_address": "New Orleans, Louisiana",
    "status": "Pending",
    "rowid": "1086548",
    "longitude": "0.0",
    "latitude": "0.0",
    "geocoded_column": {
      "latitude": "0.0",
      "longitude": "0.0"
    }
  },
  {
    "service_request": "2024-1086547",
    "request_type": "Roads/Drainage",
    "request_reason": "Street Subsidence (Sinking)",
    "date_created": "2024-04-20T19:04:05.000",
    "date_modified": "2024-04-20T19:04:05.000",
    "request_status": "Pending",
    "responsible_agency": "Department of Public Works",
    "final_address": "4337 Baudin St",
    "address_councildis": "A",
    "status": "Pending",
    "rowid": "1086547",
    "final_x": "3669080.62542",
    "final_y": "537893.843849",
    "longitude": "-90.10707096373531",
    "latitude": "29.97339287320216",
    "geocoded_column": {
      "latitude": "29.97339287320216",
      "longitude": "-90.10707096373531"
    }
  },
  {
    "service_request": "2024-1086546",
    "request_type": "Health Related Request",
    "request_reason": "Noise Ordinance Complaint",
    "date_created": "2024-04-20T18:56:48.000",
    "date_modified": "2024-04-20T18:56:48.000",
    "request_status": "Pending",
    "responsible_agency": "Health Department",
    "final_address": "1015 N Claiborne Ave, New Orleans, Louisiana, 70116",
    "address_councildis": "D",
    "status": "Pending",
    "rowid": "1086546",
    "final_x": "3680383.01128",
    "final_y": "535722.163847",
    "longitude": "-90.07145124149515",
    "latitude": "29.967084070169896",
    "geocoded_column": {
      "latitude": "29.967084070169896",
      "longitude": "-90.07145124149515"
    }
  },
  {
    "service_request": "2024-1086545",
    "request_type": "Abandoned Vehicles",
    "request_reason": "Abandoned/Junk Vehicles",
    "date_created": "2024-04-20T18:54:29.000",
    "date_modified": "2024-04-20T18:54:29.000",
    "request_status": "Pending",
    "responsible_agency": "Department of Public Works",
    "final_address": "1300 BLK Sixth St",
    "address_councildis": "B",
    "status": "Pending",
    "rowid": "1086545",
    "final_x": "3676135.20544",
    "final_y": "521283.286946",
    "longitude": "-90.0853624765712",
    "latitude": "29.927509891506",
    "geocoded_column": {
      "latitude": "29.927509891506",
      "longitude": "-90.0853624765712"
    }
  },
  {
    "service_request": "2024-1086544",
    "request_type": "Roads/Drainage",
    "request_reason": "Pothole",
    "date_created": "2024-04-20T18:40:35.000",
    "date_modified": "2024-04-20T18:40:35.000",
    "request_status": "Pending",
    "responsible_agency": "Department of Public Works",
    "final_address": "804 Webster St",
    "address_councildis": "A",
    "status": "Pending",
    "rowid": "1086544",
    "final_x": "3664124.39348",
    "final_y": "519522.014135",
    "longitude": "-90.1233365457699",
    "latitude": "29.923021174551675",
    "geocoded_column": {
      "latitude": "29.923021174551675",
      "longitude": "-90.1233365457699"
    }
  },
  {
    "service_request": "2024-1086543",
    "request_type": "Roads/Drainage",
    "request_reason": "Catch Basin - Broken/Damage",
    "date_created": "2024-04-20T18:36:41.000",
    "date_modified": "2024-04-20T18:36:41.000",
    "request_status": "Pending",
    "responsible_agency": "Department of Public Works",
    "final_address": "1040 Calhoun St",
    "address_councildis": "A",
    "status": "Pending",
    "rowid": "1086543",
    "final_x": "3663702.86874",
    "final_y": "520554.240248",
    "longitude": "-90.1246327712964",
    "latitude": "29.925871706047587",
    "geocoded_column": {
      "latitude": "29.925871706047587",
      "longitude": "-90.1246327712964"
    }
  },
  {
    "service_request": "2024-1086542",
    "request_type": "Abandoned Vehicles",
    "request_reason": "Abandoned/Junk Vehicles",
    "date_created": "2024-04-20T18:33:49.000",
    "date_modified": "2024-04-20T18:33:49.000",
    "request_status": "Pending",
    "responsible_agency": "Department of Public Works",
    "final_address": "3916 Odin St",
    "address_councildis": "D",
    "status": "Pending",
    "rowid": "1086542",
    "final_x": "3688469.92719",
    "final_y": "553862.956439",
    "longitude": "-90.04526878660592",
    "latitude": "30.016717368370315",
    "geocoded_column": {
      "latitude": "30.016717368370315",
      "longitude": "-90.04526878660592"
    }
  },
  {
    "service_request": "2024-1086541",
    "request_type": "Trash/Recycling",
    "request_reason": "Request a Large Item Pick Up",
    "date_created": "2024-04-20T18:22:52.000",
    "date_modified": "2024-04-20T18:22:52.000",
    "request_status": "Pending",
    "responsible_agency": "Department of Sanitation",
    "final_address": "409 Eliza St",
    "address_councildis": "C",
    "status": "Assigned to Contractor",
    "contractor": "Richards Disposal",
    "rowid": "1086541",
    "final_x": "3686737.81487",
    "final_y": "529689.626753",
    "longitude": "-90.05159587744112",
    "latitude": "29.950302711255198",
    "geocoded_column": {
      "latitude": "29.950302711255198",
      "longitude": "-90.05159587744112"
    }
  },
  {
    "service_request": "2024-1086540",
    "request_type": "Trash/Recycling",
    "request_reason": "Request a Large Item Pick Up",
    "date_created": "2024-04-20T18:22:41.000",
    "date_modified": "2024-04-20T18:22:41.000",
    "request_status": "Pending",
    "responsible_agency": "Department of Sanitation",
    "final_address": "409 Eliza St",
    "address_councildis": "C",
    "status": "Assigned to Contractor",
    "contractor": "Richards Disposal",
    "rowid": "1086540",
    "final_x": "3686737.81487",
    "final_y": "529689.626753",
    "longitude": "-90.05159587744112",
    "latitude": "29.950302711255198",
    "geocoded_column": {
      "latitude": "29.950302711255198",
      "longitude": "-90.05159587744112"
    }
  },
  {
    "service_request": "2024-1086539",
    "request_type": "Trash/Recycling",
    "request_reason": "MIssed Recycling Pick-Up",
    "date_created": "2024-04-20T18:22:00.000",
    "date_modified": "2024-04-20T18:22:00.000",
    "request_status": "Pending",
    "responsible_agency": "Department of Sanitation",
    "final_address": "1900 Foucher St",
    "address_councildis": "B",
    "status": "Assigned to Contractor",
    "contractor": "IV Waste",
    "rowid": "1086539",
    "final_x": "3673083.75105",
    "final_y": "522328.571898",
    "longitude": "-90.0949595252671",
    "latitude": "29.9304751192148",
    "geocoded_column": {
      "latitude": "29.9304751192148",
      "longitude": "-90.0949595252671"
    }
  },
  {
    "service_request": "2024-1086538",
    "request_type": "Trash/Recycling",
    "request_reason": "Request a Large Item Pick Up",
    "date_created": "2024-04-20T18:11:25.000",
    "date_modified": "2024-04-20T18:11:26.000",
    "request_status": "Pending",
    "responsible_agency": "Department of Sanitation",
    "final_address": "35 Honeysuckle Ln",
    "address_councildis": "E",
    "status": "Assigned to Contractor",
    "contractor": "Waste Pro",
    "rowid": "1086538",
    "final_x": "3713024.20478",
    "final_y": "568411.211237",
    "longitude": "-89.96714039497594",
    "latitude": "30.05593743804322",
    "geocoded_column": {
      "latitude": "30.05593743804322",
      "longitude": "-89.96714039497594"
    }
  },
  {
    "service_request": "2024-1086537",
    "request_type": "Health Related Request",
    "request_reason": "Noise Ordinance Complaint",
    "date_created": "2024-04-20T17:56:00.000",
    "date_modified": "2024-04-20T17:56:00.000",
    "request_status": "Pending",
    "responsible_agency": "Health Department",
    "final_address": "10 Arts St",
    "address_councildis": "D",
    "status": "Pending",
    "rowid": "1086537",
    "final_x": "3685904.05782",
    "final_y": "552351.586262",
    "longitude": "-90.05342917503967",
    "latitude": "30.012640714544162",
    "geocoded_column": {
      "latitude": "30.012640714544162",
      "longitude": "-90.05342917503967"
    }
  },
  {
    "service_request": "2024-1086536",
    "request_type": "Health Related Request",
    "request_reason": "Noise Ordinance Complaint",
    "date_created": "2024-04-20T17:52:58.000",
    "date_modified": "2024-04-20T17:52:58.000",
    "request_status": "Pending",
    "responsible_agency": "Health Department",
    "final_address": "1015 N Claiborne Ave, New Orleans, Louisiana, 70116",
    "address_councildis": "D",
    "status": "Pending",
    "rowid": "1086536",
    "final_x": "3680383.01128",
    "final_y": "535722.163847",
    "longitude": "-90.07145124149515",
    "latitude": "29.967084070169896",
    "geocoded_column": {
      "latitude": "29.967084070169896",
      "longitude": "-90.07145124149515"
    }
  },
  {
    "service_request": "2024-1086535",
    "request_type": "Roads/Drainage",
    "request_reason": "Accessibility Ramps, Curbs and Sidewalk Repair",
    "date_created": "2024-04-20T17:49:07.000",
    "date_modified": "2024-04-20T17:49:07.000",
    "request_status": "Pending",
    "responsible_agency": "Department of Public Works",
    "final_address": "627 Napoleon Ave",
    "address_councildis": "B",
    "status": "Pending",
    "rowid": "1086535",
    "final_x": "3671227.0203",
    "final_y": "517984.963318",
    "longitude": "-90.10096843240312",
    "latitude": "29.918586628266038",
    "geocoded_column": {
      "latitude": "29.918586628266038",
      "longitude": "-90.10096843240312"
    }
  },
  {
    "service_request": "2024-1086534",
    "request_type": "Roads/Drainage",
    "request_reason": "Debris in Roadway",
    "date_created": "2024-04-20T17:47:29.000",
    "date_modified": "2024-04-20T17:47:29.000",
    "request_status": "Pending",
    "responsible_agency": "Department of Public Works",
    "final_address": "627 Napoleon Ave",
    "address_councildis": "B",
    "status": "Pending",
    "rowid": "1086534",
    "final_x": "3671227.0203",
    "final_y": "517984.963318",
    "longitude": "-90.10096843240312",
    "latitude": "29.918586628266038",
    "geocoded_column": {
      "latitude": "29.918586628266038",
      "longitude": "-90.10096843240312"
    }
  },
  {
    "service_request": "2024-1086533",
    "request_type": "Trash/Recycling",
    "request_reason": "Order Trash Cart",
    "date_created": "2024-04-20T17:41:17.000",
    "date_modified": "2024-04-20T17:41:18.000",
    "request_status": "Pending",
    "responsible_agency": "Department of Sanitation",
    "final_address": "1728 Amelia St",
    "address_councildis": "B",
    "status": "Assigned to Contractor",
    "contractor": "IV Waste",
    "rowid": "1086533",
    "final_x": "3672963.77345",
    "final_y": "521702.840057",
    "longitude": "-90.09535961879918",
    "latitude": "29.92875812323761",
    "geocoded_column": {
      "latitude": "29.92875812323761",
      "longitude": "-90.09535961879918"
    }
  },
  {
    "service_request": "2024-1086532",
    "request_type": "Trash/Recycling",
    "request_reason": "Order Trash Cart",
    "date_created": "2024-04-20T17:39:18.000",
    "date_modified": "2024-04-20T17:39:19.000",
    "request_status": "Pending",
    "responsible_agency": "Department of Sanitation",
    "final_address": "1728 Amelia St",
    "address_councildis": "B",
    "status": "Assigned to Contractor",
    "contractor": "IV Waste",
    "rowid": "1086532",
    "final_x": "3672963.77345",
    "final_y": "521702.840057",
    "longitude": "-90.09535961879918",
    "latitude": "29.92875812323761",
    "geocoded_column": {
      "latitude": "29.92875812323761",
      "longitude": "-90.09535961879918"
    }
  },
  {
    "service_request": "2024-1086531",
    "request_type": "Trash/Recycling",
    "request_reason": "Missed Trash Pick-Up",
    "date_created": "2024-04-20T17:38:07.000",
    "date_modified": "2024-04-20T17:38:08.000",
    "request_status": "Pending",
    "responsible_agency": "Department of Sanitation",
    "final_address": "7606 Briarwood Dr, New Orleans, Louisiana, 70128",
    "address_councildis": "E",
    "status": "Assigned to Contractor",
    "contractor": "Waste Pro",
    "rowid": "1086531",
    "final_x": "3717601.57119",
    "final_y": "570693.763239",
    "longitude": "-89.95258539685423",
    "latitude": "30.06206265117319",
    "geocoded_column": {
      "latitude": "30.06206265117319",
      "longitude": "-89.95258539685423"
    }
  },
  {
    "service_request": "2024-1086530",
    "request_type": "Roads/Drainage",
    "request_reason": "Pothole",
    "date_created": "2024-04-20T17:36:19.000",
    "date_modified": "2024-04-20T17:36:19.000",
    "request_status": "Pending",
    "responsible_agency": "Department of Public Works",
    "final_address": "3100 BLK Dryades St",
    "address_councildis": "B",
    "status": "Pending",
    "rowid": "1086530",
    "final_x": "3674258.05762",
    "final_y": "522754.764646",
    "longitude": "-90.09123782744064",
    "latitude": "29.9316120617998",
    "geocoded_column": {
      "latitude": "29.9316120617998",
      "longitude": "-90.09123782744064"
    }
  },
  {
    "service_request": "2024-1086529",
    "request_type": "Trash/Recycling",
    "request_reason": "Missed Trash Pick-Up",
    "date_created": "2024-04-20T17:32:23.000",
    "date_modified": "2024-04-20T17:32:23.000",
    "request_status": "Pending",
    "responsible_agency": "Department of Sanitation",
    "final_address": "3707 Nashville Ave",
    "address_councildis": "A",
    "status": "Assigned to Contractor",
    "contractor": "IV Waste",
    "rowid": "1086529",
    "final_x": "3668483.2242",
    "final_y": "529150.66624",
    "longitude": "-90.10925266854935",
    "latitude": "29.949369591665324",
    "geocoded_column": {
      "latitude": "29.949369591665324",
      "longitude": "-90.10925266854935"
    }
  },
  {
    "service_request": "2024-1086528",
    "request_type": "Roads/Drainage",
    "request_reason": "Street Subsidence (Sinking)",
    "date_created": "2024-04-20T17:31:53.000",
    "date_modified": "2024-04-20T17:31:53.000",
    "request_status": "Pending",
    "responsible_agency": "Department of Public Works",
    "final_address": "4434 Werner Dr",
    "address_councildis": "E",
    "status": "Pending",
    "rowid": "1086528",
    "final_x": "3704901.54673",
    "final_y": "553553.408727",
    "longitude": "-89.99336365206071",
    "latitude": "30.015348106790473",
    "geocoded_column": {
      "latitude": "30.015348106790473",
      "longitude": "-89.99336365206071"
    }
  },
  {
    "service_request": "2024-1086527",
    "request_type": "Roads/Drainage",
    "request_reason": "Catch Basin - Broken/Damage",
    "date_created": "2024-04-20T17:14:26.000",
    "date_modified": "2024-04-20T17:14:26.000",
    "request_status": "Pending",
    "responsible_agency": "Department of Public Works",
    "final_address": "2118 Harmony St",
    "address_councildis": "B",
    "status": "Pending",
    "rowid": "1086527",
    "final_x": "3673948.00244",
    "final_y": "523570.006011",
    "longitude": "-90.09218876051274",
    "latitude": "29.933862949190452",
    "geocoded_column": {
      "latitude": "29.933862949190452",
      "longitude": "-90.09218876051274"
    }
  },
  {
    "service_request": "2024-1086526",
    "request_type": "Trash/Recycling",
    "request_reason": "Missed Trash Pick-Up",
    "date_created": "2024-04-20T17:06:15.000",
    "date_modified": "2024-04-20T17:06:16.000",
    "request_status": "Pending",
    "responsible_agency": "Department of Sanitation",
    "final_address": "603 S Hennessey St",
    "address_councildis": "A",
    "status": "Assigned to Contractor",
    "contractor": "IV Waste",
    "rowid": "1086526",
    "final_x": "3669039.6946",
    "final_y": "537362.203912",
    "longitude": "-90.10721819869046",
    "latitude": "29.97193224613524",
    "geocoded_column": {
      "latitude": "29.97193224613524",
      "longitude": "-90.10721819869046"
    }
  },
  {
    "service_request": "2024-1086525",
    "request_type": "Health Related Request",
    "request_reason": "Noise Ordinance Complaint",
    "date_created": "2024-04-20T16:50:15.000",
    "date_modified": "2024-04-20T16:50:15.000",
    "request_status": "Pending",
    "responsible_agency": "Health Department",
    "final_address": "1015 N Claiborne Ave, New Orleans, Louisiana, 70116",
    "address_councildis": "D",
    "status": "Pending",
    "rowid": "1086525",
    "final_x": "3680383.01128",
    "final_y": "535722.163847",
    "longitude": "-90.07145124149515",
    "latitude": "29.967084070169896",
    "geocoded_column": {
      "latitude": "29.967084070169896",
      "longitude": "-90.07145124149515"
    }
  },
  {
    "service_request": "2024-1086524",
    "request_type": "Roads/Drainage",
    "request_reason": "Pothole",
    "date_created": "2024-04-20T16:48:02.000",
    "date_modified": "2024-04-20T16:48:02.000",
    "request_status": "Pending",
    "responsible_agency": "Department of Public Works",
    "final_address": "2832 Royal St, New Orleans, Louisiana, 70117",
    "address_councildis": "C",
    "status": "Pending",
    "rowid": "1086524",
    "final_x": "3687516.07324",
    "final_y": "534745.017158",
    "longitude": "-90.04895963080676",
    "latitude": "29.96417933123083",
    "geocoded_column": {
      "latitude": "29.96417933123083",
      "longitude": "-90.04895963080676"
    }
  },
  {
    "service_request": "2024-1086523",
    "request_type": "Trash/Recycling",
    "request_reason": "Illegal Dumping",
    "date_created": "2024-04-20T16:47:14.000",
    "date_modified": "2024-04-20T16:47:14.000",
    "request_status": "Pending",
    "responsible_agency": "Department of Sanitation",
    "final_address": "2200 BLK Camp St",
    "address_councildis": "B",
    "status": "Pending",
    "rowid": "1086523",
    "final_x": "3678465.35268",
    "final_y": "522248.899188",
    "longitude": "-90.07797337632783",
    "latitude": "29.930095021914852",
    "geocoded_column": {
      "latitude": "29.930095021914852",
      "longitude": "-90.07797337632783"
    }
  },
  {
    "service_request": "2024-1086522",
    "request_type": "Trash/Recycling",
    "request_reason": "Illegal Dumping",
    "date_created": "2024-04-20T16:44:44.000",
    "date_modified": "2024-04-20T16:44:44.000",
    "request_status": "Pending",
    "responsible_agency": "Department of Sanitation",
    "final_address": "2200 BLK Camp St",
    "address_councildis": "B",
    "status": "Pending",
    "rowid": "1086522",
    "final_x": "3678465.35268",
    "final_y": "522248.899188",
    "longitude": "-90.07797337632783",
    "latitude": "29.930095021914852",
    "geocoded_column": {
      "latitude": "29.930095021914852",
      "longitude": "-90.07797337632783"
    }
  },
  {
    "service_request": "2024-1086521",
    "request_type": "Trash/Recycling",
    "request_reason": "Missed Trash Pick-Up",
    "date_created": "2024-04-20T16:39:41.000",
    "date_modified": "2024-04-20T16:39:41.000",
    "request_status": "Pending",
    "responsible_agency": "Department of Sanitation",
    "final_address": "1500 S Carrollton Ave",
    "address_councildis": "A",
    "status": "Assigned to Contractor",
    "contractor": "IV Waste",
    "rowid": "1086521",
    "final_x": "3662685.26663",
    "final_y": "529185.500032",
    "longitude": "-90.12755833921449",
    "latitude": "29.949634410304096",
    "geocoded_column": {
      "latitude": "29.949634410304096",
      "longitude": "-90.12755833921449"
    }
  },
  {
    "service_request": "2024-1086520",
    "request_type": "Trash/Recycling",
    "request_reason": "Request a Large Item Pick Up",
    "date_created": "2024-04-20T16:29:42.000",
    "date_modified": "2024-04-20T16:29:43.000",
    "request_status": "Pending",
    "responsible_agency": "Department of Sanitation",
    "final_address": "3200 Somerset Dr",
    "address_councildis": "C",
    "status": "Assigned to Contractor",
    "contractor": "Richards Disposal",
    "rowid": "1086520",
    "final_x": "3702616.47287",
    "final_y": "519444.380663",
    "longitude": "-90.00183566887375",
    "latitude": "29.92163392546993",
    "geocoded_column": {
      "latitude": "29.92163392546993",
      "longitude": "-90.00183566887375"
    }
  },
  {
    "service_request": "2024-1086519",
    "request_type": "Trash/Recycling",
    "request_reason": "Illegal Dumping",
    "date_created": "2024-04-20T16:21:28.000",
    "date_modified": "2024-04-20T16:21:28.000",
    "request_status": "Pending",
    "responsible_agency": "Department of Sanitation",
    "final_address": "VINCENT RD & CURRAN BLVD",
    "address_councildis": "E",
    "status": "Pending",
    "rowid": "1086519",
    "final_x": "3718173.1",
    "final_y": "571914.18",
    "longitude": "-89.95073225935994",
    "latitude": "30.065399338708197",
    "geocoded_column": {
      "latitude": "30.065399338708197",
      "longitude": "-89.95073225935994"
    }
  },
  {
    "service_request": "2024-1086518",
    "request_type": "Roads/Drainage",
    "request_reason": "Street Subsidence (Sinking)",
    "date_created": "2024-04-20T16:17:01.000",
    "date_modified": "2024-04-20T16:17:01.000",
    "request_status": "Pending",
    "responsible_agency": "Department of Public Works",
    "final_address": "1728 Cadiz St",
    "address_councildis": "B",
    "status": "Pending",
    "rowid": "1086518",
    "final_x": "3670001.07642",
    "final_y": "521416.817273",
    "longitude": "-90.1047219505108",
    "latitude": "29.9280593343399",
    "geocoded_column": {
      "latitude": "29.9280593343399",
      "longitude": "-90.1047219505108"
    }
  },
  {
    "service_request": "2024-1086517",
    "request_type": "Roads/Drainage",
    "request_reason": "Catch Basin - Broken/Damage",
    "date_created": "2024-04-20T16:12:16.000",
    "date_modified": "2024-04-20T16:12:16.000",
    "request_status": "Pending",
    "responsible_agency": "Department of Public Works",
    "final_address": "1040 Calhoun St",
    "address_councildis": "A",
    "status": "Pending",
    "rowid": "1086517",
    "final_x": "3663702.86874",
    "final_y": "520554.240248",
    "longitude": "-90.1246327712964",
    "latitude": "29.925871706047587",
    "geocoded_column": {
      "latitude": "29.925871706047587",
      "longitude": "-90.1246327712964"
    }
  },
  {
    "service_request": "2024-1086516",
    "request_type": "Roads/Drainage",
    "request_reason": "Street Subsidence (Sinking)",
    "date_created": "2024-04-20T16:09:54.000",
    "date_modified": "2024-04-20T16:09:54.000",
    "request_status": "Pending",
    "responsible_agency": "Department of Public Works",
    "final_address": "1728 Cadiz St",
    "address_councildis": "B",
    "status": "Pending",
    "rowid": "1086516",
    "final_x": "3670001.07642",
    "final_y": "521416.817273",
    "longitude": "-90.1047219505108",
    "latitude": "29.9280593343399",
    "geocoded_column": {
      "latitude": "29.9280593343399",
      "longitude": "-90.1047219505108"
    }
  },
  {
    "service_request": "2024-1086515",
    "request_type": "Abandoned Vehicles",
    "request_reason": "Abandoned/Junk Vehicles",
    "date_created": "2024-04-20T15:57:19.000",
    "date_modified": "2024-04-20T15:57:19.000",
    "request_status": "Pending",
    "responsible_agency": "Department of Public Works",
    "final_address": "3343 Esplanade Ave",
    "address_councildis": "A",
    "status": "Pending",
    "rowid": "1086515",
    "final_x": "3675778.57781",
    "final_y": "540915.894027",
    "longitude": "-90.08581351461964",
    "latitude": "29.981503677945287",
    "geocoded_column": {
      "latitude": "29.981503677945287",
      "longitude": "-90.08581351461964"
    }
  },
  {
    "service_request": "2024-1086514",
    "request_type": "Traffic Signals/Signs/Striping/Streetlights",
    "request_reason": "Street Light Outage/Malfunction",
    "date_created": "2024-04-20T15:57:11.000",
    "date_modified": "2024-04-20T15:57:12.000",
    "request_status": "Pending",
    "responsible_agency": "Department of Public Works",
    "final_address": "5700 St Charles Ave",
    "address_councildis": "A",
    "status": "Assigned to Contractor",
    "contractor": "Legacy Professional Services",
    "rowid": "1086514",
    "final_x": "3666422.71309",
    "final_y": "521975.531962",
    "longitude": "-90.11599933289132",
    "latitude": "29.929700638659966",
    "geocoded_column": {
      "latitude": "29.929700638659966",
      "longitude": "-90.11599933289132"
    }
  },
  {
    "service_request": "2024-1086513",
    "request_type": "Trash/Recycling",
    "request_reason": "Request a Large Item Pick Up",
    "date_created": "2024-04-20T15:53:55.000",
    "date_modified": "2024-04-20T15:53:56.000",
    "request_status": "Pending",
    "responsible_agency": "Department of Sanitation",
    "final_address": "136 N Alexander St",
    "address_councildis": "A",
    "status": "Assigned to Contractor",
    "contractor": "IV Waste",
    "rowid": "1086513",
    "final_x": "3670260.14977",
    "final_y": "539439.866442",
    "longitude": "-90.10329335801617",
    "latitude": "29.97760915139891",
    "geocoded_column": {
      "latitude": "29.97760915139891",
      "longitude": "-90.10329335801617"
    }
  },
  {
    "service_request": "2024-1086512",
    "request_type": "Trash/Recycling",
    "request_reason": "Replace Trash Cart",
    "date_created": "2024-04-20T15:51:38.000",
    "date_modified": "2024-04-20T15:51:39.000",
    "request_status": "Pending",
    "responsible_agency": "Department of Sanitation",
    "final_address": "252 Leboeuf St",
    "address_councildis": "C",
    "status": "Assigned to Contractor",
    "contractor": "Richards Disposal",
    "rowid": "1086512",
    "final_x": "3689924.21212",
    "final_y": "530718.842306",
    "longitude": "-90.0414983012181",
    "latitude": "29.953034308237076",
    "geocoded_column": {
      "latitude": "29.953034308237076",
      "longitude": "-90.0414983012181"
    }
  },
  {
    "service_request": "2024-1086511",
    "request_type": "Traffic Signals/Signs/Striping/Streetlights",
    "request_reason": "Striping/Road Surface Markings",
    "date_created": "2024-04-20T15:50:19.000",
    "date_modified": "2024-04-20T15:50:19.000",
    "request_status": "Pending",
    "responsible_agency": "Department of Public Works",
    "final_address": "5800 BLK S Claiborne Ave",
    "address_councildis": "A",
    "status": "Pending",
    "rowid": "1086511",
    "final_x": "3667424.01912",
    "final_y": "526886.520162",
    "longitude": "-90.11267322053321",
    "latitude": "29.943174994387267",
    "geocoded_column": {
      "latitude": "29.943174994387267",
      "longitude": "-90.11267322053321"
    }
  },
  {
    "service_request": "2024-1086510",
    "request_type": "Abandoned Vehicles",
    "request_reason": "Abandoned/Junk Vehicles",
    "date_created": "2024-04-20T15:01:09.000",
    "date_modified": "2024-04-20T15:01:09.000",
    "request_status": "Pending",
    "responsible_agency": "Department of Public Works",
    "final_address": "917 St Peter St",
    "address_councildis": "C",
    "status": "Pending",
    "rowid": "1086510",
    "final_x": "3681866.68168",
    "final_y": "532979.055044",
    "longitude": "-90.06686155177364",
    "latitude": "29.95949644943764",
    "geocoded_column": {
      "latitude": "29.95949644943764",
      "longitude": "-90.06686155177364"
    }
  },
  {
    "service_request": "2024-1086509",
    "request_type": "Trash/Recycling",
    "request_reason": "Request a Large Item Pick Up",
    "date_created": "2024-04-20T14:14:45.000",
    "date_modified": "2024-04-20T14:14:45.000",
    "request_status": "Pending",
    "responsible_agency": "Department of Sanitation",
    "final_address": "1517 Mandeville St",
    "address_councildis": "C",
    "status": "Assigned to Contractor",
    "contractor": "IV Waste",
    "rowid": "1086509",
    "final_x": "3685680.10774",
    "final_y": "537998.512329",
    "longitude": "-90.05464278708244",
    "latitude": "29.973181770044363",
    "geocoded_column": {
      "latitude": "29.973181770044363",
      "longitude": "-90.05464278708244"
    }
  },
  {
    "service_request": "2024-1086508",
    "request_type": "Mosquito, Termite & Rodent Control",
    "request_reason": "Mosquito Complaint",
    "date_created": "2024-04-20T13:54:19.000",
    "date_modified": "2024-04-20T13:54:19.000",
    "request_status": "Pending",
    "responsible_agency": "Mosquito, Termite & Rodent Control Board",
    "final_address": "815 N Derbigny St",
    "address_councildis": "D",
    "status": "Pending",
    "rowid": "1086508",
    "final_x": "3679698.88495",
    "final_y": "535292.512454",
    "longitude": "-90.07362663341081",
    "latitude": "29.96592337415934",
    "geocoded_column": {
      "latitude": "29.96592337415934",
      "longitude": "-90.07362663341081"
    }
  },
  {
    "service_request": "2024-1086506",
    "request_type": "Trash/Recycling",
    "request_reason": "Order Recycling Cart",
    "date_created": "2024-04-20T13:40:30.000",
    "date_modified": "2024-04-20T13:40:30.000",
    "request_status": "Pending",
    "responsible_agency": "Department of Sanitation",
    "final_address": "7224 Pritchard Pl",
    "address_councildis": "B",
    "status": "Pending",
    "rowid": "1086506",
    "final_x": "3667355.00385",
    "final_y": "531663.069763",
    "longitude": "-90.11273047225399",
    "latitude": "29.95631097354193",
    "geocoded_column": {
      "latitude": "29.95631097354193",
      "longitude": "-90.11273047225399"
    }
  },
  {
    "service_request": "2024-1086505",
    "request_type": "Trash/Recycling",
    "request_reason": "Replace Trash Cart",
    "date_created": "2024-04-20T13:39:04.000",
    "date_modified": "2024-04-20T13:39:05.000",
    "request_status": "Pending",
    "responsible_agency": "Department of Sanitation",
    "final_address": "7224 Pritchard Pl",
    "address_councildis": "B",
    "status": "Assigned to Contractor",
    "contractor": "IV Waste",
    "rowid": "1086505",
    "final_x": "3667355.00385",
    "final_y": "531663.069763",
    "longitude": "-90.11273047225399",
    "latitude": "29.95631097354193",
    "geocoded_column": {
      "latitude": "29.95631097354193",
      "longitude": "-90.11273047225399"
    }
  },
  {
    "service_request": "2024-1086502",
    "request_type": "Trash/Recycling",
    "request_reason": "Order Recycling Cart",
    "date_created": "2024-04-20T12:08:50.000",
    "date_modified": "2024-04-20T12:08:50.000",
    "request_status": "Pending",
    "responsible_agency": "Department of Sanitation",
    "final_address": "3707 Republic St",
    "address_councildis": "D",
    "status": "Pending",
    "rowid": "1086502",
    "final_x": "3680470.13711",
    "final_y": "546008.31112",
    "longitude": "-90.07081818409861",
    "latitude": "29.995364753051096",
    "geocoded_column": {
      "latitude": "29.995364753051096",
      "longitude": "-90.07081818409861"
    }
  },
  {
    "service_request": "2024-1086501",
    "request_type": "Trash/Recycling",
    "request_reason": "Order Recycling Cart",
    "date_created": "2024-04-20T12:06:02.000",
    "date_modified": "2024-04-20T12:06:02.000",
    "request_status": "Pending",
    "responsible_agency": "Department of Sanitation",
    "final_address": "3536 Toledano St",
    "address_councildis": "B",
    "status": "Pending",
    "rowid": "1086501",
    "final_x": "3671632.52481",
    "final_y": "528449.20352",
    "longitude": "-90.09933275149187",
    "latitude": "29.947347915464537",
    "geocoded_column": {
      "latitude": "29.947347915464537",
      "longitude": "-90.09933275149187"
    }
  },
  {
    "service_request": "2024-1086500",
    "request_type": "Trash/Recycling",
    "request_reason": "Order Trash Cart",
    "date_created": "2024-04-20T12:05:19.000",
    "date_modified": "2024-04-20T12:05:19.000",
    "request_status": "Pending",
    "responsible_agency": "Department of Sanitation",
    "final_address": "3536 Toledano St",
    "address_councildis": "B",
    "status": "Assigned to Contractor",
    "contractor": "IV Waste",
    "rowid": "1086500",
    "final_x": "3671632.52481",
    "final_y": "528449.20352",
    "longitude": "-90.09933275149187",
    "latitude": "29.947347915464537",
    "geocoded_column": {
      "latitude": "29.947347915464537",
      "longitude": "-90.09933275149187"
    }
  },
  {
    "service_request": "2024-1086499",
    "request_type": "Trash/Recycling",
    "request_reason": "Request a Large Item Pick Up",
    "date_created": "2024-04-20T12:02:23.000",
    "date_modified": "2024-04-20T12:02:24.000",
    "request_status": "Pending",
    "responsible_agency": "Department of Sanitation",
    "final_address": "10136 Rosewood Pl",
    "address_councildis": "E",
    "status": "Assigned to Contractor",
    "contractor": "Waste Pro",
    "rowid": "1086499",
    "final_x": "3713002.49291",
    "final_y": "557595.788123",
    "longitude": "-89.96761647546153",
    "latitude": "30.02620008874544",
    "geocoded_column": {
      "latitude": "30.02620008874544",
      "longitude": "-89.96761647546153"
    }
  },
  {
    "service_request": "2024-1086498",
    "request_type": "Trash/Recycling",
    "request_reason": "Request a Large Item Pick Up",
    "date_created": "2024-04-20T12:00:51.000",
    "date_modified": "2024-04-20T13:20:07.000",
    "case_close_date": "2024-04-20T08:20:07.000",
    "request_status": "Closed",
    "responsible_agency": "Department of Sanitation",
    "final_address": "509 Mandeville St",
    "address_councildis": "C",
    "status": "Assigned to Contractor",
    "contractor": "IV Waste",
    "contractor_action": "Completed",
    "rowid": "1086498",
    "final_x": "3685966.99478",
    "final_y": "534313.460229",
    "longitude": "-90.05386669582727",
    "latitude": "29.9630403521156",
    "geocoded_column": {
      "latitude": "29.9630403521156",
      "longitude": "-90.05386669582727"
    }
  },
  {
    "service_request": "2024-1086497",
    "request_type": "Trash/Recycling",
    "request_reason": "Request a Large Item Pick Up",
    "date_created": "2024-04-20T11:57:28.000",
    "date_modified": "2024-04-20T13:20:24.000",
    "case_close_date": "2024-04-20T08:20:24.000",
    "request_status": "Closed",
    "responsible_agency": "Department of Sanitation",
    "final_address": "509 Mandeville St",
    "address_councildis": "C",
    "status": "Assigned to Contractor",
    "contractor": "IV Waste",
    "contractor_action": "Completed",
    "rowid": "1086497",
    "final_x": "3685966.99478",
    "final_y": "534313.460229",
    "longitude": "-90.05386669582727",
    "latitude": "29.9630403521156",
    "geocoded_column": {
      "latitude": "29.9630403521156",
      "longitude": "-90.05386669582727"
    }
  },
  {
    "service_request": "2024-1086496",
    "request_type": "Trash/Recycling",
    "request_reason": "Replace Trash Cart",
    "date_created": "2024-04-20T11:52:15.000",
    "date_modified": "2024-04-20T11:52:16.000",
    "request_status": "Pending",
    "responsible_agency": "Department of Sanitation",
    "final_address": "334 Pine St",
    "address_councildis": "A",
    "status": "Assigned to Contractor",
    "contractor": "IV Waste",
    "rowid": "1086496",
    "final_x": "3661727.11219",
    "final_y": "523457.096507",
    "longitude": "-90.13077350916909",
    "latitude": "29.93391081035991",
    "geocoded_column": {
      "latitude": "29.93391081035991",
      "longitude": "-90.13077350916909"
    }
  },
  {
    "service_request": "2024-1086495",
    "request_type": "Trash/Recycling",
    "request_reason": "Request a Large Item Pick Up",
    "date_created": "2024-04-20T11:43:53.000",
    "date_modified": "2024-04-20T11:43:54.000",
    "request_status": "Pending",
    "responsible_agency": "Department of Sanitation",
    "final_address": "2543 Dumaine St",
    "address_councildis": "D",
    "status": "Assigned to Contractor",
    "contractor": "IV Waste",
    "rowid": "1086495",
    "final_x": "3677726.38402",
    "final_y": "537123.089864",
    "longitude": "-90.07979249197196",
    "latitude": "29.971016317174303",
    "geocoded_column": {
      "latitude": "29.971016317174303",
      "longitude": "-90.07979249197196"
    }
  },
  {
    "service_request": "2024-1086494",
    "request_type": "Trash/Recycling",
    "request_reason": "Request a Large Item Pick Up",
    "date_created": "2024-04-20T11:28:52.000",
    "date_modified": "2024-04-20T11:28:52.000",
    "request_status": "Pending",
    "responsible_agency": "Department of Sanitation",
    "final_address": "4444 Baccich St",
    "address_councildis": "D",
    "status": "Assigned to Contractor",
    "contractor": "IV Waste",
    "rowid": "1086494",
    "final_x": "3687778.83222",
    "final_y": "549273.779987",
    "longitude": "-90.04761504863339",
    "latitude": "30.004120159154166",
    "geocoded_column": {
      "latitude": "30.004120159154166",
      "longitude": "-90.04761504863339"
    }
  },
  {
    "service_request": "2024-1086493",
    "request_type": "Trash/Recycling",
    "request_reason": "Request a Large Item Pick Up",
    "date_created": "2024-04-20T10:56:54.000",
    "date_modified": "2024-04-20T13:19:43.000",
    "case_close_date": "2024-04-20T08:19:43.000",
    "request_status": "Closed",
    "responsible_agency": "Department of Sanitation",
    "final_address": "2018 N Rampart St",
    "address_councildis": "C",
    "status": "Assigned to Contractor",
    "contractor": "IV Waste",
    "contractor_action": "Completed",
    "rowid": "1086493",
    "final_x": "3684434.38421",
    "final_y": "535846.304135",
    "longitude": "-90.0586526381776",
    "latitude": "29.967302110598776",
    "geocoded_column": {
      "latitude": "29.967302110598776",
      "longitude": "-90.0586526381776"
    }
  },
  {
    "service_request": "2024-1086492",
    "request_type": "Traffic Signals/Signs/Striping/Streetlights",
    "request_reason": "Disabled Parking Sign ",
    "date_created": "2024-04-20T10:55:13.000",
    "date_modified": "2024-04-20T10:55:13.000",
    "request_status": "Pending",
    "responsible_agency": "Department of Public Works",
    "final_address": "7100 BLK Hampson St",
    "address_councildis": "A",
    "status": "Pending",
    "rowid": "1086492",
    "final_x": "3663333.9607",
    "final_y": "524966.13227",
    "longitude": "-90.12565052269025",
    "latitude": "29.93801371250445",
    "geocoded_column": {
      "latitude": "29.93801371250445",
      "longitude": "-90.12565052269025"
    }
  },
  {
    "service_request": "2024-1086491",
    "request_type": "Mosquito, Termite & Rodent Control",
    "request_reason": "Mosquito Complaint",
    "date_created": "2024-04-20T10:53:43.000",
    "date_modified": "2024-04-20T10:53:43.000",
    "request_status": "Pending",
    "responsible_agency": "Mosquito, Termite & Rodent Control Board",
    "final_address": "4321 Trieste St",
    "address_councildis": "E",
    "status": "Pending",
    "rowid": "1086491",
    "final_x": "3760220.06697",
    "final_y": "573504.147946",
    "longitude": "-89.81775378901686",
    "latitude": "30.06830896010249",
    "geocoded_column": {
      "latitude": "30.06830896010249",
      "longitude": "-89.81775378901686"
    }
  },
  {
    "service_request": "2024-1086490",
    "request_type": "Traffic Signals/Signs/Striping/Streetlights",
    "request_reason": "Traffic Sign Missing/Damaged",
    "date_created": "2024-04-20T10:46:33.000",
    "date_modified": "2024-04-20T10:46:33.000",
    "request_status": "Pending",
    "responsible_agency": "Department of Public Works",
    "final_address": "CAMP ST & BELLECASTLE ST",
    "address_councildis": "B",
    "status": "Pending",
    "rowid": "1086490",
    "final_x": "3667708.1",
    "final_y": "518987.48",
    "longitude": "-90.11204211767738",
    "latitude": "29.92144683013037",
    "geocoded_column": {
      "latitude": "29.92144683013037",
      "longitude": "-90.11204211767738"
    }
  },
  {
    "service_request": "2024-1086489",
    "request_type": "Property Maintenance",
    "request_reason": "Property Maintenance",
    "date_created": "2024-04-20T10:46:30.000",
    "date_modified": "2024-04-20T10:46:30.000",
    "request_status": "Pending",
    "responsible_agency": "Department of Code Enforcement",
    "final_address": "3120 Frenchmen St",
    "address_councildis": "D",
    "status": "Pending",
    "rowid": "1086489",
    "final_x": "3683914.76028",
    "final_y": "544195.771022",
    "longitude": "-90.0600005998907",
    "latitude": "29.99027610403387",
    "geocoded_column": {
      "latitude": "29.99027610403387",
      "longitude": "-90.0600005998907"
    }
  },
  {
    "service_request": "2024-1086488",
    "request_type": "Traffic Signals/Signs/Striping/Streetlights",
    "request_reason": "Traffic Sign Missing/Damaged",
    "date_created": "2024-04-20T10:43:27.000",
    "date_modified": "2024-04-20T10:43:27.000",
    "request_status": "Pending",
    "responsible_agency": "Department of Public Works",
    "final_address": "CAMP ST & BELLECASTLE ST",
    "address_councildis": "B",
    "status": "Pending",
    "rowid": "1086488",
    "final_x": "3667708.1",
    "final_y": "518987.48",
    "longitude": "-90.11204211767738",
    "latitude": "29.92144683013037",
    "geocoded_column": {
      "latitude": "29.92144683013037",
      "longitude": "-90.11204211767738"
    }
  },
  {
    "service_request": "2024-1086487",
    "request_type": "Property Maintenance",
    "request_reason": "Property Maintenance",
    "date_created": "2024-04-20T10:43:09.000",
    "date_modified": "2024-04-20T10:43:09.000",
    "request_status": "Pending",
    "responsible_agency": "Department of Code Enforcement",
    "final_address": "5708 Peoples Ave",
    "address_councildis": "D",
    "status": "Pending",
    "rowid": "1086487",
    "final_x": "3687849.77449",
    "final_y": "554364.392728",
    "longitude": "-90.04721041947036",
    "latitude": "30.01811528661835",
    "geocoded_column": {
      "latitude": "30.01811528661835",
      "longitude": "-90.04721041947036"
    }
  },
  {
    "service_request": "2024-1086486",
    "request_type": "Traffic Signals/Signs/Striping/Streetlights",
    "request_reason": "Traffic Sign Missing/Damaged",
    "date_created": "2024-04-20T10:42:34.000",
    "date_modified": "2024-04-20T10:42:34.000",
    "request_status": "Pending",
    "responsible_agency": "Department of Public Works",
    "final_address": "BORDEAUX ST & MAGAZINE ST",
    "address_councildis": "B",
    "status": "Pending",
    "rowid": "1086486",
    "final_x": "3669591.3",
    "final_y": "518643.28",
    "longitude": "-90.10610929787266",
    "latitude": "29.920445063106797",
    "geocoded_column": {
      "latitude": "29.920445063106797",
      "longitude": "-90.10610929787266"
    }
  },
  {
    "service_request": "2024-1086485",
    "request_type": "Traffic Signals/Signs/Striping/Streetlights",
    "request_reason": "Traffic Sign Missing/Damaged",
    "date_created": "2024-04-20T10:41:08.000",
    "date_modified": "2024-04-20T10:41:08.000",
    "request_status": "Pending",
    "responsible_agency": "Department of Public Works",
    "final_address": "LYONS ST & MAGAZINE ST",
    "address_councildis": "B",
    "status": "Pending",
    "rowid": "1086485",
    "final_x": "3669244.4",
    "final_y": "518613.18",
    "longitude": "-90.10720531851122",
    "latitude": "29.920372509180282",
    "geocoded_column": {
      "latitude": "29.920372509180282",
      "longitude": "-90.10720531851122"
    }
  },
  {
    "service_request": "2024-1086484",
    "request_type": "Graffiti Removal",
    "request_reason": "Graffiti Removal",
    "date_created": "2024-04-20T10:36:41.000",
    "date_modified": "2024-04-20T10:36:41.000",
    "request_status": "Pending",
    "responsible_agency": "Department of Code Enforcement",
    "final_address": "5023 Magazine St",
    "address_councildis": "B",
    "status": "Pending",
    "rowid": "1086484",
    "final_x": "3668462.75546",
    "final_y": "518680.070775",
    "longitude": "-90.10967035521091",
    "latitude": "29.920579413249044",
    "geocoded_column": {
      "latitude": "29.920579413249044",
      "longitude": "-90.10967035521091"
    }
  },
  {
    "service_request": "2024-1086482",
    "request_type": "Trash/Recycling",
    "request_reason": "Replace Trash Cart",
    "date_created": "2024-04-20T10:12:18.000",
    "date_modified": "2024-04-20T10:12:18.000",
    "request_status": "Pending",
    "responsible_agency": "Department of Sanitation",
    "final_address": "8222 Hickory St",
    "address_councildis": "A",
    "status": "Assigned to Contractor",
    "contractor": "IV Waste",
    "rowid": "1086482",
    "final_x": "3662955.12627",
    "final_y": "530261.915649",
    "longitude": "-90.12667047411851",
    "latitude": "29.952586395243806",
    "geocoded_column": {
      "latitude": "29.952586395243806",
      "longitude": "-90.12667047411851"
    }
  },
  {
    "service_request": "2024-1086481",
    "request_type": "Property Maintenance",
    "request_reason": "Property Maintenance",
    "date_created": "2024-04-20T09:51:53.000",
    "date_modified": "2024-04-20T09:51:53.000",
    "request_status": "Pending",
    "responsible_agency": "Department of Code Enforcement",
    "final_address": "34 Newcomb Blvd",
    "address_councildis": "A",
    "status": "Pending",
    "rowid": "1086481",
    "final_x": "3663977.43021",
    "final_y": "525505.560317",
    "longitude": "-90.12360104454741",
    "latitude": "29.939478303934102",
    "geocoded_column": {
      "latitude": "29.939478303934102",
      "longitude": "-90.12360104454741"
    }
  },
  {
    "service_request": "2024-1086480",
    "request_type": "Traffic Signals/Signs/Striping/Streetlights",
    "request_reason": "Street Light Outage/Malfunction",
    "date_created": "2024-04-20T09:39:25.000",
    "date_modified": "2024-04-20T09:39:26.000",
    "request_status": "Pending",
    "responsible_agency": "Department of Public Works",
    "final_address": "2913 Ponce De Leon St",
    "address_councildis": "A",
    "status": "Assigned to Contractor",
    "contractor": "Legacy Professional Services",
    "rowid": "1086480",
    "final_x": "3677598.03931",
    "final_y": "540534.110091",
    "longitude": "-90.08007999880986",
    "latitude": "29.980399310369663",
    "geocoded_column": {
      "latitude": "29.980399310369663",
      "longitude": "-90.08007999880986"
    }
  },
  {
    "service_request": "2024-1086479",
    "request_type": "Traffic Signals/Signs/Striping/Streetlights",
    "request_reason": "Street Light Outage/Malfunction",
    "date_created": "2024-04-20T09:37:03.000",
    "date_modified": "2024-04-20T09:37:03.000",
    "request_status": "Pending",
    "responsible_agency": "Department of Public Works",
    "final_address": "2944 Grand-Route St John St Apt A",
    "address_councildis": "A",
    "status": "Assigned to Contractor",
    "contractor": "Legacy Professional Services",
    "rowid": "1086479",
    "final_x": "3677238.61634",
    "final_y": "540227.453707",
    "longitude": "-90.08122579485979",
    "latitude": "29.97956691559085",
    "geocoded_column": {
      "latitude": "29.97956691559085",
      "longitude": "-90.08122579485979"
    }
  },
  {
    "service_request": "2024-1086478",
    "request_type": "Trash/Recycling",
    "request_reason": "Request a Large Item Pick Up",
    "date_created": "2024-04-20T09:11:55.000",
    "date_modified": "2024-04-20T09:11:55.000",
    "request_status": "Pending",
    "responsible_agency": "Department of Sanitation",
    "final_address": "2320 Adams St",
    "address_councildis": "A",
    "status": "Assigned to Contractor",
    "contractor": "IV Waste",
    "rowid": "1086478",
    "final_x": "3665767.22036",
    "final_y": "530414.508034",
    "longitude": "-90.1177860056734",
    "latitude": "29.952924247447044",
    "geocoded_column": {
      "latitude": "29.952924247447044",
      "longitude": "-90.1177860056734"
    }
  },
  {
    "service_request": "2024-1086477",
    "request_type": "Trash/Recycling",
    "request_reason": "Replace Recycling Cart",
    "date_created": "2024-04-20T09:11:31.000",
    "date_modified": "2024-04-20T09:11:31.000",
    "request_status": "Pending",
    "responsible_agency": "Department of Sanitation",
    "final_address": "728 Eleonore St",
    "address_councildis": "A",
    "status": "Pending",
    "rowid": "1086477",
    "final_x": "3665163.41754",
    "final_y": "518976.988983",
    "longitude": "-90.12007495214247",
    "latitude": "29.921492315851108",
    "geocoded_column": {
      "latitude": "29.921492315851108",
      "longitude": "-90.12007495214247"
    }
  },
  {
    "service_request": "2024-1086476",
    "request_type": "Traffic Signals/Signs/Striping/Streetlights",
    "request_reason": "Traffic Signal Malfunctioning/Damaged",
    "date_created": "2024-04-20T08:51:17.000",
    "date_modified": "2024-04-20T08:51:17.000",
    "request_status": "Pending",
    "responsible_agency": "Department of Public Works",
    "final_address": "2118 Elysian Fields Ave",
    "address_councildis": "D",
    "status": "Pending",
    "rowid": "1086476",
    "final_x": "3684484.62287",
    "final_y": "540227.920203",
    "longitude": "-90.05834001558696",
    "latitude": "29.97934849071494",
    "geocoded_column": {
      "latitude": "29.97934849071494",
      "longitude": "-90.05834001558696"
    }
  },
  {
    "service_request": "2024-1086475",
    "request_type": "Trash/Recycling",
    "request_reason": "Order Trash Cart",
    "date_created": "2024-04-20T08:48:31.000",
    "date_modified": "2024-04-20T08:48:32.000",
    "request_status": "Pending",
    "responsible_agency": "Department of Sanitation",
    "final_address": "8118 Forshey St",
    "address_councildis": "A",
    "status": "Assigned to Contractor",
    "contractor": "IV Waste",
    "rowid": "1086475",
    "final_x": "3666857.23092",
    "final_y": "534000.011461",
    "longitude": "-90.11422376705504",
    "latitude": "29.962751366013915",
    "geocoded_column": {
      "latitude": "29.962751366013915",
      "longitude": "-90.11422376705504"
    }
  },
  {
    "service_request": "2024-1086474",
    "request_type": "Roads/Drainage",
    "request_reason": "Pothole",
    "date_created": "2024-04-20T08:41:48.000",
    "date_modified": "2024-04-20T08:41:48.000",
    "request_status": "Pending",
    "responsible_agency": "Department of Public Works",
    "final_address": "Morrison Road & Paris Road",
    "address_councildis": "E",
    "status": "Pending",
    "rowid": "1086474",
    "final_x": "3721511.81074",
    "final_y": "572974.860073",
    "longitude": "-89.94013756528196",
    "latitude": "30.068204568480486",
    "geocoded_column": {
      "latitude": "30.068204568480486",
      "longitude": "-89.94013756528196"
    }
  },
  {
    "service_request": "2024-1086473",
    "request_type": "Abandoned Vehicles",
    "request_reason": "Abandoned/Junk Vehicles",
    "date_created": "2024-04-20T08:35:06.000",
    "date_modified": "2024-04-20T08:35:06.000",
    "request_status": "Pending",
    "responsible_agency": "Department of Public Works",
    "final_address": "3000 Dryades St, New Orleans, Louisiana, 70115",
    "address_councildis": "B",
    "status": "Pending",
    "rowid": "1086473",
    "final_x": "3674627.79604",
    "final_y": "522940.442427",
    "longitude": "-90.0900642443533",
    "latitude": "29.93211158962504",
    "geocoded_column": {
      "latitude": "29.93211158962504",
      "longitude": "-90.0900642443533"
    }
  },
  {
    "service_request": "2024-1086472",
    "request_type": "Trash/Recycling",
    "request_reason": "Order Recycling Cart",
    "date_created": "2024-04-20T08:34:04.000",
    "date_modified": "2024-04-20T08:34:04.000",
    "request_status": "Pending",
    "responsible_agency": "Department of Sanitation",
    "final_address": "931 First St",
    "address_councildis": "B",
    "status": "Pending",
    "rowid": "1086472",
    "final_x": "3678372.40802",
    "final_y": "521115.989881",
    "longitude": "-90.07830595953784",
    "latitude": "29.92698269077838",
    "geocoded_column": {
      "latitude": "29.92698269077838",
      "longitude": "-90.07830595953784"
    }
  },
  {
    "service_request": "2024-1086471",
    "request_type": "Traffic Signals/Signs/Striping/Streetlights",
    "request_reason": "Traffic Signal Malfunctioning/Damaged",
    "date_created": "2024-04-20T08:22:23.000",
    "date_modified": "2024-04-20T08:22:23.000",
    "request_status": "Pending",
    "responsible_agency": "Department of Public Works",
    "final_address": "ELYSIAN FIELDS AVE & N MIRO ST & ELYSIAN FIELDS EXIT",
    "address_councildis": "D",
    "status": "Pending",
    "rowid": "1086471",
    "final_x": "3684601.2",
    "final_y": "540350.58",
    "longitude": "-90.05796750758705",
    "latitude": "29.979682194803676",
    "geocoded_column": {
      "latitude": "29.979682194803676",
      "longitude": "-90.05796750758705"
    }
  },
  {
    "service_request": "2024-1086470",
    "request_type": "Trash/Recycling",
    "request_reason": "Order Recycling Cart",
    "date_created": "2024-04-20T07:56:46.000",
    "date_modified": "2024-04-20T07:56:46.000",
    "request_status": "Pending",
    "responsible_agency": "Department of Sanitation",
    "final_address": "4321 Fontainebleau Dr",
    "address_councildis": "B",
    "status": "Pending",
    "rowid": "1086470",
    "final_x": "3669343.12225",
    "final_y": "529515.484033",
    "longitude": "-90.10652524593719",
    "latitude": "29.95034743449731",
    "geocoded_column": {
      "latitude": "29.95034743449731",
      "longitude": "-90.10652524593719"
    }
  },
  {
    "service_request": "2024-1086468",
    "request_type": "Trash/Recycling",
    "request_reason": "Request a Large Item Pick Up",
    "date_created": "2024-04-20T07:02:47.000",
    "date_modified": "2024-04-20T08:11:16.000",
    "request_status": "Pending",
    "responsible_agency": "Department of Sanitation",
    "final_address": "3423 Iberville St",
    "address_councildis": "B",
    "status": "Assigned to Contractor",
    "contractor": "IV Waste",
    "rowid": "1086468",
    "final_x": "3673248.46312",
    "final_y": "537292.216904",
    "longitude": "-90.09392860102005",
    "latitude": "29.971615300039044",
    "geocoded_column": {
      "latitude": "29.971615300039044",
      "longitude": "-90.09392860102005"
    }
  },
  {
    "service_request": "2024-1086467",
    "request_type": "Abandoned Vehicles",
    "request_reason": "Vehicle Blocking Your Driveway",
    "date_created": "2024-04-20T06:51:31.000",
    "date_modified": "2024-04-20T06:51:31.000",
    "request_status": "Pending",
    "responsible_agency": "Department of Public Works",
    "final_address": "2311 Feliciana St",
    "address_councildis": "D",
    "status": "Pending",
    "rowid": "1086467",
    "final_x": "3689927.43715",
    "final_y": "540674.838027",
    "longitude": "-90.04113359731818",
    "latitude": "29.98040970601446",
    "geocoded_column": {
      "latitude": "29.98040970601446",
      "longitude": "-90.04113359731818"
    }
  },
  {
    "service_request": "2024-1086466",
    "request_type": "Trash/Recycling",
    "request_reason": "Replace Trash Cart",
    "date_created": "2024-04-20T03:43:18.000",
    "date_modified": "2024-04-20T03:43:19.000",
    "request_status": "Pending",
    "responsible_agency": "Department of Sanitation",
    "final_address": "300 Neil Ave",
    "address_councildis": "C",
    "status": "Assigned to Contractor",
    "contractor": "Richards Disposal",
    "rowid": "1086466",
    "final_x": "3707019.67928",
    "final_y": "518801.660087",
    "longitude": "-89.98796058632297",
    "latitude": "29.919725242653755",
    "geocoded_column": {
      "latitude": "29.919725242653755",
      "longitude": "-89.98796058632297"
    }
  },
  {
    "service_request": "2024-1086465",
    "request_type": "Trash/Recycling",
    "request_reason": "Illegal Dumping",
    "date_created": "2024-04-20T03:30:05.000",
    "date_modified": "2024-04-20T03:30:05.000",
    "request_status": "Pending",
    "responsible_agency": "Department of Sanitation",
    "final_address": "2529 Lincoln Ct",
    "address_councildis": "D",
    "status": "Pending",
    "rowid": "1086465",
    "final_x": "3682883.34952",
    "final_y": "541555.114508",
    "longitude": "-90.06335100387574",
    "latitude": "29.983046705070592",
    "geocoded_column": {
      "latitude": "29.983046705070592",
      "longitude": "-90.06335100387574"
    }
  },
  {
    "service_request": "2024-1086464",
    "request_type": "Health Related Request",
    "request_reason": "Noise Ordinance Complaint",
    "date_created": "2024-04-20T00:42:09.000",
    "date_modified": "2024-04-20T00:42:09.000",
    "request_status": "Pending",
    "responsible_agency": "Health Department",
    "final_address": "1611 Pine St",
    "address_councildis": "A",
    "status": "Pending",
    "rowid": "1086464",
    "final_x": "3664817.57991",
    "final_y": "527921.009791",
    "longitude": "-90.12086787558812",
    "latitude": "29.94609559933535",
    "geocoded_column": {
      "latitude": "29.94609559933535",
      "longitude": "-90.12086787558812"
    }
  },
  {
    "service_request": "2024-1086462",
    "request_type": "Roads/Drainage",
    "request_reason": "Pothole",
    "date_created": "2024-04-19T23:29:11.000",
    "date_modified": "2024-04-19T23:29:11.000",
    "request_status": "Pending",
    "responsible_agency": "Department of Public Works",
    "final_address": "4216 Chestnut St",
    "address_councildis": "B",
    "status": "Pending",
    "rowid": "1086462",
    "final_x": "3671574.31393",
    "final_y": "519539.203703",
    "longitude": "-90.09981939416457",
    "latitude": "29.922850019854593",
    "geocoded_column": {
      "latitude": "29.922850019854593",
      "longitude": "-90.09981939416457"
    }
  },
  {
    "service_request": "2024-1086461",
    "request_type": "Traffic Signals/Signs/Striping/Streetlights",
    "request_reason": "Street Light Outage/Malfunction",
    "date_created": "2024-04-19T22:33:32.000",
    "date_modified": "2024-04-19T22:33:32.000",
    "request_status": "Pending",
    "responsible_agency": "Department of Public Works",
    "final_address": "761 Allen Toussaint Blvd",
    "address_councildis": "D",
    "status": "Assigned to Contractor",
    "contractor": "Legacy Professional Services",
    "rowid": "1086461",
    "final_x": "3669815.87367",
    "final_y": "554760.889368",
    "longitude": "-90.10417746210787",
    "latitude": "30.019749756787952",
    "geocoded_column": {
      "latitude": "30.019749756787952",
      "longitude": "-90.10417746210787"
    }
  },
  {
    "service_request": "2024-1086460",
    "request_type": "Property Maintenance",
    "request_reason": "Property Maintenance",
    "date_created": "2024-04-19T22:02:27.000",
    "date_modified": "2024-04-19T22:02:27.000",
    "request_status": "Pending",
    "responsible_agency": "Department of Code Enforcement",
    "final_address": "2727 Dreux Ave",
    "address_councildis": "D",
    "status": "Pending",
    "rowid": "1086460",
    "final_x": "3687548.82095",
    "final_y": "552342.40943",
    "longitude": "-90.04823296813034",
    "latitude": "30.012564862710217",
    "geocoded_column": {
      "latitude": "30.012564862710217",
      "longitude": "-90.04823296813034"
    }
  },
  {
    "service_request": "2024-1086459",
    "request_type": "Trash/Recycling",
    "request_reason": "Request a Large Item Pick Up",
    "date_created": "2024-04-19T22:01:56.000",
    "date_modified": "2024-04-19T22:01:57.000",
    "request_status": "Pending",
    "responsible_agency": "Department of Sanitation",
    "final_address": "1213 Farragut St",
    "address_councildis": "C",
    "status": "Assigned to Contractor",
    "contractor": "Richards Disposal",
    "rowid": "1086459",
    "final_x": "3692321.4463",
    "final_y": "526781.950462",
    "longitude": "-90.03406987018165",
    "latitude": "29.94213468282112",
    "geocoded_column": {
      "latitude": "29.94213468282112",
      "longitude": "-90.03406987018165"
    }
  },
  {
    "service_request": "2024-1086458",
    "request_type": "Abandoned Vehicles",
    "request_reason": "Abandoned/Junk Vehicles",
    "date_created": "2024-04-19T22:00:09.000",
    "date_modified": "2024-04-19T22:00:09.000",
    "request_status": "Pending",
    "responsible_agency": "Department of Public Works",
    "final_address": "2721 Dreux Ave",
    "address_councildis": "D",
    "status": "Pending",
    "rowid": "1086458",
    "final_x": "3687502.32982",
    "final_y": "552337.165078",
    "longitude": "-90.04838003981193",
    "latitude": "30.012551876287432",
    "geocoded_column": {
      "latitude": "30.012551876287432",
      "longitude": "-90.04838003981193"
    }
  },
  {
    "service_request": "2024-1086457",
    "request_type": "Traffic Signals/Signs/Striping/Streetlights",
    "request_reason": "Street Light Outage/Malfunction",
    "date_created": "2024-04-19T20:49:39.000",
    "date_modified": "2024-04-19T20:49:39.000",
    "request_status": "Pending",
    "responsible_agency": "Department of Public Works",
    "final_address": "2417 Spain St",
    "address_councildis": "D",
    "status": "Assigned to Contractor",
    "contractor": "Legacy Professional Services",
    "rowid": "1086457",
    "final_x": "3685780.24239",
    "final_y": "541335.49742",
    "longitude": "-90.05420889514582",
    "latitude": "29.982354233362766",
    "geocoded_column": {
      "latitude": "29.982354233362766",
      "longitude": "-90.05420889514582"
    }
  },
  {
    "service_request": "2024-1086456",
    "request_type": "Property Maintenance",
    "request_reason": "Property Maintenance",
    "date_created": "2024-04-19T20:45:24.000",
    "date_modified": "2024-04-19T20:45:24.000",
    "request_status": "Pending",
    "responsible_agency": "Department of Code Enforcement",
    "final_address": "15512 Dwyer Blvd",
    "address_councildis": "E",
    "status": "Pending",
    "rowid": "1086456",
    "final_x": "3730930.49024",
    "final_y": "563675.772577",
    "longitude": "-89.91072860062704",
    "latitude": "30.042317787673415",
    "geocoded_column": {
      "latitude": "30.042317787673415",
      "longitude": "-89.91072860062704"
    }
  },
  {
    "service_request": "2024-1086455",
    "request_type": "Traffic Signals/Signs/Striping/Streetlights",
    "request_reason": "Street Light Outage/Malfunction",
    "date_created": "2024-04-19T20:42:54.000",
    "date_modified": "2024-04-19T20:42:54.000",
    "request_status": "Pending",
    "responsible_agency": "Department of Public Works",
    "final_address": "2417 Spain St",
    "address_councildis": "D",
    "status": "Assigned to Contractor",
    "contractor": "Legacy Professional Services",
    "rowid": "1086455",
    "final_x": "3685780.24239",
    "final_y": "541335.49742",
    "longitude": "-90.05420889514582",
    "latitude": "29.982354233362766",
    "geocoded_column": {
      "latitude": "29.982354233362766",
      "longitude": "-90.05420889514582"
    }
  },
  {
    "service_request": "2024-1086454",
    "request_type": "Property Maintenance",
    "request_reason": "Property Maintenance",
    "date_created": "2024-04-19T19:48:32.000",
    "date_modified": "2024-04-19T19:48:32.000",
    "request_status": "Pending",
    "responsible_agency": "Department of Code Enforcement",
    "final_address": "1910 First St",
    "address_councildis": "B",
    "status": "Pending",
    "rowid": "1086454",
    "final_x": "3676271.81269",
    "final_y": "524178.616316",
    "longitude": "-90.08483165333699",
    "latitude": "29.93546701227049",
    "geocoded_column": {
      "latitude": "29.93546701227049",
      "longitude": "-90.08483165333699"
    }
  },
  {
    "service_request": "2024-1086453",
    "request_type": "Health Related Request",
    "request_reason": "Noise Ordinance Complaint",
    "date_created": "2024-04-19T19:41:28.000",
    "date_modified": "2024-04-19T19:41:28.000",
    "request_status": "Pending",
    "responsible_agency": "Health Department",
    "final_address": "3111 Grand-Route St John St",
    "address_councildis": "A",
    "status": "Pending",
    "rowid": "1086453",
    "final_x": "3676507.66805",
    "final_y": "540406.357323",
    "longitude": "-90.0835282619005",
    "latitude": "29.980080781175236",
    "geocoded_column": {
      "latitude": "29.980080781175236",
      "longitude": "-90.0835282619005"
    }
  },
  {
    "service_request": "2024-1086452",
    "request_type": "Trash/Recycling",
    "request_reason": "Illegal Dumping",
    "date_created": "2024-04-19T19:34:29.000",
    "date_modified": "2024-04-19T19:34:29.000",
    "request_status": "Pending",
    "responsible_agency": "Department of Sanitation",
    "final_address": "GREEN ST & GENERAL OGDEN ST",
    "address_councildis": "A",
    "status": "Pending",
    "rowid": "1086452",
    "final_x": "3661050.8",
    "final_y": "531574.98",
    "longitude": "-90.132640062209",
    "latitude": "29.956251904127978",
    "geocoded_column": {
      "latitude": "29.956251904127978",
      "longitude": "-90.132640062209"
    }
  },
  {
    "service_request": "2024-1086451",
    "request_type": "Roads/Drainage",
    "request_reason": "Service Cut",
    "date_created": "2024-04-19T19:02:27.000",
    "date_modified": "2024-04-19T19:02:27.000",
    "request_status": "Pending",
    "responsible_agency": "Department of Public Works",
    "final_address": "6700 Foch Rd",
    "address_councildis": "D",
    "status": "Pending",
    "rowid": "1086451",
    "final_x": "3696707.32131",
    "final_y": "555893.339545",
    "longitude": "-90.01916866124411",
    "latitude": "30.02204297003574",
    "geocoded_column": {
      "latitude": "30.02204297003574",
      "longitude": "-90.01916866124411"
    }
  },
  {
    "service_request": "2024-1086450",
    "request_type": "Roads/Drainage",
    "request_reason": "Accessibility Ramps, Curbs and Sidewalk Repair",
    "date_created": "2024-04-19T18:44:39.000",
    "date_modified": "2024-04-19T18:44:39.000",
    "request_status": "Pending",
    "responsible_agency": "Department of Public Works",
    "final_address": "6744 Foch Rd",
    "address_councildis": "D",
    "status": "Pending",
    "rowid": "1086450",
    "final_x": "3696611.27901",
    "final_y": "556192.58025",
    "longitude": "-90.01946128717911",
    "latitude": "30.022868796797415",
    "geocoded_column": {
      "latitude": "30.022868796797415",
      "longitude": "-90.01946128717911"
    }
  },
  {
    "service_request": "2024-1086448",
    "request_type": "Trash/Recycling",
    "request_reason": "Request a Large Item Pick Up",
    "date_created": "2024-04-19T18:24:14.000",
    "date_modified": "2024-04-19T18:24:14.000",
    "request_status": "Pending",
    "responsible_agency": "Department of Sanitation",
    "final_address": "433 Atlantic Ave",
    "address_councildis": "C",
    "status": "Assigned to Contractor",
    "contractor": "Richards Disposal",
    "rowid": "1086448",
    "final_x": "3688760.7583",
    "final_y": "530009.615425",
    "longitude": "-90.04519714335439",
    "latitude": "29.95112019404112",
    "geocoded_column": {
      "latitude": "29.95112019404112",
      "longitude": "-90.04519714335439"
    }
  },
  {
    "service_request": "2024-1086447",
    "request_type": "Abandoned Vehicles",
    "request_reason": "Abandoned/Junk Vehicles",
    "date_created": "2024-04-19T18:05:51.000",
    "date_modified": "2024-04-19T18:05:51.000",
    "request_status": "Pending",
    "responsible_agency": "Department of Public Works",
    "final_address": "206 S Solomon St, New Orleans, Louisiana, 70119",
    "address_councildis": "A",
    "status": "Pending",
    "rowid": "1086447",
    "final_x": "3670313.75041",
    "final_y": "538304.480329",
    "longitude": "-90.10316256705549",
    "latitude": "29.97448564099346",
    "geocoded_column": {
      "latitude": "29.97448564099346",
      "longitude": "-90.10316256705549"
    }
  },
  {
    "service_request": "2024-1086446",
    "request_type": "Abandoned Vehicles",
    "request_reason": "Abandoned/Junk Vehicles",
    "date_created": "2024-04-19T17:44:39.000",
    "date_modified": "2024-04-19T17:44:39.000",
    "request_status": "Pending",
    "responsible_agency": "Department of Public Works",
    "final_address": "2ND ST & LOYOLA AVE",
    "address_councildis": "B",
    "status": "Pending",
    "rowid": "1086446",
    "final_x": "3675514.2",
    "final_y": "524830.68",
    "longitude": "-90.08720105652469",
    "latitude": "29.93728265075417",
    "geocoded_column": {
      "latitude": "29.93728265075417",
      "longitude": "-90.08720105652469"
    }
  },
  {
    "service_request": "2024-1086445",
    "request_type": "Roads/Drainage",
    "request_reason": "Man hole cover issue",
    "date_created": "2024-04-19T17:42:37.000",
    "date_modified": "2024-04-19T17:42:37.000",
    "request_status": "Pending",
    "responsible_agency": "Department of Public Works",
    "final_address": "LEAKE AVE & BROADWAY ST",
    "address_councildis": "A",
    "status": "Pending",
    "rowid": "1086445",
    "final_x": "3660855.01",
    "final_y": "521586.33",
    "longitude": "-90.13358855105726",
    "latitude": "29.92879192668333",
    "geocoded_column": {
      "latitude": "29.92879192668333",
      "longitude": "-90.13358855105726"
    }
  },
  {
    "service_request": "2024-1086443",
    "request_type": "Roads/Drainage",
    "request_reason": "Pothole",
    "date_created": "2024-04-19T17:20:36.000",
    "date_modified": "2024-04-19T17:20:36.000",
    "request_status": "Pending",
    "responsible_agency": "Department of Public Works",
    "final_address": "800 BLK Sixth St",
    "address_councildis": "B",
    "status": "Pending",
    "rowid": "1086443",
    "final_x": "3677129.31106",
    "final_y": "519777.306034",
    "longitude": "-90.0822762325491",
    "latitude": "29.923339123912648",
    "geocoded_column": {
      "latitude": "29.923339123912648",
      "longitude": "-90.0822762325491"
    }
  },
  {
    "service_request": "2024-1086442",
    "request_type": "Property Maintenance",
    "request_reason": "Property Maintenance",
    "date_created": "2024-04-19T17:09:57.000",
    "date_modified": "2024-04-19T17:09:57.000",
    "request_status": "Pending",
    "responsible_agency": "Department of Code Enforcement",
    "final_address": "1745 Nie Prkwy",
    "address_councildis": "C",
    "status": "Pending",
    "rowid": "1086442",
    "final_x": "3701109.46225",
    "final_y": "524316.263996",
    "longitude": "-90.00641453254765",
    "latitude": "29.935077985739767",
    "geocoded_column": {
      "latitude": "29.935077985739767",
      "longitude": "-90.00641453254765"
    }
  },
  {
    "service_request": "2024-1086441",
    "request_type": "Trash/Recycling",
    "request_reason": "Replace Recycling Cart",
    "date_created": "2024-04-19T17:04:54.000",
    "date_modified": "2024-04-19T17:04:54.000",
    "request_status": "Pending",
    "responsible_agency": "Department of Sanitation",
    "final_address": "1240 Kentucky st",
    "address_councildis": "D",
    "status": "Pending",
    "rowid": "1086441",
    "final_x": "3693457.02115",
    "final_y": "535636.23079",
    "longitude": "-90.03016669857539",
    "latitude": "29.96644541128934",
    "geocoded_column": {
      "latitude": "29.96644541128934",
      "longitude": "-90.03016669857539"
    }
  },
  {
    "service_request": "2024-1086440",
    "request_type": "Trash/Recycling",
    "request_reason": "Return Trash Cart",
    "date_created": "2024-04-19T17:02:59.000",
    "date_modified": "2024-04-19T17:03:00.000",
    "request_status": "Pending",
    "responsible_agency": "Department of Sanitation",
    "final_address": "3217 Cadiz St",
    "address_councildis": "B",
    "status": "Assigned to Contractor",
    "contractor": "IV Waste",
    "rowid": "1086440",
    "final_x": "3669554.59156",
    "final_y": "526666.726654",
    "longitude": "-90.1059538843088",
    "latitude": "29.94250805254452",
    "geocoded_column": {
      "latitude": "29.94250805254452",
      "longitude": "-90.1059538843088"
    }
  },
  {
    "service_request": "2024-1086439",
    "request_type": "Trash/Recycling",
    "request_reason": "Request a Large Item Pick Up",
    "date_created": "2024-04-19T16:58:54.000",
    "date_modified": "2024-04-19T16:58:55.000",
    "request_status": "Pending",
    "responsible_agency": "Department of Sanitation",
    "final_address": "7724 Mayo Rd",
    "address_councildis": "E",
    "status": "Assigned to Contractor",
    "contractor": "Waste Pro",
    "rowid": "1086439",
    "final_x": "3700539.72874",
    "final_y": "561152.35747",
    "longitude": "-90.00686693823988",
    "latitude": "30.036381825939433",
    "geocoded_column": {
      "latitude": "30.036381825939433",
      "longitude": "-90.00686693823988"
    }
  },
  {
    "service_request": "2024-1086438",
    "request_type": "Trash/Recycling",
    "request_reason": "Dead Animal Pick Up",
    "date_created": "2024-04-19T16:56:55.000",
    "date_modified": "2024-04-20T09:57:22.000",
    "case_close_date": "2024-04-20T04:57:22.000",
    "request_status": "Closed",
    "responsible_agency": "Department of Sanitation",
    "final_address": "3017 N Prieur St",
    "address_councildis": "D",
    "status": "Assigned to Contractor",
    "contractor": "IV Waste",
    "contractor_action": "Completed",
    "rowid": "1086438",
    "final_x": "3689360.79401",
    "final_y": "539186.908426",
    "longitude": "-90.04297621584928",
    "latitude": "29.976335986081608",
    "geocoded_column": {
      "latitude": "29.976335986081608",
      "longitude": "-90.04297621584928"
    }
  },
  {
    "service_request": "2024-1086437",
    "request_type": "Trash/Recycling",
    "request_reason": "Missed Trash Pick-Up",
    "date_created": "2024-04-19T16:53:45.000",
    "date_modified": "2024-04-19T16:53:46.000",
    "request_status": "Pending",
    "responsible_agency": "Department of Sanitation",
    "final_address": "4957 Chantilly Dr",
    "address_councildis": "E",
    "status": "Assigned to Contractor",
    "contractor": "Waste Pro",
    "rowid": "1086437",
    "final_x": "3700838.95633",
    "final_y": "555471.063897",
    "longitude": "-90.00612928265917",
    "latitude": "30.020750933229035",
    "geocoded_column": {
      "latitude": "30.020750933229035",
      "longitude": "-90.00612928265917"
    }
  },
  {
    "service_request": "2024-1086436",
    "request_type": "Parks & Parkways",
    "request_reason": "Request Tree Service (Right of Way/Public Property)",
    "date_created": "2024-04-19T16:51:35.000",
    "date_modified": "2024-04-19T16:51:36.000",
    "request_status": "Pending",
    "responsible_agency": "Department of Parks & Parkway",
    "final_address": "2322 Behrman Hwy",
    "address_councildis": "C",
    "status": "Pending",
    "rowid": "1086436",
    "final_x": "3691874.06243",
    "final_y": "521637.979449",
    "longitude": "-90.03566627808183",
    "latitude": "29.928004453753775",
    "geocoded_column": {
      "latitude": "29.928004453753775",
      "longitude": "-90.03566627808183"
    }
  },
  {
    "service_request": "2024-1086435",
    "request_type": "Trash/Recycling",
    "request_reason": "Illegal Dumping",
    "date_created": "2024-04-19T16:41:07.000",
    "date_modified": "2024-04-19T16:41:07.000",
    "request_status": "Pending",
    "responsible_agency": "Department of Sanitation",
    "final_address": "3300 BLK First St",
    "address_councildis": "B",
    "status": "Pending",
    "rowid": "1086435",
    "final_x": "3673517.53416",
    "final_y": "528408.872104",
    "longitude": "-90.09338242451246",
    "latitude": "29.9471810633713",
    "geocoded_column": {
      "latitude": "29.9471810633713",
      "longitude": "-90.09338242451246"
    }
  },
  {
    "service_request": "2024-1086434",
    "request_type": "Trash/Recycling",
    "request_reason": "Request a Large Item Pick Up",
    "date_created": "2024-04-19T16:38:48.000",
    "date_modified": "2024-04-19T16:38:49.000",
    "request_status": "Pending",
    "responsible_agency": "Department of Sanitation",
    "final_address": "14559 Tilbury Rd",
    "address_councildis": "E",
    "status": "Assigned to Contractor",
    "contractor": "Waste Pro",
    "rowid": "1086434",
    "final_x": "3720942.43686",
    "final_y": "573301.61713",
    "longitude": "-89.94192490866105",
    "latitude": "30.06912203512933",
    "geocoded_column": {
      "latitude": "30.06912203512933",
      "longitude": "-89.94192490866105"
    }
  },
  {
    "service_request": "2024-1086433",
    "request_type": "Trash/Recycling",
    "request_reason": "Repair Trash Cart",
    "date_created": "2024-04-19T16:34:46.000",
    "date_modified": "2024-04-19T16:34:46.000",
    "request_status": "Pending",
    "responsible_agency": "Department of Sanitation",
    "final_address": "2524 Milan St",
    "address_councildis": "B",
    "status": "Assigned to Contractor",
    "contractor": "IV Waste",
    "rowid": "1086433",
    "final_x": "3671216.05255",
    "final_y": "524332.710012",
    "longitude": "-90.10078752530576",
    "latitude": "29.936041223880583",
    "geocoded_column": {
      "latitude": "29.936041223880583",
      "longitude": "-90.10078752530576"
    }
  },
  {
    "service_request": "2024-1086432",
    "request_type": "Trash/Recycling",
    "request_reason": "Replace Trash Cart",
    "date_created": "2024-04-19T16:28:41.000",
    "date_modified": "2024-04-19T16:28:41.000",
    "request_status": "Pending",
    "responsible_agency": "Department of Sanitation",
    "final_address": "1717 Frenchmen St",
    "address_councildis": "D",
    "status": "Assigned to Contractor",
    "contractor": "IV Waste",
    "rowid": "1086432",
    "final_x": "3684434.24213",
    "final_y": "538618.513929",
    "longitude": "-90.05855568884678",
    "latitude": "29.97492472815723",
    "geocoded_column": {
      "latitude": "29.97492472815723",
      "longitude": "-90.05855568884678"
    }
  },
  {
    "service_request": "2024-1086431",
    "request_type": "Trash/Recycling",
    "request_reason": "Request a Large Item Pick Up",
    "date_created": "2024-04-19T16:26:28.000",
    "date_modified": "2024-04-19T16:26:29.000",
    "request_status": "Pending",
    "responsible_agency": "Department of Sanitation",
    "final_address": "7511 Eastmore Rd",
    "address_councildis": "E",
    "status": "Assigned to Contractor",
    "contractor": "Waste Pro",
    "rowid": "1086431",
    "final_x": "3700407.11415",
    "final_y": "560251.502173",
    "longitude": "-90.00731896953855",
    "latitude": "30.033909044392352",
    "geocoded_column": {
      "latitude": "30.033909044392352",
      "longitude": "-90.00731896953855"
    }
  },
  {
    "service_request": "2024-1086430",
    "request_type": "Trash/Recycling",
    "request_reason": "Replace Trash Cart",
    "date_created": "2024-04-19T16:26:12.000",
    "date_modified": "2024-04-19T16:26:12.000",
    "request_status": "Pending",
    "responsible_agency": "Department of Sanitation",
    "final_address": "3415 Louisiana Avenue Pkwy, New Orleans, Louisiana, 70125",
    "status": "Assigned to Contractor",
    "rowid": "1086430",
    "longitude": "0.0",
    "latitude": "0.0",
    "geocoded_column": {
      "latitude": "0.0",
      "longitude": "0.0"
    }
  },
  {
    "service_request": "2024-1086428",
    "request_type": "Trash/Recycling",
    "request_reason": "Request a Large Item Pick Up",
    "date_created": "2024-04-19T16:15:23.000",
    "date_modified": "2024-04-19T16:16:02.000",
    "request_status": "Pending",
    "responsible_agency": "Department of Sanitation",
    "final_address": "4965 Camelia St",
    "address_councildis": "E",
    "status": "Assigned to Contractor",
    "contractor": "Waste Pro",
    "rowid": "1086428",
    "final_x": "3701471.6474",
    "final_y": "555508.503129",
    "longitude": "-90.00412880647332",
    "latitude": "30.0208337113944",
    "geocoded_column": {
      "latitude": "30.0208337113944",
      "longitude": "-90.00412880647332"
    }
  },
  {
    "service_request": "2024-1086427",
    "request_type": "Trash/Recycling",
    "request_reason": "Replace Recycling Cart",
    "date_created": "2024-04-19T16:08:59.000",
    "date_modified": "2024-04-19T16:08:59.000",
    "request_status": "Pending",
    "responsible_agency": "Department of Sanitation",
    "final_address": "5415 Bellaire Dr",
    "address_councildis": "A",
    "status": "Pending",
    "rowid": "1086427",
    "final_x": "3664075.03303",
    "final_y": "543747.530894",
    "longitude": "-90.12268439979964",
    "latitude": "29.98963489841442",
    "geocoded_column": {
      "latitude": "29.98963489841442",
      "longitude": "-90.12268439979964"
    }
  },
  {
    "service_request": "2024-1086426",
    "request_type": "Trash/Recycling",
    "request_reason": "Request a Large Item Pick Up",
    "date_created": "2024-04-19T16:08:51.000",
    "date_modified": "2024-04-20T08:16:45.000",
    "case_close_date": "2024-04-20T03:16:45.000",
    "request_status": "Closed",
    "responsible_agency": "Department of Sanitation",
    "final_address": "314 S Olympia St",
    "address_councildis": "A",
    "status": "Assigned to Contractor",
    "contractor": "IV Waste",
    "contractor_action": "Completed",
    "rowid": "1086426",
    "final_x": "3668879.35079",
    "final_y": "538847.749449",
    "longitude": "-90.10767440757911",
    "latitude": "29.976021714161657",
    "geocoded_column": {
      "latitude": "29.976021714161657",
      "longitude": "-90.10767440757911"
    }
  },
  {
    "service_request": "2024-1086424",
    "request_type": "Trash/Recycling",
    "request_reason": "Request a Large Item Pick Up",
    "date_created": "2024-04-19T16:07:05.000",
    "date_modified": "2024-04-20T07:34:57.000",
    "case_close_date": "2024-04-20T02:34:57.000",
    "request_status": "Closed",
    "responsible_agency": "Department of Sanitation",
    "final_address": "4936 Mirabeau Ave",
    "address_councildis": "D",
    "status": "Assigned to Contractor",
    "contractor": "IV Waste",
    "contractor_action": "Completed",
    "rowid": "1086424",
    "final_x": "3692040.7103",
    "final_y": "551964.279574",
    "longitude": "-90.03405468585083",
    "latitude": "30.011385859489266",
    "geocoded_column": {
      "latitude": "30.011385859489266",
      "longitude": "-90.03405468585083"
    }
  },
  {
    "service_request": "2024-1086423",
    "request_type": "Roads/Drainage",
    "request_reason": "Pothole",
    "date_created": "2024-04-19T16:05:42.000",
    "date_modified": "2024-04-19T16:05:42.000",
    "request_status": "Pending",
    "responsible_agency": "Department of Public Works",
    "final_address": "5725 Canal Blvd",
    "address_councildis": "A",
    "status": "Pending",
    "rowid": "1086423",
    "final_x": "3668442.10318",
    "final_y": "545619.71528",
    "longitude": "-90.10882680448029",
    "latitude": "29.994655169761177",
    "geocoded_column": {
      "latitude": "29.994655169761177",
      "longitude": "-90.10882680448029"
    }
  },
  {
    "service_request": "2024-1086422",
    "request_type": "Trash/Recycling",
    "request_reason": "Order Recycling Cart",
    "date_created": "2024-04-19T16:04:59.000",
    "date_modified": "2024-04-19T16:04:59.000",
    "request_status": "Pending",
    "responsible_agency": "Department of Sanitation",
    "final_address": "2041 S Chippewa St",
    "address_councildis": "B",
    "status": "Pending",
    "rowid": "1086422",
    "final_x": "3680305.19963",
    "final_y": "521052.262841",
    "longitude": "-90.07220685898443",
    "latitude": "29.92674911111749",
    "geocoded_column": {
      "latitude": "29.92674911111749",
      "longitude": "-90.07220685898443"
    }
  },
  {
    "service_request": "2024-1086421",
    "request_type": "Trash/Recycling",
    "request_reason": "Order Recycling Cart",
    "date_created": "2024-04-19T16:04:42.000",
    "date_modified": "2024-04-19T16:04:43.000",
    "request_status": "Pending",
    "responsible_agency": "Department of Sanitation",
    "final_address": "2045 S Chippewa St",
    "address_councildis": "B",
    "status": "Pending",
    "rowid": "1086421",
    "final_x": "3680300.54267",
    "final_y": "521036.119609",
    "longitude": "-90.07222212061116",
    "latitude": "29.926704863448744",
    "geocoded_column": {
      "latitude": "29.926704863448744",
      "longitude": "-90.07222212061116"
    }
  },
  {
    "service_request": "2024-1086420",
    "request_type": "Trash/Recycling",
    "request_reason": "Order Trash Cart",
    "date_created": "2024-04-19T16:04:26.000",
    "date_modified": "2024-04-19T16:04:26.000",
    "request_status": "Pending",
    "responsible_agency": "Department of Sanitation",
    "final_address": "2045 S Chippewa St",
    "address_councildis": "B",
    "status": "Assigned to Contractor",
    "contractor": "IV Waste",
    "rowid": "1086420",
    "final_x": "3680300.54267",
    "final_y": "521036.119609",
    "longitude": "-90.07222212061116",
    "latitude": "29.926704863448744",
    "geocoded_column": {
      "latitude": "29.926704863448744",
      "longitude": "-90.07222212061116"
    }
  },
  {
    "service_request": "2024-1086419",
    "request_type": "Trash/Recycling",
    "request_reason": "Order Trash Cart",
    "date_created": "2024-04-19T16:03:57.000",
    "date_modified": "2024-04-19T16:03:58.000",
    "request_status": "Pending",
    "responsible_agency": "Department of Sanitation",
    "final_address": "2041 S Chippewa St",
    "address_councildis": "B",
    "status": "Assigned to Contractor",
    "contractor": "IV Waste",
    "rowid": "1086419",
    "final_x": "3680305.19963",
    "final_y": "521052.262841",
    "longitude": "-90.07220685898443",
    "latitude": "29.92674911111749",
    "geocoded_column": {
      "latitude": "29.92674911111749",
      "longitude": "-90.07220685898443"
    }
  },
  {
    "service_request": "2024-1086417",
    "request_type": "Trash/Recycling",
    "request_reason": "Replace Trash Cart",
    "date_created": "2024-04-19T15:57:44.000",
    "date_modified": "2024-04-19T15:57:45.000",
    "request_status": "Pending",
    "responsible_agency": "Department of Sanitation",
    "final_address": "5101 N Rampart St",
    "address_councildis": "E",
    "status": "Assigned to Contractor",
    "contractor": "Waste Pro",
    "rowid": "1086417",
    "final_x": "3696166.77526",
    "final_y": "533790.915717",
    "longitude": "-90.02167608448386",
    "latitude": "29.961286432255665",
    "geocoded_column": {
      "latitude": "29.961286432255665",
      "longitude": "-90.02167608448386"
    }
  },
  {
    "service_request": "2024-1086416",
    "request_type": "Trash/Recycling",
    "request_reason": "Request a Large Item Pick Up",
    "date_created": "2024-04-19T15:55:38.000",
    "date_modified": "2024-04-20T09:55:46.000",
    "case_close_date": "2024-04-20T04:55:46.000",
    "request_status": "Closed",
    "responsible_agency": "Department of Sanitation",
    "final_address": "6619 West End Blvd",
    "address_councildis": "A",
    "status": "Assigned to Contractor",
    "contractor": "IV Waste",
    "contractor_action": "Completed",
    "rowid": "1086416",
    "final_x": "3666795.60781",
    "final_y": "551911.014806",
    "longitude": "-90.11381639071321",
    "latitude": "30.012002343002166",
    "geocoded_column": {
      "latitude": "30.012002343002166",
      "longitude": "-90.11381639071321"
    }
  },
  {
    "service_request": "2024-1086415",
    "request_type": "Trash/Recycling",
    "request_reason": "Order Trash Cart",
    "date_created": "2024-04-19T15:50:07.000",
    "date_modified": "2024-04-19T15:50:07.000",
    "request_status": "Pending",
    "responsible_agency": "Department of Sanitation",
    "final_address": "1932 Ap Tureaud Ave",
    "address_councildis": "D",
    "status": "Assigned to Contractor",
    "contractor": "IV Waste",
    "rowid": "1086415",
    "final_x": "3681657.0278",
    "final_y": "539365.763914",
    "longitude": "-90.0673007571682",
    "latitude": "29.97706407057423",
    "geocoded_column": {
      "latitude": "29.97706407057423",
      "longitude": "-90.0673007571682"
    }
  },
  {
    "service_request": "2024-1086414",
    "request_type": "Trash/Recycling",
    "request_reason": "Request a Large Item Pick Up",
    "date_created": "2024-04-19T15:46:56.000",
    "date_modified": "2024-04-19T15:46:57.000",
    "request_status": "Pending",
    "responsible_agency": "Department of Sanitation",
    "final_address": "322 Alix St",
    "address_councildis": "C",
    "status": "Assigned to Contractor",
    "contractor": "Richards Disposal",
    "rowid": "1086414",
    "final_x": "3686540.80905",
    "final_y": "530085.101249",
    "longitude": "-90.05220395578007",
    "latitude": "29.951396189025203",
    "geocoded_column": {
      "latitude": "29.951396189025203",
      "longitude": "-90.05220395578007"
    }
  },
  {
    "service_request": "2024-1086413",
    "request_type": "Trash/Recycling",
    "request_reason": "Request a Large Item Pick Up",
    "date_created": "2024-04-19T15:44:56.000",
    "date_modified": "2024-04-19T15:44:56.000",
    "request_status": "Pending",
    "responsible_agency": "Department of Sanitation",
    "final_address": "322 Alix St",
    "address_councildis": "C",
    "status": "Assigned to Contractor",
    "contractor": "Richards Disposal",
    "rowid": "1086413",
    "final_x": "3686540.80905",
    "final_y": "530085.101249",
    "longitude": "-90.05220395578007",
    "latitude": "29.951396189025203",
    "geocoded_column": {
      "latitude": "29.951396189025203",
      "longitude": "-90.05220395578007"
    }
  },
  {
    "service_request": "2024-1086412",
    "request_type": "Roads/Drainage",
    "request_reason": "Catch Basin - Broken/Damage",
    "date_created": "2024-04-19T15:44:10.000",
    "date_modified": "2024-04-19T15:44:10.000",
    "request_status": "Pending",
    "responsible_agency": "Department of Public Works",
    "final_address": "5500 S Claiborne Ave",
    "address_councildis": "A",
    "status": "Pending",
    "rowid": "1086412",
    "final_x": "3668041.35585",
    "final_y": "526365.863742",
    "longitude": "-90.11074166711217",
    "latitude": "29.941725259888106",
    "geocoded_column": {
      "latitude": "29.941725259888106",
      "longitude": "-90.11074166711217"
    }
  },
  {
    "service_request": "2024-1086411",
    "request_type": "Trash/Recycling",
    "request_reason": "Request a Large Item Pick Up",
    "date_created": "2024-04-19T15:42:01.000",
    "date_modified": "2024-04-19T15:42:02.000",
    "request_status": "Pending",
    "responsible_agency": "Department of Sanitation",
    "final_address": "320 Alix St",
    "address_councildis": "C",
    "status": "Assigned to Contractor",
    "contractor": "Richards Disposal",
    "rowid": "1086411",
    "final_x": "3686532.61436",
    "final_y": "530078.590081",
    "longitude": "-90.05223006039935",
    "latitude": "29.95137853746635",
    "geocoded_column": {
      "latitude": "29.95137853746635",
      "longitude": "-90.05223006039935"
    }
  },
  {
    "service_request": "2024-1086410",
    "request_type": "Trash/Recycling",
    "request_reason": "Request a Large Item Pick Up",
    "date_created": "2024-04-19T15:41:36.000",
    "date_modified": "2024-04-20T08:00:53.000",
    "case_close_date": "2024-04-20T03:00:53.000",
    "request_status": "Closed",
    "responsible_agency": "Department of Sanitation",
    "final_address": "1518 Mystery St",
    "address_councildis": "A",
    "status": "Assigned to Contractor",
    "contractor": "IV Waste",
    "contractor_action": "Completed",
    "rowid": "1086410",
    "final_x": "3676145.24917",
    "final_y": "540930.413387",
    "longitude": "-90.0846548958662",
    "latitude": "29.981532619219248",
    "geocoded_column": {
      "latitude": "29.981532619219248",
      "longitude": "-90.0846548958662"
    }
  },
  {
    "service_request": "2024-1086409",
    "request_type": "Trash/Recycling",
    "request_reason": "Request a Large Item Pick Up",
    "date_created": "2024-04-19T15:39:36.000",
    "date_modified": "2024-04-19T15:39:36.000",
    "request_status": "Pending",
    "responsible_agency": "Department of Sanitation",
    "final_address": "320 Alix St",
    "address_councildis": "C",
    "status": "Assigned to Contractor",
    "contractor": "Richards Disposal",
    "rowid": "1086409",
    "final_x": "3686532.61436",
    "final_y": "530078.590081",
    "longitude": "-90.05223006039935",
    "latitude": "29.95137853746635",
    "geocoded_column": {
      "latitude": "29.95137853746635",
      "longitude": "-90.05223006039935"
    }
  },
  {
    "service_request": "2024-1086408",
    "request_type": "Trash/Recycling",
    "request_reason": "Request a Large Item Pick Up",
    "date_created": "2024-04-19T15:36:16.000",
    "date_modified": "2024-04-19T15:36:17.000",
    "request_status": "Pending",
    "responsible_agency": "Department of Sanitation",
    "final_address": "320 Alix St",
    "address_councildis": "C",
    "status": "Assigned to Contractor",
    "contractor": "Richards Disposal",
    "rowid": "1086408",
    "final_x": "3686532.61436",
    "final_y": "530078.590081",
    "longitude": "-90.05223006039935",
    "latitude": "29.95137853746635",
    "geocoded_column": {
      "latitude": "29.95137853746635",
      "longitude": "-90.05223006039935"
    }
  },