[
  {
    "service_request": "2025-1247000",
    "request_type": "Trash/Recycling",
    "request_reason": "Repair Recycling Cart",
    "date_created": "2025-12-22T23:36:17.000",
    "date_modified": "2025-12-22T23:36:19.000",
    "request_status": "Pending",
    "responsible_agency": "Department of Sanitation",
    "final_address": "609 Atlantic Ave",
    "address_councildis": "C",
    "status": "Pending",
    "rowid": "1247000",
    "final_x": "3688738.73487",
    "final_y": "529342.818625",
    "longitude": "-90.04529034914393",
    "latitude": "29.949287412424077",
    "geocoded_column": {
      "latitude": "29.949287412424077",
      "longitude": "-90.04529034914393"
    }
  },
  {
    "service_request": "2025-1246999",
    "request_type": "General Services",
    "request_reason": "General Service Request",
    "date_created": "2025-12-22T21:42:01.000",
    "date_modified": "2025-12-22T21:42:03.000",
    "request_status": "Pending",
    "responsible_agency": "Orleans Parish Communication District",
    "final_address": "6549 Wales St",
    "address_councildis": "E",
    "status": "Pending",
    "rowid": "1246999",
    "final_x": "3697154.80848",
    "final_y": "560263.995997",
    "longitude": "-90.01759614482029",
    "latitude": "30.034046484271634",
    "geocoded_column": {
      "latitude": "30.034046484271634",
      "longitude": "-90.01759614482029"
    }
  },
  {
    "service_request": "2025-1246998",
    "request_type": "Trash/Recycling",
    "request_reason": "Illegal Dumping",
    "date_created": "2025-12-22T20:55:02.000",
    "date_modified": "2025-12-22T20:55:03.000",
    "request_status": "Pending",
    "responsible_agency": "Department of Sanitation",
    "final_address": "7140 Bundy Rd",
    "address_councildis": "E",
    "status": "Pending",
    "rowid": "1246998",
    "final_x": "3706605.04689",
    "final_y": "561412.326558",
    "longitude": "-89.98768982829633",
    "latitude": "30.0369021806078",
    "geocoded_column": {
      "latitude": "30.0369021806078",
      "longitude": "-89.98768982829633"
    }
  },
  {
    "service_request": "2025-1246997",
    "request_type": "Streetlights",
    "request_reason": "Streetlight Outage/Malfunction",
    "date_created": "2025-12-22T20:53:38.000",
    "date_modified": "2025-12-22T20:53:40.000",
    "request_status": "Pending",
    "responsible_agency": "Department of Public Works",
    "final_address": "3580 Bennett St",
    "address_councildis": "C",
    "status": "Pending",
    "rowid": "1246997",
    "final_x": "3710410.23025",
    "final_y": "517466.33471",
    "longitude": "-89.97730826937126",
    "latitude": "29.91594366681555",
    "geocoded_column": {
      "latitude": "29.91594366681555",
      "longitude": "-89.97730826937126"
    }
  },
  {
    "service_request": "2025-1246996",
    "request_type": "Streetlights",
    "request_reason": "Streetlight Outage/Malfunction",
    "date_created": "2025-12-22T20:45:36.000",
    "date_modified": "2025-12-22T20:45:37.000",
    "request_status": "Pending",
    "responsible_agency": "Department of Public Works",
    "final_address": "3641 White Oak Ave",
    "address_councildis": "C",
    "status": "Pending",
    "rowid": "1246996",
    "final_x": "3703721.70974",
    "final_y": "514182.602738",
    "longitude": "-89.99854041933769",
    "latitude": "29.90713048098672",
    "geocoded_column": {
      "latitude": "29.90713048098672",
      "longitude": "-89.99854041933769"
    }
  },
  {
    "service_request": "2025-1246995",
    "request_type": "Trash/Recycling",
    "request_reason": "Request a Large Item Pick Up",
    "date_created": "2025-12-22T20:43:17.000",
    "date_modified": "2025-12-22T20:43:19.000",
    "request_status": "Pending",
    "responsible_agency": "Department of Sanitation",
    "final_address": "7142 Bundy Rd",
    "address_councildis": "E",
    "status": "Assigned to Contractor",
    "contractor": "Waste Pro",
    "rowid": "1246995",
    "final_x": "3706593.60862",
    "final_y": "561435.217758",
    "longitude": "-89.98772512588032",
    "latitude": "30.036965491716817",
    "geocoded_column": {
      "latitude": "30.036965491716817",
      "longitude": "-89.98772512588032"
    }
  },
  {
    "service_request": "2025-1246994",
    "request_type": "Trash/Recycling",
    "request_reason": "Repair Trash Cart",
    "date_created": "2025-12-22T19:04:29.000",
    "date_modified": "2025-12-22T19:04:31.000",
    "request_status": "Pending",
    "responsible_agency": "Department of Sanitation",
    "final_address": "2637 N Galvez St",
    "address_councildis": "D",
    "status": "Assigned to Contractor",
    "contractor": "IV Waste",
    "rowid": "1246994",
    "final_x": "3688236.26127",
    "final_y": "540226.577035",
    "longitude": "-90.0464909407076",
    "latitude": "29.979229479834633",
    "geocoded_column": {
      "latitude": "29.979229479834633",
      "longitude": "-90.0464909407076"
    }
  },
  {
    "service_request": "2025-1246993",
    "request_type": "Trash/Recycling",
    "request_reason": "Request a Large Item Pick Up",
    "date_created": "2025-12-22T18:41:13.000",
    "date_modified": "2025-12-22T18:41:15.000",
    "request_status": "Pending",
    "responsible_agency": "Department of Sanitation",
    "final_address": "8515 Edinburgh St",
    "address_councildis": "A",
    "status": "Assigned to Contractor",
    "contractor": "IV Waste",
    "rowid": "1246993",
    "final_x": "3666341.16935",
    "final_y": "535526.51591",
    "longitude": "-90.11580220729982",
    "latitude": "29.966963836322954",
    "geocoded_column": {
      "latitude": "29.966963836322954",
      "longitude": "-90.11580220729982"
    }
  },
  {
    "service_request": "2025-1246992",
    "request_type": "Trash/Recycling",
    "request_reason": "Replace Trash Cart",
    "date_created": "2025-12-22T18:37:12.000",
    "date_modified": "2025-12-22T18:37:14.000",
    "request_status": "Pending",
    "responsible_agency": "Department of Sanitation",
    "final_address": "446 Elmira Ave",
    "address_councildis": "C",
    "status": "Assigned to Contractor",
    "contractor": "Richards Disposal",
    "rowid": "1246992",
    "final_x": "3688268.89206",
    "final_y": "529943.938113",
    "longitude": "-90.04675253589362",
    "latitude": "29.950954799013644",
    "geocoded_column": {
      "latitude": "29.950954799013644",
      "longitude": "-90.04675253589362"
    }
  },
  {
    "service_request": "2025-1246991",
    "request_type": "Trash/Recycling",
    "request_reason": "Replace Trash Cart",
    "date_created": "2025-12-22T18:27:13.000",
    "date_modified": "2025-12-22T18:27:15.000",
    "request_status": "Pending",
    "responsible_agency": "Department of Sanitation",
    "final_address": "2641 Gravier St",
    "address_councildis": "B",
    "status": "Assigned to Contractor",
    "contractor": "IV Waste",
    "rowid": "1246991",
    "final_x": "3674250.80289",
    "final_y": "533262.792708",
    "longitude": "-90.09090103955914",
    "latitude": "29.960505892584525",
    "geocoded_column": {
      "latitude": "29.960505892584525",
      "longitude": "-90.09090103955914"
    }
  },
  {
    "service_request": "2025-1246990",
    "request_type": "Trash/Recycling",
    "request_reason": "Request a Large Item Pick Up",
    "date_created": "2025-12-22T18:15:50.000",
    "date_modified": "2025-12-22T18:15:53.000",
    "request_status": "Pending",
    "responsible_agency": "Department of Sanitation",
    "final_address": "8010 Windward Ct",
    "address_councildis": "E",
    "status": "Assigned to Contractor",
    "contractor": "Waste Pro",
    "rowid": "1246990",
    "final_x": "3714920.68459",
    "final_y": "570550.501415",
    "longitude": "-89.96106504826965",
    "latitude": "30.061757293691798",
    "geocoded_column": {
      "latitude": "30.061757293691798",
      "longitude": "-89.96106504826965"
    }
  },
  {
    "service_request": "2025-1246989",
    "request_type": "Abandoned Vehicles",
    "request_reason": "Abandoned/Junk Vehicles",
    "date_created": "2025-12-22T18:04:17.000",
    "date_modified": "2025-12-22T18:04:22.000",
    "request_status": "Pending",
    "responsible_agency": "Department of Public Works",
    "final_address": "3309 Martin Luther King, Jr. Blvd",
    "address_councildis": "B",
    "status": "Pending",
    "rowid": "1246989",
    "final_x": "3674103.58516",
    "final_y": "528845.508032",
    "longitude": "-90.0915170968364",
    "latitude": "29.94836421709694",
    "geocoded_column": {
      "latitude": "29.94836421709694",
      "longitude": "-90.0915170968364"
    }
  },
  {
    "service_request": "2025-1246988",
    "request_type": "Trash/Recycling",
    "request_reason": "Replace Recycling Cart",
    "date_created": "2025-12-22T17:53:43.000",
    "date_modified": "2025-12-22T17:53:44.000",
    "request_status": "Pending",
    "responsible_agency": "Department of Sanitation",
    "final_address": "44 W Park Pl",
    "address_councildis": "A",
    "status": "Pending",
    "rowid": "1246988",
    "final_x": "3669808.32199",
    "final_y": "544410.136591",
    "longitude": "-90.10455204672823",
    "latitude": "29.991289028881827",
    "geocoded_column": {
      "latitude": "29.991289028881827",
      "longitude": "-90.10455204672823"
    }
  },
  {
    "service_request": "2025-1246987",
    "request_type": "Trash/Recycling",
    "request_reason": "Request a Large Item Pick Up",
    "date_created": "2025-12-22T17:50:27.000",
    "date_modified": "2025-12-22T17:50:29.000",
    "request_status": "Pending",
    "responsible_agency": "Department of Sanitation",
    "final_address": "7890 Means Ave",
    "address_councildis": "E",
    "status": "Assigned to Contractor",
    "contractor": "Waste Pro",
    "rowid": "1246987",
    "final_x": "3707593.2003",
    "final_y": "565482.809186",
    "longitude": "-89.98441564231584",
    "latitude": "30.048062441752617",
    "geocoded_column": {
      "latitude": "30.048062441752617",
      "longitude": "-89.98441564231584"
    }
  },
  {
    "service_request": "2025-1246986",
    "request_type": "Trash/Recycling",
    "request_reason": "Request a Large Item Pick Up",
    "date_created": "2025-12-22T17:48:57.000",
    "date_modified": "2025-12-22T17:48:59.000",
    "request_status": "Pending",
    "responsible_agency": "Department of Sanitation",
    "final_address": "4800 Cleveland Ave",
    "address_councildis": "A",
    "status": "Assigned to Contractor",
    "contractor": "IV Waste",
    "rowid": "1246986",
    "final_x": "3668492.1874",
    "final_y": "539707.030474",
    "longitude": "-90.10886818476337",
    "latitude": "29.97839582905405",
    "geocoded_column": {
      "latitude": "29.97839582905405",
      "longitude": "-90.10886818476337"
    }
  },
  {
    "service_request": "2025-1246985",
    "request_type": "Trash/Recycling",
    "request_reason": "Request a Large Item Pick Up",
    "date_created": "2025-12-22T16:49:21.000",
    "date_modified": "2025-12-22T16:49:22.000",
    "request_status": "Pending",
    "responsible_agency": "Department of Sanitation",
    "final_address": "4610 Lancelot Dr",
    "address_councildis": "E",
    "status": "Assigned to Contractor",
    "contractor": "Waste Pro",
    "rowid": "1246985",
    "final_x": "3707474.7436",
    "final_y": "554524.211672",
    "longitude": "-89.98519753103969",
    "latitude": "30.017934448117064",
    "geocoded_column": {
      "latitude": "30.017934448117064",
      "longitude": "-89.98519753103969"
    }
  },
  {
    "service_request": "2025-1246984",
    "request_type": "Trash/Recycling",
    "request_reason": "Request a Large Item Pick Up",
    "date_created": "2025-12-22T16:46:35.000",
    "date_modified": "2025-12-22T16:46:36.000",
    "request_status": "Pending",
    "responsible_agency": "Department of Sanitation",
    "final_address": "4734 Longfellow Dr",
    "address_councildis": "E",
    "status": "Assigned to Contractor",
    "contractor": "Waste Pro",
    "rowid": "1246984",
    "final_x": "3709557.03928",
    "final_y": "555790.486617",
    "longitude": "-89.97857103326695",
    "latitude": "30.021348682650533",
    "geocoded_column": {
      "latitude": "30.021348682650533",
      "longitude": "-89.97857103326695"
    }
  },
  {
    "service_request": "2025-1246983",
    "request_type": "Trash/Recycling",
    "request_reason": "Request a Large Item Pick Up",
    "date_created": "2025-12-22T16:45:12.000",
    "date_modified": "2025-12-22T16:45:14.000",
    "request_status": "Pending",
    "responsible_agency": "Department of Sanitation",
    "final_address": "1331 France St",
    "address_councildis": "D",
    "status": "Assigned to Contractor",
    "contractor": "IV Waste",
    "rowid": "1246983",
    "final_x": "3692673.75901",
    "final_y": "536122.374343",
    "longitude": "-90.03262279218148",
    "latitude": "29.967806605242732",
    "geocoded_column": {
      "latitude": "29.967806605242732",
      "longitude": "-90.03262279218148"
    }
  },
  {
    "service_request": "2025-1246982",
    "request_type": "Roads and Streets",
    "request_reason": "Pothole",
    "date_created": "2025-12-22T16:32:38.000",
    "date_modified": "2025-12-22T16:32:40.000",
    "request_status": "Pending",
    "responsible_agency": "Department of Public Works",
    "final_address": "1201 Canal St",
    "address_councildis": "C",
    "status": "Pending",
    "rowid": "1246982",
    "final_x": "3679792.28808",
    "final_y": "531855.811267",
    "longitude": "-90.07345100081632",
    "latitude": "29.956470790064685",
    "geocoded_column": {
      "latitude": "29.956470790064685",
      "longitude": "-90.07345100081632"
    }
  },
  {
    "service_request": "2025-1246981",
    "request_type": "Trash/Recycling",
    "request_reason": "Request a Large Item Pick Up",
    "date_created": "2025-12-22T16:31:37.000",
    "date_modified": "2025-12-22T16:31:39.000",
    "request_status": "Pending",
    "responsible_agency": "Department of Sanitation",
    "final_address": "738 St Ferdinand St",
    "address_councildis": "C",
    "status": "Assigned to Contractor",
    "contractor": "IV Waste",
    "rowid": "1246981",
    "final_x": "3687380.12086",
    "final_y": "535139.019334",
    "longitude": "-90.04937501373945",
    "latitude": "29.96526688973412",
    "geocoded_column": {
      "latitude": "29.96526688973412",
      "longitude": "-90.04937501373945"
    }
  },
  {
    "service_request": "2025-1246980",
    "request_type": "Roads and Streets",
    "request_reason": "Pothole",
    "date_created": "2025-12-22T16:30:24.000",
    "date_modified": "2025-12-22T16:30:26.000",
    "request_status": "Pending",
    "responsible_agency": "Department of Public Works",
    "final_address": "800 BLK Union St",
    "address_councildis": "B",
    "status": "Pending",
    "rowid": "1246980",
    "final_x": "3680274.58003",
    "final_y": "530078.812333",
    "longitude": "-90.07198985006315",
    "latitude": "29.951570052640147",
    "geocoded_column": {
      "latitude": "29.951570052640147",
      "longitude": "-90.07198985006315"
    }
  },
  {
    "service_request": "2025-1246979",
    "request_type": "Roads and Streets",
    "request_reason": "Pothole",
    "date_created": "2025-12-22T16:27:27.000",
    "date_modified": "2025-12-22T16:27:29.000",
    "request_status": "Pending",
    "responsible_agency": "Department of Public Works",
    "final_address": "800 BLK Union St",
    "address_councildis": "B",
    "status": "Pending",
    "rowid": "1246979",
    "final_x": "3680274.58003",
    "final_y": "530078.812333",
    "longitude": "-90.07198985006315",
    "latitude": "29.951570052640147",
    "geocoded_column": {
      "latitude": "29.951570052640147",
      "longitude": "-90.07198985006315"
    }
  },
  {
    "service_request": "2025-1246978",
    "request_type": "Trash/Recycling",
    "request_reason": "Request a Large Item Pick Up",
    "date_created": "2025-12-22T16:26:20.000",
    "date_modified": "2025-12-22T16:26:22.000",
    "request_status": "Pending",
    "responsible_agency": "Department of Sanitation",
    "final_address": "7801 Sandpiper Dr",
    "address_councildis": "E",
    "status": "Assigned to Contractor",
    "contractor": "Waste Pro",
    "rowid": "1246978",
    "final_x": "3715627.78463",
    "final_y": "570188.399079",
    "longitude": "-89.95884365684529",
    "latitude": "30.06073835879815",
    "geocoded_column": {
      "latitude": "30.06073835879815",
      "longitude": "-89.95884365684529"
    }
  },
  {
    "service_request": "2025-1246977",
    "request_type": "Trash/Recycling",
    "request_reason": "Repair Recycling Cart",
    "date_created": "2025-12-22T16:24:56.000",
    "date_modified": "2025-12-22T16:24:57.000",
    "request_status": "Pending",
    "responsible_agency": "Department of Sanitation",
    "final_address": "536 Belleville St",
    "address_councildis": "C",
    "status": "Pending",
    "rowid": "1246977",
    "final_x": "3687887.84169",
    "final_y": "529622.182273",
    "longitude": "-90.04796709430973",
    "latitude": "29.95008183970886",
    "geocoded_column": {
      "latitude": "29.95008183970886",
      "longitude": "-90.04796709430973"
    }
  },
  {
    "service_request": "2025-1246976",
    "request_type": "Trash/Recycling",
    "request_reason": "Repair Trash Cart",
    "date_created": "2025-12-22T16:22:49.000",
    "date_modified": "2025-12-22T16:22:50.000",
    "request_status": "Pending",
    "responsible_agency": "Department of Sanitation",
    "final_address": "446 Elmira Ave",
    "address_councildis": "C",
    "status": "Assigned to Contractor",
    "contractor": "Richards Disposal",
    "rowid": "1246976",
    "final_x": "3688268.89206",
    "final_y": "529943.938113",
    "longitude": "-90.04675253589362",
    "latitude": "29.950954799013644",
    "geocoded_column": {
      "latitude": "29.950954799013644",
      "longitude": "-90.04675253589362"
    }
  },
  {
    "service_request": "2025-1246975",
    "request_type": "Trash/Recycling",
    "request_reason": "Request a Large Item Pick Up",
    "date_created": "2025-12-22T16:22:44.000",
    "date_modified": "2025-12-22T16:22:50.000",
    "request_status": "Pending",
    "responsible_agency": "Department of Sanitation",
    "final_address": "7050 Curran Rd",
    "address_councildis": "E",
    "status": "Assigned to Contractor",
    "contractor": "Waste Pro",
    "rowid": "1246975",
    "final_x": "3699205.0849",
    "final_y": "560245.791837",
    "longitude": "-90.01111771439061",
    "latitude": "30.03393153672557",
    "geocoded_column": {
      "latitude": "30.03393153672557",
      "longitude": "-90.01111771439061"
    }
  },
  {
    "service_request": "2025-1246974",
    "request_type": "Roads and Streets",
    "request_reason": "Pothole",
    "date_created": "2025-12-22T16:22:35.000",
    "date_modified": "2025-12-22T16:24:20.000",
    "request_status": "Pending",
    "responsible_agency": "Department of Public Works",
    "final_address": "4661 Lynhuber Dr",
    "address_councildis": "D",
    "status": "Pending",
    "rowid": "1246974",
    "final_x": "3698130.63658",
    "final_y": "553966.244056",
    "longitude": "-90.01474144295852",
    "latitude": "30.016699226973582",
    "geocoded_column": {
      "latitude": "30.016699226973582",
      "longitude": "-90.01474144295852"
    }
  },
  {
    "service_request": "2025-1246973",
    "request_type": "Abandoned Vehicles",
    "request_reason": "Abandoned/Junk Vehicles",
    "date_created": "2025-12-22T16:21:27.000",
    "date_modified": "2025-12-22T16:21:29.000",
    "request_status": "Pending",
    "responsible_agency": "Department of Public Works",
    "final_address": "4661 Lynhuber Dr",
    "address_councildis": "D",
    "status": "Pending",
    "rowid": "1246973",
    "final_x": "3698130.63658",
    "final_y": "553966.244056",
    "longitude": "-90.01474144295852",
    "latitude": "30.016699226973582",
    "geocoded_column": {
      "latitude": "30.016699226973582",
      "longitude": "-90.01474144295852"
    }
  },
  {
    "service_request": "2025-1246972",
    "request_type": "Healthy Homes",
    "request_reason": "Healthy Homes",
    "date_created": "2025-12-22T16:19:26.000",
    "date_modified": "2025-12-22T16:19:28.000",
    "request_status": "Pending",
    "responsible_agency": "Department of Code Enforcement",
    "final_address": "231 N Roadway St",
    "address_councildis": "A",
    "status": "Pending",
    "rowid": "1246972",
    "final_x": "3665700.52596",
    "final_y": "556772.506138",
    "longitude": "-90.11711320807281",
    "latitude": "30.02540173429551",
    "geocoded_column": {
      "latitude": "30.02540173429551",
      "longitude": "-90.11711320807281"
    }
  },
  {
    "service_request": "2025-1246971",
    "request_type": "Trash/Recycling",
    "request_reason": "Request a Large Item Pick Up",
    "date_created": "2025-12-22T16:18:01.000",
    "date_modified": "2025-12-22T16:18:03.000",
    "request_status": "Pending",
    "responsible_agency": "Department of Sanitation",
    "final_address": "426 S Alexander St",
    "address_councildis": "A",
    "status": "Assigned to Contractor",
    "contractor": "IV Waste",
    "rowid": "1246971",
    "final_x": "3669118.73146",
    "final_y": "537967.600265",
    "longitude": "-90.10694812351558",
    "latitude": "29.973594557189664",
    "geocoded_column": {
      "latitude": "29.973594557189664",
      "longitude": "-90.10694812351558"
    }
  },
  {
    "service_request": "2025-1246970",
    "request_type": "Trash/Recycling",
    "request_reason": "Request a Large Item Pick Up",
    "date_created": "2025-12-22T16:09:19.000",
    "date_modified": "2025-12-22T16:09:21.000",
    "request_status": "Pending",
    "responsible_agency": "Department of Sanitation",
    "final_address": "3961 Louisiana Avenue Prkwy",
    "address_councildis": "B",
    "status": "Assigned to Contractor",
    "contractor": "IV Waste",
    "rowid": "1246970",
    "final_x": "3671071.32308",
    "final_y": "529502.936705",
    "longitude": "-90.10106890430876",
    "latitude": "29.950261942692194",
    "geocoded_column": {
      "latitude": "29.950261942692194",
      "longitude": "-90.10106890430876"
    }
  },
  {
    "service_request": "2025-1246969",
    "request_type": "Trash/Recycling",
    "request_reason": "Return Trash Cart",
    "date_created": "2025-12-22T15:50:39.000",
    "date_modified": "2025-12-22T15:50:41.000",
    "request_status": "Pending",
    "responsible_agency": "Department of Sanitation",
    "final_address": "2134 Easter Ln",
    "address_councildis": "C",
    "status": "Assigned to Contractor",
    "contractor": "Richards Disposal",
    "rowid": "1246969",
    "final_x": "3699507.89271",
    "final_y": "523363.410299",
    "longitude": "-90.01150534777663",
    "latitude": "29.93250886807917",
    "geocoded_column": {
      "latitude": "29.93250886807917",
      "longitude": "-90.01150534777663"
    }
  },
  {
    "service_request": "2025-1246968",
    "request_type": "Trash/Recycling",
    "request_reason": "Request a Large Item Pick Up",
    "date_created": "2025-12-22T15:47:45.000",
    "date_modified": "2025-12-22T15:47:46.000",
    "request_status": "Pending",
    "responsible_agency": "Department of Sanitation",
    "final_address": "7802 Henley St",
    "address_councildis": "E",
    "status": "Assigned to Contractor",
    "contractor": "Waste Pro",
    "rowid": "1246968",
    "final_x": "3696628.59651",
    "final_y": "559710.804445",
    "longitude": "-90.01927908054984",
    "latitude": "30.032542023825094",
    "geocoded_column": {
      "latitude": "30.032542023825094",
      "longitude": "-90.01927908054984"
    }
  },
  {
    "service_request": "2025-1246967",
    "request_type": "Traffic Signals",
    "request_reason": "Traffic Signal Malfunctioning or Damaged",
    "date_created": "2025-12-22T15:47:17.000",
    "date_modified": "2025-12-22T15:47:19.000",
    "request_status": "Pending",
    "responsible_agency": "Department of Public Works",
    "final_address": "I 510 S & LAKE FOREST BLVD",
    "address_councildis": "E",
    "status": "Pending",
    "rowid": "1246967",
    "final_x": "3721849.53",
    "final_y": "563782.6",
    "longitude": "-89.93942347403858",
    "latitude": "30.042918393447007",
    "geocoded_column": {
      "latitude": "30.042918393447007",
      "longitude": "-89.93942347403858"
    }
  },
  {
    "service_request": "2025-1246966",
    "request_type": "Abandoned Vehicles",
    "request_reason": "Abandoned/Junk Vehicles",
    "date_created": "2025-12-22T15:45:28.000",
    "date_modified": "2025-12-22T15:45:30.000",
    "request_status": "Pending",
    "responsible_agency": "Department of Public Works",
    "final_address": "232 Nashville Ave",
    "address_councildis": "A",
    "status": "Pending",
    "rowid": "1246966",
    "final_x": "3665058.90682",
    "final_y": "517146.973557",
    "longitude": "-90.12046599309042",
    "latitude": "29.916463387106205",
    "geocoded_column": {
      "latitude": "29.916463387106205",
      "longitude": "-90.12046599309042"
    }
  },
  {
    "service_request": "2025-1246965",
    "request_type": "Trash/Recycling",
    "request_reason": "Request a Large Item Pick Up",
    "date_created": "2025-12-22T15:39:50.000",
    "date_modified": "2025-12-22T15:39:52.000",
    "request_status": "Pending",
    "responsible_agency": "Department of Sanitation",
    "final_address": "1526 St Maurice Ave",
    "address_councildis": "E",
    "status": "Assigned to Contractor",
    "contractor": "Waste Pro",
    "rowid": "1246965",
    "final_x": "3700434.364",
    "final_y": "534795.62087",
    "longitude": "-90.00816319078218",
    "latitude": "29.963913996633142",
    "geocoded_column": {
      "latitude": "29.963913996633142",
      "longitude": "-90.00816319078218"
    }
  },
  {
    "service_request": "2025-1246964",
    "request_type": "Trash/Recycling",
    "request_reason": "Replace Trash Cart",
    "date_created": "2025-12-22T15:33:37.000",
    "date_modified": "2025-12-22T15:33:39.000",
    "request_status": "Pending",
    "responsible_agency": "Department of Sanitation",
    "final_address": "200 Cypress Grove Ct",
    "address_councildis": "C",
    "status": "Assigned to Contractor",
    "contractor": "Richards Disposal",
    "rowid": "1246964",
    "final_x": "3704810.49201",
    "final_y": "511960.429936",
    "longitude": "-89.99518603446042",
    "latitude": "29.90098534279596",
    "geocoded_column": {
      "latitude": "29.90098534279596",
      "longitude": "-89.99518603446042"
    }
  },
  {
    "service_request": "2025-1246963",
    "request_type": "Healthy Homes",
    "request_reason": "Healthy Homes",
    "date_created": "2025-12-22T15:33:18.000",
    "date_modified": "2025-12-22T15:33:20.000",
    "request_status": "Pending",
    "responsible_agency": "Department of Code Enforcement",
    "final_address": "1481 N Prieur St",
    "address_councildis": "D",
    "status": "Pending",
    "rowid": "1246963",
    "final_x": "3680786.72527",
    "final_y": "537836.658889",
    "longitude": "-90.07010269366204",
    "latitude": "29.97288597275933",
    "geocoded_column": {
      "latitude": "29.97288597275933",
      "longitude": "-90.07010269366204"
    }
  },
  {
    "service_request": "2025-1246962",
    "request_type": "Property Maintenance",
    "request_reason": "Property Maintenance",
    "date_created": "2025-12-22T15:31:19.000",
    "date_modified": "2025-12-22T15:31:22.000",
    "request_status": "Pending",
    "responsible_agency": "Department of Code Enforcement",
    "final_address": "1481 N Prieur St",
    "address_councildis": "D",
    "status": "Pending",
    "rowid": "1246962",
    "final_x": "3680786.72527",
    "final_y": "537836.658889",
    "longitude": "-90.07010269366204",
    "latitude": "29.97288597275933",
    "geocoded_column": {
      "latitude": "29.97288597275933",
      "longitude": "-90.07010269366204"
    }
  },
  {
    "service_request": "2025-1246961",
    "request_type": "Abandoned Vehicles",
    "request_reason": "Abandoned/Junk Vehicles",
    "date_created": "2025-12-22T15:30:03.000",
    "date_modified": "2025-12-22T15:30:05.000",
    "request_status": "Pending",
    "responsible_agency": "Department of Public Works",
    "final_address": "825 Olga St",
    "address_councildis": "A",
    "status": "Pending",
    "rowid": "1246961",
    "final_x": "3673296.76526",
    "final_y": "539991.235083",
    "longitude": "-90.09368383779608",
    "latitude": "29.979035245544274",
    "geocoded_column": {
      "latitude": "29.979035245544274",
      "longitude": "-90.09368383779608"
    }
  },
  {
    "service_request": "2025-1246960",
    "request_type": "Trash/Recycling",
    "request_reason": "Request a Large Item Pick Up",
    "date_created": "2025-12-22T15:22:07.000",
    "date_modified": "2025-12-22T15:22:09.000",
    "request_status": "Pending",
    "responsible_agency": "Department of Sanitation",
    "final_address": "7200 Beauvoir Ct",
    "address_councildis": "E",
    "status": "Assigned to Contractor",
    "contractor": "Waste Pro",
    "rowid": "1246960",
    "final_x": "3716347.00255",
    "final_y": "567609.282916",
    "longitude": "-89.95666820257587",
    "latitude": "30.053623112771543",
    "geocoded_column": {
      "latitude": "30.053623112771543",
      "longitude": "-89.95666820257587"
    }
  },
  {
    "service_request": "2025-1246959",
    "request_type": "Trash/Recycling",
    "request_reason": "Request a Large Item Pick Up",
    "date_created": "2025-12-22T15:18:37.000",
    "date_modified": "2025-12-22T15:18:39.000",
    "request_status": "Pending",
    "responsible_agency": "Department of Sanitation",
    "final_address": "322 Calhoun St",
    "address_councildis": "A",
    "status": "Assigned to Contractor",
    "contractor": "IV Waste",
    "rowid": "1246959",
    "final_x": "3662787.58323",
    "final_y": "518287.652278",
    "longitude": "-90.1275973593474",
    "latitude": "29.9196658119982",
    "geocoded_column": {
      "latitude": "29.9196658119982",
      "longitude": "-90.1275973593474"
    }
  },
  {
    "service_request": "2025-1246958",
    "request_type": "Abandoned Vehicles",
    "request_reason": "Abandoned/Junk Vehicles",
    "date_created": "2025-12-22T15:17:48.000",
    "date_modified": "2025-12-22T15:17:49.000",
    "request_status": "Pending",
    "responsible_agency": "Department of Public Works",
    "final_address": "1040 Henriette Delille St",
    "address_councildis": "C",
    "status": "Pending",
    "rowid": "1246958",
    "final_x": "3681955.61896",
    "final_y": "534727.103942",
    "longitude": "-90.06651968184335",
    "latitude": "29.964300282963045",
    "geocoded_column": {
      "latitude": "29.964300282963045",
      "longitude": "-90.06651968184335"
    }
  },
  {
    "service_request": "2025-1246957",
    "request_type": "Tax and Revenue",
    "request_reason": "General Tax Question",
    "date_created": "2025-12-22T15:17:33.000",
    "date_modified": "2025-12-22T16:37:15.000",
    "case_close_date": "2025-12-22T10:37:15.000",
    "request_status": "Closed",
    "responsible_agency": "Bureau of Revenue",
    "final_address": "4109 Mithra St",
    "address_councildis": "D",
    "status": "Resolved",
    "rowid": "1246957",
    "final_x": "3689086.15747",
    "final_y": "553152.709783",
    "longitude": "-90.04334702853875",
    "latitude": "30.014745391316556",
    "geocoded_column": {
      "latitude": "30.014745391316556",
      "longitude": "-90.04334702853875"
    }
  },
  {
    "service_request": "2025-1246956",
    "request_type": "Trash/Recycling",
    "request_reason": "Request a Large Item Pick Up",
    "date_created": "2025-12-22T15:17:30.000",
    "date_modified": "2025-12-22T15:17:32.000",
    "request_status": "Pending",
    "responsible_agency": "Department of Sanitation",
    "final_address": "4660 Wright Rd",
    "address_councildis": "E",
    "status": "Assigned to Contractor",
    "contractor": "Waste Pro",
    "rowid": "1246956",
    "final_x": "3716647.66552",
    "final_y": "556543.747738",
    "longitude": "-89.95613826416984",
    "latitude": "30.023187431526804",
    "geocoded_column": {
      "latitude": "30.023187431526804",
      "longitude": "-89.95613826416984"
    }
  },
  {
    "service_request": "2025-1246955",
    "request_type": "Trash/Recycling",
    "request_reason": "Repair Trash Cart",
    "date_created": "2025-12-22T15:16:37.000",
    "date_modified": "2025-12-22T15:16:38.000",
    "request_status": "Pending",
    "responsible_agency": "Department of Sanitation",
    "final_address": "1531 Exposition Blvd",
    "address_councildis": "A",
    "status": "Assigned to Contractor",
    "contractor": "IV Waste",
    "rowid": "1246955",
    "final_x": "3664443.73972",
    "final_y": "522589.555898",
    "longitude": "-90.12222614297379",
    "latitude": "29.931446672758078",
    "geocoded_column": {
      "latitude": "29.931446672758078",
      "longitude": "-90.12222614297379"
    }
  },
  {
    "service_request": "2025-1246954",
    "request_type": "Trash/Recycling",
    "request_reason": "Request a Large Item Pick Up",
    "date_created": "2025-12-22T15:15:46.000",
    "date_modified": "2025-12-22T15:15:47.000",
    "request_status": "Pending",
    "responsible_agency": "Department of Sanitation",
    "final_address": "6628 Lincoln Beach Blvd",
    "address_councildis": "E",
    "status": "Assigned to Contractor",
    "contractor": "Waste Pro",
    "rowid": "1246954",
    "final_x": "3697129.83395",
    "final_y": "560679.75715",
    "longitude": "-90.01765998116193",
    "latitude": "30.035190455712396",
    "geocoded_column": {
      "latitude": "30.035190455712396",
      "longitude": "-90.01765998116193"
    }
  },
  {
    "service_request": "2025-1246953",
    "request_type": "Trash/Recycling",
    "request_reason": "Request a Large Item Pick Up",
    "date_created": "2025-12-22T15:13:47.000",
    "date_modified": "2025-12-22T15:13:49.000",
    "request_status": "Pending",
    "responsible_agency": "Department of Sanitation",
    "final_address": "1600 S Saratoga St",
    "address_councildis": "B",
    "status": "Assigned to Contractor",
    "contractor": "IV Waste",
    "rowid": "1246953",
    "final_x": "3677384.10862",
    "final_y": "526271.997822",
    "longitude": "-90.08124791012656",
    "latitude": "29.94118975073034",
    "geocoded_column": {
      "latitude": "29.94118975073034",
      "longitude": "-90.08124791012656"
    }
  },
  {
    "service_request": "2025-1246952",
    "request_type": "Trash/Recycling",
    "request_reason": "Dead Animal Pick Up",
    "date_created": "2025-12-22T15:10:01.000",
    "date_modified": "2025-12-22T15:10:04.000",
    "request_status": "Pending",
    "responsible_agency": "Department of Sanitation",
    "final_address": "BASIN ST & ST PETER ST",
    "address_councildis": "C",
    "status": "Assigned to Contractor",
    "contractor": "IV Waste",
    "rowid": "1246952",
    "final_x": "3680502.3",
    "final_y": "534069.48",
    "longitude": "-90.07113201905058",
    "latitude": "29.962536141819836",
    "geocoded_column": {
      "latitude": "29.962536141819836",
      "longitude": "-90.07113201905058"
    }
  },
  {
    "service_request": "2025-1246951",
    "request_type": "Trash/Recycling",
    "request_reason": "Request a Large Item Pick Up",
    "date_created": "2025-12-22T15:09:26.000",
    "date_modified": "2025-12-22T15:09:28.000",
    "request_status": "Pending",
    "responsible_agency": "Department of Sanitation",
    "final_address": "2339 DAbadie St",
    "address_councildis": "D",
    "status": "Assigned to Contractor",
    "contractor": "IV Waste",
    "rowid": "1246951",
    "final_x": "3680435.39759",
    "final_y": "540090.059595",
    "longitude": "-90.07113385931119",
    "latitude": "29.979092689828207",
    "geocoded_column": {
      "latitude": "29.979092689828207",
      "longitude": "-90.07113385931119"
    }
  },
  {
    "service_request": "2025-1246950",
    "request_type": "Trash/Recycling",
    "request_reason": "Request a Large Item Pick Up",
    "date_created": "2025-12-22T15:06:06.000",
    "date_modified": "2025-12-22T15:06:09.000",
    "request_status": "Pending",
    "responsible_agency": "Department of Sanitation",
    "final_address": "7620 Hansbrough Ave",
    "address_councildis": "E",
    "status": "Assigned to Contractor",
    "contractor": "Waste Pro",
    "rowid": "1246950",
    "final_x": "3707578.44171",
    "final_y": "564487.094049",
    "longitude": "-89.98449933284098",
    "latitude": "30.0453251012345",
    "geocoded_column": {
      "latitude": "30.0453251012345",
      "longitude": "-89.98449933284098"
    }
  },
  {
    "service_request": "2025-1246949",
    "request_type": "Trash/Recycling",
    "request_reason": "Request a Large Item Pick Up",
    "date_created": "2025-12-22T15:01:15.000",
    "date_modified": "2025-12-22T15:01:17.000",
    "request_status": "Pending",
    "responsible_agency": "Department of Sanitation",
    "final_address": "1321 Bartholomew St",
    "address_councildis": "D",
    "status": "Assigned to Contractor",
    "contractor": "IV Waste",
    "rowid": "1246949",
    "final_x": "3692070.79504",
    "final_y": "536205.545479",
    "longitude": "-90.03452398542987",
    "latitude": "29.96805410301657",
    "geocoded_column": {
      "latitude": "29.96805410301657",
      "longitude": "-90.03452398542987"
    }
  },
  {
    "service_request": "2025-1246948",
    "request_type": "Trash/Recycling",
    "request_reason": "Request a Large Item Pick Up",
    "date_created": "2025-12-22T15:00:04.000",
    "date_modified": "2025-12-22T15:00:06.000",
    "request_status": "Pending",
    "responsible_agency": "Department of Sanitation",
    "final_address": "19 Westpark Ct",
    "address_councildis": "C",
    "status": "Assigned to Contractor",
    "contractor": "Richards Disposal",
    "rowid": "1246948",
    "final_x": "3695989.60355",
    "final_y": "521642.972281",
    "longitude": "-90.02267434716994",
    "latitude": "29.92788938258407",
    "geocoded_column": {
      "latitude": "29.92788938258407",
      "longitude": "-90.02267434716994"
    }
  },
  {
    "service_request": "2025-1246947",
    "request_type": "Trash/Recycling",
    "request_reason": "Repair Trash Cart",
    "date_created": "2025-12-22T14:58:48.000",
    "date_modified": "2025-12-22T14:58:49.000",
    "request_status": "Pending",
    "responsible_agency": "Department of Sanitation",
    "final_address": "4865 Camelot Dr",
    "address_councildis": "E",
    "status": "Assigned to Contractor",
    "contractor": "Waste Pro",
    "rowid": "1246947",
    "final_x": "3708351.66891",
    "final_y": "556527.14569",
    "longitude": "-89.98235219371526",
    "latitude": "30.0234133390397",
    "geocoded_column": {
      "latitude": "30.0234133390397",
      "longitude": "-89.98235219371526"
    }
  },
  {
    "service_request": "2025-1246946",
    "request_type": "Trash/Recycling",
    "request_reason": "Request a Large Item Pick Up",
    "date_created": "2025-12-22T14:58:21.000",
    "date_modified": "2025-12-22T14:58:22.000",
    "request_status": "Pending",
    "responsible_agency": "Department of Sanitation",
    "final_address": "2103 Lowerline St",
    "address_councildis": "A",
    "status": "Assigned to Contractor",
    "contractor": "IV Waste",
    "rowid": "1246946",
    "final_x": "3665538.93421",
    "final_y": "529519.650049",
    "longitude": "-90.11853679160355",
    "latitude": "29.95047033541114",
    "geocoded_column": {
      "latitude": "29.95047033541114",
      "longitude": "-90.11853679160355"
    }
  },
  {
    "service_request": "2025-1246945",
    "request_type": "Trash/Recycling",
    "request_reason": "Order Recycling Cart",
    "date_created": "2025-12-22T14:58:18.000",
    "date_modified": "2025-12-22T14:58:19.000",
    "request_status": "Pending",
    "responsible_agency": "Department of Sanitation",
    "final_address": "2728 Magazine St",
    "address_councildis": "B",
    "status": "Pending",
    "rowid": "1246945",
    "final_x": "3677169.53186",
    "final_y": "520798.409337",
    "longitude": "-90.08211407389834",
    "latitude": "29.92614561950945",
    "geocoded_column": {
      "latitude": "29.92614561950945",
      "longitude": "-90.08211407389834"
    }
  },
  {
    "service_request": "2025-1246944",
    "request_type": "Traffic Signals",
    "request_reason": "Traffic Signal Malfunctioning or Damaged",
    "date_created": "2025-12-22T14:54:28.000",
    "date_modified": "2025-12-22T14:54:37.000",
    "request_status": "Pending",
    "responsible_agency": "Department of Public Works",
    "final_address": "3700 S Carrollton Ave",
    "address_councildis": "A",
    "status": "Pending",
    "rowid": "1246944",
    "final_x": "3667976.38733",
    "final_y": "535091.405126",
    "longitude": "-90.1106528293013",
    "latitude": "29.965719548754926",
    "geocoded_column": {
      "latitude": "29.965719548754926",
      "longitude": "-90.1106528293013"
    }
  },
  {
    "service_request": "2025-1246943",
    "request_type": "Trash/Recycling",
    "request_reason": "Request a Large Item Pick Up",
    "date_created": "2025-12-22T14:42:33.000",
    "date_modified": "2025-12-22T14:42:35.000",
    "request_status": "Pending",
    "responsible_agency": "Department of Sanitation",
    "final_address": "7340 Shubrick Ave",
    "address_councildis": "E",
    "status": "Assigned to Contractor",
    "contractor": "Waste Pro",
    "rowid": "1246943",
    "final_x": "3707087.21976",
    "final_y": "563017.064608",
    "longitude": "-89.98610644422524",
    "latitude": "30.041298995900505",
    "geocoded_column": {
      "latitude": "30.041298995900505",
      "longitude": "-89.98610644422524"
    }
  },
  {
    "service_request": "2025-1246942",
    "request_type": "Safety & Permits",
    "request_reason": "Zoning Enforcement",
    "date_created": "2025-12-22T14:40:21.000",
    "date_modified": "2025-12-22T14:40:23.000",
    "request_status": "Pending",
    "responsible_agency": "Safety and Permits",
    "final_address": "WEST END BLVD & JEWEL ST",
    "address_councildis": "D",
    "status": "Pending",
    "rowid": "1246942",
    "final_x": "3667066.5",
    "final_y": "555845.58",
    "longitude": "-90.1128281128501",
    "latitude": "30.02281307987026",
    "geocoded_column": {
      "latitude": "30.02281307987026",
      "longitude": "-90.1128281128501"
    }
  },
  {
    "service_request": "2025-1246941",
    "request_type": "Trash/Recycling",
    "request_reason": "Request a Large Item Pick Up",
    "date_created": "2025-12-22T14:37:40.000",
    "date_modified": "2025-12-22T14:37:41.000",
    "request_status": "Pending",
    "responsible_agency": "Department of Sanitation",
    "final_address": "7732 Arcadia Ln",
    "address_councildis": "E",
    "status": "Assigned to Contractor",
    "contractor": "Waste Pro",
    "rowid": "1246941",
    "final_x": "3712104.16011",
    "final_y": "567427.246116",
    "longitude": "-89.97008546380523",
    "latitude": "30.053262065707433",
    "geocoded_column": {
      "latitude": "30.053262065707433",
      "longitude": "-89.97008546380523"
    }
  },
  {
    "service_request": "2025-1246940",
    "request_type": "Trash/Recycling",
    "request_reason": "Order Second Trash Cart",
    "date_created": "2025-12-22T14:33:13.000",
    "date_modified": "2025-12-22T14:33:14.000",
    "request_status": "Pending",
    "responsible_agency": "Department of Sanitation",
    "final_address": "6880 Mayo Rd",
    "address_councildis": "E",
    "status": "Assigned to Contractor",
    "contractor": "Waste Pro",
    "rowid": "1246940",
    "final_x": "3701779.30999",
    "final_y": "557743.012251",
    "longitude": "-90.0030747219777",
    "latitude": "30.026967934969246",
    "geocoded_column": {
      "latitude": "30.026967934969246",
      "longitude": "-90.0030747219777"
    }
  },
  {
    "service_request": "2025-1246939",
    "request_type": "Trash/Recycling",
    "request_reason": "Request a Large Item Pick Up",
    "date_created": "2025-12-22T14:33:10.000",
    "date_modified": "2025-12-22T14:33:11.000",
    "request_status": "Pending",
    "responsible_agency": "Department of Sanitation",
    "final_address": "1026 Soniat St",
    "address_councildis": "B",
    "status": "Assigned to Contractor",
    "contractor": "IV Waste",
    "rowid": "1246939",
    "final_x": "3668317.89025",
    "final_y": "519179.016439",
    "longitude": "-90.1101108158543",
    "latitude": "29.921955609419992",
    "geocoded_column": {
      "latitude": "29.921955609419992",
      "longitude": "-90.1101108158543"
    }
  },
  {
    "service_request": "2025-1246938",
    "request_type": "Trash/Recycling",
    "request_reason": "Order Trash Cart",
    "date_created": "2025-12-22T14:30:30.000",
    "date_modified": "2025-12-22T14:30:32.000",
    "request_status": "Pending",
    "responsible_agency": "Department of Sanitation",
    "final_address": "6880 Mayo Rd",
    "address_councildis": "E",
    "status": "Assigned to Contractor",
    "contractor": "Waste Pro",
    "rowid": "1246938",
    "final_x": "3701779.30999",
    "final_y": "557743.012251",
    "longitude": "-90.0030747219777",
    "latitude": "30.026967934969246",
    "geocoded_column": {
      "latitude": "30.026967934969246",
      "longitude": "-90.0030747219777"
    }
  },
  {
    "service_request": "2025-1246937",
    "request_type": "Streetlights",
    "request_reason": "Streetlight Outage/Malfunction",
    "date_created": "2025-12-22T14:29:30.000",
    "date_modified": "2025-12-22T14:31:23.000",
    "request_status": "Pending",
    "responsible_agency": "Department of Public Works",
    "final_address": "2227 N Prieur St",
    "address_councildis": "D",
    "status": "Pending",
    "rowid": "1246937",
    "final_x": "3685075.44015",
    "final_y": "539308.13761",
    "longitude": "-90.0565063559225",
    "latitude": "29.976801321642665",
    "geocoded_column": {
      "latitude": "29.976801321642665",
      "longitude": "-90.0565063559225"
    }
  },
  {
    "service_request": "2025-1246936",
    "request_type": "Trash/Recycling",
    "request_reason": "Damaged Caused By Contractor",
    "date_created": "2025-12-22T14:27:20.000",
    "date_modified": "2025-12-22T14:55:16.000",
    "case_close_date": "2025-12-22T08:55:16.000",
    "request_status": "Closed",
    "responsible_agency": "Department of Sanitation",
    "final_address": "3816 S Post Oak Ave",
    "address_councildis": "C",
    "status": "Resolved",
    "contractor": "Richards Disposal",
    "rowid": "1246936",
    "final_x": "3704570.53265",
    "final_y": "514071.745458",
    "longitude": "-89.99586554568003",
    "latitude": "29.906798445353182",
    "geocoded_column": {
      "latitude": "29.906798445353182",
      "longitude": "-89.99586554568003"
    }
  },
  {
    "service_request": "2025-1246935",
    "request_type": "Trash/Recycling",
    "request_reason": "Return Trash Cart",
    "date_created": "2025-12-22T14:25:57.000",
    "date_modified": "2025-12-22T14:25:59.000",
    "request_status": "Pending",
    "responsible_agency": "Department of Sanitation",
    "final_address": "5800 Rhodes Ave",
    "address_councildis": "C",
    "status": "Assigned to Contractor",
    "contractor": "Richards Disposal",
    "rowid": "1246935",
    "final_x": "3704744.28478",
    "final_y": "519711.96012",
    "longitude": "-89.99510927320685",
    "latitude": "29.922301517119667",
    "geocoded_column": {
      "latitude": "29.922301517119667",
      "longitude": "-89.99510927320685"
    }
  },
  {
    "service_request": "2025-1246934",
    "request_type": "Trash/Recycling",
    "request_reason": "Request a Large Item Pick Up",
    "date_created": "2025-12-22T14:21:23.000",
    "date_modified": "2025-12-22T14:21:25.000",
    "request_status": "Pending",
    "responsible_agency": "Department of Sanitation",
    "final_address": "422 Stafford Pl",
    "address_councildis": "A",
    "status": "Assigned to Contractor",
    "contractor": "IV Waste",
    "rowid": "1246934",
    "final_x": "3664861.28506",
    "final_y": "553883.834007",
    "longitude": "-90.1198617630489",
    "latitude": "30.017483371069883",
    "geocoded_column": {
      "latitude": "30.017483371069883",
      "longitude": "-90.1198617630489"
    }
  },
  {
    "service_request": "2025-1246933",
    "request_type": "Abandoned Vehicles",
    "request_reason": "Abandoned/Junk Vehicles",
    "date_created": "2025-12-22T14:19:36.000",
    "date_modified": "2025-12-22T14:19:38.000",
    "request_status": "Pending",
    "responsible_agency": "Department of Public Works",
    "final_address": "3826 General Taylor St",
    "address_councildis": "B",
    "status": "Pending",
    "rowid": "1246933",
    "final_x": "3670765.41985",
    "final_y": "528816.324672",
    "longitude": "-90.10205808440692",
    "latitude": "29.94838302691389",
    "geocoded_column": {
      "latitude": "29.94838302691389",
      "longitude": "-90.10205808440692"
    }
  },
  {
    "service_request": "2025-1246932",
    "request_type": "Trash/Recycling",
    "request_reason": "Request a Large Item Pick Up",
    "date_created": "2025-12-22T14:18:06.000",
    "date_modified": "2025-12-22T14:18:43.000",
    "request_status": "Pending",
    "responsible_agency": "Department of Sanitation",
    "final_address": "5433 N Tonti St",
    "address_councildis": "E",
    "status": "Assigned to Contractor",
    "contractor": "Waste Pro",
    "rowid": "1246932",
    "final_x": "3698760.81783",
    "final_y": "538402.449993",
    "longitude": "-90.01331684696109",
    "latitude": "29.973884594080907",
    "geocoded_column": {
      "latitude": "29.973884594080907",
      "longitude": "-90.01331684696109"
    }
  },
  {
    "service_request": "2025-1246931",
    "request_type": "Trash/Recycling",
    "request_reason": "Replace Trash Cart",
    "date_created": "2025-12-22T14:13:04.000",
    "date_modified": "2025-12-22T14:13:05.000",
    "request_status": "Pending",
    "responsible_agency": "Department of Sanitation",
    "final_address": "2133 Octavia St",
    "address_councildis": "A",
    "status": "Assigned to Contractor",
    "contractor": "IV Waste",
    "rowid": "1246931",
    "final_x": "3667552.85217",
    "final_y": "523641.797499",
    "longitude": "-90.1123756209569",
    "latitude": "29.93424927518723",
    "geocoded_column": {
      "latitude": "29.93424927518723",
      "longitude": "-90.1123756209569"
    }
  },
  {
    "service_request": "2025-1246930",
    "request_type": "Streetlights",
    "request_reason": "Streetlight Outage/Malfunction",
    "date_created": "2025-12-22T14:07:43.000",
    "date_modified": "2025-12-22T14:07:45.000",
    "request_status": "Pending",
    "responsible_agency": "Department of Public Works",
    "final_address": "3570 Bennett St",
    "address_councildis": "C",
    "status": "Pending",
    "rowid": "1246930",
    "final_x": "3710409.8387",
    "final_y": "517511.235766",
    "longitude": "-89.97730782802594",
    "latitude": "29.916067141761232",
    "geocoded_column": {
      "latitude": "29.916067141761232",
      "longitude": "-89.97730782802594"
    }
  },
  {
    "service_request": "2025-1246929",
    "request_type": "Trash/Recycling",
    "request_reason": "Request a Large Item Pick Up",
    "date_created": "2025-12-22T14:05:18.000",
    "date_modified": "2025-12-22T14:05:20.000",
    "request_status": "Pending",
    "responsible_agency": "Department of Sanitation",
    "final_address": "2515 Carondelet St",
    "address_councildis": "B",
    "status": "Assigned to Contractor",
    "contractor": "IV Waste",
    "rowid": "1246929",
    "final_x": "3676339.6955",
    "final_y": "523321.343867",
    "longitude": "-90.08464684001434",
    "latitude": "29.933107759276865",
    "geocoded_column": {
      "latitude": "29.933107759276865",
      "longitude": "-90.08464684001434"
    }
  },
  {
    "service_request": "2025-1246928",
    "request_type": "Street and Traffic Signs",
    "request_reason": "Stop Sign Missing or Damaged",
    "date_created": "2025-12-22T14:02:30.000",
    "date_modified": "2025-12-22T14:02:31.000",
    "request_status": "Pending",
    "responsible_agency": "Department of Public Works",
    "final_address": "PALM ST & CAMPHOR ST",
    "address_councildis": "A",
    "status": "Pending",
    "rowid": "1246928",
    "final_x": "3663907.9",
    "final_y": "538163.08",
    "longitude": "-90.1233985932493",
    "latitude": "29.974284384375338",
    "geocoded_column": {
      "latitude": "29.974284384375338",
      "longitude": "-90.1233985932493"
    }
  },
  {
    "service_request": "2025-1246927",
    "request_type": "Trash/Recycling",
    "request_reason": "Request a Large Item Pick Up",
    "date_created": "2025-12-22T14:01:20.000",
    "date_modified": "2025-12-22T14:06:06.000",
    "request_status": "Pending",
    "responsible_agency": "Department of Sanitation",
    "final_address": "933 N Villere St",
    "address_councildis": "C",
    "status": "Assigned to Contractor",
    "contractor": "IV Waste",
    "rowid": "1246927",
    "final_x": "3680870.94383",
    "final_y": "535019.457414",
    "longitude": "-90.06993481631078",
    "latitude": "29.965137084062658",
    "geocoded_column": {
      "latitude": "29.965137084062658",
      "longitude": "-90.06993481631078"
    }
  },
  {
    "service_request": "2025-1246926",
    "request_type": "Traffic Signals",
    "request_reason": "Traffic Signal Malfunctioning or Damaged",
    "date_created": "2025-12-22T13:57:43.000",
    "date_modified": "2025-12-22T13:57:45.000",
    "request_status": "Pending",
    "responsible_agency": "Department of Public Works",
    "final_address": "6020 Bullard Ave",
    "address_councildis": "E",
    "status": "Pending",
    "rowid": "1246926",
    "final_x": "3715428.30744",
    "final_y": "564044.862753",
    "longitude": "-89.95970699125441",
    "latitude": "30.04385272923982",
    "geocoded_column": {
      "latitude": "30.04385272923982",
      "longitude": "-89.95970699125441"
    }
  },
  {
    "service_request": "2025-1246925",
    "request_type": "Trash/Recycling",
    "request_reason": "Replace Trash Cart",
    "date_created": "2025-12-22T13:55:21.000",
    "date_modified": "2025-12-22T13:55:23.000",
    "request_status": "Pending",
    "responsible_agency": "Department of Sanitation",
    "final_address": "4903 Lonely Oak Dr",
    "address_councildis": "E",
    "status": "Assigned to Contractor",
    "contractor": "Waste Pro",
    "rowid": "1246925",
    "final_x": "3702308.3466",
    "final_y": "555167.216601",
    "longitude": "-90.00149763388215",
    "latitude": "30.019868590111695",
    "geocoded_column": {
      "latitude": "30.019868590111695",
      "longitude": "-90.00149763388215"
    }
  },
  {
    "service_request": "2025-1246924",
    "request_type": "Abandoned Vehicles",
    "request_reason": "Abandoned/Junk Vehicles",
    "date_created": "2025-12-22T13:53:48.000",
    "date_modified": "2025-12-22T13:53:50.000",
    "request_status": "Pending",
    "responsible_agency": "Department of Public Works",
    "final_address": "3201 Carondelet St",
    "address_councildis": "B",
    "status": "Pending",
    "rowid": "1246924",
    "final_x": "3674626.54568",
    "final_y": "522184.485946",
    "longitude": "-90.09009408497931",
    "latitude": "29.930032991742618",
    "geocoded_column": {
      "latitude": "29.930032991742618",
      "longitude": "-90.09009408497931"
    }
  },
  {
    "service_request": "2025-1246923",
    "request_type": "Trash/Recycling",
    "request_reason": "Request a Large Item Pick Up",
    "date_created": "2025-12-22T13:53:38.000",
    "date_modified": "2025-12-22T13:53:40.000",
    "request_status": "Pending",
    "responsible_agency": "Department of Sanitation",
    "final_address": "3954 Sullen Pl",
    "address_councildis": "C",
    "status": "Assigned to Contractor",
    "contractor": "Richards Disposal",
    "rowid": "1246923",
    "final_x": "3707569.1139",
    "final_y": "516271.450676",
    "longitude": "-89.9863201946041",
    "latitude": "29.912750295390346",
    "geocoded_column": {
      "latitude": "29.912750295390346",
      "longitude": "-89.9863201946041"
    }
  },
  {
    "service_request": "2025-1246922",
    "request_type": "Trash/Recycling",
    "request_reason": "Repair Recycling Cart",
    "date_created": "2025-12-22T13:52:54.000",
    "date_modified": "2025-12-22T13:52:56.000",
    "request_status": "Pending",
    "responsible_agency": "Department of Sanitation",
    "final_address": "1226 St Ferdinand St A",
    "address_councildis": "C",
    "status": "Pending",
    "rowid": "1246922",
    "final_x": "3687800.62915",
    "final_y": "536892.694408",
    "longitude": "-90.0479849507255",
    "latitude": "29.970075920974388",
    "geocoded_column": {
      "latitude": "29.970075920974388",
      "longitude": "-90.0479849507255"
    }
  },
  {
    "service_request": "2025-1246921",
    "request_type": "Trash/Recycling",
    "request_reason": "Request a Large Item Pick Up",
    "date_created": "2025-12-22T13:49:26.000",
    "date_modified": "2025-12-22T13:49:28.000",
    "request_status": "Pending",
    "responsible_agency": "Department of Sanitation",
    "final_address": "13059 Calais St",
    "address_councildis": "E",
    "status": "Assigned to Contractor",
    "contractor": "Waste Pro",
    "rowid": "1246921",
    "final_x": "3724268.00192",
    "final_y": "560551.611806",
    "longitude": "-89.93190511375732",
    "latitude": "30.033953388411128",
    "geocoded_column": {
      "latitude": "30.033953388411128",
      "longitude": "-89.93190511375732"
    }
  },
  {
    "service_request": "2025-1246920",
    "request_type": "Property Maintenance",
    "request_reason": "Property Maintenance",
    "date_created": "2025-12-22T13:49:12.000",
    "date_modified": "2025-12-22T14:34:29.000",
    "case_close_date": "2025-12-22T08:34:28.000",
    "request_status": "Closed",
    "responsible_agency": "Department of Code Enforcement",
    "final_address": "2143 Lamanche St",
    "address_councildis": "E",
    "status": "Referred to Code Enforcement",
    "rowid": "1246920",
    "final_x": "3699495.20925",
    "final_y": "537745.27188",
    "longitude": "-90.01102144213183",
    "latitude": "29.972054308568865",
    "geocoded_column": {
      "latitude": "29.972054308568865",
      "longitude": "-90.01102144213183"
    }
  },
  {
    "service_request": "2025-1246919",
    "request_type": "Parks & Parkways",
    "request_reason": "Request Tree Service (Right of Way/Public Property)",
    "date_created": "2025-12-22T13:44:31.000",
    "date_modified": "2025-12-22T13:54:54.000",
    "request_status": "Pending",
    "responsible_agency": "Department of Parks & Parkway",
    "final_address": "2911 Bruxelles St",
    "address_councildis": "D",
    "status": "Pending",
    "rowid": "1246919",
    "final_x": "3680328.03951",
    "final_y": "543043.734157",
    "longitude": "-90.071370194958",
    "latitude": "29.987217515270945",
    "geocoded_column": {
      "latitude": "29.987217515270945",
      "longitude": "-90.071370194958"
    }
  },
  {
    "service_request": "2025-1246918",
    "request_type": "Trash/Recycling",
    "request_reason": "Order Trash Cart",
    "date_created": "2025-12-22T13:42:54.000",
    "date_modified": "2025-12-22T13:42:57.000",
    "request_status": "Pending",
    "responsible_agency": "Department of Sanitation",
    "final_address": "940 Horace St",
    "address_councildis": "C",
    "status": "Assigned to Contractor",
    "contractor": "Richards Disposal",
    "rowid": "1246918",
    "final_x": "3696488.57584",
    "final_y": "527914.319039",
    "longitude": "-90.0208724574362",
    "latitude": "29.945117721203406",
    "geocoded_column": {
      "latitude": "29.945117721203406",
      "longitude": "-90.0208724574362"
    }
  },
  {
    "service_request": "2025-1246917",
    "request_type": "Trash/Recycling",
    "request_reason": "Repair Trash Cart",
    "date_created": "2025-12-22T13:41:23.000",
    "date_modified": "2025-12-22T13:41:26.000",
    "request_status": "Pending",
    "responsible_agency": "Department of Sanitation",
    "final_address": "4918 Haik Dr",
    "address_councildis": "D",
    "status": "Assigned to Contractor",
    "contractor": "IV Waste",
    "rowid": "1246917",
    "final_x": "3681923.22946",
    "final_y": "550797.418837",
    "longitude": "-90.06606069612111",
    "latitude": "30.008488980809023",
    "geocoded_column": {
      "latitude": "30.008488980809023",
      "longitude": "-90.06606069612111"
    }
  },
  {
    "service_request": "2025-1246916",
    "request_type": "Trash/Recycling",
    "request_reason": "Replace Trash Cart",
    "date_created": "2025-12-22T13:39:14.000",
    "date_modified": "2025-12-22T13:39:16.000",
    "request_status": "Pending",
    "responsible_agency": "Department of Sanitation",
    "final_address": "4958 Brittany Ct",
    "address_councildis": "E",
    "status": "Assigned to Contractor",
    "contractor": "Waste Pro",
    "rowid": "1246916",
    "final_x": "3727145.90208",
    "final_y": "561762.559263",
    "longitude": "-89.92276362315305",
    "latitude": "30.037185897915116",
    "geocoded_column": {
      "latitude": "30.037185897915116",
      "longitude": "-89.92276362315305"
    }
  },
  {
    "service_request": "2025-1246915",
    "request_type": "Trash/Recycling",
    "request_reason": "Illegal Dumping",
    "date_created": "2025-12-22T13:36:03.000",
    "date_modified": "2025-12-22T13:36:05.000",
    "request_status": "Pending",
    "responsible_agency": "Department of Sanitation",
    "final_address": "3410 Fourth St",
    "address_councildis": "B",
    "status": "Pending",
    "rowid": "1246915",
    "final_x": "3672575.84769",
    "final_y": "528097.586815",
    "longitude": "-90.09636629957447",
    "latitude": "29.94635311737402",
    "geocoded_column": {
      "latitude": "29.94635311737402",
      "longitude": "-90.09636629957447"
    }
  },
  {
    "service_request": "2025-1246914",
    "request_type": "Streetlights",
    "request_reason": "Streetlight Outage/Malfunction",
    "date_created": "2025-12-22T13:34:47.000",
    "date_modified": "2025-12-22T13:37:54.000",
    "request_status": "Pending",
    "responsible_agency": "Department of Public Works",
    "final_address": "4918 Coronado Dr",
    "address_councildis": "E",
    "status": "Pending",
    "rowid": "1246914",
    "final_x": "3713960.9404",
    "final_y": "557445.768731",
    "longitude": "-89.96459359353177",
    "latitude": "30.025756149332615",
    "geocoded_column": {
      "latitude": "30.025756149332615",
      "longitude": "-89.96459359353177"
    }
  },
  {
    "service_request": "2025-1246913",
    "request_type": "Trash/Recycling",
    "request_reason": "Request a Large Item Pick Up",
    "date_created": "2025-12-22T13:30:34.000",
    "date_modified": "2025-12-22T13:30:37.000",
    "request_status": "Pending",
    "responsible_agency": "Department of Sanitation",
    "final_address": "4715 Iberville St",
    "address_councildis": "A",
    "status": "Assigned to Contractor",
    "contractor": "IV Waste",
    "rowid": "1246913",
    "final_x": "3669314.63738",
    "final_y": "540345.002827",
    "longitude": "-90.10624900195992",
    "latitude": "29.98012584521245",
    "geocoded_column": {
      "latitude": "29.98012584521245",
      "longitude": "-90.10624900195992"
    }
  },
  {
    "service_request": "2025-1246912",
    "request_type": "Trash/Recycling",
    "request_reason": "Repair Trash Cart",
    "date_created": "2025-12-22T13:24:19.000",
    "date_modified": "2025-12-22T13:24:21.000",
    "request_status": "Pending",
    "responsible_agency": "Department of Sanitation",
    "final_address": "5300 Memphis St",
    "address_councildis": "A",
    "status": "Assigned to Contractor",
    "contractor": "IV Waste",
    "rowid": "1246912",
    "final_x": "3668607.50721",
    "final_y": "542266.721869",
    "longitude": "-90.10841753798775",
    "latitude": "29.985430723979512",
    "geocoded_column": {
      "latitude": "29.985430723979512",
      "longitude": "-90.10841753798775"
    }
  },
  {
    "service_request": "2025-1246911",
    "request_type": "Property Maintenance",
    "request_reason": "Property Maintenance",
    "date_created": "2025-12-22T13:24:12.000",
    "date_modified": "2025-12-22T15:12:52.000",
    "case_close_date": "2025-12-22T09:12:51.000",
    "request_status": "Closed",
    "responsible_agency": "Department of Code Enforcement",
    "final_address": "2621 Philip St",
    "address_councildis": "B",
    "status": "Referred to Code Enforcement",
    "rowid": "1246911",
    "final_x": "3675077.04059",
    "final_y": "526530.841662",
    "longitude": "-90.08852288703629",
    "latitude": "29.941970603364123",
    "geocoded_column": {
      "latitude": "29.941970603364123",
      "longitude": "-90.08852288703629"
    }
  },
  {
    "service_request": "2025-1246910",
    "request_type": "Health Related Request",
    "request_reason": "Noise Ordinance Complaint",
    "date_created": "2025-12-22T13:23:19.000",
    "date_modified": "2025-12-22T13:39:09.000",
    "request_status": "Pending",
    "responsible_agency": "Health Department",
    "final_address": "1507 Napoleon Ave",
    "address_councildis": "B",
    "status": "Pending",
    "rowid": "1246910",
    "final_x": "3670965.18817",
    "final_y": "520661.853625",
    "longitude": "-90.10170407882987",
    "latitude": "29.925954965627486",
    "geocoded_column": {
      "latitude": "29.925954965627486",
      "longitude": "-90.10170407882987"
    }
  },
  {
    "service_request": "2025-1246909",
    "request_type": "Healthy Homes",
    "request_reason": "Healthy Homes",
    "date_created": "2025-12-22T13:20:29.000",
    "date_modified": "2025-12-22T14:18:06.000",
    "case_close_date": "2025-12-22T08:18:04.000",
    "request_status": "Closed",
    "responsible_agency": "Department of Code Enforcement",
    "final_address": "3708 Garden Oaks Dr",
    "address_councildis": "C",
    "status": "Referred to Code Enforcement",
    "rowid": "1246909",
    "final_x": "3696008.42646",
    "final_y": "518022.273206",
    "longitude": "-90.02274565818763",
    "latitude": "29.917933096949646",
    "geocoded_column": {
      "latitude": "29.917933096949646",
      "longitude": "-90.02274565818763"
    }
  },
  {
    "service_request": "2025-1246908",
    "request_type": "Trash/Recycling",
    "request_reason": "Request a Large Item Pick Up",
    "date_created": "2025-12-22T13:16:41.000",
    "date_modified": "2025-12-22T13:16:42.000",
    "request_status": "Pending",
    "responsible_agency": "Department of Sanitation",
    "final_address": "3417 General Ogden St",
    "address_councildis": "A",
    "status": "Assigned to Contractor",
    "contractor": "IV Waste",
    "rowid": "1246908",
    "final_x": "3665284.08813",
    "final_y": "536167.787591",
    "longitude": "-90.1191190267397",
    "latitude": "29.96875796381995",
    "geocoded_column": {
      "latitude": "29.96875796381995",
      "longitude": "-90.1191190267397"
    }
  },
  {
    "service_request": "2025-1246907",
    "request_type": "Trash/Recycling",
    "request_reason": "Request a Large Item Pick Up",
    "date_created": "2025-12-22T13:11:43.000",
    "date_modified": "2025-12-22T13:11:44.000",
    "request_status": "Pending",
    "responsible_agency": "Department of Sanitation",
    "final_address": "1531 Conery St",
    "address_councildis": "B",
    "status": "Assigned to Contractor",
    "contractor": "IV Waste",
    "rowid": "1246907",
    "final_x": "3675875.76725",
    "final_y": "522195.880442",
    "longitude": "-90.08615010382938",
    "latitude": "29.930026994503365",
    "geocoded_column": {
      "latitude": "29.930026994503365",
      "longitude": "-90.08615010382938"
    }
  },
  {
    "service_request": "2025-1246906",
    "request_type": "Parks & Parkways",
    "request_reason": "Request Tree Service (Right of Way/Public Property)",
    "date_created": "2025-12-22T13:07:44.000",
    "date_modified": "2025-12-22T13:41:08.000",
    "request_status": "Pending",
    "responsible_agency": "Department of Parks & Parkway",
    "final_address": "2438 Nashville Ave",
    "address_councildis": "A",
    "status": "Pending",
    "rowid": "1246906",
    "final_x": "3667082.63559",
    "final_y": "525177.564029",
    "longitude": "-90.11380848340082",
    "latitude": "29.938485910254226",
    "geocoded_column": {
      "latitude": "29.938485910254226",
      "longitude": "-90.11380848340082"
    }
  },
  {
    "service_request": "2025-1246905",
    "request_type": "Trash/Recycling",
    "request_reason": "Request a Large Item Pick Up",
    "date_created": "2025-12-22T13:03:41.000",
    "date_modified": "2025-12-22T13:03:43.000",
    "request_status": "Pending",
    "responsible_agency": "Department of Sanitation",
    "final_address": "430 Harrison Ave",
    "address_councildis": "A",
    "status": "Assigned to Contractor",
    "contractor": "IV Waste",
    "rowid": "1246905",
    "final_x": "3667826.21191",
    "final_y": "549225.369747",
    "longitude": "-90.11065080070107",
    "latitude": "30.00458755668541",
    "geocoded_column": {
      "latitude": "30.00458755668541",
      "longitude": "-90.11065080070107"
    }
  },
  {
    "service_request": "2025-1246904",
    "request_type": "Trash/Recycling",
    "request_reason": "Request a Large Item Pick Up",
    "date_created": "2025-12-22T13:02:03.000",
    "date_modified": "2025-12-22T13:02:04.000",
    "request_status": "Pending",
    "responsible_agency": "Department of Sanitation",
    "final_address": "4717 Hauck Dr",
    "address_councildis": "E",
    "status": "Assigned to Contractor",
    "contractor": "Waste Pro",
    "rowid": "1246904",
    "final_x": "3714640.81522",
    "final_y": "556666.79433",
    "longitude": "-89.96247475342928",
    "latitude": "30.02359193055897",
    "geocoded_column": {
      "latitude": "30.02359193055897",
      "longitude": "-89.96247475342928"
    }
  },
  {
    "service_request": "2025-1246903",
    "request_type": "Trash/Recycling",
    "request_reason": "Request a Large Item Pick Up",
    "date_created": "2025-12-22T12:59:43.000",
    "date_modified": "2025-12-22T12:59:45.000",
    "request_status": "Pending",
    "responsible_agency": "Department of Sanitation",
    "final_address": "5122 Wentworth Dr",
    "address_councildis": "E",
    "status": "Assigned to Contractor",
    "contractor": "Waste Pro",
    "rowid": "1246903",
    "final_x": "3704744.25156",
    "final_y": "556744.388122",
    "longitude": "-89.99374276019327",
    "latitude": "30.024127126911154",
    "geocoded_column": {
      "latitude": "30.024127126911154",
      "longitude": "-89.99374276019327"
    }
  },
  {
    "service_request": "2025-1246902",
    "request_type": "Trash/Recycling",
    "request_reason": "Request a Large Item Pick Up",
    "date_created": "2025-12-22T12:53:53.000",
    "date_modified": "2025-12-22T12:53:55.000",
    "request_status": "Pending",
    "responsible_agency": "Department of Sanitation",
    "final_address": "4857 Haydel St",
    "address_councildis": "E",
    "status": "Assigned to Contractor",
    "contractor": "Waste Pro",
    "rowid": "1246902",
    "final_x": "3699032.58896",
    "final_y": "555100.876377",
    "longitude": "-90.0118503271505",
    "latitude": "30.01979046471565",
    "geocoded_column": {
      "latitude": "30.01979046471565",
      "longitude": "-90.0118503271505"
    }
  },
  {
    "service_request": "2025-1246901",
    "request_type": "Trash/Recycling",
    "request_reason": "Return Trash Cart",
    "date_created": "2025-12-22T12:52:41.000",
    "date_modified": "2025-12-22T14:42:20.000",
    "request_status": "Pending",
    "responsible_agency": "Department of Sanitation",
    "final_address": "2923 Mistletoe St",
    "address_councildis": "A",
    "status": "Assigned to Contractor",
    "contractor": "IV Waste",
    "rowid": "1246901",
    "final_x": "3663352.91744",
    "final_y": "535610.065606",
    "longitude": "-90.12523637774252",
    "latitude": "29.967280539849057",
    "geocoded_column": {
      "latitude": "29.967280539849057",
      "longitude": "-90.12523637774252"
    }
  },
  {
    "service_request": "2025-1246900",
    "request_type": "Trash/Recycling",
    "request_reason": "Request a Large Item Pick Up",
    "date_created": "2025-12-22T12:48:30.000",
    "date_modified": "2025-12-22T12:48:32.000",
    "request_status": "Pending",
    "responsible_agency": "Department of Sanitation",
    "final_address": "6720 Pontchartrain Blvd",
    "address_councildis": "A",
    "status": "Assigned to Contractor",
    "contractor": "IV Waste",
    "rowid": "1246900",
    "final_x": "3666308.46618",
    "final_y": "552825.467222",
    "longitude": "-90.11532477477044",
    "latitude": "30.014531013881893",
    "geocoded_column": {
      "latitude": "30.014531013881893",
      "longitude": "-90.11532477477044"
    }
  },
  {
    "service_request": "2025-1246899",
    "request_type": "Trash/Recycling",
    "request_reason": "Order Trash Cart",
    "date_created": "2025-12-22T12:46:41.000",
    "date_modified": "2025-12-22T12:46:43.000",
    "request_status": "Pending",
    "responsible_agency": "Department of Sanitation",
    "final_address": "1612 Charbonnet St",
    "address_councildis": "E",
    "status": "Assigned to Contractor",
    "contractor": "Waste Pro",
    "rowid": "1246899",
    "final_x": "3699127.0234",
    "final_y": "535624.512262",
    "longitude": "-90.01226144581712",
    "latitude": "29.966234659836957",
    "geocoded_column": {
      "latitude": "29.966234659836957",
      "longitude": "-90.01226144581712"
    }
  },
  {
    "service_request": "2025-1246898",
    "request_type": "Trash/Recycling",
    "request_reason": "Replace Trash Cart",
    "date_created": "2025-12-22T12:43:09.000",
    "date_modified": "2025-12-22T12:45:11.000",
    "request_status": "Pending",
    "responsible_agency": "Department of Sanitation",
    "final_address": "8040 Driftwood Dr",
    "address_councildis": "E",
    "status": "Assigned to Contractor",
    "contractor": "Waste Pro",
    "rowid": "1246898",
    "final_x": "3702237.65802",
    "final_y": "561838.505631",
    "longitude": "-90.00147597468495",
    "latitude": "30.038214309581097",
    "geocoded_column": {
      "latitude": "30.038214309581097",
      "longitude": "-90.00147597468495"
    }
  },
  {
    "service_request": "2025-1246897",
    "request_type": "Trash/Recycling",
    "request_reason": "Request a Large Item Pick Up",
    "date_created": "2025-12-22T12:37:17.000",
    "date_modified": "2025-12-22T12:37:18.000",
    "request_status": "Pending",
    "responsible_agency": "Department of Sanitation",
    "final_address": "1716 Elysian Fields Ave",
    "address_councildis": "D",
    "status": "Assigned to Contractor",
    "contractor": "IV Waste",
    "rowid": "1246897",
    "final_x": "3684726.92745",
    "final_y": "538647.795337",
    "longitude": "-90.05763028600205",
    "latitude": "29.974996285126107",
    "geocoded_column": {
      "latitude": "29.974996285126107",
      "longitude": "-90.05763028600205"
    }
  },
  {
    "service_request": "2025-1246896",
    "request_type": "Trash/Recycling",
    "request_reason": "Damaged Caused By Contractor",
    "date_created": "2025-12-22T12:33:50.000",
    "date_modified": "2025-12-22T14:32:58.000",
    "request_status": "Pending",
    "responsible_agency": "Department of Sanitation",
    "final_address": "818 Pontalba St",
    "address_councildis": "A",
    "status": "Assigned to Contractor",
    "contractor": "IV Waste",
    "rowid": "1246896",
    "final_x": "3668891.41562",
    "final_y": "544341.250703",
    "longitude": "-90.10745068255744",
    "latitude": "29.99112662110928",
    "geocoded_column": {
      "latitude": "29.99112662110928",
      "longitude": "-90.10745068255744"
    }
  },
  {
    "service_request": "2025-1246895",
    "request_type": "Trash/Recycling",
    "request_reason": "Request a Large Item Pick Up",
    "date_created": "2025-12-22T12:31:11.000",
    "date_modified": "2025-12-22T12:31:12.000",
    "request_status": "Pending",
    "responsible_agency": "Department of Sanitation",
    "final_address": "3029 Bienville Ave",
    "address_councildis": "B",
    "status": "Assigned to Contractor",
    "contractor": "IV Waste",
    "rowid": "1246895",
    "final_x": "3674652.96059",
    "final_y": "536699.958471",
    "longitude": "-90.08951328502403",
    "latitude": "29.969944943257065",
    "geocoded_column": {
      "latitude": "29.969944943257065",
      "longitude": "-90.08951328502403"
    }
  },
  {
    "service_request": "2025-1246894",
    "request_type": "Trash/Recycling",
    "request_reason": "Request a Large Item Pick Up",
    "date_created": "2025-12-22T12:24:02.000",
    "date_modified": "2025-12-22T12:24:04.000",
    "request_status": "Pending",
    "responsible_agency": "Department of Sanitation",
    "final_address": "9001 Dinkins St",
    "address_councildis": "E",
    "status": "Assigned to Contractor",
    "contractor": "Waste Pro",
    "rowid": "1246894",
    "final_x": "3705095.96759",
    "final_y": "563706.282785",
    "longitude": "-89.99237397050443",
    "latitude": "30.043258297414848",
    "geocoded_column": {
      "latitude": "30.043258297414848",
      "longitude": "-89.99237397050443"
    }
  },
  {
    "service_request": "2025-1246893",
    "request_type": "Roads and Streets",
    "request_reason": "Street Subsidence (Sinking)",
    "date_created": "2025-12-22T12:23:33.000",
    "date_modified": "2025-12-22T12:23:34.000",
    "request_status": "Pending",
    "responsible_agency": "Sewerage & Water Board",
    "final_address": "2915 Holiday Dr",
    "address_councildis": "C",
    "status": "Pending",
    "rowid": "1246893",
    "final_x": "3698693.04605",
    "final_y": "520638.921016",
    "longitude": "-90.01417675117754",
    "latitude": "29.925043280965724",
    "geocoded_column": {
      "latitude": "29.925043280965724",
      "longitude": "-90.01417675117754"
    }
  },
  {
    "service_request": "2025-1246892",
    "request_type": "Trash/Recycling",
    "request_reason": "Return Trash Cart",
    "date_created": "2025-12-22T12:23:10.000",
    "date_modified": "2025-12-22T12:23:11.000",
    "request_status": "Pending",
    "responsible_agency": "Department of Sanitation",
    "final_address": "4501 Majestic Oaks Dr",
    "address_councildis": "D",
    "status": "Assigned to Contractor",
    "contractor": "Waste Pro",
    "rowid": "1246892",
    "final_x": "3697966.71101",
    "final_y": "552984.095831",
    "longitude": "-90.01529507065554",
    "latitude": "30.0140038761006",
    "geocoded_column": {
      "latitude": "30.0140038761006",
      "longitude": "-90.01529507065554"
    }
  },
  {
    "service_request": "2025-1246891",
    "request_type": "Trash/Recycling",
    "request_reason": "Request a Large Item Pick Up",
    "date_created": "2025-12-22T12:14:44.000",
    "date_modified": "2025-12-22T12:14:46.000",
    "request_status": "Pending",
    "responsible_agency": "Department of Sanitation",
    "final_address": "38 Rail St",
    "address_councildis": "D",
    "status": "Assigned to Contractor",
    "contractor": "IV Waste",
    "rowid": "1246891",
    "final_x": "3674069.84276",
    "final_y": "557052.264346",
    "longitude": "-90.09065776606694",
    "latitude": "30.02592405193929",
    "geocoded_column": {
      "latitude": "30.02592405193929",
      "longitude": "-90.09065776606694"
    }
  },
  {
    "service_request": "2025-1246890",
    "request_type": "Trash/Recycling",
    "request_reason": "Request a Large Item Pick Up",
    "date_created": "2025-12-22T12:13:34.000",
    "date_modified": "2025-12-22T12:13:35.000",
    "request_status": "Pending",
    "responsible_agency": "Department of Sanitation",
    "final_address": "4667 Arthur Dr",
    "address_councildis": "E",
    "status": "Assigned to Contractor",
    "contractor": "Waste Pro",
    "rowid": "1246890",
    "final_x": "3707813.33419",
    "final_y": "554978.849048",
    "longitude": "-89.98411080969433",
    "latitude": "30.019173566655997",
    "geocoded_column": {
      "latitude": "30.019173566655997",
      "longitude": "-89.98411080969433"
    }
  },
  {
    "service_request": "2025-1246889",
    "request_type": "Property Maintenance",
    "request_reason": "Property Maintenance",
    "date_created": "2025-12-22T12:11:01.000",
    "date_modified": "2025-12-22T14:14:46.000",
    "case_close_date": "2025-12-22T08:14:45.000",
    "request_status": "Closed",
    "responsible_agency": "Department of Code Enforcement",
    "final_address": "2209 Magazine St",
    "address_councildis": "B",
    "status": "Referred to Code Enforcement",
    "rowid": "1246889",
    "final_x": "3678723.79714",
    "final_y": "522034.642874",
    "longitude": "-90.07716492429981",
    "latitude": "29.929498099021224",
    "geocoded_column": {
      "latitude": "29.929498099021224",
      "longitude": "-90.07716492429981"
    }
  },
  {
    "service_request": "2025-1246888",
    "request_type": "Trash/Recycling",
    "request_reason": "Request a Large Item Pick Up",
    "date_created": "2025-12-22T12:09:58.000",
    "date_modified": "2025-12-22T12:10:00.000",
    "request_status": "Pending",
    "responsible_agency": "Department of Sanitation",
    "final_address": "6613 Dwyer Rd",
    "address_councildis": "E",
    "status": "Assigned to Contractor",
    "contractor": "Waste Pro",
    "rowid": "1246888",
    "final_x": "3699144.7832",
    "final_y": "555572.464153",
    "longitude": "-90.01147864242705",
    "latitude": "30.02108359320973",
    "geocoded_column": {
      "latitude": "30.02108359320973",
      "longitude": "-90.01147864242705"
    }
  },
  {
    "service_request": "2025-1246887",
    "request_type": "Street and Traffic Signs",
    "request_reason": "Additional Signage Request",
    "date_created": "2025-12-22T12:06:37.000",
    "date_modified": "2025-12-22T12:06:39.000",
    "request_status": "Pending",
    "responsible_agency": "Department of Public Works",
    "final_address": "720 Hagan St",
    "address_councildis": "A",
    "status": "Pending",
    "rowid": "1246887",
    "final_x": "3674790.72309",
    "final_y": "538583.272329",
    "longitude": "-90.08901362843885",
    "latitude": "29.97511930310674",
    "geocoded_column": {
      "latitude": "29.97511930310674",
      "longitude": "-90.08901362843885"
    }
  },
  {
    "service_request": "2025-1246886",
    "request_type": "Trash/Recycling",
    "request_reason": "Order Trash Cart",
    "date_created": "2025-12-22T12:06:08.000",
    "date_modified": "2025-12-22T12:06:09.000",
    "request_status": "Pending",
    "responsible_agency": "Department of Sanitation",
    "final_address": "5910 N Derbigny St",
    "address_councildis": "E",
    "status": "Assigned to Contractor",
    "contractor": "Waste Pro",
    "rowid": "1246886",
    "final_x": "3699794.18928",
    "final_y": "535620.240262",
    "longitude": "-90.01015471874594",
    "latitude": "29.966201746327954",
    "geocoded_column": {
      "latitude": "29.966201746327954",
      "longitude": "-90.01015471874594"
    }
  },
  {
    "service_request": "2025-1246885",
    "request_type": "Trash/Recycling",
    "request_reason": "Request a Large Item Pick Up",
    "date_created": "2025-12-22T12:06:04.000",
    "date_modified": "2025-12-22T12:06:06.000",
    "request_status": "Pending",
    "responsible_agency": "Department of Sanitation",
    "final_address": "7161 Downman Rd",
    "address_councildis": "D",
    "status": "Assigned to Contractor",
    "contractor": "Waste Pro",
    "rowid": "1246885",
    "final_x": "3695254.96157",
    "final_y": "556960.947738",
    "longitude": "-90.02371917253859",
    "latitude": "30.025024209069723",
    "geocoded_column": {
      "latitude": "30.025024209069723",
      "longitude": "-90.02371917253859"
    }
  },
  {
    "service_request": "2025-1246884",
    "request_type": "Streetlights",
    "request_reason": "Streetlight Outage/Malfunction",
    "date_created": "2025-12-22T12:00:26.000",
    "date_modified": "2025-12-22T12:00:28.000",
    "request_status": "Pending",
    "responsible_agency": "Department of Public Works",
    "final_address": "3705 Coliseum St",
    "address_councildis": "B",
    "status": "Pending",
    "rowid": "1246884",
    "final_x": "3673321.77467",
    "final_y": "520162.498104",
    "longitude": "-90.09428206164169",
    "latitude": "29.924512038006064",
    "geocoded_column": {
      "latitude": "29.924512038006064",
      "longitude": "-90.09428206164169"
    }
  },
  {
    "service_request": "2025-1246883",
    "request_type": "Drainage",
    "request_reason": "Catch Basin Not Draining",
    "date_created": "2025-12-22T11:48:53.000",
    "date_modified": "2025-12-22T11:48:54.000",
    "request_status": "Pending",
    "responsible_agency": "Sewerage & Water Board",
    "final_address": "3309 Elysian Fields Ave",
    "address_councildis": "D",
    "status": "Pending",
    "rowid": "1246883",
    "final_x": "3684450.57417",
    "final_y": "544866.832719",
    "longitude": "-90.05828451808105",
    "latitude": "29.992104901808638",
    "geocoded_column": {
      "latitude": "29.992104901808638",
      "longitude": "-90.05828451808105"
    }
  },
  {
    "service_request": "2025-1246882",
    "request_type": "Trash/Recycling",
    "request_reason": "Order Second Trash Cart",
    "date_created": "2025-12-22T11:47:24.000",
    "date_modified": "2025-12-22T11:47:25.000",
    "request_status": "Pending",
    "responsible_agency": "Department of Sanitation",
    "final_address": "7816 Beach Dr",
    "address_councildis": "E",
    "status": "Assigned to Contractor",
    "contractor": "Waste Pro",
    "rowid": "1246882",
    "final_x": "3702188.16081",
    "final_y": "562072.008991",
    "longitude": "-90.00162382128218",
    "latitude": "30.03885793421911",
    "geocoded_column": {
      "latitude": "30.03885793421911",
      "longitude": "-90.00162382128218"
    }
  },
  {
    "service_request": "2025-1246881",
    "request_type": "Trash/Recycling",
    "request_reason": "Request a Large Item Pick Up",
    "date_created": "2025-12-22T11:46:27.000",
    "date_modified": "2025-12-22T11:46:28.000",
    "request_status": "Pending",
    "responsible_agency": "Department of Sanitation",
    "final_address": "7816 Beach Dr",
    "address_councildis": "E",
    "status": "Assigned to Contractor",
    "contractor": "Waste Pro",
    "rowid": "1246881",
    "final_x": "3702188.16081",
    "final_y": "562072.008991",
    "longitude": "-90.00162382128218",
    "latitude": "30.03885793421911",
    "geocoded_column": {
      "latitude": "30.03885793421911",
      "longitude": "-90.00162382128218"
    }
  },
  {
    "service_request": "2025-1246880",
    "request_type": "Trash/Recycling",
    "request_reason": "Repair Trash Cart",
    "date_created": "2025-12-22T11:42:09.000",
    "date_modified": "2025-12-22T11:42:10.000",
    "request_status": "Pending",
    "responsible_agency": "Department of Sanitation",
    "final_address": "1126 L. B. Landry Ave",
    "address_councildis": "C",
    "status": "Assigned to Contractor",
    "contractor": "Richards Disposal",
    "rowid": "1246880",
    "final_x": "3690206.36483",
    "final_y": "527199.787199",
    "longitude": "-90.04073273760557",
    "latitude": "29.943349366328725",
    "geocoded_column": {
      "latitude": "29.943349366328725",
      "longitude": "-90.04073273760557"
    }
  },
  {
    "service_request": "2025-1246879",
    "request_type": "Trash/Recycling",
    "request_reason": "Request a Large Item Pick Up",
    "date_created": "2025-12-22T11:41:08.000",
    "date_modified": "2025-12-22T11:41:10.000",
    "request_status": "Pending",
    "responsible_agency": "Department of Sanitation",
    "final_address": "6000 BLK Charlotte Dr",
    "address_councildis": "D",
    "status": "Assigned to Contractor",
    "contractor": "IV Waste",
    "rowid": "1246879",
    "final_x": "3679865.54837",
    "final_y": "554928.173068",
    "longitude": "-90.07241795283468",
    "latitude": "30.019909475301823",
    "geocoded_column": {
      "latitude": "30.019909475301823",
      "longitude": "-90.07241795283468"
    }
  },
  {
    "service_request": "2025-1246878",
    "request_type": "Trash/Recycling",
    "request_reason": "Request a Large Item Pick Up",
    "date_created": "2025-12-22T11:37:54.000",
    "date_modified": "2025-12-22T11:37:56.000",
    "request_status": "Pending",
    "responsible_agency": "Department of Sanitation",
    "final_address": "6425 N Galvez St",
    "address_councildis": "E",
    "status": "Assigned to Contractor",
    "contractor": "Waste Pro",
    "rowid": "1246878",
    "final_x": "3702099.77399",
    "final_y": "536516.603335",
    "longitude": "-90.00284091474498",
    "latitude": "29.96859301234058",
    "geocoded_column": {
      "latitude": "29.96859301234058",
      "longitude": "-90.00284091474498"
    }
  },
  {
    "service_request": "2025-1246877",
    "request_type": "Trash/Recycling",
    "request_reason": "Request a Large Item Pick Up",
    "date_created": "2025-12-22T11:36:19.000",
    "date_modified": "2025-12-22T13:47:42.000",
    "request_status": "Pending",
    "responsible_agency": "Department of Sanitation",
    "final_address": "523 Burgundy St",
    "address_councildis": "C",
    "status": "Assigned to Contractor",
    "contractor": "IV Waste",
    "rowid": "1246877",
    "final_x": "3681329.72412",
    "final_y": "532697.852292",
    "longitude": "-90.06856693861894",
    "latitude": "29.95873954553152",
    "geocoded_column": {
      "latitude": "29.95873954553152",
      "longitude": "-90.06856693861894"
    }
  },
  {
    "service_request": "2025-1246876",
    "request_type": "Trash/Recycling",
    "request_reason": "Request a Large Item Pick Up",
    "date_created": "2025-12-22T11:36:13.000",
    "date_modified": "2025-12-22T11:36:15.000",
    "request_status": "Pending",
    "responsible_agency": "Department of Sanitation",
    "final_address": "908 Jourdan Ave",
    "address_councildis": "E",
    "status": "Assigned to Contractor",
    "contractor": "Waste Pro",
    "rowid": "1246876",
    "final_x": "3694761.50787",
    "final_y": "533819.467141",
    "longitude": "-90.02611262048153",
    "latitude": "29.961409095472472",
    "geocoded_column": {
      "latitude": "29.961409095472472",
      "longitude": "-90.02611262048153"
    }
  },
  {
    "service_request": "2025-1246875",
    "request_type": "Street and Traffic Signs",
    "request_reason": "Additional Signage Request",
    "date_created": "2025-12-22T11:33:21.000",
    "date_modified": "2025-12-22T11:35:32.000",
    "request_status": "Pending",
    "responsible_agency": "Department of Public Works",
    "final_address": "5700 BLK Vermillion Blvd",
    "address_councildis": "D",
    "status": "Pending",
    "rowid": "1246875",
    "final_x": "3683124.72787",
    "final_y": "554270.919133",
    "longitude": "-90.06214304185536",
    "latitude": "30.01800324960793",
    "geocoded_column": {
      "latitude": "30.01800324960793",
      "longitude": "-90.06214304185536"
    }
  },
  {
    "service_request": "2025-1246874",
    "request_type": "Trash/Recycling",
    "request_reason": "Order Recycling Cart",
    "date_created": "2025-12-22T11:29:12.000",
    "date_modified": "2025-12-22T11:29:13.000",
    "request_status": "Pending",
    "responsible_agency": "Department of Sanitation",
    "final_address": "15 Muirfield Pl",
    "address_councildis": "C",
    "status": "Pending",
    "rowid": "1246874",
    "final_x": "3720099.13804",
    "final_y": "513869.168306",
    "longitude": "-89.94686408848236",
    "latitude": "29.90573390522439",
    "geocoded_column": {
      "latitude": "29.90573390522439",
      "longitude": "-89.94686408848236"
    }
  },
  {
    "service_request": "2025-1246873",
    "request_type": "Trash/Recycling",
    "request_reason": "Repair Trash Cart",
    "date_created": "2025-12-22T11:29:04.000",
    "date_modified": "2025-12-22T11:29:06.000",
    "request_status": "Pending",
    "responsible_agency": "Department of Sanitation",
    "final_address": "906 Arabella St",
    "address_councildis": "A",
    "status": "Assigned to Contractor",
    "contractor": "IV Waste",
    "rowid": "1246873",
    "final_x": "3665866.81952",
    "final_y": "519347.017207",
    "longitude": "-90.11784221953279",
    "latitude": "29.9224892792968",
    "geocoded_column": {
      "latitude": "29.9224892792968",
      "longitude": "-90.11784221953279"
    }
  },
  {
    "service_request": "2025-1246872",
    "request_type": "General Services",
    "request_reason": "General Service Request",
    "date_created": "2025-12-22T11:24:38.000",
    "date_modified": "2025-12-22T11:31:07.000",
    "case_close_date": "2025-12-22T05:31:06.000",
    "request_status": "Closed",
    "responsible_agency": "Orleans Parish Communication District",
    "final_address": "235 S Cortez St",
    "address_councildis": "A",
    "status": "Referred to External Agency",
    "rowid": "1246872",
    "final_x": "3671610.46459",
    "final_y": "537055.86964",
    "longitude": "-90.0991096978557",
    "latitude": "29.971014040143405",
    "geocoded_column": {
      "latitude": "29.971014040143405",
      "longitude": "-90.0991096978557"
    }
  },
  {
    "service_request": "2025-1246871",
    "request_type": "Traffic Signals",
    "request_reason": "Traffic Signal Malfunctioning or Damaged",
    "date_created": "2025-12-22T11:21:06.000",
    "date_modified": "2025-12-22T11:21:07.000",
    "request_status": "Pending",
    "responsible_agency": "Department of Public Works",
    "final_address": "801 Henry Clay Ave",
    "address_councildis": "A",
    "status": "Pending",
    "rowid": "1246871",
    "final_x": "3663886.70208",
    "final_y": "519665.014968",
    "longitude": "-90.12408208507878",
    "latitude": "29.92342128167053",
    "geocoded_column": {
      "latitude": "29.92342128167053",
      "longitude": "-90.12408208507878"
    }
  },
  {
    "service_request": "2025-1246870",
    "request_type": "Abandoned Vehicles",
    "request_reason": "Abandoned/Junk Vehicles",
    "date_created": "2025-12-22T11:20:28.000",
    "date_modified": "2025-12-22T11:20:30.000",
    "request_status": "Pending",
    "responsible_agency": "Department of Public Works",
    "final_address": "7031 Ridgefield Dr",
    "address_councildis": "E",
    "status": "Pending",
    "rowid": "1246870",
    "final_x": "3719465.61157",
    "final_y": "569607.585382",
    "longitude": "-89.94673476020041",
    "latitude": "30.059014222318503",
    "geocoded_column": {
      "latitude": "30.059014222318503",
      "longitude": "-89.94673476020041"
    }
  },
  {
    "service_request": "2025-1246869",
    "request_type": "Trash/Recycling",
    "request_reason": "Repair Recycling Cart",
    "date_created": "2025-12-22T11:19:08.000",
    "date_modified": "2025-12-22T11:19:09.000",
    "request_status": "Pending",
    "responsible_agency": "Department of Sanitation",
    "final_address": "2522 Peniston St",
    "address_councildis": "B",
    "status": "Pending",
    "rowid": "1246869",
    "final_x": "3672046.98196",
    "final_y": "524379.784636",
    "longitude": "-90.09816265318439",
    "latitude": "29.936146060969133",
    "geocoded_column": {
      "latitude": "29.936146060969133",
      "longitude": "-90.09816265318439"
    }
  },
  {
    "service_request": "2025-1246867",
    "request_type": "Trash/Recycling",
    "request_reason": "Dead Animal Pick Up",
    "date_created": "2025-12-22T11:15:08.000",
    "date_modified": "2025-12-22T12:15:43.000",
    "case_close_date": "2025-12-22T06:15:42.000",
    "request_status": "Closed",
    "responsible_agency": "Department of Sanitation",
    "final_address": "825 Polk St",
    "address_councildis": "A",
    "status": "Assigned to Contractor",
    "contractor": "IV Waste",
    "contractor_action": "Completed",
    "rowid": "1246867",
    "final_x": "3669421.49703",
    "final_y": "547248.314193",
    "longitude": "-90.10567788951828",
    "latitude": "29.99910443868108",
    "geocoded_column": {
      "latitude": "29.99910443868108",
      "longitude": "-90.10567788951828"
    }
  },
  {
    "service_request": "2025-1246866",
    "request_type": "Trash/Recycling",
    "request_reason": "Request a Large Item Pick Up",
    "date_created": "2025-12-22T11:15:03.000",
    "date_modified": "2025-12-22T11:15:05.000",
    "request_status": "Pending",
    "responsible_agency": "Department of Sanitation",
    "final_address": "4811 Perelli Dr",
    "address_councildis": "E",
    "status": "Assigned to Contractor",
    "contractor": "Waste Pro",
    "rowid": "1246866",
    "final_x": "3711760.93534",
    "final_y": "556428.705882",
    "longitude": "-89.97158343366245",
    "latitude": "30.023031702833",
    "geocoded_column": {
      "latitude": "30.023031702833",
      "longitude": "-89.97158343366245"
    }
  },
  {
    "service_request": "2025-1246865",
    "request_type": "Trash/Recycling",
    "request_reason": "Request a Large Item Pick Up",
    "date_created": "2025-12-22T11:14:34.000",
    "date_modified": "2025-12-22T11:14:35.000",
    "request_status": "Pending",
    "responsible_agency": "Department of Sanitation",
    "final_address": "124 Central Park Pl",
    "address_councildis": "A",
    "status": "Assigned to Contractor",
    "contractor": "IV Waste",
    "rowid": "1246865",
    "final_x": "3670369.22926",
    "final_y": "544084.503246",
    "longitude": "-90.10279130976097",
    "latitude": "29.990377097887",
    "geocoded_column": {
      "latitude": "29.990377097887",
      "longitude": "-90.10279130976097"
    }
  },
  {
    "service_request": "2025-1246864",
    "request_type": "Trash/Recycling",
    "request_reason": "Illegal Dumping",
    "date_created": "2025-12-22T11:13:42.000",
    "date_modified": "2025-12-22T11:14:19.000",
    "case_close_date": "2025-12-22T05:14:18.000",
    "request_status": "Closed",
    "responsible_agency": "Department of Sanitation",
    "final_address": "4710 Tulip St",
    "address_councildis": "E",
    "status": "Resolved",
    "rowid": "1246864",
    "final_x": "3702042.56362",
    "final_y": "554059.794136",
    "longitude": "-90.0023780603726",
    "latitude": "30.016832093535847",
    "geocoded_column": {
      "latitude": "30.016832093535847",
      "longitude": "-90.0023780603726"
    }
  },
  {
    "service_request": "2025-1246863",
    "request_type": "Trash/Recycling",
    "request_reason": "Illegal Dumping",
    "date_created": "2025-12-22T11:11:54.000",
    "date_modified": "2025-12-22T11:12:28.000",
    "case_close_date": "2025-12-22T05:12:27.000",
    "request_status": "Closed",
    "responsible_agency": "Department of Sanitation",
    "final_address": "2726 Jackson Ave",
    "address_councildis": "B",
    "status": "Resolved",
    "rowid": "1246863",
    "final_x": "3674815.87605",
    "final_y": "527159.335359",
    "longitude": "-90.08932589707011",
    "latitude": "29.94370655324781",
    "geocoded_column": {
      "latitude": "29.94370655324781",
      "longitude": "-90.08932589707011"
    }
  },