[
  {
    "service_request": "2024-1148444",
    "request_type": "Trash/Recycling",
    "request_reason": "Request a Large Item Pick Up",
    "date_created": "2024-11-13T22:11:11.000",
    "date_modified": "2024-11-13T22:11:11.000",
    "request_status": "Pending",
    "responsible_agency": "Department of Sanitation",
    "final_address": "5900 Louisville St",
    "address_councildis": "A",
    "status": "Assigned to Contractor",
    "contractor": "IV Waste",
    "rowid": "1148444",
    "final_x": "3667632.31105",
    "final_y": "546747.015569",
    "longitude": "-90.11134687247436",
    "latitude": "29.99777862805872",
    "geocoded_column": {
      "latitude": "29.99777862805872",
      "longitude": "-90.11134687247436"
    }
  },
  {
    "service_request": "2024-1148443",
    "request_type": "Trash/Recycling",
    "request_reason": "Request a Large Item Pick Up",
    "date_created": "2024-11-13T22:05:42.000",
    "date_modified": "2024-11-13T22:05:43.000",
    "request_status": "Pending",
    "responsible_agency": "Department of Sanitation",
    "final_address": "900 BLK Saint Ann St",
    "address_councildis": "C",
    "status": "Assigned to Contractor",
    "contractor": "Empire Services",
    "rowid": "1148443",
    "final_x": "3682064.22376",
    "final_y": "533305.841312",
    "longitude": "-90.066226349315",
    "latitude": "29.96038899509862",
    "geocoded_column": {
      "latitude": "29.96038899509862",
      "longitude": "-90.066226349315"
    }
  },
  {
    "service_request": "2024-1148442",
    "request_type": "Drainage",
    "request_reason": "Catch Basin Damaged",
    "date_created": "2024-11-13T21:44:13.000",
    "date_modified": "2024-11-13T21:44:13.000",
    "request_status": "Pending",
    "responsible_agency": "Department of Public Works",
    "final_address": "2333 DAbadie St",
    "address_councildis": "D",
    "status": "Pending",
    "rowid": "1148442",
    "final_x": "3680468.01538",
    "final_y": "540076.650123",
    "longitude": "-90.07103130632522",
    "latitude": "29.979054830446472",
    "geocoded_column": {
      "latitude": "29.979054830446472",
      "longitude": "-90.07103130632522"
    }
  },
  {
    "service_request": "2024-1148441",
    "request_type": "Streetlights",
    "request_reason": "Streetlight Outage/Malfunction",
    "date_created": "2024-11-13T21:33:29.000",
    "date_modified": "2024-11-13T21:33:30.000",
    "request_status": "Pending",
    "responsible_agency": "Department of Public Works",
    "final_address": "523 Diana St",
    "address_councildis": "C",
    "status": "Pending",
    "contractor": "Legacy Professional Services",
    "rowid": "1148441",
    "final_x": "3687182.19599",
    "final_y": "527518.415167",
    "longitude": "-90.05026952377469",
    "latitude": "29.944318943616384",
    "geocoded_column": {
      "latitude": "29.944318943616384",
      "longitude": "-90.05026952377469"
    }
  },
  {
    "service_request": "2024-1148440",
    "request_type": "Streetlights",
    "request_reason": "New Streetlight Request",
    "date_created": "2024-11-13T21:26:43.000",
    "date_modified": "2024-11-13T21:26:44.000",
    "request_status": "Pending",
    "responsible_agency": "Department of Public Works",
    "final_address": "2500 BLK Touro St",
    "address_councildis": "D",
    "status": "Pending",
    "contractor": "Legacy Professional Services",
    "rowid": "1148440",
    "final_x": "3683803.04049",
    "final_y": "541582.9888",
    "longitude": "-90.06044517504942",
    "latitude": "29.983095289452883",
    "geocoded_column": {
      "latitude": "29.983095289452883",
      "longitude": "-90.06044517504942"
    }
  },
  {
    "service_request": "2024-1148439",
    "request_type": "Streetlights",
    "request_reason": "Streetlight Outage/Malfunction",
    "date_created": "2024-11-13T21:25:26.000",
    "date_modified": "2024-11-13T21:25:27.000",
    "request_status": "Pending",
    "responsible_agency": "Department of Public Works",
    "final_address": "523 Diana St",
    "address_councildis": "C",
    "status": "Pending",
    "contractor": "Legacy Professional Services",
    "rowid": "1148439",
    "final_x": "3687182.19599",
    "final_y": "527518.415167",
    "longitude": "-90.05026952377469",
    "latitude": "29.944318943616384",
    "geocoded_column": {
      "latitude": "29.944318943616384",
      "longitude": "-90.05026952377469"
    }
  },
  {
    "service_request": "2024-1148438",
    "request_type": "Streetlights",
    "request_reason": "Streetlight Outage/Malfunction",
    "date_created": "2024-11-13T21:24:54.000",
    "date_modified": "2024-11-13T21:24:55.000",
    "request_status": "Pending",
    "responsible_agency": "Department of Public Works",
    "final_address": "2500 BLK Touro St",
    "address_councildis": "D",
    "status": "Pending",
    "contractor": "Legacy Professional Services",
    "rowid": "1148438",
    "final_x": "3683803.04049",
    "final_y": "541582.9888",
    "longitude": "-90.06044517504942",
    "latitude": "29.983095289452883",
    "geocoded_column": {
      "latitude": "29.983095289452883",
      "longitude": "-90.06044517504942"
    }
  },
  {
    "service_request": "2024-1148437",
    "request_type": "Streetlights",
    "request_reason": "Streetlight Outage/Malfunction",
    "date_created": "2024-11-13T21:21:18.000",
    "date_modified": "2024-11-13T21:21:19.000",
    "request_status": "Pending",
    "responsible_agency": "Department of Public Works",
    "final_address": "523 Diana St",
    "address_councildis": "C",
    "status": "Pending",
    "contractor": "Legacy Professional Services",
    "rowid": "1148437",
    "final_x": "3687182.19599",
    "final_y": "527518.415167",
    "longitude": "-90.05026952377469",
    "latitude": "29.944318943616384",
    "geocoded_column": {
      "latitude": "29.944318943616384",
      "longitude": "-90.05026952377469"
    }
  },
  {
    "service_request": "2024-1148436",
    "request_type": "Trash/Recycling",
    "request_reason": "Replace Recycling Cart",
    "date_created": "2024-11-13T21:16:51.000",
    "date_modified": "2024-11-13T21:16:51.000",
    "request_status": "Pending",
    "responsible_agency": "Department of Sanitation",
    "final_address": "4920 Perrier St",
    "address_councildis": "B",
    "status": "Pending",
    "rowid": "1148436",
    "final_x": "3668842.84276",
    "final_y": "519847.358968",
    "longitude": "-90.10843120422182",
    "latitude": "29.923777920027803",
    "geocoded_column": {
      "latitude": "29.923777920027803",
      "longitude": "-90.10843120422182"
    }
  },
  {
    "service_request": "2024-1148435",
    "request_type": "Trash/Recycling",
    "request_reason": "Missed Trash Pick-Up",
    "date_created": "2024-11-13T20:55:18.000",
    "date_modified": "2024-11-13T20:55:19.000",
    "request_status": "Pending",
    "responsible_agency": "Department of Sanitation",
    "final_address": "7621 Symmes Ave",
    "address_councildis": "E",
    "status": "Assigned to Contractor",
    "contractor": "Waste Pro",
    "rowid": "1148435",
    "final_x": "3707866.3203",
    "final_y": "564670.988194",
    "longitude": "-89.98358265892485",
    "latitude": "30.045821415607065",
    "geocoded_column": {
      "latitude": "30.045821415607065",
      "longitude": "-89.98358265892485"
    }
  },
  {
    "service_request": "2024-1148434",
    "request_type": "Streetlights",
    "request_reason": "Streetlight Outage/Malfunction",
    "date_created": "2024-11-13T20:25:03.000",
    "date_modified": "2024-11-13T20:25:05.000",
    "request_status": "Pending",
    "responsible_agency": "Department of Public Works",
    "final_address": "ELYSIAN FIELDS AVE & BENEFIT ST & I 610 E ONRAMP",
    "address_councildis": "D",
    "status": "Pending",
    "contractor": "Legacy Professional Services",
    "rowid": "1148434",
    "final_x": "3684413.4",
    "final_y": "544425.08",
    "longitude": "-90.05841746956946",
    "latitude": "29.990891376406932",
    "geocoded_column": {
      "latitude": "29.990891376406932",
      "longitude": "-90.05841746956946"
    }
  },
  {
    "service_request": "2024-1148433",
    "request_type": "Trash/Recycling",
    "request_reason": "Order Recycling Cart",
    "date_created": "2024-11-13T20:24:28.000",
    "date_modified": "2024-11-13T20:24:28.000",
    "request_status": "Pending",
    "responsible_agency": "Department of Sanitation",
    "final_address": "6731 Bellaire Dr",
    "address_councildis": "A",
    "status": "Pending",
    "rowid": "1148433",
    "final_x": "3664659.31092",
    "final_y": "552992.090007",
    "longitude": "-90.12052974600199",
    "latitude": "30.015037267087152",
    "geocoded_column": {
      "latitude": "30.015037267087152",
      "longitude": "-90.12052974600199"
    }
  },
  {
    "service_request": "2024-1148432",
    "request_type": "Streetlights",
    "request_reason": "Streetlight Outage/Malfunction",
    "date_created": "2024-11-13T20:23:39.000",
    "date_modified": "2024-11-13T20:23:40.000",
    "request_status": "Pending",
    "responsible_agency": "Department of Public Works",
    "final_address": "125 N Lopez St",
    "address_councildis": "B",
    "status": "Pending",
    "contractor": "Legacy Professional Services",
    "rowid": "1148432",
    "final_x": "3674020.30382",
    "final_y": "536483.001863",
    "longitude": "-90.09151870528251",
    "latitude": "29.96936725424116",
    "geocoded_column": {
      "latitude": "29.96936725424116",
      "longitude": "-90.09151870528251"
    }
  },
  {
    "service_request": "2024-1148431",
    "request_type": "Streetlights",
    "request_reason": "Streetlight Outage/Malfunction",
    "date_created": "2024-11-13T20:18:30.000",
    "date_modified": "2024-11-13T20:18:31.000",
    "request_status": "Pending",
    "responsible_agency": "Department of Public Works",
    "final_address": "Iberville Street & North Lopez Street",
    "address_councildis": "B",
    "status": "Pending",
    "contractor": "Legacy Professional Services",
    "rowid": "1148431",
    "final_x": "3674135.69569",
    "final_y": "536574.238983",
    "longitude": "-90.09115116449658",
    "latitude": "29.96961468630073",
    "geocoded_column": {
      "latitude": "29.96961468630073",
      "longitude": "-90.09115116449658"
    }
  },
  {
    "service_request": "2024-1148430",
    "request_type": "Streetlights",
    "request_reason": "Streetlight Outage/Malfunction",
    "date_created": "2024-11-13T20:07:41.000",
    "date_modified": "2024-11-13T20:07:42.000",
    "request_status": "Pending",
    "responsible_agency": "Department of Public Works",
    "final_address": "5286 Warrington Dr",
    "address_councildis": "D",
    "status": "Pending",
    "contractor": "Legacy Professional Services",
    "rowid": "1148430",
    "final_x": "3680892.5924",
    "final_y": "551879.259606",
    "longitude": "-90.06927909928092",
    "latitude": "30.0114949544891",
    "geocoded_column": {
      "latitude": "30.0114949544891",
      "longitude": "-90.06927909928092"
    }
  },
  {
    "service_request": "2024-1148429",
    "request_type": "Streetlights",
    "request_reason": "Streetlight Outage/Malfunction",
    "date_created": "2024-11-13T20:03:30.000",
    "date_modified": "2024-11-13T20:03:31.000",
    "request_status": "Pending",
    "responsible_agency": "Department of Public Works",
    "final_address": "5286 Warrington Dr",
    "address_councildis": "D",
    "status": "Pending",
    "contractor": "Legacy Professional Services",
    "rowid": "1148429",
    "final_x": "3680892.5924",
    "final_y": "551879.259606",
    "longitude": "-90.06927909928092",
    "latitude": "30.0114949544891",
    "geocoded_column": {
      "latitude": "30.0114949544891",
      "longitude": "-90.06927909928092"
    }
  },
  {
    "service_request": "2024-1148428",
    "request_type": "Property Maintenance",
    "request_reason": "Property Maintenance",
    "date_created": "2024-11-13T19:26:53.000",
    "date_modified": "2024-11-13T19:26:53.000",
    "request_status": "Pending",
    "responsible_agency": "Department of Code Enforcement",
    "final_address": "1811 St Ann St",
    "address_councildis": "D",
    "status": "Pending",
    "rowid": "1148428",
    "final_x": "3679633.83394",
    "final_y": "535214.366342",
    "longitude": "-90.07383477513382",
    "latitude": "29.965710465308067",
    "geocoded_column": {
      "latitude": "29.965710465308067",
      "longitude": "-90.07383477513382"
    }
  },
  {
    "service_request": "2024-1148427",
    "request_type": "Streetlights",
    "request_reason": "Streetlight Outage/Malfunction",
    "date_created": "2024-11-13T19:23:38.000",
    "date_modified": "2024-11-13T19:23:39.000",
    "request_status": "Pending",
    "responsible_agency": "Department of Public Works",
    "final_address": "1403 Adams St",
    "address_councildis": "A",
    "status": "Pending",
    "contractor": "Legacy Professional Services",
    "rowid": "1148427",
    "final_x": "3663599.4864",
    "final_y": "527900.262335",
    "longitude": "-90.12471452275781",
    "latitude": "29.946073935321923",
    "geocoded_column": {
      "latitude": "29.946073935321923",
      "longitude": "-90.12471452275781"
    }
  },
  {
    "service_request": "2024-1148426",
    "request_type": "Street and Traffic Signs",
    "request_reason": "Traffic or Parking Sign Damaged or Missing",
    "date_created": "2024-11-13T19:08:52.000",
    "date_modified": "2024-11-13T19:08:52.000",
    "request_status": "Pending",
    "responsible_agency": "Department of Public Works",
    "final_address": "6700 BLK Chef Menteur Hwy",
    "address_councildis": "E",
    "status": "Pending",
    "rowid": "1148426",
    "final_x": "3699584.06602",
    "final_y": "551966.962455",
    "longitude": "-90.01022219026082",
    "latitude": "30.011155889915297",
    "geocoded_column": {
      "latitude": "30.011155889915297",
      "longitude": "-90.01022219026082"
    }
  },
  {
    "service_request": "2024-1148425",
    "request_type": "Property Maintenance",
    "request_reason": "Property Maintenance",
    "date_created": "2024-11-13T18:47:02.000",
    "date_modified": "2024-11-13T18:47:02.000",
    "request_status": "Pending",
    "responsible_agency": "Department of Code Enforcement",
    "final_address": "2214 St Anthony St",
    "address_councildis": "D",
    "status": "Pending",
    "rowid": "1148425",
    "final_x": "3683098.65794",
    "final_y": "540380.423115",
    "longitude": "-90.06271209367684",
    "latitude": "29.97981015224471",
    "geocoded_column": {
      "latitude": "29.97981015224471",
      "longitude": "-90.06271209367684"
    }
  },
  {
    "service_request": "2024-1148424",
    "request_type": "Property Maintenance",
    "request_reason": "Property Maintenance",
    "date_created": "2024-11-13T18:43:24.000",
    "date_modified": "2024-11-13T18:43:24.000",
    "request_status": "Pending",
    "responsible_agency": "Department of Code Enforcement",
    "final_address": "2220 St Anthony St",
    "address_councildis": "D",
    "status": "Pending",
    "rowid": "1148424",
    "final_x": "3683095.96444",
    "final_y": "540410.298379",
    "longitude": "-90.06271955451078",
    "latitude": "29.97989238089113",
    "geocoded_column": {
      "latitude": "29.97989238089113",
      "longitude": "-90.06271955451078"
    }
  },
  {
    "service_request": "2024-1148423",
    "request_type": "Trash/Recycling",
    "request_reason": "Order Recycling Cart",
    "date_created": "2024-11-13T18:30:39.000",
    "date_modified": "2024-11-13T18:30:39.000",
    "request_status": "Pending",
    "responsible_agency": "Department of Sanitation",
    "final_address": "5751 Pembrook Dr",
    "address_councildis": "C",
    "status": "Pending",
    "rowid": "1148423",
    "final_x": "3704951.07857",
    "final_y": "520691.979513",
    "longitude": "-89.99442036762332",
    "latitude": "29.92498958745774",
    "geocoded_column": {
      "latitude": "29.92498958745774",
      "longitude": "-89.99442036762332"
    }
  },
  {
    "service_request": "2024-1148422",
    "request_type": "Drainage",
    "request_reason": "Catch Basin Clogged",
    "date_created": "2024-11-13T18:03:41.000",
    "date_modified": "2024-11-13T18:03:41.000",
    "request_status": "Pending",
    "responsible_agency": "Department of Public Works",
    "final_address": "3135 Gentilly Blvd",
    "address_councildis": "D",
    "status": "Pending",
    "rowid": "1148422",
    "final_x": "3683883.97916",
    "final_y": "547438.411793",
    "longitude": "-90.05998400475525",
    "latitude": "29.999193149777238",
    "geocoded_column": {
      "latitude": "29.999193149777238",
      "longitude": "-90.05998400475525"
    }
  },
  {
    "service_request": "2024-1148421",
    "request_type": "Drainage",
    "request_reason": "Catch Basin Clogged",
    "date_created": "2024-11-13T18:02:43.000",
    "date_modified": "2024-11-13T18:02:43.000",
    "request_status": "Pending",
    "responsible_agency": "Department of Public Works",
    "final_address": "3161 Gentilly Blvd",
    "address_councildis": "D",
    "status": "Pending",
    "rowid": "1148421",
    "final_x": "3683978.09333",
    "final_y": "547587.785618",
    "longitude": "-90.05968145124702",
    "latitude": "29.99960099809017",
    "geocoded_column": {
      "latitude": "29.99960099809017",
      "longitude": "-90.05968145124702"
    }
  },
  {
    "service_request": "2024-1148420",
    "request_type": "Drainage",
    "request_reason": "Catch Basin Clogged",
    "date_created": "2024-11-13T18:01:43.000",
    "date_modified": "2024-11-13T18:01:43.000",
    "request_status": "Pending",
    "responsible_agency": "Department of Public Works",
    "final_address": "3201 Gentilly Blvd",
    "address_councildis": "D",
    "status": "Pending",
    "rowid": "1148420",
    "final_x": "3684247.07145",
    "final_y": "547837.04661",
    "longitude": "-90.05882298250869",
    "latitude": "30.000278152616673",
    "geocoded_column": {
      "latitude": "30.000278152616673",
      "longitude": "-90.05882298250869"
    }
  },
  {
    "service_request": "2024-1148419",
    "request_type": "Property Maintenance",
    "request_reason": "Property Maintenance",
    "date_created": "2024-11-13T17:50:38.000",
    "date_modified": "2024-11-13T17:50:38.000",
    "request_status": "Pending",
    "responsible_agency": "Department of Code Enforcement",
    "final_address": "7403 Prytania St",
    "address_councildis": "A",
    "status": "Pending",
    "rowid": "1148419",
    "final_x": "3661151.96672",
    "final_y": "523153.114683",
    "longitude": "-90.13259928475888",
    "latitude": "29.933091540809638",
    "geocoded_column": {
      "latitude": "29.933091540809638",
      "longitude": "-90.13259928475888"
    }
  },
  {
    "service_request": "2024-1148418",
    "request_type": "Abandoned Vehicles",
    "request_reason": "Abandoned/Junk Vehicles",
    "date_created": "2024-11-13T17:20:17.000",
    "date_modified": "2024-11-13T17:20:17.000",
    "request_status": "Pending",
    "responsible_agency": "Department of Public Works",
    "final_address": "737 Sixth St",
    "address_councildis": "B",
    "status": "Pending",
    "rowid": "1148418",
    "final_x": "3677324.30478",
    "final_y": "519553.057847",
    "longitude": "-90.0816684430075",
    "latitude": "29.922716658495908",
    "geocoded_column": {
      "latitude": "29.922716658495908",
      "longitude": "-90.0816684430075"
    }
  },
  {
    "service_request": "2024-1148417",
    "request_type": "Traffic Signals",
    "request_reason": "Traffic Signal Malfunctioning or Damaged",
    "date_created": "2024-11-13T17:19:10.000",
    "date_modified": "2024-11-13T17:19:10.000",
    "request_status": "Pending",
    "responsible_agency": "Department of Public Works",
    "final_address": "2731 Napoleon Ave",
    "address_councildis": "B",
    "status": "Pending",
    "rowid": "1148417",
    "final_x": "3670540.89153",
    "final_y": "524970.473661",
    "longitude": "-90.10289740982414",
    "latitude": "29.937814820105558",
    "geocoded_column": {
      "latitude": "29.937814820105558",
      "longitude": "-90.10289740982414"
    }
  },
  {
    "service_request": "2024-1148416",
    "request_type": "Parks & Parkways",
    "request_reason": "Request Tree Service (Right of Way/Public Property)",
    "date_created": "2024-11-13T17:00:10.000",
    "date_modified": "2024-11-13T17:00:11.000",
    "request_status": "Pending",
    "responsible_agency": "Department of Parks & Parkway",
    "final_address": "2231 Benton St",
    "address_councildis": "E",
    "status": "Pending",
    "rowid": "1148416",
    "final_x": "3700535.15914",
    "final_y": "537725.157384",
    "longitude": "-90.0077378665816",
    "latitude": "29.971965961087676",
    "geocoded_column": {
      "latitude": "29.971965961087676",
      "longitude": "-90.0077378665816"
    }
  },
  {
    "service_request": "2024-1148415",
    "request_type": "Trash/Recycling",
    "request_reason": "MIssed Recycling Pick-Up",
    "date_created": "2024-11-13T16:58:31.000",
    "date_modified": "2024-11-13T16:58:32.000",
    "request_status": "Pending",
    "responsible_agency": "Department of Sanitation",
    "final_address": "2931 Bacchus Dr",
    "address_councildis": "C",
    "status": "Assigned to Contractor",
    "contractor": "Richards Disposal",
    "rowid": "1148415",
    "final_x": "3710161.84862",
    "final_y": "518643.020343",
    "longitude": "-89.97804832129685",
    "latitude": "29.919187220615434",
    "geocoded_column": {
      "latitude": "29.919187220615434",
      "longitude": "-89.97804832129685"
    }
  },
  {
    "service_request": "2024-1148414",
    "request_type": "Trash/Recycling",
    "request_reason": "Illegal Dumping",
    "date_created": "2024-11-13T16:56:49.000",
    "date_modified": "2024-11-13T16:56:50.000",
    "request_status": "Pending",
    "responsible_agency": "Department of Sanitation",
    "final_address": "OAK ST & S CARROLLTON AVE",
    "address_councildis": "A",
    "status": "Pending",
    "rowid": "1148414",
    "final_x": "3661989.2",
    "final_y": "528349.78",
    "longitude": "-90.12978386560482",
    "latitude": "29.947356570354405",
    "geocoded_column": {
      "latitude": "29.947356570354405",
      "longitude": "-90.12978386560482"
    }
  },
  {
    "service_request": "2024-1148413",
    "request_type": "Trash/Recycling",
    "request_reason": "Request a Large Item Pick Up",
    "date_created": "2024-11-13T16:55:43.000",
    "date_modified": "2024-11-13T16:55:44.000",
    "request_status": "Pending",
    "responsible_agency": "Department of Sanitation",
    "final_address": "9 Vivian Ct",
    "address_councildis": "C",
    "status": "Assigned to Contractor",
    "contractor": "Richards Disposal",
    "rowid": "1148413",
    "final_x": "3701970.30372",
    "final_y": "521311.793273",
    "longitude": "-90.00380693635731",
    "latitude": "29.926789296285406",
    "geocoded_column": {
      "latitude": "29.926789296285406",
      "longitude": "-90.00380693635731"
    }
  },
  {
    "service_request": "2024-1148412",
    "request_type": "Property Maintenance",
    "request_reason": "Property Maintenance",
    "date_created": "2024-11-13T16:54:35.000",
    "date_modified": "2024-11-13T16:54:36.000",
    "request_status": "Pending",
    "responsible_agency": "Department of Code Enforcement",
    "final_address": "2231 Benton St",
    "address_councildis": "E",
    "status": "Pending",
    "rowid": "1148412",
    "final_x": "3700535.15914",
    "final_y": "537725.157384",
    "longitude": "-90.0077378665816",
    "latitude": "29.971965961087676",
    "geocoded_column": {
      "latitude": "29.971965961087676",
      "longitude": "-90.0077378665816"
    }
  },
  {
    "service_request": "2024-1148411",
    "request_type": "Trash/Recycling",
    "request_reason": "Request a Large Item Pick Up",
    "date_created": "2024-11-13T16:52:01.000",
    "date_modified": "2024-11-13T16:52:02.000",
    "request_status": "Pending",
    "responsible_agency": "Department of Sanitation",
    "final_address": "5029 Piety Dr",
    "address_councildis": "D",
    "status": "Assigned to Contractor",
    "contractor": "IV Waste",
    "rowid": "1148411",
    "final_x": "3691305.97219",
    "final_y": "552643.304214",
    "longitude": "-90.03635173274385",
    "latitude": "30.013275813117215",
    "geocoded_column": {
      "latitude": "30.013275813117215",
      "longitude": "-90.03635173274385"
    }
  },
  {
    "service_request": "2024-1148410",
    "request_type": "Abandoned Vehicles",
    "request_reason": "Abandoned/Junk Vehicles",
    "date_created": "2024-11-13T16:49:59.000",
    "date_modified": "2024-11-13T16:50:00.000",
    "request_status": "Pending",
    "responsible_agency": "Department of Public Works",
    "final_address": "2514 Clara St",
    "address_councildis": "B",
    "status": "Pending",
    "rowid": "1148410",
    "final_x": "3674269.3314",
    "final_y": "526486.030782",
    "longitude": "-90.09107453380022",
    "latitude": "29.94187149104944",
    "geocoded_column": {
      "latitude": "29.94187149104944",
      "longitude": "-90.09107453380022"
    }
  },
  {
    "service_request": "2024-1148409",
    "request_type": "Trash/Recycling",
    "request_reason": "Repair Recycling Cart",
    "date_created": "2024-11-13T16:49:32.000",
    "date_modified": "2024-11-13T16:49:33.000",
    "request_status": "Pending",
    "responsible_agency": "Department of Sanitation",
    "final_address": "1993 Hope St",
    "address_councildis": "D",
    "status": "Pending",
    "rowid": "1148409",
    "final_x": "3682209.37781",
    "final_y": "542040.628428",
    "longitude": "-90.06546278142434",
    "latitude": "29.984402220439176",
    "geocoded_column": {
      "latitude": "29.984402220439176",
      "longitude": "-90.06546278142434"
    }
  },
  {
    "service_request": "2024-1148408",
    "request_type": "Trash/Recycling",
    "request_reason": "Request a Large Item Pick Up",
    "date_created": "2024-11-13T16:49:31.000",
    "date_modified": "2024-11-13T16:50:04.000",
    "request_status": "Pending",
    "responsible_agency": "Department of Sanitation",
    "final_address": "516 Lyons St",
    "address_councildis": "B",
    "status": "Assigned to Contractor",
    "contractor": "IV Waste",
    "rowid": "1148408",
    "final_x": "3669321.3225",
    "final_y": "517407.727541",
    "longitude": "-90.10700323304621",
    "latitude": "29.917055631719958",
    "geocoded_column": {
      "latitude": "29.917055631719958",
      "longitude": "-90.10700323304621"
    }
  },
  {
    "service_request": "2024-1148407",
    "request_type": "Trash/Recycling",
    "request_reason": "Replace Recycling Cart",
    "date_created": "2024-11-13T16:48:57.000",
    "date_modified": "2024-11-13T16:48:58.000",
    "request_status": "Pending",
    "responsible_agency": "Department of Sanitation",
    "final_address": "1991 Hope St",
    "address_councildis": "D",
    "status": "Pending",
    "rowid": "1148407",
    "final_x": "3682194.10005",
    "final_y": "542039.2395",
    "longitude": "-90.06551108556302",
    "latitude": "29.984398866189366",
    "geocoded_column": {
      "latitude": "29.984398866189366",
      "longitude": "-90.06551108556302"
    }
  },
  {
    "service_request": "2024-1148406",
    "request_type": "Trash/Recycling",
    "request_reason": "Request a Large Item Pick Up",
    "date_created": "2024-11-13T16:47:04.000",
    "date_modified": "2024-11-13T16:47:05.000",
    "request_status": "Pending",
    "responsible_agency": "Department of Sanitation",
    "final_address": "4600 Flake Ave",
    "address_councildis": "E",
    "status": "Assigned to Contractor",
    "contractor": "Waste Pro",
    "rowid": "1148406",
    "final_x": "3706145.17745",
    "final_y": "554505.801688",
    "longitude": "-89.98939909735681",
    "latitude": "30.017926773144712",
    "geocoded_column": {
      "latitude": "30.017926773144712",
      "longitude": "-89.98939909735681"
    }
  },
  {
    "service_request": "2024-1148405",
    "request_type": "Trash/Recycling",
    "request_reason": "Request a Large Item Pick Up",
    "date_created": "2024-11-13T16:38:47.000",
    "date_modified": "2024-11-13T16:38:48.000",
    "request_status": "Pending",
    "responsible_agency": "Department of Sanitation",
    "final_address": "2519 Magnolia St",
    "address_councildis": "B",
    "status": "Assigned to Contractor",
    "contractor": "IV Waste",
    "rowid": "1148405",
    "final_x": "3674355.94497",
    "final_y": "526297.00435",
    "longitude": "-90.09080754780449",
    "latitude": "29.941349148073673",
    "geocoded_column": {
      "latitude": "29.941349148073673",
      "longitude": "-90.09080754780449"
    }
  },
  {
    "service_request": "2024-1148404",
    "request_type": "Abandoned Vehicles",
    "request_reason": "Abandoned/Junk Vehicles",
    "date_created": "2024-11-13T16:37:26.000",
    "date_modified": "2024-11-13T16:37:26.000",
    "request_status": "Pending",
    "responsible_agency": "Department of Public Works",
    "final_address": "2106 Josephine St",
    "address_councildis": "B",
    "status": "Pending",
    "rowid": "1148404",
    "final_x": "3676685.79521",
    "final_y": "525489.721405",
    "longitude": "-90.08347955792952",
    "latitude": "29.939059711402567",
    "geocoded_column": {
      "latitude": "29.939059711402567",
      "longitude": "-90.08347955792952"
    }
  },
  {
    "service_request": "2024-1148403",
    "request_type": "Abandoned Vehicles",
    "request_reason": "Abandoned/Junk Vehicles",
    "date_created": "2024-11-13T16:35:11.000",
    "date_modified": "2024-11-13T16:35:11.000",
    "request_status": "Pending",
    "responsible_agency": "Department of Public Works",
    "final_address": "2106 Josephine St",
    "address_councildis": "B",
    "status": "Pending",
    "rowid": "1148403",
    "final_x": "3676685.79521",
    "final_y": "525489.721405",
    "longitude": "-90.08347955792952",
    "latitude": "29.939059711402567",
    "geocoded_column": {
      "latitude": "29.939059711402567",
      "longitude": "-90.08347955792952"
    }
  },
  {
    "service_request": "2024-1148402",
    "request_type": "Trash/Recycling",
    "request_reason": "Repair Trash Cart",
    "date_created": "2024-11-13T16:33:19.000",
    "date_modified": "2024-11-13T16:33:20.000",
    "request_status": "Pending",
    "responsible_agency": "Department of Sanitation",
    "final_address": "1718 Burbank Dr",
    "address_councildis": "D",
    "status": "Assigned to Contractor",
    "contractor": "IV Waste",
    "rowid": "1148402",
    "final_x": "3679778.97179",
    "final_y": "554398.824728",
    "longitude": "-90.07270990820426",
    "latitude": "30.018456579252256",
    "geocoded_column": {
      "latitude": "30.018456579252256",
      "longitude": "-90.07270990820426"
    }
  },
  {
    "service_request": "2024-1148401",
    "request_type": "Drainage",
    "request_reason": "Catch Basin Clogged",
    "date_created": "2024-11-13T16:30:53.000",
    "date_modified": "2024-11-13T16:30:54.000",
    "request_status": "Pending",
    "responsible_agency": "Department of Public Works",
    "final_address": "1201 N Prieur St",
    "address_councildis": "D",
    "status": "Pending",
    "rowid": "1148401",
    "final_x": "3680023.16827",
    "final_y": "536774.270984",
    "longitude": "-90.07255106927002",
    "latitude": "29.969987895586584",
    "geocoded_column": {
      "latitude": "29.969987895586584",
      "longitude": "-90.07255106927002"
    }
  },
  {
    "service_request": "2024-1148400",
    "request_type": "Trash/Recycling",
    "request_reason": "Request a Large Item Pick Up",
    "date_created": "2024-11-13T16:28:31.000",
    "date_modified": "2024-11-13T16:28:32.000",
    "request_status": "Pending",
    "responsible_agency": "Department of Sanitation",
    "final_address": "20 Honeysuckle Ln",
    "address_councildis": "E",
    "status": "Assigned to Contractor",
    "contractor": "Waste Pro",
    "rowid": "1148400",
    "final_x": "3712932.88818",
    "final_y": "568382.247589",
    "longitude": "-89.96743011865442",
    "latitude": "30.05586079325025",
    "geocoded_column": {
      "latitude": "30.05586079325025",
      "longitude": "-89.96743011865442"
    }
  },
  {
    "service_request": "2024-1148399",
    "request_type": "Trash/Recycling",
    "request_reason": "Request a Large Item Pick Up",
    "date_created": "2024-11-13T16:27:47.000",
    "date_modified": "2024-11-13T16:27:48.000",
    "request_status": "Pending",
    "responsible_agency": "Department of Sanitation",
    "final_address": "1208 Second St",
    "address_councildis": "B",
    "status": "Assigned to Contractor",
    "contractor": "IV Waste",
    "rowid": "1148399",
    "final_x": "3677488.66798",
    "final_y": "521701.902393",
    "longitude": "-90.08107548324962",
    "latitude": "29.92862034542208",
    "geocoded_column": {
      "latitude": "29.92862034542208",
      "longitude": "-90.08107548324962"
    }
  },
  {
    "service_request": "2024-1148398",
    "request_type": "Drainage",
    "request_reason": "Catch Basin Clogged",
    "date_created": "2024-11-13T16:26:48.000",
    "date_modified": "2024-11-13T16:26:48.000",
    "request_status": "Pending",
    "responsible_agency": "Department of Public Works",
    "final_address": "6636 Chef Menteur Hwy",
    "address_councildis": "E",
    "status": "Pending",
    "rowid": "1148398",
    "final_x": "3699419.84829",
    "final_y": "551857.618838",
    "longitude": "-90.01074500430995",
    "latitude": "30.01086044912289",
    "geocoded_column": {
      "latitude": "30.01086044912289",
      "longitude": "-90.01074500430995"
    }
  },
  {
    "service_request": "2024-1148397",
    "request_type": "Trash/Recycling",
    "request_reason": "Request a Large Item Pick Up",
    "date_created": "2024-11-13T16:26:13.000",
    "date_modified": "2024-11-13T16:26:15.000",
    "request_status": "Pending",
    "responsible_agency": "Department of Sanitation",
    "final_address": "4666 Redwood St",
    "address_councildis": "E",
    "status": "Assigned to Contractor",
    "contractor": "Waste Pro",
    "rowid": "1148397",
    "final_x": "3712453.69278",
    "final_y": "555743.528473",
    "longitude": "-89.96942026709158",
    "latitude": "30.021125078836622",
    "geocoded_column": {
      "latitude": "30.021125078836622",
      "longitude": "-89.96942026709158"
    }
  },
  {
    "service_request": "2024-1148396",
    "request_type": "Traffic Signals",
    "request_reason": "Traffic Signal Malfunctioning or Damaged",
    "date_created": "2024-11-13T16:23:47.000",
    "date_modified": "2024-11-13T16:23:47.000",
    "request_status": "Pending",
    "responsible_agency": "Department of Public Works",
    "final_address": "3675 Gentilly Blvd",
    "address_councildis": "D",
    "status": "Pending",
    "rowid": "1148396",
    "final_x": "3686800.87209",
    "final_y": "548978.645779",
    "longitude": "-90.0507150295379",
    "latitude": "30.003338783992007",
    "geocoded_column": {
      "latitude": "30.003338783992007",
      "longitude": "-90.0507150295379"
    }
  },
  {
    "service_request": "2024-1148395",
    "request_type": "Roads and Streets",
    "request_reason": "Pothole",
    "date_created": "2024-11-13T16:23:36.000",
    "date_modified": "2024-11-13T16:23:36.000",
    "request_status": "Pending",
    "responsible_agency": "Department of Public Works",
    "final_address": "4800 BLK Calliope St",
    "address_councildis": "B",
    "status": "Pending",
    "rowid": "1148395",
    "final_x": "3669547.29243",
    "final_y": "533124.67304",
    "longitude": "-90.10575849312993",
    "latitude": "29.960265503992982",
    "geocoded_column": {
      "latitude": "29.960265503992982",
      "longitude": "-90.10575849312993"
    }
  },
  {
    "service_request": "2024-1148394",
    "request_type": "Trash/Recycling",
    "request_reason": "Request a Large Item Pick Up",
    "date_created": "2024-11-13T16:20:59.000",
    "date_modified": "2024-11-13T16:21:01.000",
    "request_status": "Pending",
    "responsible_agency": "Department of Sanitation",
    "final_address": "1627 Steeple Chase Ln",
    "address_councildis": "C",
    "status": "Assigned to Contractor",
    "contractor": "Richards Disposal",
    "rowid": "1148394",
    "final_x": "3699908.02845",
    "final_y": "524723.912444",
    "longitude": "-90.01019256672579",
    "latitude": "29.93623707869219",
    "geocoded_column": {
      "latitude": "29.93623707869219",
      "longitude": "-90.01019256672579"
    }
  },
  {
    "service_request": "2024-1148393",
    "request_type": "Trash/Recycling",
    "request_reason": "Repair Trash Cart",
    "date_created": "2024-11-13T16:14:24.000",
    "date_modified": "2024-11-13T16:14:25.000",
    "request_status": "Pending",
    "responsible_agency": "Department of Sanitation",
    "final_address": "2200 Jena St",
    "address_councildis": "B",
    "status": "Assigned to Contractor",
    "contractor": "IV Waste",
    "rowid": "1148393",
    "final_x": "3670196.0185",
    "final_y": "522984.843579",
    "longitude": "-90.10405345760124",
    "latitude": "29.932365155462048",
    "geocoded_column": {
      "latitude": "29.932365155462048",
      "longitude": "-90.10405345760124"
    }
  },
  {
    "service_request": "2024-1148392",
    "request_type": "Abandoned Vehicles",
    "request_reason": "Abandoned/Junk Vehicles",
    "date_created": "2024-11-13T16:10:41.000",
    "date_modified": "2024-11-13T16:11:40.000",
    "request_status": "Pending",
    "responsible_agency": "Department of Public Works",
    "final_address": "700 BLK Elmira Ave",
    "address_councildis": "C",
    "status": "Pending",
    "rowid": "1148392",
    "final_x": "3688167.10591",
    "final_y": "528899.583065",
    "longitude": "-90.04711093980478",
    "latitude": "29.948086322400357",
    "geocoded_column": {
      "latitude": "29.948086322400357",
      "longitude": "-90.04711093980478"
    }
  },
  {
    "service_request": "2024-1148391",
    "request_type": "Trash/Recycling",
    "request_reason": "Request a Large Item Pick Up",
    "date_created": "2024-11-13T16:10:37.000",
    "date_modified": "2024-11-13T16:10:38.000",
    "request_status": "Pending",
    "responsible_agency": "Department of Sanitation",
    "final_address": "12611 Carmel Pl",
    "address_councildis": "E",
    "status": "Assigned to Contractor",
    "contractor": "Waste Pro",
    "rowid": "1148391",
    "final_x": "3716535.16127",
    "final_y": "567095.146532",
    "longitude": "-89.95609301959388",
    "latitude": "30.052203231879126",
    "geocoded_column": {
      "latitude": "30.052203231879126",
      "longitude": "-89.95609301959388"
    }
  },
  {
    "service_request": "2024-1148390",
    "request_type": "Trash/Recycling",
    "request_reason": "Request a Large Item Pick Up",
    "date_created": "2024-11-13T16:05:41.000",
    "date_modified": "2024-11-13T16:05:42.000",
    "request_status": "Pending",
    "responsible_agency": "Department of Sanitation",
    "final_address": "1419 Port St",
    "address_councildis": "C",
    "status": "Assigned to Contractor",
    "contractor": "IV Waste",
    "rowid": "1148390",
    "final_x": "3687781.535",
    "final_y": "537667.524872",
    "longitude": "-90.04801780336817",
    "latitude": "29.972207022119782",
    "geocoded_column": {
      "latitude": "29.972207022119782",
      "longitude": "-90.04801780336817"
    }
  },
  {
    "service_request": "2024-1148389",
    "request_type": "Trash/Recycling",
    "request_reason": "Missed Trash Pick-Up",
    "date_created": "2024-11-13T16:05:09.000",
    "date_modified": "2024-11-13T16:05:10.000",
    "request_status": "Pending",
    "responsible_agency": "Department of Sanitation",
    "final_address": "6876 Farwood Rd",
    "address_councildis": "E",
    "status": "Assigned to Contractor",
    "contractor": "Waste Pro",
    "rowid": "1148389",
    "final_x": "3700657.08292",
    "final_y": "557353.733147",
    "longitude": "-90.00663506935066",
    "latitude": "30.02593334286755",
    "geocoded_column": {
      "latitude": "30.02593334286755",
      "longitude": "-90.00663506935066"
    }
  },
  {
    "service_request": "2024-1148388",
    "request_type": "Trash/Recycling",
    "request_reason": "Illegal Dumping",
    "date_created": "2024-11-13T16:04:30.000",
    "date_modified": "2024-11-13T16:04:30.000",
    "request_status": "Pending",
    "responsible_agency": "Department of Sanitation",
    "final_address": "1231 S Rampart St",
    "address_councildis": "B",
    "status": "Pending",
    "rowid": "1148388",
    "final_x": "3678101.09691",
    "final_y": "527079.387326",
    "longitude": "-90.07895633769995",
    "latitude": "29.943388242134642",
    "geocoded_column": {
      "latitude": "29.943388242134642",
      "longitude": "-90.07895633769995"
    }
  },
  {
    "service_request": "2024-1148387",
    "request_type": "Trash/Recycling",
    "request_reason": "Repair Recycling Cart",
    "date_created": "2024-11-13T16:04:11.000",
    "date_modified": "2024-11-13T16:04:12.000",
    "request_status": "Pending",
    "responsible_agency": "Department of Sanitation",
    "final_address": "5102 Painters St",
    "address_councildis": "D",
    "status": "Pending",
    "rowid": "1148387",
    "final_x": "3686042.54601",
    "final_y": "551579.117909",
    "longitude": "-90.05301889951318",
    "latitude": "30.01051245490436",
    "geocoded_column": {
      "latitude": "30.01051245490436",
      "longitude": "-90.05301889951318"
    }
  },
  {
    "service_request": "2024-1148386",
    "request_type": "Abandoned Vehicles",
    "request_reason": "Abandoned/Junk Vehicles",
    "date_created": "2024-11-13T16:03:49.000",
    "date_modified": "2024-11-13T16:03:50.000",
    "request_status": "Pending",
    "responsible_agency": "Department of Public Works",
    "final_address": "2650 Orleans Ave",
    "address_councildis": "D",
    "status": "Pending",
    "rowid": "1148386",
    "final_x": "3676863.99323",
    "final_y": "536861.329544",
    "longitude": "-90.08252506107843",
    "latitude": "29.97032247902536",
    "geocoded_column": {
      "latitude": "29.97032247902536",
      "longitude": "-90.08252506107843"
    }
  },
  {
    "service_request": "2024-1148385",
    "request_type": "Drainage",
    "request_reason": "Catch Basin Clogged",
    "date_created": "2024-11-13T15:56:31.000",
    "date_modified": "2024-11-13T15:56:32.000",
    "request_status": "Pending",
    "responsible_agency": "Department of Public Works",
    "final_address": "7736 Jeannette St",
    "address_councildis": "A",
    "status": "Pending",
    "rowid": "1148385",
    "final_x": "3663507.52711",
    "final_y": "528335.230656",
    "longitude": "-90.1249903884401",
    "latitude": "29.947272625364832",
    "geocoded_column": {
      "latitude": "29.947272625364832",
      "longitude": "-90.1249903884401"
    }
  },
  {
    "service_request": "2024-1148384",
    "request_type": "Trash/Recycling",
    "request_reason": "Request a Large Item Pick Up",
    "date_created": "2024-11-13T15:54:15.000",
    "date_modified": "2024-11-13T15:54:16.000",
    "request_status": "Pending",
    "responsible_agency": "Department of Sanitation",
    "final_address": "9503 Dinkins St",
    "address_councildis": "E",
    "status": "Assigned to Contractor",
    "contractor": "Waste Pro",
    "rowid": "1148384",
    "final_x": "3706254.64164",
    "final_y": "564367.950177",
    "longitude": "-89.98868756618897",
    "latitude": "30.045040284427113",
    "geocoded_column": {
      "latitude": "30.045040284427113",
      "longitude": "-89.98868756618897"
    }
  },
  {
    "service_request": "2024-1148383",
    "request_type": "Drainage",
    "request_reason": "Catch Basin Clogged",
    "date_created": "2024-11-13T15:45:07.000",
    "date_modified": "2024-11-13T15:45:07.000",
    "request_status": "Pending",
    "responsible_agency": "Department of Public Works",
    "final_address": "1738 Prytania St",
    "address_councildis": "B",
    "status": "Pending",
    "rowid": "1148383",
    "final_x": "3679164.56847",
    "final_y": "524407.243132",
    "longitude": "-90.07569128298755",
    "latitude": "29.936008675926224",
    "geocoded_column": {
      "latitude": "29.936008675926224",
      "longitude": "-90.07569128298755"
    }
  },
  {
    "service_request": "2024-1148382",
    "request_type": "Trash/Recycling",
    "request_reason": "Request a Large Item Pick Up",
    "date_created": "2024-11-13T15:42:33.000",
    "date_modified": "2024-11-13T15:42:34.000",
    "request_status": "Pending",
    "responsible_agency": "Department of Sanitation",
    "final_address": "7717 Woodbine Dr",
    "address_councildis": "E",
    "status": "Assigned to Contractor",
    "contractor": "Waste Pro",
    "rowid": "1148382",
    "final_x": "3701930.11927",
    "final_y": "561693.984927",
    "longitude": "-90.00245317479602",
    "latitude": "30.037826759519366",
    "geocoded_column": {
      "latitude": "30.037826759519366",
      "longitude": "-90.00245317479602"
    }
  },
  {
    "service_request": "2024-1148381",
    "request_type": "Trash/Recycling",
    "request_reason": "Illegal Dumping",
    "date_created": "2024-11-13T15:37:29.000",
    "date_modified": "2024-11-13T15:37:31.000",
    "request_status": "Pending",
    "responsible_agency": "Department of Sanitation",
    "final_address": "9022 Pear St",
    "address_councildis": "A",
    "status": "Pending",
    "rowid": "1148381",
    "final_x": "3666598.55367",
    "final_y": "538505.509769",
    "longitude": "-90.11488934606236",
    "latitude": "29.97514755520891",
    "geocoded_column": {
      "latitude": "29.97514755520891",
      "longitude": "-90.11488934606236"
    }
  },
  {
    "service_request": "2024-1148380",
    "request_type": "Streetlights",
    "request_reason": "Streetlight Outage/Malfunction",
    "date_created": "2024-11-13T15:36:13.000",
    "date_modified": "2024-11-13T15:36:14.000",
    "request_status": "Pending",
    "responsible_agency": "Department of Public Works",
    "final_address": "1917 Music St",
    "address_councildis": "D",
    "status": "Pending",
    "contractor": "Legacy Professional Services",
    "rowid": "1148380",
    "final_x": "3686658.94562",
    "final_y": "539573.526794",
    "longitude": "-90.05149578289813",
    "latitude": "29.977482435215688",
    "geocoded_column": {
      "latitude": "29.977482435215688",
      "longitude": "-90.05149578289813"
    }
  },
  {
    "service_request": "2024-1148379",
    "request_type": "Abandoned Vehicles",
    "request_reason": "Abandoned/Junk Vehicles",
    "date_created": "2024-11-13T15:34:44.000",
    "date_modified": "2024-11-13T15:35:10.000",
    "request_status": "Pending",
    "responsible_agency": "Department of Public Works",
    "final_address": "1921 Music St",
    "address_councildis": "D",
    "status": "Pending",
    "rowid": "1148379",
    "final_x": "3686633.13737",
    "final_y": "539601.274698",
    "longitude": "-90.05157631350737",
    "latitude": "29.977559526020016",
    "geocoded_column": {
      "latitude": "29.977559526020016",
      "longitude": "-90.05157631350737"
    }
  },
  {
    "service_request": "2024-1148378",
    "request_type": "Trash/Recycling",
    "request_reason": "Order Trash Cart",
    "date_created": "2024-11-13T15:33:26.000",
    "date_modified": "2024-11-13T15:33:27.000",
    "request_status": "Pending",
    "responsible_agency": "Department of Sanitation",
    "final_address": "2201 Jefferson Ave",
    "address_councildis": "B",
    "status": "Assigned to Contractor",
    "contractor": "IV Waste",
    "rowid": "1148378",
    "final_x": "3667903.52353",
    "final_y": "523673.711931",
    "longitude": "-90.11126748448591",
    "latitude": "29.934326750570808",
    "geocoded_column": {
      "latitude": "29.934326750570808",
      "longitude": "-90.11126748448591"
    }
  },
  {
    "service_request": "2024-1148377",
    "request_type": "Trash/Recycling",
    "request_reason": "Request a Large Item Pick Up",
    "date_created": "2024-11-13T15:33:06.000",
    "date_modified": "2024-11-13T15:33:07.000",
    "request_status": "Pending",
    "responsible_agency": "Department of Sanitation",
    "final_address": "6001 Mandeville St",
    "address_councildis": "D",
    "status": "Assigned to Contractor",
    "contractor": "IV Waste",
    "rowid": "1148377",
    "final_x": "3684326.50319",
    "final_y": "555065.799577",
    "longitude": "-90.05831794919816",
    "latitude": "30.020152164580328",
    "geocoded_column": {
      "latitude": "30.020152164580328",
      "longitude": "-90.05831794919816"
    }
  },
  {
    "service_request": "2024-1148376",
    "request_type": "Drainage",
    "request_reason": "Drainage Manhole Cover Missing or Damaged",
    "date_created": "2024-11-13T15:28:24.000",
    "date_modified": "2024-11-13T15:28:25.000",
    "request_status": "Pending",
    "responsible_agency": "Department of Public Works",
    "final_address": "BARRACKS ST & N PETERS ST",
    "address_councildis": "C",
    "status": "Pending",
    "rowid": "1148376",
    "final_x": "3684794.2",
    "final_y": "533481.88",
    "longitude": "-90.05759947028268",
    "latitude": "29.960789749254943",
    "geocoded_column": {
      "latitude": "29.960789749254943",
      "longitude": "-90.05759947028268"
    }
  },
  {
    "service_request": "2024-1148375",
    "request_type": "Drainage",
    "request_reason": "Drainage Manhole Cover Missing or Damaged",
    "date_created": "2024-11-13T15:27:04.000",
    "date_modified": "2024-11-13T15:27:04.000",
    "request_status": "Pending",
    "responsible_agency": "Department of Public Works",
    "final_address": "1200 BLK N Peters St",
    "address_councildis": "C",
    "status": "Pending",
    "rowid": "1148375",
    "final_x": "3684527.1624",
    "final_y": "533288.354799",
    "longitude": "-90.05844952161206",
    "latitude": "29.96026579372874",
    "geocoded_column": {
      "latitude": "29.96026579372874",
      "longitude": "-90.05844952161206"
    }
  },
  {
    "service_request": "2024-1148374",
    "request_type": "Trash/Recycling",
    "request_reason": "Illegal Dumping",
    "date_created": "2024-11-13T15:22:43.000",
    "date_modified": "2024-11-13T15:22:44.000",
    "request_status": "Pending",
    "responsible_agency": "Department of Sanitation",
    "final_address": "ALMONASTER AVE & ELAINE ST",
    "address_councildis": "E",
    "status": "Pending",
    "rowid": "1148374",
    "final_x": "3704910.0",
    "final_y": "551009.88",
    "longitude": "-89.99343091786419",
    "latitude": "30.00835410311527",
    "geocoded_column": {
      "latitude": "30.00835410311527",
      "longitude": "-89.99343091786419"
    }
  },
  {
    "service_request": "2024-1148373",
    "request_type": "Trash/Recycling",
    "request_reason": "Illegal Dumping",
    "date_created": "2024-11-13T15:21:43.000",
    "date_modified": "2024-11-13T15:21:43.000",
    "request_status": "Pending",
    "responsible_agency": "Department of Sanitation",
    "final_address": "1200 BLK Sunset Ave",
    "address_councildis": "C",
    "status": "Pending",
    "rowid": "1148373",
    "final_x": "3688972.20634",
    "final_y": "526948.795628",
    "longitude": "-90.04463819218711",
    "latitude": "29.942697448983367",
    "geocoded_column": {
      "latitude": "29.942697448983367",
      "longitude": "-90.04463819218711"
    }
  },
  {
    "service_request": "2024-1148372",
    "request_type": "Trash/Recycling",
    "request_reason": "Request a Large Item Pick Up",
    "date_created": "2024-11-13T15:20:20.000",
    "date_modified": "2024-11-13T15:20:22.000",
    "request_status": "Pending",
    "responsible_agency": "Department of Sanitation",
    "final_address": "4328 Pauger St",
    "address_councildis": "D",
    "status": "Assigned to Contractor",
    "contractor": "IV Waste",
    "rowid": "1148372",
    "final_x": "3682828.36783",
    "final_y": "548691.715155",
    "longitude": "-90.0632748174666",
    "latitude": "30.002671498009338",
    "geocoded_column": {
      "latitude": "30.002671498009338",
      "longitude": "-90.0632748174666"
    }
  },
  {
    "service_request": "2024-1148371",
    "request_type": "Drainage",
    "request_reason": "Catch Basin Clogged",
    "date_created": "2024-11-13T15:19:56.000",
    "date_modified": "2024-11-13T15:19:57.000",
    "request_status": "Pending",
    "responsible_agency": "Department of Public Works",
    "final_address": "3620 Canal St",
    "address_councildis": "B",
    "status": "Pending",
    "rowid": "1148371",
    "final_x": "3672371.72487",
    "final_y": "537235.813256",
    "longitude": "-90.09669940008617",
    "latitude": "29.971486255735048",
    "geocoded_column": {
      "latitude": "29.971486255735048",
      "longitude": "-90.09669940008617"
    }
  },
  {
    "service_request": "2024-1148370",
    "request_type": "Trash/Recycling",
    "request_reason": "Illegal Dumping",
    "date_created": "2024-11-13T15:19:06.000",
    "date_modified": "2024-11-13T15:19:06.000",
    "request_status": "Pending",
    "responsible_agency": "Department of Sanitation",
    "final_address": "1500 BLK Thayer St",
    "address_councildis": "C",
    "status": "Pending",
    "rowid": "1148370",
    "final_x": "3689348.99955",
    "final_y": "525833.493724",
    "longitude": "-90.04348820922013",
    "latitude": "29.939619090683152",
    "geocoded_column": {
      "latitude": "29.939619090683152",
      "longitude": "-90.04348820922013"
    }
  },
  {
    "service_request": "2024-1148369",
    "request_type": "Trash/Recycling",
    "request_reason": "Repair Trash Cart",
    "date_created": "2024-11-13T15:15:41.000",
    "date_modified": "2024-11-13T15:15:42.000",
    "request_status": "Pending",
    "responsible_agency": "Department of Sanitation",
    "final_address": "3900 Hamilton St",
    "address_councildis": "A",
    "status": "Assigned to Contractor",
    "contractor": "IV Waste",
    "rowid": "1148369",
    "final_x": "3665779.08794",
    "final_y": "537931.053833",
    "longitude": "-90.11749669488792",
    "latitude": "29.97359192778909",
    "geocoded_column": {
      "latitude": "29.97359192778909",
      "longitude": "-90.11749669488792"
    }
  },
  {
    "service_request": "2024-1148368",
    "request_type": "Abandoned Vehicles",
    "request_reason": "Abandoned/Junk Vehicles",
    "date_created": "2024-11-13T15:14:46.000",
    "date_modified": "2024-11-13T15:14:46.000",
    "request_status": "Pending",
    "responsible_agency": "Department of Public Works",
    "final_address": "1754 Rousselin Dr",
    "address_councildis": "D",
    "status": "Pending",
    "rowid": "1148368",
    "final_x": "3680111.87426",
    "final_y": "540895.472139",
    "longitude": "-90.07212767162841",
    "latitude": "29.981317089483085",
    "geocoded_column": {
      "latitude": "29.981317089483085",
      "longitude": "-90.07212767162841"
    }
  },
  {
    "service_request": "2024-1148367",
    "request_type": "Abandoned Vehicles",
    "request_reason": "Abandoned/Junk Vehicles",
    "date_created": "2024-11-13T15:06:36.000",
    "date_modified": "2024-11-13T15:06:36.000",
    "request_status": "Pending",
    "responsible_agency": "Department of Public Works",
    "final_address": "1335 Atlantic Ave",
    "address_councildis": "C",
    "status": "Pending",
    "rowid": "1148367",
    "final_x": "3688596.60015",
    "final_y": "526442.147198",
    "longitude": "-90.04584203931907",
    "latitude": "29.94131594822395",
    "geocoded_column": {
      "latitude": "29.94131594822395",
      "longitude": "-90.04584203931907"
    }
  },
  {
    "service_request": "2024-1148366",
    "request_type": "Roads and Streets",
    "request_reason": "Debris in Driving Lanes",
    "date_created": "2024-11-13T15:03:32.000",
    "date_modified": "2024-11-13T15:03:32.000",
    "request_status": "Pending",
    "responsible_agency": "Department of Public Works",
    "final_address": "1400 BLK Thayer St",
    "address_councildis": "C",
    "status": "Pending",
    "rowid": "1148366",
    "final_x": "3689363.44932",
    "final_y": "526189.4146",
    "longitude": "-90.0434299397693",
    "latitude": "29.940597304843344",
    "geocoded_column": {
      "latitude": "29.940597304843344",
      "longitude": "-90.0434299397693"
    }
  },
  {
    "service_request": "2024-1148365",
    "request_type": "Trash/Recycling",
    "request_reason": "MIssed Recycling Pick-Up",
    "date_created": "2024-11-13T15:01:38.000",
    "date_modified": "2024-11-13T15:01:39.000",
    "request_status": "Pending",
    "responsible_agency": "Department of Sanitation",
    "final_address": "6500 Argonne Blvd",
    "address_councildis": "A",
    "status": "Assigned to Contractor",
    "contractor": "IV Waste",
    "rowid": "1148365",
    "final_x": "3670406.68858",
    "final_y": "550615.8189",
    "longitude": "-90.10245136566657",
    "latitude": "30.008334839791388",
    "geocoded_column": {
      "latitude": "30.008334839791388",
      "longitude": "-90.10245136566657"
    }
  },
  {
    "service_request": "2024-1148364",
    "request_type": "Drainage",
    "request_reason": "Catch Basin Clogged",
    "date_created": "2024-11-13T15:00:55.000",
    "date_modified": "2024-11-13T15:01:12.000",
    "request_status": "Pending",
    "responsible_agency": "Department of Public Works",
    "final_address": "1137 Baronne St",
    "address_councildis": "B",
    "status": "Pending",
    "rowid": "1148364",
    "final_x": "3678926.30741",
    "final_y": "526902.102398",
    "longitude": "-90.07635707620054",
    "latitude": "29.942875901846065",
    "geocoded_column": {
      "latitude": "29.942875901846065",
      "longitude": "-90.07635707620054"
    }
  },
  {
    "service_request": "2024-1148363",
    "request_type": "Drainage",
    "request_reason": "Catch Basin Clogged",
    "date_created": "2024-11-13T14:59:28.000",
    "date_modified": "2024-11-13T14:59:28.000",
    "request_status": "Pending",
    "responsible_agency": "Department of Public Works",
    "final_address": "500 Lake Marina Ave",
    "address_councildis": "A",
    "status": "Pending",
    "rowid": "1148363",
    "final_x": "3665086.84116",
    "final_y": "555262.967193",
    "longitude": "-90.11910291645061",
    "latitude": "30.021268932165952",
    "geocoded_column": {
      "latitude": "30.021268932165952",
      "longitude": "-90.11910291645061"
    }
  },
  {
    "service_request": "2024-1148362",
    "request_type": "Trash/Recycling",
    "request_reason": "Illegal Dumping",
    "date_created": "2024-11-13T14:54:32.000",
    "date_modified": "2024-11-13T14:54:32.000",
    "request_status": "Pending",
    "responsible_agency": "Department of Sanitation",
    "final_address": "2600 BLK N Galvez St",
    "address_councildis": "D",
    "status": "Pending",
    "rowid": "1148362",
    "final_x": "3687834.67416",
    "final_y": "540236.671611",
    "longitude": "-90.04775894878397",
    "latitude": "29.979269631288684",
    "geocoded_column": {
      "latitude": "29.979269631288684",
      "longitude": "-90.04775894878397"
    }
  },
  {
    "service_request": "2024-1148361",
    "request_type": "Trash/Recycling",
    "request_reason": "Request a Large Item Pick Up",
    "date_created": "2024-11-13T14:52:54.000",
    "date_modified": "2024-11-13T14:52:55.000",
    "request_status": "Pending",
    "responsible_agency": "Department of Sanitation",
    "final_address": "1900 Franklin Ave",
    "address_councildis": "D",
    "status": "Assigned to Contractor",
    "contractor": "IV Waste",
    "rowid": "1148361",
    "final_x": "3687608.43862",
    "final_y": "539535.299722",
    "longitude": "-90.04849832672087",
    "latitude": "29.977348083670933",
    "geocoded_column": {
      "latitude": "29.977348083670933",
      "longitude": "-90.04849832672087"
    }
  },
  {
    "service_request": "2024-1148360",
    "request_type": "Trash/Recycling",
    "request_reason": "Illegal Dumping",
    "date_created": "2024-11-13T14:50:14.000",
    "date_modified": "2024-11-13T14:50:14.000",
    "request_status": "Pending",
    "responsible_agency": "Department of Sanitation",
    "final_address": "1600 BLK Duels St",
    "address_councildis": "D",
    "status": "Pending",
    "rowid": "1148360",
    "final_x": "3680157.93886",
    "final_y": "542216.143046",
    "longitude": "-90.07193625909862",
    "latitude": "29.984947079509567",
    "geocoded_column": {
      "latitude": "29.984947079509567",
      "longitude": "-90.07193625909862"
    }
  },
  {
    "service_request": "2024-1148359",
    "request_type": "Drainage",
    "request_reason": "Street Flooding",
    "date_created": "2024-11-13T14:49:36.000",
    "date_modified": "2024-11-13T14:49:36.000",
    "request_status": "Pending",
    "responsible_agency": "Department of Public Works",
    "final_address": "5575 Jacquelyn Ct",
    "address_councildis": "A",
    "status": "Pending",
    "rowid": "1148359",
    "final_x": "3664531.53306",
    "final_y": "544794.791375",
    "longitude": "-90.1212074438025",
    "latitude": "29.992501239349508",
    "geocoded_column": {
      "latitude": "29.992501239349508",
      "longitude": "-90.1212074438025"
    }
  },
  {
    "service_request": "2024-1148358",
    "request_type": "Roads and Streets",
    "request_reason": "ADA Ramps Damaged or Missing",
    "date_created": "2024-11-13T14:48:17.000",
    "date_modified": "2024-11-13T14:48:18.000",
    "request_status": "Pending",
    "responsible_agency": "Department of Public Works",
    "final_address": "TULLIS DR & LENNOX BLVD",
    "address_councildis": "C",
    "status": "Pending",
    "rowid": "1148358",
    "final_x": "3700725.4",
    "final_y": "511984.98",
    "longitude": "-90.00807725983752",
    "latitude": "29.901183393940215",
    "geocoded_column": {
      "latitude": "29.901183393940215",
      "longitude": "-90.00807725983752"
    }
  },
  {
    "service_request": "2024-1148357",
    "request_type": "Streetlights",
    "request_reason": "Streetlight Outage/Malfunction",
    "date_created": "2024-11-13T14:47:33.000",
    "date_modified": "2024-11-13T14:47:34.000",
    "request_status": "Pending",
    "responsible_agency": "Department of Public Works",
    "final_address": "1227 Pauline St",
    "address_councildis": "D",
    "status": "Pending",
    "contractor": "Legacy Professional Services",
    "rowid": "1148357",
    "final_x": "3691392.38832",
    "final_y": "536044.920839",
    "longitude": "-90.03667215139953",
    "latitude": "29.96763356851473",
    "geocoded_column": {
      "latitude": "29.96763356851473",
      "longitude": "-90.03667215139953"
    }
  },
  {
    "service_request": "2024-1148356",
    "request_type": "Health Related Request",
    "request_reason": "Noise Ordinance Complaint",
    "date_created": "2024-11-13T14:46:45.000",
    "date_modified": "2024-11-13T14:46:47.000",
    "request_status": "Pending",
    "responsible_agency": "Health Department",
    "final_address": "622 PirateS Aly",
    "address_councildis": "C",
    "status": "Pending",
    "rowid": "1148356",
    "final_x": "3682736.74882",
    "final_y": "532445.114627",
    "longitude": "-90.06413276163453",
    "latitude": "29.958001824335554",
    "geocoded_column": {
      "latitude": "29.958001824335554",
      "longitude": "-90.06413276163453"
    }
  },
  {
    "service_request": "2024-1148355",
    "request_type": "Trash/Recycling",
    "request_reason": "Missed Trash Pick-Up",
    "date_created": "2024-11-13T14:45:54.000",
    "date_modified": "2024-11-13T14:45:54.000",
    "request_status": "Closed",
    "responsible_agency": "Department of Sanitation",
    "final_address": "4214 dhemecourt street",
    "address_councildis": "A",
    "status": "Resolved",
    "rowid": "1148355",
    "final_x": "3669255.6731",
    "final_y": "537207.327496",
    "longitude": "-90.10654133879724",
    "latitude": "29.97150003143497",
    "geocoded_column": {
      "latitude": "29.97150003143497",
      "longitude": "-90.10654133879724"
    }
  },
  {
    "service_request": "2024-1148354",
    "request_type": "Trash/Recycling",
    "request_reason": "Illegal Dumping",
    "date_created": "2024-11-13T14:44:08.000",
    "date_modified": "2024-11-13T14:44:08.000",
    "request_status": "Pending",
    "responsible_agency": "Department of Sanitation",
    "final_address": "2600 BLK Saint Roch Ave",
    "address_councildis": "D",
    "status": "Pending",
    "rowid": "1148354",
    "final_x": "3685996.81367",
    "final_y": "542127.566451",
    "longitude": "-90.05349691538218",
    "latitude": "29.98452549347177",
    "geocoded_column": {
      "latitude": "29.98452549347177",
      "longitude": "-90.05349691538218"
    }
  },
  {
    "service_request": "2024-1148353",
    "request_type": "Alley Ways",
    "request_reason": "Alley Way Regrading",
    "date_created": "2024-11-13T14:42:37.000",
    "date_modified": "2024-11-13T14:42:37.000",
    "request_status": "Pending",
    "responsible_agency": "Department of Public Works",
    "final_address": "6839 Colbert St",
    "address_councildis": "A",
    "status": "Pending",
    "rowid": "1148353",
    "final_x": "3667992.99508",
    "final_y": "553075.834519",
    "longitude": "-90.10999402739387",
    "latitude": "30.015170092422316",
    "geocoded_column": {
      "latitude": "30.015170092422316",
      "longitude": "-90.10999402739387"
    }
  },
  {
    "service_request": "2024-1148352",
    "request_type": "Trash/Recycling",
    "request_reason": "Request a Large Item Pick Up",
    "date_created": "2024-11-13T14:41:45.000",
    "date_modified": "2024-11-13T14:41:46.000",
    "request_status": "Pending",
    "responsible_agency": "Department of Sanitation",
    "final_address": "1924 Tricou St",
    "address_councildis": "E",
    "status": "Assigned to Contractor",
    "contractor": "Waste Pro",
    "rowid": "1148352",
    "final_x": "3701323.42225",
    "final_y": "536117.864647",
    "longitude": "-90.00530725339289",
    "latitude": "29.967521389068107",
    "geocoded_column": {
      "latitude": "29.967521389068107",
      "longitude": "-90.00530725339289"
    }
  },
  {
    "service_request": "2024-1148351",
    "request_type": "Drainage",
    "request_reason": "Catch Basin Clogged",
    "date_created": "2024-11-13T14:40:30.000",
    "date_modified": "2024-11-13T14:41:09.000",
    "case_close_date": "2024-11-13T08:41:09.000",
    "request_status": "Closed",
    "responsible_agency": "Department of Public Works",
    "final_address": "1600 BLK Nashville Ave",
    "address_councildis": "A",
    "status": "Resolved",
    "rowid": "1148351",
    "final_x": "3666305.43802",
    "final_y": "522395.752896",
    "longitude": "-90.11635546183375",
    "latitude": "29.930859538290722",
    "geocoded_column": {
      "latitude": "29.930859538290722",
      "longitude": "-90.11635546183375"
    }
  },
  {
    "service_request": "2024-1148350",
    "request_type": "Trash/Recycling",
    "request_reason": "Illegal Dumping",
    "date_created": "2024-11-13T14:35:53.000",
    "date_modified": "2024-11-13T15:42:18.000",
    "case_close_date": "2024-11-13T09:42:18.000",
    "request_status": "Closed",
    "responsible_agency": "Department of Code Enforcement",
    "final_address": "17600 Paris Rd",
    "address_councildis": "E",
    "status": "Resolved",
    "rowid": "1148350",
    "final_x": "3721049.61516",
    "final_y": "574670.481579",
    "longitude": "-89.94153353534014",
    "latitude": "30.07288225329255",
    "geocoded_column": {
      "latitude": "30.07288225329255",
      "longitude": "-89.94153353534014"
    }
  },
  {
    "service_request": "2024-1148349",
    "request_type": "Trash/Recycling",
    "request_reason": "Illegal Dumping",
    "date_created": "2024-11-13T14:34:31.000",
    "date_modified": "2024-11-13T14:34:33.000",
    "request_status": "Pending",
    "responsible_agency": "Department of Sanitation",
    "final_address": "4139 Hamilton St",
    "address_councildis": "A",
    "status": "Pending",
    "rowid": "1148349",
    "final_x": "3666528.44839",
    "final_y": "538555.927305",
    "longitude": "-90.11510906482027",
    "latitude": "29.975288236179072",
    "geocoded_column": {
      "latitude": "29.975288236179072",
      "longitude": "-90.11510906482027"
    }
  },
  {
    "service_request": "2024-1148348",
    "request_type": "Abandoned Vehicles",
    "request_reason": "Abandoned/Junk Vehicles",
    "date_created": "2024-11-13T14:32:55.000",
    "date_modified": "2024-11-13T14:32:56.000",
    "request_status": "Pending",
    "responsible_agency": "Department of Public Works",
    "final_address": "1360 Michael St",
    "address_councildis": "C",
    "status": "Pending",
    "rowid": "1148348",
    "final_x": "3697233.73712",
    "final_y": "526055.998846",
    "longitude": "-90.01858708589658",
    "latitude": "29.93998449675769",
    "geocoded_column": {
      "latitude": "29.93998449675769",
      "longitude": "-90.01858708589658"
    }
  },
  {
    "service_request": "2024-1148347",
    "request_type": "Trash/Recycling",
    "request_reason": "Illegal Dumping",
    "date_created": "2024-11-13T14:32:41.000",
    "date_modified": "2024-11-13T15:25:17.000",
    "case_close_date": "2024-11-13T09:25:17.000",
    "request_status": "Closed",
    "responsible_agency": "Department of Code Enforcement",
    "final_address": "15000 BLK Curran Rd",
    "address_councildis": "E",
    "status": "Resolved",
    "rowid": "1148347",
    "final_x": "3721068.83506",
    "final_y": "574349.723791",
    "longitude": "-89.94148509249317",
    "latitude": "30.07199966360887",
    "geocoded_column": {
      "latitude": "30.07199966360887",
      "longitude": "-89.94148509249317"
    }
  },
  {
    "service_request": "2024-1148346",
    "request_type": "Trash/Recycling",
    "request_reason": "Illegal Dumping",
    "date_created": "2024-11-13T14:31:13.000",
    "date_modified": "2024-11-13T14:31:14.000",
    "request_status": "Pending",
    "responsible_agency": "Department of Sanitation",
    "final_address": "9600 BLK Morrison Rd",
    "address_councildis": "E",
    "status": "Pending",
    "rowid": "1148346",
    "final_x": "3707719.05631",
    "final_y": "563039.025612",
    "longitude": "-89.98410881569583",
    "latitude": "30.04133893829405",
    "geocoded_column": {
      "latitude": "30.04133893829405",
      "longitude": "-89.98410881569583"
    }
  },
  {
    "service_request": "2024-1148345",
    "request_type": "Trash/Recycling",
    "request_reason": "Illegal Dumping",
    "date_created": "2024-11-13T14:30:38.000",
    "date_modified": "2024-11-13T14:30:39.000",
    "request_status": "Pending",
    "responsible_agency": "Department of Sanitation",
    "final_address": "HOLLYGROVE ST & PEAR ST",
    "address_councildis": "A",
    "status": "Pending",
    "rowid": "1148345",
    "final_x": "3666785.3",
    "final_y": "538388.48",
    "longitude": "-90.11430348226955",
    "latitude": "29.974820300936127",
    "geocoded_column": {
      "latitude": "29.974820300936127",
      "longitude": "-90.11430348226955"
    }
  },
  {
    "service_request": "2024-1148344",
    "request_type": "Trash/Recycling",
    "request_reason": "Illegal Dumping",
    "date_created": "2024-11-13T14:29:33.000",
    "date_modified": "2024-11-13T14:29:34.000",
    "request_status": "Pending",
    "responsible_agency": "Department of Sanitation",
    "final_address": "9100 BLK Dixon St",
    "address_councildis": "A",
    "status": "Pending",
    "rowid": "1148344",
    "final_x": "3665686.01177",
    "final_y": "537961.861856",
    "longitude": "-90.11778961823009",
    "latitude": "29.973679354875717",
    "geocoded_column": {
      "latitude": "29.973679354875717",
      "longitude": "-90.11778961823009"
    }
  },
  {
    "service_request": "2024-1148343",
    "request_type": "Trash/Recycling",
    "request_reason": "Illegal Dumping",
    "date_created": "2024-11-13T14:28:12.000",
    "date_modified": "2024-11-13T14:28:13.000",
    "request_status": "Pending",
    "responsible_agency": "Department of Sanitation",
    "final_address": "3800 BLK Hamilton St",
    "address_councildis": "A",
    "status": "Pending",
    "rowid": "1148343",
    "final_x": "3665704.33457",
    "final_y": "537722.259645",
    "longitude": "-90.11773977846468",
    "latitude": "29.97301999413091",
    "geocoded_column": {
      "latitude": "29.97301999413091",
      "longitude": "-90.11773977846468"
    }
  },
  {
    "service_request": "2024-1148342",
    "request_type": "Trash/Recycling",
    "request_reason": "Illegal Dumping",
    "date_created": "2024-11-13T14:26:16.000",
    "date_modified": "2024-11-13T14:26:17.000",
    "request_status": "Pending",
    "responsible_agency": "Department of Sanitation",
    "final_address": "3809 Hollygrove St",
    "address_councildis": "A",
    "status": "Pending",
    "rowid": "1148342",
    "final_x": "3666057.28455",
    "final_y": "537531.075592",
    "longitude": "-90.11663150079374",
    "latitude": "29.972484001244965",
    "geocoded_column": {
      "latitude": "29.972484001244965",
      "longitude": "-90.11663150079374"
    }
  },
  {
    "service_request": "2024-1148341",
    "request_type": "Trash/Recycling",
    "request_reason": "Request a Large Item Pick Up",
    "date_created": "2024-11-13T14:24:04.000",
    "date_modified": "2024-11-13T14:24:05.000",
    "request_status": "Pending",
    "responsible_agency": "Department of Sanitation",
    "final_address": "4826 Hauck Dr",
    "address_councildis": "E",
    "status": "Assigned to Contractor",
    "contractor": "Waste Pro",
    "rowid": "1148341",
    "final_x": "3714453.44517",
    "final_y": "557110.051738",
    "longitude": "-89.96305004854877",
    "latitude": "30.024816875212213",
    "geocoded_column": {
      "latitude": "30.024816875212213",
      "longitude": "-89.96305004854877"
    }
  },
  {
    "service_request": "2024-1148340",
    "request_type": "Trash/Recycling",
    "request_reason": "Illegal Dumping",
    "date_created": "2024-11-13T14:19:39.000",
    "date_modified": "2024-11-13T14:19:39.000",
    "request_status": "Pending",
    "responsible_agency": "Department of Sanitation",
    "final_address": "2628 Almonaster Ave",
    "address_councildis": "D",
    "status": "Pending",
    "rowid": "1148340",
    "final_x": "3688460.57846",
    "final_y": "542375.304717",
    "longitude": "-90.0457061985007",
    "latitude": "29.985130788273224",
    "geocoded_column": {
      "latitude": "29.985130788273224",
      "longitude": "-90.0457061985007"
    }
  },
  {
    "service_request": "2024-1148339",
    "request_type": "Roads and Streets",
    "request_reason": "Sidewalk Damaged or Missing",
    "date_created": "2024-11-13T14:17:35.000",
    "date_modified": "2024-11-13T15:14:00.000",
    "request_status": "Pending",
    "responsible_agency": "Department of Public Works",
    "final_address": "2801 Dauphine St",
    "address_councildis": "C",
    "rowid": "1148339",
    "final_x": "3687479.19663",
    "final_y": "535186.215174",
    "longitude": "-90.04906046781066",
    "latitude": "29.96539360888149",
    "geocoded_column": {
      "latitude": "29.96539360888149",
      "longitude": "-90.04906046781066"
    }
  },
  {
    "service_request": "2024-1148338",
    "request_type": "Trash/Recycling",
    "request_reason": "Illegal Dumping",
    "date_created": "2024-11-13T14:15:50.000",
    "date_modified": "2024-11-13T14:15:51.000",
    "request_status": "Pending",
    "responsible_agency": "Department of Sanitation",
    "final_address": "100 Duckhook Dr",
    "address_councildis": "A",
    "status": "Pending",
    "rowid": "1148338",
    "final_x": "3667282.3026",
    "final_y": "539245.129738",
    "longitude": "-90.1127049964496",
    "latitude": "29.97716125224992",
    "geocoded_column": {
      "latitude": "29.97716125224992",
      "longitude": "-90.1127049964496"
    }
  },
  {
    "service_request": "2024-1148337",
    "request_type": "Trash/Recycling",
    "request_reason": "Order Second Trash Cart",
    "date_created": "2024-11-13T14:12:51.000",
    "date_modified": "2024-11-13T14:12:52.000",
    "request_status": "Pending",
    "responsible_agency": "Department of Sanitation",
    "final_address": "4718 Perelli Dr",
    "address_councildis": "E",
    "status": "Assigned to Contractor",
    "contractor": "Waste Pro",
    "rowid": "1148337",
    "final_x": "3711645.71864",
    "final_y": "555868.956377",
    "longitude": "-89.97196850270551",
    "latitude": "30.021496376011957",
    "geocoded_column": {
      "latitude": "30.021496376011957",
      "longitude": "-89.97196850270551"
    }
  },
  {
    "service_request": "2024-1148336",
    "request_type": "Trash/Recycling",
    "request_reason": "Request a Large Item Pick Up",
    "date_created": "2024-11-13T14:11:56.000",
    "date_modified": "2024-11-13T14:11:57.000",
    "request_status": "Pending",
    "responsible_agency": "Department of Sanitation",
    "final_address": "4718 Perelli Dr",
    "address_councildis": "E",
    "status": "Assigned to Contractor",
    "contractor": "Waste Pro",
    "rowid": "1148336",
    "final_x": "3711645.71864",
    "final_y": "555868.956377",
    "longitude": "-89.97196850270551",
    "latitude": "30.021496376011957",
    "geocoded_column": {
      "latitude": "30.021496376011957",
      "longitude": "-89.97196850270551"
    }
  },
  {
    "service_request": "2024-1148335",
    "request_type": "Mosquito, Termite & Rodent Control",
    "request_reason": "Mosquito Complaint",
    "date_created": "2024-11-13T14:11:24.000",
    "date_modified": "2024-11-13T14:11:25.000",
    "request_status": "Pending",
    "responsible_agency": "Mosquito, Termite & Rodent Control Board",
    "final_address": "2601 Egania St",
    "address_councildis": "E",
    "status": "Pending",
    "rowid": "1148335",
    "final_x": "3698418.26756",
    "final_y": "539713.661834",
    "longitude": "-90.01435102198471",
    "latitude": "29.977500798929924",
    "geocoded_column": {
      "latitude": "29.977500798929924",
      "longitude": "-90.01435102198471"
    }
  },
  {
    "service_request": "2024-1148334",
    "request_type": "Abandoned Vehicles",
    "request_reason": "Abandoned/Junk Vehicles",
    "date_created": "2024-11-13T14:10:05.000",
    "date_modified": "2024-11-13T14:10:05.000",
    "request_status": "Pending",
    "responsible_agency": "Department of Public Works",
    "final_address": "1300 BLK S Norman C Francis Pkwy",
    "address_councildis": "B",
    "status": "Inspected",
    "rowid": "1148334",
    "final_x": "3669869.82656",
    "final_y": "531835.450881",
    "longitude": "-90.10478364454657",
    "latitude": "29.956711064168662",
    "geocoded_column": {
      "latitude": "29.956711064168662",
      "longitude": "-90.10478364454657"
    }
  },
  {
    "service_request": "2024-1148333",
    "request_type": "Abandoned Vehicles",
    "request_reason": "Abandoned/Junk Vehicles",
    "date_created": "2024-11-13T14:09:27.000",
    "date_modified": "2024-11-13T14:09:29.000",
    "request_status": "Pending",
    "responsible_agency": "Department of Public Works",
    "final_address": "2700 BLK N Claiborne Ave",
    "address_councildis": "D",
    "status": "Pending",
    "rowid": "1148333",
    "final_x": "3688052.36139",
    "final_y": "538252.492836",
    "longitude": "-90.04714175311813",
    "latitude": "29.97380712242144",
    "geocoded_column": {
      "latitude": "29.97380712242144",
      "longitude": "-90.04714175311813"
    }
  },
  {
    "service_request": "2024-1148332",
    "request_type": "Abandoned Vehicles",
    "request_reason": "Abandoned/Junk Vehicles",
    "date_created": "2024-11-13T14:07:34.000",
    "date_modified": "2024-11-13T14:07:35.000",
    "request_status": "Pending",
    "responsible_agency": "Department of Public Works",
    "final_address": "2700 BLK N Johnson St",
    "address_councildis": "D",
    "status": "Pending",
    "rowid": "1148332",
    "final_x": "3688430.60014",
    "final_y": "539733.497748",
    "longitude": "-90.04589464214258",
    "latitude": "29.977867683704876",
    "geocoded_column": {
      "latitude": "29.977867683704876",
      "longitude": "-90.04589464214258"
    }
  },
  {
    "service_request": "2024-1148331",
    "request_type": "Trash/Recycling",
    "request_reason": "Request a Large Item Pick Up",
    "date_created": "2024-11-13T14:04:33.000",
    "date_modified": "2024-11-13T15:15:05.000",
    "case_close_date": "2024-11-13T09:15:05.000",
    "request_status": "Closed",
    "responsible_agency": "Department of Sanitation",
    "final_address": "4646 Chrysler St",
    "address_councildis": "E",
    "status": "Assigned to Contractor",
    "contractor": "Waste Pro",
    "contractor_action": "Completed",
    "rowid": "1148331",
    "final_x": "3715263.57848",
    "final_y": "556434.709018",
    "longitude": "-89.9605157570778",
    "latitude": "30.02293328689707",
    "geocoded_column": {
      "latitude": "30.02293328689707",
      "longitude": "-89.9605157570778"
    }
  },
  {
    "service_request": "2024-1148330",
    "request_type": "Abandoned Vehicles",
    "request_reason": "Abandoned/Junk Vehicles",
    "date_created": "2024-11-13T14:04:04.000",
    "date_modified": "2024-11-13T14:04:06.000",
    "request_status": "Pending",
    "responsible_agency": "Department of Public Works",
    "final_address": "3228 Loyola Ave",
    "address_councildis": "B",
    "status": "Pending",
    "rowid": "1148330",
    "final_x": "3673781.68161",
    "final_y": "523664.575355",
    "longitude": "-90.09271059636703",
    "latitude": "29.93412793679287",
    "geocoded_column": {
      "latitude": "29.93412793679287",
      "longitude": "-90.09271059636703"
    }
  },
  {
    "service_request": "2024-1148329",
    "request_type": "Roads and Streets",
    "request_reason": "Street Subsidence (Sinking)",
    "date_created": "2024-11-13T14:02:07.000",
    "date_modified": "2024-11-13T14:02:08.000",
    "request_status": "Pending",
    "responsible_agency": "Department of Public Works",
    "final_address": "CORAL SEA ST & OBANNON ST",
    "address_councildis": "C",
    "status": "Pending",
    "rowid": "1148329",
    "final_x": "3692265.4",
    "final_y": "529391.38",
    "longitude": "-90.03415340954983",
    "latitude": "29.949311462397365",
    "geocoded_column": {
      "latitude": "29.949311462397365",
      "longitude": "-90.03415340954983"
    }
  },
  {
    "service_request": "2024-1148328",
    "request_type": "Property Maintenance",
    "request_reason": "Property Maintenance",
    "date_created": "2024-11-13T14:00:21.000",
    "date_modified": "2024-11-13T15:53:32.000",
    "case_close_date": "2024-11-13T09:53:32.000",
    "request_status": "Closed",
    "responsible_agency": "Department of Code Enforcement",
    "final_address": "7330 Cohn St",
    "address_councildis": "A",
    "status": "Referred to Code Enforcement",
    "rowid": "1148328",
    "final_x": "528779.900672",
    "final_y": "528779.900672",
    "longitude": "-100.00712011169185",
    "latitude": "29.667484770377595",
    "geocoded_column": {
      "latitude": "29.667484770377595",
      "longitude": "-100.00712011169185"
    }
  },
  {
    "service_request": "2024-1148327",
    "request_type": "Abandoned Vehicles",
    "request_reason": "Abandoned/Junk Vehicles",
    "date_created": "2024-11-13T13:54:34.000",
    "date_modified": "2024-11-13T13:54:34.000",
    "request_status": "Pending",
    "responsible_agency": "Department of Public Works",
    "final_address": "1134 S Genois St",
    "address_councildis": "B",
    "status": "Pending",
    "rowid": "1148327",
    "final_x": "3669520.77812",
    "final_y": "532825.76122",
    "longitude": "-90.10585233156175",
    "latitude": "29.959444376425655",
    "geocoded_column": {
      "latitude": "29.959444376425655",
      "longitude": "-90.10585233156175"
    }
  },
  {
    "service_request": "2024-1148326",
    "request_type": "Trash/Recycling",
    "request_reason": "Repair Recycling Cart",
    "date_created": "2024-11-13T13:52:07.000",
    "date_modified": "2024-11-13T13:52:56.000",
    "request_status": "Pending",
    "responsible_agency": "Department of Sanitation",
    "final_address": "1928 Pine St",
    "address_councildis": "A",
    "status": "Pending",
    "rowid": "1148326",
    "final_x": "3665394.21664",
    "final_y": "529003.529856",
    "longitude": "-90.1190110068281",
    "latitude": "29.94905538987495",
    "geocoded_column": {
      "latitude": "29.94905538987495",
      "longitude": "-90.1190110068281"
    }
  },
  {
    "service_request": "2024-1148325",
    "request_type": "Streetlights",
    "request_reason": "Streetlight Outage/Malfunction",
    "date_created": "2024-11-13T13:50:44.000",
    "date_modified": "2024-11-13T13:50:45.000",
    "request_status": "Pending",
    "responsible_agency": "Department of Public Works",
    "final_address": "2007 N Claiborne Ave",
    "address_councildis": "D",
    "status": "Pending",
    "contractor": "Legacy Professional Services",
    "rowid": "1148325",
    "final_x": "3684160.39324",
    "final_y": "538118.830025",
    "longitude": "-90.05943811704726",
    "latitude": "29.973559146001882",
    "geocoded_column": {
      "latitude": "29.973559146001882",
      "longitude": "-90.05943811704726"
    }
  },
  {
    "service_request": "2024-1148324",
    "request_type": "Streetlights",
    "request_reason": "Streetlight Outage/Malfunction",
    "date_created": "2024-11-13T13:49:28.000",
    "date_modified": "2024-11-13T13:49:48.000",
    "request_status": "Pending",
    "responsible_agency": "Department of Public Works",
    "final_address": "2027 N Claiborne Ave",
    "address_councildis": "D",
    "contractor": "Legacy Professional Services",
    "rowid": "1148324",
    "final_x": "3684383.50773",
    "final_y": "538142.816457",
    "longitude": "-90.05873263273057",
    "latitude": "29.97361827795469",
    "geocoded_column": {
      "latitude": "29.97361827795469",
      "longitude": "-90.05873263273057"
    }
  },
  {
    "service_request": "2024-1148323",
    "request_type": "Trash/Recycling",
    "request_reason": "Request a Large Item Pick Up",
    "date_created": "2024-11-13T13:47:46.000",
    "date_modified": "2024-11-13T13:47:47.000",
    "request_status": "Pending",
    "responsible_agency": "Department of Sanitation",
    "final_address": "5014 Chartres St",
    "address_councildis": "E",
    "status": "Assigned to Contractor",
    "contractor": "Waste Pro",
    "rowid": "1148323",
    "final_x": "3695523.00445",
    "final_y": "532379.846147",
    "longitude": "-90.02375991480062",
    "latitude": "29.957426735752186",
    "geocoded_column": {
      "latitude": "29.957426735752186",
      "longitude": "-90.02375991480062"
    }
  },
  {
    "service_request": "2024-1148322",
    "request_type": "Roads and Streets",
    "request_reason": "Road Shoulder Damage",
    "date_created": "2024-11-13T13:47:40.000",
    "date_modified": "2024-11-13T13:47:40.000",
    "request_status": "Pending",
    "responsible_agency": "Department of Public Works",
    "final_address": "13733 Chef Menteur Hwy",
    "address_councildis": "E",
    "status": "Pending",
    "rowid": "1148322",
    "final_x": "3727514.7175",
    "final_y": "560443.380638",
    "longitude": "-89.92164946180709",
    "latitude": "30.033546212632437",
    "geocoded_column": {
      "latitude": "30.033546212632437",
      "longitude": "-89.92164946180709"
    }
  },
  {
    "service_request": "2024-1148321",
    "request_type": "Abandoned Vehicles",
    "request_reason": "Abandoned/Junk Vehicles",
    "date_created": "2024-11-13T13:47:39.000",
    "date_modified": "2024-11-13T13:47:40.000",
    "request_status": "Pending",
    "responsible_agency": "Department of Public Works",
    "final_address": "9609 Palm St",
    "address_councildis": "A",
    "status": "Pending",
    "rowid": "1148321",
    "final_x": "3663547.40711",
    "final_y": "538546.976457",
    "longitude": "-90.12452432897143",
    "latitude": "29.97535043406002",
    "geocoded_column": {
      "latitude": "29.97535043406002",
      "longitude": "-90.12452432897143"
    }
  },
  {
    "service_request": "2024-1148320",
    "request_type": "Streetlights",
    "request_reason": "New Streetlight Request",
    "date_created": "2024-11-13T13:47:26.000",
    "date_modified": "2024-11-13T13:47:27.000",
    "request_status": "Pending",
    "responsible_agency": "Department of Public Works",
    "final_address": "2025 N Claiborne Ave",
    "address_councildis": "D",
    "status": "Pending",
    "contractor": "Legacy Professional Services",
    "rowid": "1148320",
    "final_x": "3684313.37013",
    "final_y": "538132.737737",
    "longitude": "-90.05895449591031",
    "latitude": "29.973592710056323",
    "geocoded_column": {
      "latitude": "29.973592710056323",
      "longitude": "-90.05895449591031"
    }
  },
  {
    "service_request": "2024-1148319",
    "request_type": "Traffic Signals",
    "request_reason": "Traffic Signal Malfunctioning or Damaged",
    "date_created": "2024-11-13T13:43:26.000",
    "date_modified": "2024-11-13T13:43:27.000",
    "request_status": "Pending",
    "responsible_agency": "Department of Public Works",
    "final_address": "RAY AVE & CHEF MENTEUR HWY",
    "address_councildis": "E",
    "status": "Pending",
    "rowid": "1148319",
    "final_x": "3699018.3",
    "final_y": "551890.28",
    "longitude": "-90.012012455314",
    "latitude": "30.010962993127364",
    "geocoded_column": {
      "latitude": "30.010962993127364",
      "longitude": "-90.012012455314"
    }
  },
  {
    "service_request": "2024-1148318",
    "request_type": "Roads and Streets",
    "request_reason": "Pothole",
    "date_created": "2024-11-13T13:42:58.000",
    "date_modified": "2024-11-13T13:42:58.000",
    "request_status": "Pending",
    "responsible_agency": "Department of Public Works",
    "final_address": "13733 Chef Menteur Hwy",
    "address_councildis": "E",
    "status": "Pending",
    "rowid": "1148318",
    "final_x": "3727514.7175",
    "final_y": "560443.380638",
    "longitude": "-89.92164946180709",
    "latitude": "30.033546212632437",
    "geocoded_column": {
      "latitude": "30.033546212632437",
      "longitude": "-89.92164946180709"
    }
  },
  {
    "service_request": "2024-1148317",
    "request_type": "Abandoned Vehicles",
    "request_reason": "Abandoned/Junk Vehicles",
    "date_created": "2024-11-13T13:39:08.000",
    "date_modified": "2024-11-13T13:40:50.000",
    "request_status": "Pending",
    "responsible_agency": "Department of Public Works",
    "final_address": "7341 Onyx St",
    "address_councildis": "D",
    "status": "Pending",
    "rowid": "1148317",
    "final_x": "3668999.64622",
    "final_y": "555892.057561",
    "longitude": "-90.106718222054",
    "latitude": "30.022884116753144",
    "geocoded_column": {
      "latitude": "30.022884116753144",
      "longitude": "-90.106718222054"
    }
  },
  {
    "service_request": "2024-1148316",
    "request_type": "Streetlights",
    "request_reason": "Streetlight Outage/Malfunction",
    "date_created": "2024-11-13T13:31:21.000",
    "date_modified": "2024-11-13T15:19:08.000",
    "request_status": "Pending",
    "responsible_agency": "Department of Public Works",
    "final_address": "72 Neron Place, New Orleans, LA 70118",
    "address_councildis": "A",
    "status": "Pending",
    "contractor": "Legacy Professional Services",
    "rowid": "1148316",
    "final_x": "3665897.68436",
    "final_y": "529930.817601",
    "longitude": "-90.11739026354586",
    "latitude": "29.951590449771775",
    "geocoded_column": {
      "latitude": "29.951590449771775",
      "longitude": "-90.11739026354586"
    }
  },
  {
    "service_request": "2024-1148315",
    "request_type": "Streetlights",
    "request_reason": "Streetlight Outage/Malfunction",
    "date_created": "2024-11-13T13:28:52.000",
    "date_modified": "2024-11-13T13:32:32.000",
    "request_status": "Pending",
    "responsible_agency": "Department of Public Works",
    "final_address": "33 Neron Place, New Orleans, LA 70118",
    "address_councildis": "A",
    "status": "Pending",
    "contractor": "Legacy Professional Services",
    "rowid": "1148315",
    "final_x": "3665256.63988",
    "final_y": "530666.96653",
    "longitude": "-90.1193897547875",
    "latitude": "29.95363330974564",
    "geocoded_column": {
      "latitude": "29.95363330974564",
      "longitude": "-90.1193897547875"
    }
  },
  {
    "service_request": "2024-1148314",
    "request_type": "Street and Traffic Signs",
    "request_reason": "Street Name Sign Damaged or Missing",
    "date_created": "2024-11-13T13:28:12.000",
    "date_modified": "2024-11-13T13:28:13.000",
    "request_status": "Pending",
    "responsible_agency": "Department of Public Works",
    "final_address": "11338 Will Stutley Dr",
    "address_councildis": "E",
    "status": "Pending",
    "rowid": "1148314",
    "final_x": "3717171.63954",
    "final_y": "558197.050907",
    "longitude": "-89.95441977308279",
    "latitude": "30.027716028613316",
    "geocoded_column": {
      "latitude": "30.027716028613316",
      "longitude": "-89.95441977308279"
    }
  },
  {
    "service_request": "2024-1148313",
    "request_type": "Trash/Recycling",
    "request_reason": "Order Second Trash Cart",
    "date_created": "2024-11-13T13:27:02.000",
    "date_modified": "2024-11-13T13:27:03.000",
    "request_status": "Pending",
    "responsible_agency": "Department of Sanitation",
    "final_address": "6417 Baccich St",
    "address_councildis": "D",
    "status": "Assigned to Contractor",
    "contractor": "IV Waste",
    "rowid": "1148313",
    "final_x": "3687403.78498",
    "final_y": "556979.355162",
    "longitude": "-90.04852693115232",
    "latitude": "30.025319219275104",
    "geocoded_column": {
      "latitude": "30.025319219275104",
      "longitude": "-90.04852693115232"
    }
  },
  {
    "service_request": "2024-1148312",
    "request_type": "Roads and Streets",
    "request_reason": "Pothole",
    "date_created": "2024-11-13T13:22:59.000",
    "date_modified": "2024-11-13T13:23:00.000",
    "request_status": "Pending",
    "responsible_agency": "Department of Public Works",
    "final_address": "CANAL ST & N RENDON ST & S RENDON ST",
    "address_councildis": "B",
    "status": "Pending",
    "rowid": "1148312",
    "final_x": "3673613.9",
    "final_y": "536487.98",
    "longitude": "-90.09280199255224",
    "latitude": "29.969393046876576",
    "geocoded_column": {
      "latitude": "29.969393046876576",
      "longitude": "-90.09280199255224"
    }
  },
  {
    "service_request": "2024-1148311",
    "request_type": "Trash/Recycling",
    "request_reason": "Repair Trash Cart",
    "date_created": "2024-11-13T13:19:47.000",
    "date_modified": "2024-11-13T13:19:48.000",
    "request_status": "Pending",
    "responsible_agency": "Department of Sanitation",
    "final_address": "5918 Berkley Dr",
    "address_councildis": "C",
    "status": "Assigned to Contractor",
    "contractor": "Richards Disposal",
    "rowid": "1148311",
    "final_x": "3705855.3514",
    "final_y": "518159.108854",
    "longitude": "-89.99165951507473",
    "latitude": "29.91799598827496",
    "geocoded_column": {
      "latitude": "29.91799598827496",
      "longitude": "-89.99165951507473"
    }
  },
  {
    "service_request": "2024-1148310",
    "request_type": "Trash/Recycling",
    "request_reason": "Request a Large Item Pick Up",
    "date_created": "2024-11-13T13:17:59.000",
    "date_modified": "2024-11-13T13:18:00.000",
    "request_status": "Pending",
    "responsible_agency": "Department of Sanitation",
    "final_address": "1940 Allen Toussaint Blvd",
    "address_councildis": "D",
    "status": "Assigned to Contractor",
    "contractor": "IV Waste",
    "rowid": "1148310",
    "final_x": "3681791.13186",
    "final_y": "555507.437657",
    "longitude": "-90.06631349269352",
    "latitude": "30.021443836420968",
    "geocoded_column": {
      "latitude": "30.021443836420968",
      "longitude": "-90.06631349269352"
    }
  },
  {
    "service_request": "2024-1148309",
    "request_type": "Trash/Recycling",
    "request_reason": "Request a Large Item Pick Up",
    "date_created": "2024-11-13T13:12:15.000",
    "date_modified": "2024-11-13T13:12:16.000",
    "request_status": "Pending",
    "responsible_agency": "Department of Sanitation",
    "final_address": "4718 Perelli Dr",
    "address_councildis": "E",
    "status": "Assigned to Contractor",
    "contractor": "Waste Pro",
    "rowid": "1148309",
    "final_x": "3711645.71864",
    "final_y": "555868.956377",
    "longitude": "-89.97196850270551",
    "latitude": "30.021496376011957",
    "geocoded_column": {
      "latitude": "30.021496376011957",
      "longitude": "-89.97196850270551"
    }
  },
  {
    "service_request": "2024-1148308",
    "request_type": "Trash/Recycling",
    "request_reason": "Illegal Dumping",
    "date_created": "2024-11-13T13:11:21.000",
    "date_modified": "2024-11-13T13:11:21.000",
    "request_status": "Pending",
    "responsible_agency": "Department of Sanitation",
    "final_address": "9700 BLK Grant St",
    "address_councildis": "E",
    "status": "Pending",
    "rowid": "1148308",
    "final_x": "3711398.93773",
    "final_y": "555051.224003",
    "longitude": "-89.97277893547017",
    "latitude": "30.01925599185213",
    "geocoded_column": {
      "latitude": "30.01925599185213",
      "longitude": "-89.97277893547017"
    }
  },
  {
    "service_request": "2024-1148307",
    "request_type": "Trash/Recycling",
    "request_reason": "Repair Trash Cart",
    "date_created": "2024-11-13T13:10:57.000",
    "date_modified": "2024-11-13T13:10:58.000",
    "request_status": "Pending",
    "responsible_agency": "Department of Sanitation",
    "final_address": "32 Bluebird St",
    "address_councildis": "D",
    "status": "Assigned to Contractor",
    "contractor": "IV Waste",
    "rowid": "1148307",
    "final_x": "3672918.21121",
    "final_y": "554836.443928",
    "longitude": "-90.09437248611624",
    "latitude": "30.019865634317245",
    "geocoded_column": {
      "latitude": "30.019865634317245",
      "longitude": "-90.09437248611624"
    }
  },
  {
    "service_request": "2024-1148306",
    "request_type": "Trash/Recycling",
    "request_reason": "Request a Large Item Pick Up",
    "date_created": "2024-11-13T13:07:54.000",
    "date_modified": "2024-11-13T13:07:55.000",
    "request_status": "Pending",
    "responsible_agency": "Department of Sanitation",
    "final_address": "2435 Burgundy St",
    "address_councildis": "C",
    "status": "Assigned to Contractor",
    "contractor": "IV Waste",
    "rowid": "1148306",
    "final_x": "3686126.95561",
    "final_y": "535697.803463",
    "longitude": "-90.05331272494924",
    "latitude": "29.966841903872748",
    "geocoded_column": {
      "latitude": "29.966841903872748",
      "longitude": "-90.05331272494924"
    }
  },
  {
    "service_request": "2024-1148305",
    "request_type": "Streetlights",
    "request_reason": "Streetlight Outage/Malfunction",
    "date_created": "2024-11-13T13:07:43.000",
    "date_modified": "2024-11-13T13:08:15.000",
    "request_status": "Pending",
    "responsible_agency": "Department of Public Works",
    "final_address": "5647 Tullis Dr",
    "address_councildis": "C",
    "status": "Pending",
    "contractor": "Legacy Professional Services",
    "rowid": "1148305",
    "final_x": "3704945.02993",
    "final_y": "512370.389873",
    "longitude": "-89.99474633318266",
    "latitude": "29.902108272413045",
    "geocoded_column": {
      "latitude": "29.902108272413045",
      "longitude": "-89.99474633318266"
    }
  },