[
  {
    "service_request": "2022-892863",
    "request_type": "Traffic Signals/Signs/Striping/Streetlights",
    "request_reason": "Street Light Outage/Malfunction",
    "date_created": "2022-06-19T00:36:04.000",
    "date_modified": "2022-06-19T00:36:05.000",
    "request_status": "Pending",
    "responsible_agency": "Department of Public Works",
    "final_address": "2616 Constance St",
    "address_councildis": "B",
    "status": "Pending",
    "contractor": "Royal Engineering",
    "rowid": "892863",
    "final_x": "3677667.04565",
    "final_y": "520737.040057",
    "longitude": "-90.08054568372788",
    "latitude": "29.925961926448828",
    "geocoded_column": {
      "latitude": "29.925961926448828",
      "longitude": "-90.08054568372788"
    }
  },
  {
    "service_request": "2022-892861",
    "request_type": "Roads/Drainage",
    "request_reason": "Unpermitted work in ROW",
    "date_created": "2022-06-18T23:19:45.000",
    "date_modified": "2022-06-18T23:19:45.000",
    "request_status": "Pending",
    "responsible_agency": "Department of Public Works",
    "final_address": "1751 Gentilly Blvd",
    "address_councildis": "A",
    "status": "Pending",
    "rowid": "892861",
    "final_x": "3678544.05627",
    "final_y": "541708.166924",
    "longitude": "-90.07705141583963",
    "latitude": "29.98359907466318",
    "geocoded_column": {
      "latitude": "29.98359907466318",
      "longitude": "-90.07705141583963"
    }
  },
  {
    "service_request": "2022-892860",
    "request_type": "Property Maintenance",
    "request_reason": "Property Maintenance",
    "date_created": "2022-06-18T22:55:46.000",
    "date_modified": "2022-06-18T22:55:46.000",
    "request_status": "Pending",
    "responsible_agency": "Department of Code Enforcement",
    "final_address": "8415 Colapissa St",
    "address_councildis": "A",
    "status": "Pending",
    "rowid": "892860",
    "final_x": "3665670.25818",
    "final_y": "534243.449669",
    "longitude": "-90.11796393321049",
    "latitude": "29.963455412332355",
    "geocoded_column": {
      "latitude": "29.963455412332355",
      "longitude": "-90.11796393321049"
    }
  },
  {
    "service_request": "2022-892859",
    "request_type": "Trash/Recycling",
    "request_reason": "Illegal Dumping",
    "date_created": "2022-06-18T22:40:11.000",
    "date_modified": "2022-06-18T22:40:11.000",
    "request_status": "Pending",
    "responsible_agency": "Department of Sanitation",
    "final_address": "7849 Read Blvd Apt 12",
    "address_councildis": "E",
    "status": "Pending",
    "rowid": "892859",
    "final_x": "3708429.38795",
    "final_y": "565267.44797",
    "longitude": "-89.98178086429685",
    "latitude": "30.047443191521047",
    "geocoded_column": {
      "latitude": "30.047443191521047",
      "longitude": "-89.98178086429685"
    }
  },
  {
    "service_request": "2022-892858",
    "request_type": "Trash/Recycling",
    "request_reason": "Missed Trash Pick-Up",
    "date_created": "2022-06-18T22:40:08.000",
    "date_modified": "2022-06-18T22:40:09.000",
    "request_status": "Pending",
    "responsible_agency": "Department of Sanitation",
    "final_address": "8506 Apricot St",
    "address_councildis": "A",
    "status": "Assigned to Contractor",
    "contractor": "Richards Disposal",
    "rowid": "892858",
    "final_x": "3664686.92685",
    "final_y": "533611.932741",
    "longitude": "-90.12109029887758",
    "latitude": "29.961747590287853",
    "geocoded_column": {
      "latitude": "29.961747590287853",
      "longitude": "-90.12109029887758"
    }
  },
  {
    "service_request": "2022-892857",
    "request_type": "Traffic Signals/Signs/Striping/Streetlights",
    "request_reason": "Street Light Outage/Malfunction",
    "date_created": "2022-06-18T21:58:28.000",
    "date_modified": "2022-06-18T21:58:29.000",
    "request_status": "Pending",
    "responsible_agency": "Department of Public Works",
    "final_address": "5564 Woodlawn Pl",
    "address_councildis": "A",
    "status": "Pending",
    "contractor": "Royal Engineering",
    "rowid": "892857",
    "final_x": "3667384.57901",
    "final_y": "544336.210831",
    "longitude": "-90.11221061582651",
    "latitude": "29.99115700415472",
    "geocoded_column": {
      "latitude": "29.99115700415472",
      "longitude": "-90.11221061582651"
    }
  },
  {
    "service_request": "2022-892856",
    "request_type": "Property Maintenance",
    "request_reason": "Property Maintenance",
    "date_created": "2022-06-18T21:52:08.000",
    "date_modified": "2022-06-18T21:52:08.000",
    "request_status": "Pending",
    "responsible_agency": "Department of Code Enforcement",
    "final_address": "1929 N Rampart St",
    "address_councildis": "C",
    "status": "Pending",
    "rowid": "892856",
    "final_x": "3684125.25013",
    "final_y": "535903.872775",
    "longitude": "-90.05962686541663",
    "latitude": "29.967469856719422",
    "geocoded_column": {
      "latitude": "29.967469856719422",
      "longitude": "-90.05962686541663"
    }
  },
  {
    "service_request": "2022-892855",
    "request_type": "Traffic Signals/Signs/Striping/Streetlights",
    "request_reason": "Street Light Outage/Malfunction",
    "date_created": "2022-06-18T21:51:10.000",
    "date_modified": "2022-06-18T21:51:11.000",
    "request_status": "Pending",
    "responsible_agency": "Department of Public Works",
    "status": "Pending",
    "contractor": "Royal Engineering",
    "rowid": "892855",
    "longitude": "0.0",
    "latitude": "0.0",
    "geocoded_column": {
      "latitude": "0.0",
      "longitude": "0.0"
    }
  },
  {
    "service_request": "2022-892854",
    "request_type": "Abandoned Vehicles",
    "request_reason": "Abandoned/Junk Vehicles",
    "date_created": "2022-06-18T21:47:00.000",
    "date_modified": "2022-06-18T21:47:00.000",
    "request_status": "Pending",
    "responsible_agency": "Department of Public Works",
    "final_address": "4027 Tchoupitoulas St",
    "address_councildis": "B",
    "status": "Pending",
    "rowid": "892854",
    "final_x": "3672429.29422",
    "final_y": "517626.287798",
    "longitude": "-90.09718569391603",
    "latitude": "29.917564774854082",
    "geocoded_column": {
      "latitude": "29.917564774854082",
      "longitude": "-90.09718569391603"
    }
  },
  {
    "service_request": "2022-892853",
    "request_type": "Trash/Recycling",
    "request_reason": "Request a Large Item Pick Up",
    "date_created": "2022-06-18T21:19:47.000",
    "date_modified": "2022-06-18T21:19:48.000",
    "request_status": "Pending",
    "responsible_agency": "Department of Sanitation",
    "status": "Assigned to Contractor",
    "rowid": "892853",
    "longitude": "0.0",
    "latitude": "0.0",
    "geocoded_column": {
      "latitude": "0.0",
      "longitude": "0.0"
    }
  },
  {
    "service_request": "2022-892852",
    "request_type": "Trash/Recycling",
    "request_reason": "Request a Large Item Pick Up",
    "date_created": "2022-06-18T21:17:14.000",
    "date_modified": "2022-06-18T21:17:14.000",
    "request_status": "Pending",
    "responsible_agency": "Department of Sanitation",
    "final_address": "5345 Magazine St",
    "address_councildis": "B",
    "status": "Assigned to Contractor",
    "contractor": "Richards Disposal",
    "rowid": "892852",
    "final_x": "3667076.10183",
    "final_y": "518806.167543",
    "longitude": "-90.11404315699265",
    "latitude": "29.920966784996402",
    "geocoded_column": {
      "latitude": "29.920966784996402",
      "longitude": "-90.11404315699265"
    }
  },
  {
    "service_request": "2022-892851",
    "request_type": "Traffic Signals/Signs/Striping/Streetlights",
    "request_reason": "Street Light Outage/Malfunction",
    "date_created": "2022-06-18T21:05:57.000",
    "date_modified": "2022-06-18T21:05:57.000",
    "request_status": "Pending",
    "responsible_agency": "Department of Public Works",
    "final_address": "3212 Royal St",
    "address_councildis": "C",
    "status": "Pending",
    "contractor": "Royal Engineering",
    "rowid": "892851",
    "final_x": "3689307.77737",
    "final_y": "534301.198085",
    "longitude": "-90.04331737843266",
    "latitude": "29.96290363995088",
    "geocoded_column": {
      "latitude": "29.96290363995088",
      "longitude": "-90.04331737843266"
    }
  },
  {
    "service_request": "2022-892850",
    "request_type": "Traffic Signals/Signs/Striping/Streetlights",
    "request_reason": "Traffic Signal Malfunctioning/Damaged",
    "date_created": "2022-06-18T21:00:33.000",
    "date_modified": "2022-06-18T21:00:33.000",
    "request_status": "Pending",
    "responsible_agency": "Department of Public Works",
    "final_address": "1315 S Norman C Francis Prkwy",
    "address_councildis": "B",
    "status": "Pending",
    "rowid": "892850",
    "final_x": "3669612.87777",
    "final_y": "532113.351107",
    "longitude": "-90.10558560603071",
    "latitude": "29.95748277082436",
    "geocoded_column": {
      "latitude": "29.95748277082436",
      "longitude": "-90.10558560603071"
    }
  },
  {
    "service_request": "2022-892849",
    "request_type": "Trash/Recycling",
    "request_reason": "Request a Large Item Pick Up",
    "date_created": "2022-06-18T20:57:19.000",
    "date_modified": "2022-06-18T20:57:19.000",
    "request_status": "Pending",
    "responsible_agency": "Department of Sanitation",
    "final_address": "2721 Iberville St",
    "address_councildis": "B",
    "status": "Assigned to Contractor",
    "contractor": "Richards Disposal",
    "rowid": "892849",
    "final_x": "3675454.00424",
    "final_y": "535637.98183",
    "longitude": "-90.08701998754711",
    "latitude": "29.967000933914807",
    "geocoded_column": {
      "latitude": "29.967000933914807",
      "longitude": "-90.08701998754711"
    }
  },
  {
    "service_request": "2022-892848",
    "request_type": "Traffic Signals/Signs/Striping/Streetlights",
    "request_reason": "Street Light Outage/Malfunction",
    "date_created": "2022-06-18T20:56:36.000",
    "date_modified": "2022-06-18T20:56:37.000",
    "request_status": "Pending",
    "responsible_agency": "Department of Public Works",
    "final_address": "6854 General Haig St",
    "address_councildis": "A",
    "status": "Pending",
    "contractor": "Royal Engineering",
    "rowid": "892848",
    "final_x": "3670957.52987",
    "final_y": "552940.598935",
    "longitude": "-90.1006320666859",
    "latitude": "30.01471088208776",
    "geocoded_column": {
      "latitude": "30.01471088208776",
      "longitude": "-90.1006320666859"
    }
  },
  {
    "service_request": "2022-892847",
    "request_type": "Trash/Recycling",
    "request_reason": "Request a Large Item Pick Up",
    "date_created": "2022-06-18T20:46:58.000",
    "date_modified": "2022-06-18T20:46:59.000",
    "request_status": "Pending",
    "responsible_agency": "Department of Sanitation",
    "final_address": "1026 N Carrollton Ave",
    "address_councildis": "A",
    "status": "Assigned to Contractor",
    "contractor": "Richards Disposal",
    "rowid": "892847",
    "final_x": "3673855.56008",
    "final_y": "541172.687756",
    "longitude": "-90.09187851727378",
    "latitude": "29.982267200896455",
    "geocoded_column": {
      "latitude": "29.982267200896455",
      "longitude": "-90.09187851727378"
    }
  },
  {
    "service_request": "2022-892846",
    "request_type": "Property Maintenance",
    "request_reason": "Property Maintenance",
    "date_created": "2022-06-18T20:35:52.000",
    "date_modified": "2022-06-18T20:35:52.000",
    "request_status": "Pending",
    "responsible_agency": "Department of Code Enforcement",
    "final_address": "2542 Mistletoe St",
    "address_councildis": "A",
    "status": "Pending",
    "rowid": "892846",
    "final_x": "3662437.36647",
    "final_y": "534717.008838",
    "longitude": "-90.12815737716123",
    "latitude": "29.96485143691225",
    "geocoded_column": {
      "latitude": "29.96485143691225",
      "longitude": "-90.12815737716123"
    }
  },
  {
    "service_request": "2022-892845",
    "request_type": "Trash/Recycling",
    "request_reason": "Missed Trash Pick-Up",
    "date_created": "2022-06-18T19:47:03.000",
    "date_modified": "2022-06-18T19:47:04.000",
    "request_status": "Pending",
    "responsible_agency": "Department of Sanitation",
    "final_address": "2222 Cambronne St",
    "address_councildis": "A",
    "status": "Assigned to Contractor",
    "contractor": "Richards Disposal",
    "rowid": "892845",
    "final_x": "3663646.12467",
    "final_y": "531890.178051",
    "longitude": "-90.12443436090143",
    "latitude": "29.95704356214727",
    "geocoded_column": {
      "latitude": "29.95704356214727",
      "longitude": "-90.12443436090143"
    }
  },
  {
    "service_request": "2022-892844",
    "request_type": "Abandoned Vehicles",
    "request_reason": "Abandoned/Junk Vehicles",
    "date_created": "2022-06-18T19:25:02.000",
    "date_modified": "2022-06-18T19:25:02.000",
    "request_status": "Pending",
    "responsible_agency": "Department of Public Works",
    "final_address": "90 Fontainebleau Dr",
    "address_councildis": "A",
    "status": "Pending",
    "rowid": "892844",
    "final_x": "3667044.72845",
    "final_y": "530566.716546",
    "longitude": "-90.1137470690836",
    "latitude": "29.953305445184142",
    "geocoded_column": {
      "latitude": "29.953305445184142",
      "longitude": "-90.1137470690836"
    }
  },
  {
    "service_request": "2022-892843",
    "request_type": "Trash/Recycling",
    "request_reason": "Illegal Dumping",
    "date_created": "2022-06-18T19:14:20.000",
    "date_modified": "2022-06-18T19:14:20.000",
    "request_status": "Pending",
    "responsible_agency": "Department of Sanitation",
    "final_address": "7849 Read Blvd Apt 12",
    "address_councildis": "E",
    "status": "Pending",
    "rowid": "892843",
    "final_x": "3708429.38795",
    "final_y": "565267.44797",
    "longitude": "-89.98178086429685",
    "latitude": "30.047443191521047",
    "geocoded_column": {
      "latitude": "30.047443191521047",
      "longitude": "-89.98178086429685"
    }
  },
  {
    "service_request": "2022-892841",
    "request_type": "Safety & Permits",
    "request_reason": "Short term Rental (Enforcement)",
    "date_created": "2022-06-18T18:46:41.000",
    "date_modified": "2022-06-18T18:46:41.000",
    "request_status": "Pending",
    "responsible_agency": "Safety and Permits",
    "final_address": "3625 Napoleon Ave",
    "address_councildis": "B",
    "status": "Pending",
    "rowid": "892841",
    "final_x": "3670233.44257",
    "final_y": "528023.318143",
    "longitude": "-90.1037646300207",
    "latitude": "29.94621822555074",
    "geocoded_column": {
      "latitude": "29.94621822555074",
      "longitude": "-90.1037646300207"
    }
  },
  {
    "service_request": "2022-892840",
    "request_type": "Health Related Questions",
    "request_reason": "Noise Ordinance Complaint",
    "date_created": "2022-06-18T18:40:26.000",
    "date_modified": "2022-06-18T18:40:26.000",
    "request_status": "Pending",
    "responsible_agency": "Health Department",
    "final_address": "2108 Third St",
    "address_councildis": "B",
    "status": "Pending",
    "rowid": "892840",
    "final_x": "3675385.15675",
    "final_y": "524412.670844",
    "longitude": "-90.08762280179653",
    "latitude": "29.93613712044748",
    "geocoded_column": {
      "latitude": "29.93613712044748",
      "longitude": "-90.08762280179653"
    }
  },
  {
    "service_request": "2022-892839",
    "request_type": "Roads/Drainage",
    "request_reason": "Street Subsidence (Sinking)",
    "date_created": "2022-06-18T18:14:06.000",
    "date_modified": "2022-06-18T18:14:06.000",
    "request_status": "Pending",
    "responsible_agency": "Department of Public Works",
    "final_address": "7833 Belfast St",
    "address_councildis": "A",
    "status": "Pending",
    "rowid": "892839",
    "final_x": "3666249.8178",
    "final_y": "531820.286467",
    "longitude": "-90.11621502059326",
    "latitude": "29.956775593498833",
    "geocoded_column": {
      "latitude": "29.956775593498833",
      "longitude": "-90.11621502059326"
    }
  },
  {
    "service_request": "2022-892838",
    "request_type": "Trash/Recycling",
    "request_reason": "Missed Trash Pick-Up",
    "date_created": "2022-06-18T18:06:07.000",
    "date_modified": "2022-06-18T18:06:08.000",
    "request_status": "Pending",
    "responsible_agency": "Department of Sanitation",
    "final_address": "4117 DHemecourt St",
    "address_councildis": "A",
    "status": "Assigned to Contractor",
    "contractor": "Richards Disposal",
    "rowid": "892838",
    "final_x": "3669636.781",
    "final_y": "537006.086536",
    "longitude": "-90.10534455195035",
    "latitude": "29.970935461289777",
    "geocoded_column": {
      "latitude": "29.970935461289777",
      "longitude": "-90.10534455195035"
    }
  },
  {
    "service_request": "2022-892837",
    "request_type": "Trash/Recycling",
    "request_reason": "Repair Recycling Cart",
    "date_created": "2022-06-18T17:31:03.000",
    "date_modified": "2022-06-18T17:31:03.000",
    "request_status": "Pending",
    "responsible_agency": "Department of Sanitation",
    "final_address": "1318 Eagle St",
    "address_councildis": "A",
    "status": "Pending",
    "rowid": "892837",
    "final_x": "3660441.69088",
    "final_y": "530454.408706",
    "longitude": "-90.13460045198981",
    "latitude": "29.953188229668417",
    "geocoded_column": {
      "latitude": "29.953188229668417",
      "longitude": "-90.13460045198981"
    }
  },
  {
    "service_request": "2022-892835",
    "request_type": "Trash/Recycling",
    "request_reason": "Missed Trash Pick-Up",
    "date_created": "2022-06-18T17:18:30.000",
    "date_modified": "2022-06-18T17:18:30.000",
    "request_status": "Pending",
    "responsible_agency": "Department of Sanitation",
    "final_address": "3017 Toledano St",
    "address_councildis": "B",
    "status": "Assigned to Contractor",
    "contractor": "Richards Disposal",
    "rowid": "892835",
    "final_x": "3672513.95227",
    "final_y": "526960.45779",
    "longitude": "-90.09660047666142",
    "latitude": "29.94322822219608",
    "geocoded_column": {
      "latitude": "29.94322822219608",
      "longitude": "-90.09660047666142"
    }
  },
  {
    "service_request": "2022-892834",
    "request_type": "Abandoned Vehicles",
    "request_reason": "Abandoned/Junk Vehicles",
    "date_created": "2022-06-18T17:17:52.000",
    "date_modified": "2022-06-18T17:17:52.000",
    "request_status": "Pending",
    "responsible_agency": "Department of Public Works",
    "final_address": "6974 General Haig St",
    "address_councildis": "A",
    "status": "Pending",
    "rowid": "892834",
    "final_x": "3671030.55303",
    "final_y": "553710.649495",
    "longitude": "-90.10037516870632",
    "latitude": "30.016826087434985",
    "geocoded_column": {
      "latitude": "30.016826087434985",
      "longitude": "-90.10037516870632"
    }
  },
  {
    "service_request": "2022-892833",
    "request_type": "Abandoned Vehicles",
    "request_reason": "Abandoned/Junk Vehicles",
    "date_created": "2022-06-18T17:03:37.000",
    "date_modified": "2022-06-18T17:03:37.000",
    "request_status": "Pending",
    "responsible_agency": "Department of Public Works",
    "final_address": "6979 Argonne Blvd",
    "address_councildis": "A",
    "status": "Pending",
    "rowid": "892833",
    "final_x": "3670831.17435",
    "final_y": "553776.279319",
    "longitude": "-90.10100289335857",
    "latitude": "30.017012443624704",
    "geocoded_column": {
      "latitude": "30.017012443624704",
      "longitude": "-90.10100289335857"
    }
  },
  {
    "service_request": "2022-892832",
    "request_type": "Trash/Recycling",
    "request_reason": "Missed Trash Pick-Up",
    "date_created": "2022-06-18T16:46:22.000",
    "date_modified": "2022-06-18T16:46:23.000",
    "request_status": "Pending",
    "responsible_agency": "Department of Sanitation",
    "final_address": "7500 Oak St",
    "address_councildis": "A",
    "status": "Assigned to Contractor",
    "contractor": "Richards Disposal",
    "rowid": "892832",
    "final_x": "3663490.46759",
    "final_y": "526942.982014",
    "longitude": "-90.12509060469823",
    "latitude": "29.943444882488304",
    "geocoded_column": {
      "latitude": "29.943444882488304",
      "longitude": "-90.12509060469823"
    }
  },
  {
    "service_request": "2022-892831",
    "request_type": "Trash/Recycling",
    "request_reason": "Missed Trash Pick-Up",
    "date_created": "2022-06-18T16:43:53.000",
    "date_modified": "2022-06-18T16:43:53.000",
    "request_status": "Pending",
    "responsible_agency": "Department of Sanitation",
    "final_address": "8237 Apricot St",
    "address_councildis": "A",
    "status": "Assigned to Contractor",
    "contractor": "Richards Disposal",
    "rowid": "892831",
    "final_x": "3665372.41389",
    "final_y": "533087.166724",
    "longitude": "-90.11894319578644",
    "latitude": "29.960284697163896",
    "geocoded_column": {
      "latitude": "29.960284697163896",
      "longitude": "-90.11894319578644"
    }
  },
  {
    "service_request": "2022-892830",
    "request_type": "Roads/Drainage",
    "request_reason": "Pothole",
    "date_created": "2022-06-18T16:43:19.000",
    "date_modified": "2022-06-18T16:43:20.000",
    "request_status": "Pending",
    "responsible_agency": "Department of Public Works",
    "final_address": "1400 Governor Nicholls St",
    "address_councildis": "C",
    "status": "Pending",
    "rowid": "892830",
    "final_x": "3681649.47573",
    "final_y": "535486.706694",
    "longitude": "-90.06745995603487",
    "latitude": "29.96639823303778",
    "geocoded_column": {
      "latitude": "29.96639823303778",
      "longitude": "-90.06745995603487"
    }
  },
  {
    "service_request": "2022-892829",
    "request_type": "Trash/Recycling",
    "request_reason": "Missed Trash Pick-Up",
    "date_created": "2022-06-18T16:36:11.000",
    "date_modified": "2022-06-18T16:36:12.000",
    "request_status": "Pending",
    "responsible_agency": "Department of Sanitation",
    "final_address": "4515 DHemecourt St",
    "address_councildis": "A",
    "status": "Assigned to Contractor",
    "contractor": "Richards Disposal",
    "rowid": "892829",
    "final_x": "3668435.2059",
    "final_y": "537952.265609",
    "longitude": "-90.10910736697687",
    "latitude": "29.97357249007739",
    "geocoded_column": {
      "latitude": "29.97357249007739",
      "longitude": "-90.10910736697687"
    }
  },
  {
    "service_request": "2022-892828",
    "request_type": "Trash/Recycling",
    "request_reason": "Missed Trash Pick-Up",
    "date_created": "2022-06-18T16:25:43.000",
    "date_modified": "2022-06-18T16:25:44.000",
    "request_status": "Pending",
    "responsible_agency": "Department of Sanitation",
    "final_address": "1720 Leonidas St",
    "address_councildis": "A",
    "status": "Assigned to Contractor",
    "contractor": "Richards Disposal",
    "rowid": "892828",
    "final_x": "3661932.77786",
    "final_y": "531036.613826",
    "longitude": "-90.12987291305701",
    "latitude": "29.954746129221363",
    "geocoded_column": {
      "latitude": "29.954746129221363",
      "longitude": "-90.12987291305701"
    }
  },
  {
    "service_request": "2022-892827",
    "request_type": "Trash/Recycling",
    "request_reason": "Missed Trash Pick-Up",
    "date_created": "2022-06-18T16:21:47.000",
    "date_modified": "2022-06-18T16:21:48.000",
    "request_status": "Pending",
    "responsible_agency": "Department of Sanitation",
    "final_address": "2419 Felicity St",
    "address_councildis": "B",
    "status": "Assigned to Contractor",
    "contractor": "Richards Disposal",
    "rowid": "892827",
    "final_x": "3676056.51272",
    "final_y": "527053.573054",
    "longitude": "-90.08541250890924",
    "latitude": "29.943378647534466",
    "geocoded_column": {
      "latitude": "29.943378647534466",
      "longitude": "-90.08541250890924"
    }
  },
  {
    "service_request": "2022-892826",
    "request_type": "Traffic Signals/Signs/Striping/Streetlights",
    "request_reason": "Traffic Sign Missing/Damaged",
    "date_created": "2022-06-18T16:18:28.000",
    "date_modified": "2022-06-18T16:18:28.000",
    "request_status": "Pending",
    "responsible_agency": "Department of Public Works",
    "final_address": "7849 Read Blvd Apt 12",
    "address_councildis": "E",
    "status": "Pending",
    "rowid": "892826",
    "final_x": "3708429.38795",
    "final_y": "565267.44797",
    "longitude": "-89.98178086429685",
    "latitude": "30.047443191521047",
    "geocoded_column": {
      "latitude": "30.047443191521047",
      "longitude": "-89.98178086429685"
    }
  },
  {
    "service_request": "2022-892823",
    "request_type": "Trash/Recycling",
    "request_reason": "Missed Trash Pick-Up",
    "date_created": "2022-06-18T15:55:39.000",
    "date_modified": "2022-06-18T15:55:40.000",
    "request_status": "Pending",
    "responsible_agency": "Department of Sanitation",
    "final_address": "3419 Cherry St",
    "address_councildis": "A",
    "status": "Assigned to Contractor",
    "contractor": "Richards Disposal",
    "rowid": "892823",
    "final_x": "3664254.88045",
    "final_y": "537114.446216",
    "longitude": "-90.12233774429816",
    "latitude": "29.9713909103089",
    "geocoded_column": {
      "latitude": "29.9713909103089",
      "longitude": "-90.12233774429816"
    }
  },
  {
    "service_request": "2022-892822",
    "request_type": "Trash/Recycling",
    "request_reason": "Request a Large Item Pick Up",
    "date_created": "2022-06-18T15:54:14.000",
    "date_modified": "2022-06-18T15:54:15.000",
    "request_status": "Pending",
    "responsible_agency": "Department of Sanitation",
    "final_address": "728 Pelican Ave",
    "address_councildis": "C",
    "status": "Assigned to Contractor",
    "contractor": "Richards Disposal",
    "rowid": "892822",
    "final_x": "3687813.27004",
    "final_y": "530820.26797",
    "longitude": "-90.04816012221066",
    "latitude": "29.953378464407095",
    "geocoded_column": {
      "latitude": "29.953378464407095",
      "longitude": "-90.04816012221066"
    }
  },
  {
    "service_request": "2022-892821",
    "request_type": "Safety & Permits",
    "request_reason": "Licenses & Permits",
    "date_created": "2022-06-18T15:53:28.000",
    "date_modified": "2022-06-18T15:53:28.000",
    "request_status": "Pending",
    "responsible_agency": "Safety and Permits",
    "status": "Pending",
    "rowid": "892821",
    "longitude": "0.0",
    "latitude": "0.0",
    "geocoded_column": {
      "latitude": "0.0",
      "longitude": "0.0"
    }
  },
  {
    "service_request": "2022-892820",
    "request_type": "Roads/Drainage",
    "request_reason": "Street Subsidence (Sinking)",
    "date_created": "2022-06-18T15:51:29.000",
    "date_modified": "2022-06-18T15:51:29.000",
    "request_status": "Pending",
    "responsible_agency": "Department of Public Works",
    "final_address": "2657 Republic St",
    "address_councildis": "D",
    "status": "Pending",
    "rowid": "892820",
    "final_x": "3680762.91951",
    "final_y": "542157.350349",
    "longitude": "-90.07002743240723",
    "latitude": "29.98476709384341",
    "geocoded_column": {
      "latitude": "29.98476709384341",
      "longitude": "-90.07002743240723"
    }
  },
  {
    "service_request": "2022-892819",
    "request_type": "Trash/Recycling",
    "request_reason": "Replace Trash Cart",
    "date_created": "2022-06-18T15:50:58.000",
    "date_modified": "2022-06-18T15:50:59.000",
    "request_status": "Pending",
    "responsible_agency": "Department of Sanitation",
    "final_address": "1933 S Lopez St",
    "address_councildis": "B",
    "status": "Assigned to Contractor",
    "contractor": "Richards Disposal",
    "rowid": "892819",
    "final_x": "3669419.78522",
    "final_y": "529861.322177",
    "longitude": "-90.1062714898602",
    "latitude": "29.951296119031667",
    "geocoded_column": {
      "latitude": "29.951296119031667",
      "longitude": "-90.1062714898602"
    }
  },
  {
    "service_request": "2022-892818",
    "request_type": "Abandoned Vehicles",
    "request_reason": "Abandoned/Junk Vehicles",
    "date_created": "2022-06-18T15:46:23.000",
    "date_modified": "2022-06-18T15:46:23.000",
    "request_status": "Pending",
    "responsible_agency": "Department of Public Works",
    "final_address": "2643 Republic St",
    "address_councildis": "D",
    "status": "Pending",
    "rowid": "892818",
    "final_x": "3680784.23074",
    "final_y": "542022.267148",
    "longitude": "-90.0699648238289",
    "latitude": "29.984395016244164",
    "geocoded_column": {
      "latitude": "29.984395016244164",
      "longitude": "-90.0699648238289"
    }
  },
  {
    "service_request": "2022-892817",
    "request_type": "Trash/Recycling",
    "request_reason": "Request a Large Item Pick Up",
    "date_created": "2022-06-18T15:26:28.000",
    "date_modified": "2022-06-18T15:26:28.000",
    "request_status": "Pending",
    "responsible_agency": "Department of Sanitation",
    "final_address": "55 W Park Pl",
    "address_councildis": "A",
    "status": "Assigned to Contractor",
    "contractor": "Metro Disposal",
    "rowid": "892817",
    "final_x": "3669820.93767",
    "final_y": "544684.964239",
    "longitude": "-90.10450288660543",
    "latitude": "29.99204433841006",
    "geocoded_column": {
      "latitude": "29.99204433841006",
      "longitude": "-90.10450288660543"
    }
  },
  {
    "service_request": "2022-892816",
    "request_type": "Trash/Recycling",
    "request_reason": "Missed Trash Pick-Up",
    "date_created": "2022-06-18T15:25:09.000",
    "date_modified": "2022-06-18T15:25:09.000",
    "request_status": "Pending",
    "responsible_agency": "Department of Sanitation",
    "final_address": "5937 Annunciation St",
    "address_councildis": "A",
    "status": "Assigned to Contractor",
    "contractor": "Richards Disposal",
    "rowid": "892816",
    "final_x": "3664643.13978",
    "final_y": "517874.226422",
    "longitude": "-90.12175405602147",
    "latitude": "29.918475200536463",
    "geocoded_column": {
      "latitude": "29.918475200536463",
      "longitude": "-90.12175405602147"
    }
  },
  {
    "service_request": "2022-892815",
    "request_type": "Trash/Recycling",
    "request_reason": "Missed Trash Pick-Up",
    "date_created": "2022-06-18T15:23:25.000",
    "date_modified": "2022-06-18T15:23:26.000",
    "request_status": "Pending",
    "responsible_agency": "Department of Sanitation",
    "final_address": "5937 Annunciation St, New Orleans, Louisiana, 70115",
    "address_councildis": "A",
    "status": "Assigned to Contractor",
    "contractor": "Richards Disposal",
    "rowid": "892815",
    "final_x": "3664643.13978",
    "final_y": "517874.226422",
    "longitude": "-90.12175405602147",
    "latitude": "29.918475200536463",
    "geocoded_column": {
      "latitude": "29.918475200536463",
      "longitude": "-90.12175405602147"
    }
  },
  {
    "service_request": "2022-892814",
    "request_type": "Trash/Recycling",
    "request_reason": "Missed Trash Pick-Up",
    "date_created": "2022-06-18T15:21:24.000",
    "date_modified": "2022-06-18T15:21:25.000",
    "request_status": "Pending",
    "responsible_agency": "Department of Sanitation",
    "final_address": "4322 DHemecourt St",
    "address_councildis": "A",
    "status": "Assigned to Contractor",
    "contractor": "Richards Disposal",
    "rowid": "892814",
    "final_x": "3668887.61082",
    "final_y": "537473.951112",
    "longitude": "-90.10769473015509",
    "latitude": "29.97224398735593",
    "geocoded_column": {
      "latitude": "29.97224398735593",
      "longitude": "-90.10769473015509"
    }
  },
  {
    "service_request": "2022-892813",
    "request_type": "Property Maintenance",
    "request_reason": "Property Maintenance",
    "date_created": "2022-06-18T15:19:57.000",
    "date_modified": "2022-06-18T15:19:57.000",
    "request_status": "Pending",
    "responsible_agency": "Department of Code Enforcement",
    "final_address": "615 First St",
    "address_councildis": "B",
    "status": "Pending",
    "rowid": "892813",
    "final_x": "3679033.78421",
    "final_y": "520107.20172",
    "longitude": "-90.07625310442131",
    "latitude": "29.924188916971833",
    "geocoded_column": {
      "latitude": "29.924188916971833",
      "longitude": "-90.07625310442131"
    }
  },
  {
    "service_request": "2022-892812",
    "request_type": "Roads/Drainage",
    "request_reason": "Pothole",
    "date_created": "2022-06-18T15:17:07.000",
    "date_modified": "2022-06-18T15:17:07.000",
    "request_status": "Pending",
    "responsible_agency": "Department of Public Works",
    "final_address": "1809 S Carrollton Ave",
    "address_councildis": "A",
    "status": "Pending",
    "rowid": "892812",
    "final_x": "3663576.98029",
    "final_y": "529889.152705",
    "longitude": "-90.1247193461916",
    "latitude": "29.951543396388498",
    "geocoded_column": {
      "latitude": "29.951543396388498",
      "longitude": "-90.1247193461916"
    }
  },
  {
    "service_request": "2022-892811",
    "request_type": "Trash/Recycling",
    "request_reason": "Missed Trash Pick-Up",
    "date_created": "2022-06-18T15:15:08.000",
    "date_modified": "2022-06-18T15:15:13.000",
    "request_status": "Pending",
    "responsible_agency": "Department of Sanitation",
    "final_address": "4818 Hickerson Dr",
    "address_councildis": "E",
    "status": "Assigned to Contractor",
    "contractor": "Metro Disposal",
    "rowid": "892811",
    "final_x": "3710169.28376",
    "final_y": "556345.401882",
    "longitude": "-89.97661576736847",
    "latitude": "30.022854564377486",
    "geocoded_column": {
      "latitude": "30.022854564377486",
      "longitude": "-89.97661576736847"
    }
  },
  {
    "service_request": "2022-892810",
    "request_type": "Property Maintenance",
    "request_reason": "Property Maintenance",
    "date_created": "2022-06-18T15:09:37.000",
    "date_modified": "2022-06-18T15:09:38.000",
    "request_status": "Pending",
    "responsible_agency": "Department of Code Enforcement",
    "final_address": "4717 Marais St",
    "address_councildis": "E",
    "status": "Pending",
    "rowid": "892810",
    "final_x": "3694906.83523",
    "final_y": "534992.568518",
    "longitude": "-90.02561142604404",
    "latitude": "29.964630150089683",
    "geocoded_column": {
      "latitude": "29.964630150089683",
      "longitude": "-90.02561142604404"
    }
  },
  {
    "service_request": "2022-892809",
    "request_type": "Property Maintenance",
    "request_reason": "Property Maintenance",
    "date_created": "2022-06-18T15:07:06.000",
    "date_modified": "2022-06-18T15:07:06.000",
    "request_status": "Pending",
    "responsible_agency": "Department of Code Enforcement",
    "final_address": "ST CLAUDE AVE & SISTER ST",
    "address_councildis": "E",
    "status": "Pending",
    "rowid": "892809",
    "final_x": "3694685.2",
    "final_y": "534672.08",
    "longitude": "-90.02632287535035",
    "latitude": "29.963755873326953",
    "geocoded_column": {
      "latitude": "29.963755873326953",
      "longitude": "-90.02632287535035"
    }
  },
  {
    "service_request": "2022-892808",
    "request_type": "Trash/Recycling",
    "request_reason": "Repair Trash Cart",
    "date_created": "2022-06-18T15:05:05.000",
    "date_modified": "2022-06-18T15:05:05.000",
    "request_status": "Pending",
    "responsible_agency": "Department of Sanitation",
    "final_address": "200 Cambridge Ct",
    "address_councildis": "C",
    "status": "Assigned to Contractor",
    "contractor": "Richards Disposal",
    "rowid": "892808",
    "final_x": "3706095.78468",
    "final_y": "518478.46559",
    "longitude": "-89.99088879500238",
    "latitude": "29.918866365392",
    "geocoded_column": {
      "latitude": "29.918866365392",
      "longitude": "-89.99088879500238"
    }
  },
  {
    "service_request": "2022-892807",
    "request_type": "Abandoned Vehicles",
    "request_reason": "Abandoned/Junk Vehicles",
    "date_created": "2022-06-18T15:04:09.000",
    "date_modified": "2022-06-18T15:04:09.000",
    "request_status": "Pending",
    "responsible_agency": "Department of Public Works",
    "final_address": "2515 N Tonti St, New Orleans, Louisiana, 70117",
    "address_councildis": "D",
    "status": "Pending",
    "rowid": "892807",
    "final_x": "3686623.58959",
    "final_y": "540915.550667",
    "longitude": "-90.05156003500154",
    "latitude": "29.981173614943682",
    "geocoded_column": {
      "latitude": "29.981173614943682",
      "longitude": "-90.05156003500154"
    }
  },
  {
    "service_request": "2022-892806",
    "request_type": "Abandoned Vehicles",
    "request_reason": "Abandoned/Junk Vehicles",
    "date_created": "2022-06-18T15:01:32.000",
    "date_modified": "2022-06-18T15:01:32.000",
    "request_status": "Pending",
    "responsible_agency": "Department of Public Works",
    "final_address": "5321 Warrington Dr",
    "address_councildis": "D",
    "status": "Pending",
    "rowid": "892806",
    "final_x": "3680970.95144",
    "final_y": "552659.098134",
    "longitude": "-90.06900434475989",
    "latitude": "30.013636851124502",
    "geocoded_column": {
      "latitude": "30.013636851124502",
      "longitude": "-90.06900434475989"
    }
  },
  {
    "service_request": "2022-892805",
    "request_type": "Property Maintenance",
    "request_reason": "Property Maintenance",
    "date_created": "2022-06-18T14:59:57.000",
    "date_modified": "2022-06-18T14:59:57.000",
    "request_status": "Pending",
    "responsible_agency": "Department of Code Enforcement",
    "final_address": "5321 Warrington Dr",
    "address_councildis": "D",
    "status": "Pending",
    "rowid": "892805",
    "final_x": "3680970.95144",
    "final_y": "552659.098134",
    "longitude": "-90.06900434475989",
    "latitude": "30.013636851124502",
    "geocoded_column": {
      "latitude": "30.013636851124502",
      "longitude": "-90.06900434475989"
    }
  },
  {
    "service_request": "2022-892804",
    "request_type": "Property Maintenance",
    "request_reason": "Property Maintenance",
    "date_created": "2022-06-18T14:57:36.000",
    "date_modified": "2022-06-18T14:57:36.000",
    "request_status": "Pending",
    "responsible_agency": "Department of Code Enforcement",
    "final_address": "3414 Lowerline St",
    "address_councildis": "B",
    "status": "Pending",
    "rowid": "892804",
    "final_x": "3668158.79988",
    "final_y": "533559.307589",
    "longitude": "-90.11012842508578",
    "latitude": "29.961501434674805",
    "geocoded_column": {
      "latitude": "29.961501434674805",
      "longitude": "-90.11012842508578"
    }
  },
  {
    "service_request": "2022-892803",
    "request_type": "Property Maintenance",
    "request_reason": "Property Maintenance",
    "date_created": "2022-06-18T14:49:02.000",
    "date_modified": "2022-06-18T14:49:02.000",
    "request_status": "Pending",
    "responsible_agency": "Department of Code Enforcement",
    "final_address": "3414 Lowerline St",
    "address_councildis": "B",
    "status": "Pending",
    "rowid": "892803",
    "final_x": "3668158.79988",
    "final_y": "533559.307589",
    "longitude": "-90.11012842508578",
    "latitude": "29.961501434674805",
    "geocoded_column": {
      "latitude": "29.961501434674805",
      "longitude": "-90.11012842508578"
    }
  },
  {
    "service_request": "2022-892802",
    "request_type": "Property Maintenance",
    "request_reason": "Property Maintenance",
    "date_created": "2022-06-18T14:45:19.000",
    "date_modified": "2022-06-18T14:45:19.000",
    "request_status": "Pending",
    "responsible_agency": "Department of Code Enforcement",
    "final_address": "822 Perdido St",
    "address_councildis": "B",
    "status": "Pending",
    "rowid": "892802",
    "final_x": "3680216.60872",
    "final_y": "529806.256705",
    "longitude": "-90.07218236736891",
    "latitude": "29.950822370911567",
    "geocoded_column": {
      "latitude": "29.950822370911567",
      "longitude": "-90.07218236736891"
    }
  },
  {
    "service_request": "2022-892801",
    "request_type": "Property Maintenance",
    "request_reason": "Property Maintenance",
    "date_created": "2022-06-18T14:34:27.000",
    "date_modified": "2022-06-18T14:34:27.000",
    "request_status": "Pending",
    "responsible_agency": "Department of Code Enforcement",
    "final_address": "2213 Amelia St",
    "address_councildis": "B",
    "status": "Pending",
    "rowid": "892801",
    "final_x": "3672617.0587",
    "final_y": "523391.140091",
    "longitude": "-90.09639659471313",
    "latitude": "29.933410699164344",
    "geocoded_column": {
      "latitude": "29.933410699164344",
      "longitude": "-90.09639659471313"
    }
  },
  {
    "service_request": "2022-892800",
    "request_type": "Trash/Recycling",
    "request_reason": "Request a Large Item Pick Up",
    "date_created": "2022-06-18T14:33:43.000",
    "date_modified": "2022-06-18T14:33:44.000",
    "request_status": "Pending",
    "responsible_agency": "Department of Sanitation",
    "final_address": "1854 N Gayoso St",
    "address_councildis": "D",
    "status": "Assigned to Contractor",
    "contractor": "Metro Disposal",
    "rowid": "892800",
    "final_x": "3679479.40872",
    "final_y": "542401.766349",
    "longitude": "-90.07407300186358",
    "latitude": "29.985478000100734",
    "geocoded_column": {
      "latitude": "29.985478000100734",
      "longitude": "-90.07407300186358"
    }
  },
  {
    "service_request": "2022-892799",
    "request_type": "Roads/Drainage",
    "request_reason": "Pothole",
    "date_created": "2022-06-18T14:30:59.000",
    "date_modified": "2022-06-18T14:30:59.000",
    "request_status": "Pending",
    "responsible_agency": "Department of Public Works",
    "final_address": "810 Perdido St",
    "address_councildis": "B",
    "status": "Pending",
    "rowid": "892799",
    "final_x": "3680195.66063",
    "final_y": "529716.312705",
    "longitude": "-90.0722516363771",
    "latitude": "29.950575689098343",
    "geocoded_column": {
      "latitude": "29.950575689098343",
      "longitude": "-90.0722516363771"
    }
  },
  {
    "service_request": "2022-892798",
    "request_type": "Abandoned Vehicles",
    "request_reason": "Abandoned/Junk Vehicles",
    "date_created": "2022-06-18T14:26:10.000",
    "date_modified": "2022-06-18T14:26:10.000",
    "request_status": "Pending",
    "responsible_agency": "Department of Public Works",
    "final_address": "2525 S Carrollton Ave",
    "address_councildis": "A",
    "status": "Pending",
    "rowid": "892798",
    "final_x": "3665362.44506",
    "final_y": "531865.004611",
    "longitude": "-90.11901557518915",
    "latitude": "29.956924441559213",
    "geocoded_column": {
      "latitude": "29.956924441559213",
      "longitude": "-90.11901557518915"
    }
  },
  {
    "service_request": "2022-892797",
    "request_type": "Traffic Signals/Signs/Striping/Streetlights",
    "request_reason": "Additional signage",
    "date_created": "2022-06-18T14:13:11.000",
    "date_modified": "2022-06-18T14:13:11.000",
    "request_status": "Pending",
    "responsible_agency": "Department of Public Works",
    "final_address": "404 Millaudon St",
    "address_councildis": "A",
    "status": "Pending",
    "rowid": "892797",
    "final_x": "3661922.85747",
    "final_y": "524705.322492",
    "longitude": "-90.13011416725678",
    "latitude": "29.937337387568945",
    "geocoded_column": {
      "latitude": "29.937337387568945",
      "longitude": "-90.13011416725678"
    }
  },
  {
    "service_request": "2022-892796",
    "request_type": "Traffic Signals/Signs/Striping/Streetlights",
    "request_reason": "Additional signage",
    "date_created": "2022-06-18T14:12:45.000",
    "date_modified": "2022-06-18T14:12:46.000",
    "request_status": "Pending",
    "responsible_agency": "Department of Public Works",
    "final_address": "PRESS DR & CHEF MENTEUR HWY",
    "address_councildis": "D",
    "status": "Pending",
    "rowid": "892796",
    "final_x": "3690197.0",
    "final_y": "549256.08",
    "longitude": "-90.03997628024518",
    "latitude": "30.003996661255247",
    "geocoded_column": {
      "latitude": "30.003996661255247",
      "longitude": "-90.03997628024518"
    }
  },
  {
    "service_request": "2022-892795",
    "request_type": "Mosquito, Termite & Rodent Control",
    "request_reason": "Mosquito Complaint",
    "date_created": "2022-06-18T13:49:44.000",
    "date_modified": "2022-06-18T13:49:44.000",
    "request_status": "Pending",
    "responsible_agency": "Mosquito, Termite & Rodent Control Board",
    "final_address": "4100 Fontainebleau Dr",
    "address_councildis": "B",
    "status": "Pending",
    "rowid": "892795",
    "final_x": "3669901.82292",
    "final_y": "528998.839104",
    "longitude": "-90.10477864703935",
    "latitude": "29.948910370252857",
    "geocoded_column": {
      "latitude": "29.948910370252857",
      "longitude": "-90.10477864703935"
    }
  },
  {
    "service_request": "2022-892794",
    "request_type": "Traffic Signals/Signs/Striping/Streetlights",
    "request_reason": "Street Light Outage/Malfunction",
    "date_created": "2022-06-18T13:47:22.000",
    "date_modified": "2022-06-18T13:47:23.000",
    "request_status": "Pending",
    "responsible_agency": "Department of Public Works",
    "final_address": "4100 Fontainebleau Dr",
    "address_councildis": "B",
    "status": "Pending",
    "contractor": "Royal Engineering",
    "rowid": "892794",
    "final_x": "3669901.82292",
    "final_y": "528998.839104",
    "longitude": "-90.10477864703935",
    "latitude": "29.948910370252857",
    "geocoded_column": {
      "latitude": "29.948910370252857",
      "longitude": "-90.10477864703935"
    }
  },
  {
    "service_request": "2022-892793",
    "request_type": "Property Maintenance",
    "request_reason": "Property Maintenance",
    "date_created": "2022-06-18T13:44:32.000",
    "date_modified": "2022-06-18T13:44:32.000",
    "request_status": "Pending",
    "responsible_agency": "Department of Code Enforcement",
    "final_address": "4100 Fontainebleau Dr",
    "address_councildis": "B",
    "status": "Pending",
    "rowid": "892793",
    "final_x": "3669901.82292",
    "final_y": "528998.839104",
    "longitude": "-90.10477864703935",
    "latitude": "29.948910370252857",
    "geocoded_column": {
      "latitude": "29.948910370252857",
      "longitude": "-90.10477864703935"
    }
  },
  {
    "service_request": "2022-892792",
    "request_type": "Trash/Recycling",
    "request_reason": "MIssed Recycling Pick-Up",
    "date_created": "2022-06-18T13:29:45.000",
    "date_modified": "2022-06-18T13:29:45.000",
    "request_status": "Pending",
    "responsible_agency": "Department of Sanitation",
    "final_address": "1101 Casa Calvo St",
    "address_councildis": "C",
    "status": "Assigned to Contractor",
    "contractor": "Richards Disposal",
    "rowid": "892792",
    "final_x": "3692070.148",
    "final_y": "527373.510591",
    "longitude": "-90.03484210538876",
    "latitude": "29.94376910275946",
    "geocoded_column": {
      "latitude": "29.94376910275946",
      "longitude": "-90.03484210538876"
    }
  },
  {
    "service_request": "2022-892791",
    "request_type": "Trash/Recycling",
    "request_reason": "Request a Large Item Pick Up",
    "date_created": "2022-06-18T13:23:16.000",
    "date_modified": "2022-06-18T13:23:17.000",
    "request_status": "Pending",
    "responsible_agency": "Department of Sanitation",
    "final_address": "1224 Alvar St",
    "address_councildis": "D",
    "status": "Assigned to Contractor",
    "contractor": "Metro Disposal",
    "rowid": "892791",
    "final_x": "3691600.18467",
    "final_y": "535961.025351",
    "longitude": "-90.03601892771549",
    "latitude": "29.96739641810086",
    "geocoded_column": {
      "latitude": "29.96739641810086",
      "longitude": "-90.03601892771549"
    }
  },
  {
    "service_request": "2022-892790",
    "request_type": "Property Maintenance",
    "request_reason": "Property Maintenance",
    "date_created": "2022-06-18T13:17:55.000",
    "date_modified": "2022-06-18T13:17:55.000",
    "request_status": "Pending",
    "responsible_agency": "Department of Code Enforcement",
    "final_address": "1573 Conti St",
    "address_councildis": "C",
    "status": "Pending",
    "rowid": "892790",
    "final_x": "3679574.81397",
    "final_y": "533411.083908",
    "longitude": "-90.07408374130384",
    "latitude": "29.96075383625881",
    "geocoded_column": {
      "latitude": "29.96075383625881",
      "longitude": "-90.07408374130384"
    }
  },
  {
    "service_request": "2022-892789",
    "request_type": "Trash/Recycling",
    "request_reason": "Request a Large Item Pick Up",
    "date_created": "2022-06-18T13:08:00.000",
    "date_modified": "2022-06-18T13:08:00.000",
    "request_status": "Pending",
    "responsible_agency": "Department of Sanitation",
    "final_address": "1459 Magazine St",
    "address_councildis": "B",
    "status": "Assigned to Contractor",
    "contractor": "Richards Disposal",
    "rowid": "892789",
    "final_x": "3680211.98971",
    "final_y": "524055.71046",
    "longitude": "-90.07239676331734",
    "latitude": "29.935010424952612",
    "geocoded_column": {
      "latitude": "29.935010424952612",
      "longitude": "-90.07239676331734"
    }
  },
  {
    "service_request": "2022-892788",
    "request_type": "Trash/Recycling",
    "request_reason": "Order Trash Cart",
    "date_created": "2022-06-18T12:59:24.000",
    "date_modified": "2022-06-18T12:59:24.000",
    "request_status": "Pending",
    "responsible_agency": "Department of Sanitation",
    "final_address": "8600 Oak St",
    "address_councildis": "A",
    "status": "Assigned to Contractor",
    "contractor": "Richards Disposal",
    "rowid": "892788",
    "final_x": "3660579.93126",
    "final_y": "529573.212929",
    "longitude": "-90.13419306501314",
    "latitude": "29.950761246532682",
    "geocoded_column": {
      "latitude": "29.950761246532682",
      "longitude": "-90.13419306501314"
    }
  },
  {
    "service_request": "2022-892787",
    "request_type": "Trash/Recycling",
    "request_reason": "Request a Large Item Pick Up",
    "date_created": "2022-06-18T12:57:41.000",
    "date_modified": "2022-06-18T12:57:41.000",
    "request_status": "Pending",
    "responsible_agency": "Department of Sanitation",
    "final_address": "2334 Nashville Ave",
    "address_councildis": "A",
    "status": "Assigned to Contractor",
    "contractor": "Richards Disposal",
    "rowid": "892787",
    "final_x": "3666984.81409",
    "final_y": "524825.610556",
    "longitude": "-90.1141291399292",
    "latitude": "29.937521013411242",
    "geocoded_column": {
      "latitude": "29.937521013411242",
      "longitude": "-90.1141291399292"
    }
  },
  {
    "service_request": "2022-892786",
    "request_type": "Trash/Recycling",
    "request_reason": "Missed Trash Pick-Up",
    "date_created": "2022-06-18T12:46:54.000",
    "date_modified": "2022-06-18T12:46:55.000",
    "request_status": "Pending",
    "responsible_agency": "Department of Sanitation",
    "final_address": "203 Rhodes Ave",
    "address_councildis": "C",
    "status": "Assigned to Contractor",
    "contractor": "Richards Disposal",
    "rowid": "892786",
    "final_x": "3706190.37195",
    "final_y": "519311.706231",
    "longitude": "-89.99055941325352",
    "latitude": "29.921154440347443",
    "geocoded_column": {
      "latitude": "29.921154440347443",
      "longitude": "-89.99055941325352"
    }
  },
  {
    "service_request": "2022-892785",
    "request_type": "Traffic Signals/Signs/Striping/Streetlights",
    "request_reason": "Traffic Signal Malfunctioning/Damaged",
    "date_created": "2022-06-18T12:43:49.000",
    "date_modified": "2022-06-18T12:43:49.000",
    "request_status": "Pending",
    "responsible_agency": "Department of Public Works",
    "final_address": "EARHART BLVD & S NORMAN C FRANCIS PKWY",
    "address_councildis": "B",
    "status": "Pending",
    "rowid": "892785",
    "final_x": "3669903.8",
    "final_y": "531879.48",
    "longitude": "-90.10467487626596",
    "latitude": "29.956831128087114",
    "geocoded_column": {
      "latitude": "29.956831128087114",
      "longitude": "-90.10467487626596"
    }
  },
  {
    "service_request": "2022-892783",
    "request_type": "Trash/Recycling",
    "request_reason": "MIssed Recycling Pick-Up",
    "date_created": "2022-06-18T12:32:30.000",
    "date_modified": "2022-06-18T12:32:31.000",
    "request_status": "Pending",
    "responsible_agency": "Department of Sanitation",
    "final_address": "20 Fontainebleau Dr",
    "address_councildis": "A",
    "status": "Assigned to Contractor",
    "contractor": "Richards Disposal",
    "rowid": "892783",
    "final_x": "3665772.952",
    "final_y": "531642.683075",
    "longitude": "-90.11772676601629",
    "latitude": "29.956301161428733",
    "geocoded_column": {
      "latitude": "29.956301161428733",
      "longitude": "-90.11772676601629"
    }
  },
  {
    "service_request": "2022-892782",
    "request_type": "Property Maintenance",
    "request_reason": "Property Maintenance",
    "date_created": "2022-06-18T12:24:29.000",
    "date_modified": "2022-06-18T12:24:29.000",
    "request_status": "Pending",
    "responsible_agency": "Department of Code Enforcement",
    "final_address": "6242 Carlisle Ct",
    "address_councildis": "C",
    "status": "Pending",
    "rowid": "892782",
    "final_x": "3707266.23966",
    "final_y": "516553.409589",
    "longitude": "-89.98726569001359",
    "latitude": "29.91353537159291",
    "geocoded_column": {
      "latitude": "29.91353537159291",
      "longitude": "-89.98726569001359"
    }
  },
  {
    "service_request": "2022-892781",
    "request_type": "Trash/Recycling",
    "request_reason": "Request a Large Item Pick Up",
    "date_created": "2022-06-18T12:11:32.000",
    "date_modified": "2022-06-18T12:11:33.000",
    "request_status": "Pending",
    "responsible_agency": "Department of Sanitation",
    "final_address": "2842 Baronne St",
    "address_councildis": "B",
    "status": "Assigned to Contractor",
    "contractor": "Richards Disposal",
    "rowid": "892781",
    "final_x": "3675234.28149",
    "final_y": "522924.098555",
    "longitude": "-90.08815018873362",
    "latitude": "29.932048541034376",
    "geocoded_column": {
      "latitude": "29.932048541034376",
      "longitude": "-90.08815018873362"
    }
  },
  {
    "service_request": "2022-892780",
    "request_type": "Trash/Recycling",
    "request_reason": "Replace Trash Cart",
    "date_created": "2022-06-18T12:09:10.000",
    "date_modified": "2022-06-18T12:09:11.000",
    "request_status": "Pending",
    "responsible_agency": "Department of Sanitation",
    "final_address": "713 Fern St",
    "address_councildis": "A",
    "status": "Assigned to Contractor",
    "contractor": "Richards Disposal",
    "rowid": "892780",
    "final_x": "3661491.83398",
    "final_y": "526643.108478",
    "longitude": "-90.13141077220659",
    "latitude": "29.94267812307516",
    "geocoded_column": {
      "latitude": "29.94267812307516",
      "longitude": "-90.13141077220659"
    }
  },
  {
    "service_request": "2022-892779",
    "request_type": "Traffic Signals/Signs/Striping/Streetlights",
    "request_reason": "Traffic Signal Malfunctioning/Damaged",
    "date_created": "2022-06-18T11:55:42.000",
    "date_modified": "2022-06-18T11:55:43.000",
    "request_status": "Pending",
    "responsible_agency": "Department of Public Works",
    "final_address": "CANAL ST & CITY PARK AVE",
    "address_councildis": "A",
    "status": "Pending",
    "rowid": "892779",
    "final_x": "3667729.2",
    "final_y": "540955.48",
    "longitude": "-90.11123593065541",
    "latitude": "29.981851040999903",
    "geocoded_column": {
      "latitude": "29.981851040999903",
      "longitude": "-90.11123593065541"
    }
  },
  {
    "service_request": "2022-892778",
    "request_type": "Trash/Recycling",
    "request_reason": "MIssed Recycling Pick-Up",
    "date_created": "2022-06-18T11:27:47.000",
    "date_modified": "2022-06-18T11:27:48.000",
    "request_status": "Pending",
    "responsible_agency": "Department of Sanitation",
    "final_address": "4223 Eden St",
    "address_councildis": "B",
    "status": "Assigned to Contractor",
    "contractor": "Richards Disposal",
    "rowid": "892778",
    "final_x": "3670355.29543",
    "final_y": "530424.39181",
    "longitude": "-90.10329851663387",
    "latitude": "29.952816795574023",
    "geocoded_column": {
      "latitude": "29.952816795574023",
      "longitude": "-90.10329851663387"
    }
  },
  {
    "service_request": "2022-892777",
    "request_type": "Trash/Recycling",
    "request_reason": "Repair Trash Cart",
    "date_created": "2022-06-18T11:23:53.000",
    "date_modified": "2022-06-18T11:23:54.000",
    "request_status": "Pending",
    "responsible_agency": "Department of Sanitation",
    "final_address": "4548 Virgilian St",
    "address_councildis": "D",
    "status": "Assigned to Contractor",
    "contractor": "Metro Disposal",
    "rowid": "892777",
    "final_x": "3697485.13059",
    "final_y": "552838.157398",
    "longitude": "-90.01682190933802",
    "latitude": "30.013617823238178",
    "geocoded_column": {
      "latitude": "30.013617823238178",
      "longitude": "-90.01682190933802"
    }
  },
  {
    "service_request": "2022-892776",
    "request_type": "Trash/Recycling",
    "request_reason": "Order Trash Cart",
    "date_created": "2022-06-18T11:23:21.000",
    "date_modified": "2022-06-18T11:23:21.000",
    "request_status": "Pending",
    "responsible_agency": "Department of Sanitation",
    "final_address": "5280 Warrington Dr",
    "address_councildis": "D",
    "status": "Assigned to Contractor",
    "contractor": "Metro Disposal",
    "rowid": "892776",
    "final_x": "3680897.19253",
    "final_y": "551819.516502",
    "longitude": "-90.0692666478627",
    "latitude": "30.01133054300242",
    "geocoded_column": {
      "latitude": "30.01133054300242",
      "longitude": "-90.0692666478627"
    }
  },
  {
    "service_request": "2022-892775",
    "request_type": "Trash/Recycling",
    "request_reason": "Request a Large Item Pick Up",
    "date_created": "2022-06-18T11:11:26.000",
    "date_modified": "2022-06-18T11:11:27.000",
    "request_status": "Pending",
    "responsible_agency": "Department of Sanitation",
    "final_address": "5534 Pasteur Blvd",
    "address_councildis": "D",
    "status": "Assigned to Contractor",
    "contractor": "Metro Disposal",
    "rowid": "892775",
    "final_x": "3682757.19496",
    "final_y": "553407.657175",
    "longitude": "-90.06333453581989",
    "latitude": "30.015640800736588",
    "geocoded_column": {
      "latitude": "30.015640800736588",
      "longitude": "-90.06333453581989"
    }
  },
  {
    "service_request": "2022-892774",
    "request_type": "Traffic Signals/Signs/Striping/Streetlights",
    "request_reason": "Traffic Sign Missing/Damaged",
    "date_created": "2022-06-18T11:02:10.000",
    "date_modified": "2022-06-18T11:02:11.000",
    "request_status": "Pending",
    "responsible_agency": "Department of Public Works",
    "final_address": "ARGONNE BLVD & LANE ST",
    "address_councildis": "A",
    "status": "Pending",
    "rowid": "892774",
    "final_x": "3670489.8",
    "final_y": "550540.78",
    "longitude": "-90.10219133721999",
    "latitude": "30.008126054045473",
    "geocoded_column": {
      "latitude": "30.008126054045473",
      "longitude": "-90.10219133721999"
    }
  },
  {
    "service_request": "2022-892773",
    "request_type": "Trash/Recycling",
    "request_reason": "MIssed Recycling Pick-Up",
    "date_created": "2022-06-18T10:58:08.000",
    "date_modified": "2022-06-18T10:58:09.000",
    "request_status": "Pending",
    "responsible_agency": "Department of Sanitation",
    "final_address": "3321 Washington Ave",
    "address_councildis": "B",
    "status": "Assigned to Contractor",
    "contractor": "Richards Disposal",
    "rowid": "892773",
    "final_x": "3672515.68494",
    "final_y": "527746.402303",
    "longitude": "-90.09656822285201",
    "latitude": "29.945389260854853",
    "geocoded_column": {
      "latitude": "29.945389260854853",
      "longitude": "-90.09656822285201"
    }
  },
  {
    "service_request": "2022-892772",
    "request_type": "Trash/Recycling",
    "request_reason": "Request a Large Item Pick Up",
    "date_created": "2022-06-18T10:57:45.000",
    "date_modified": "2022-06-18T11:02:38.000",
    "request_status": "Pending",
    "responsible_agency": "Department of Sanitation",
    "final_address": "New Orleans,LA",
    "address_councildis": "D",
    "status": "Assigned to Contractor",
    "contractor": "Richards Disposal",
    "rowid": "892772",
    "final_x": "3679258.66383",
    "final_y": "535766.585607",
    "longitude": "-90.07500039755517",
    "latitude": "29.967240213537984",
    "geocoded_column": {
      "latitude": "29.967240213537984",
      "longitude": "-90.07500039755517"
    }
  },
  {
    "service_request": "2022-892771",
    "request_type": "Trash/Recycling",
    "request_reason": "MIssed Recycling Pick-Up",
    "date_created": "2022-06-18T10:47:38.000",
    "date_modified": "2022-06-18T10:47:39.000",
    "request_status": "Pending",
    "responsible_agency": "Department of Sanitation",
    "final_address": "63 Versailles Blvd",
    "address_councildis": "B",
    "status": "Assigned to Contractor",
    "contractor": "Richards Disposal",
    "rowid": "892771",
    "final_x": "3667766.39572",
    "final_y": "530318.034306",
    "longitude": "-90.11147671920965",
    "latitude": "29.952600510003478",
    "geocoded_column": {
      "latitude": "29.952600510003478",
      "longitude": "-90.11147671920965"
    }
  },
  {
    "service_request": "2022-892770",
    "request_type": "Trash/Recycling",
    "request_reason": "Request a Large Item Pick Up",
    "date_created": "2022-06-18T10:47:30.000",
    "date_modified": "2022-06-18T10:47:31.000",
    "request_status": "Pending",
    "responsible_agency": "Department of Sanitation",
    "final_address": "626 S Pierce St, New Orleans, Louisiana, 70119",
    "address_councildis": "B",
    "status": "Assigned to Contractor",
    "contractor": "Richards Disposal",
    "rowid": "892770",
    "final_x": "3670203.17198",
    "final_y": "536242.861703",
    "longitude": "-90.1035816804058",
    "latitude": "29.96882014644308",
    "geocoded_column": {
      "latitude": "29.96882014644308",
      "longitude": "-90.1035816804058"
    }
  },
  {
    "service_request": "2022-892769",
    "request_type": "Trash/Recycling",
    "request_reason": "Request a Large Item Pick Up",
    "date_created": "2022-06-18T10:42:27.000",
    "date_modified": "2022-06-18T10:42:28.000",
    "case_close_date": "2021-05-12T19:00:00.000",
    "request_status": "Pending",
    "responsible_agency": "Department of Sanitation",
    "final_address": "1704 Fern St",
    "address_councildis": "A",
    "status": "Assigned to Contractor",
    "contractor": "Richards Disposal",
    "rowid": "892769",
    "final_x": "3663728.69466",
    "final_y": "529227.31552",
    "longitude": "-90.124262354441",
    "latitude": "29.94971915664307",
    "geocoded_column": {
      "latitude": "29.94971915664307",
      "longitude": "-90.124262354441"
    }
  },
  {
    "service_request": "2022-892768",
    "request_type": "Abandoned Vehicles",
    "request_reason": "Abandoned/Junk Vehicles",
    "date_created": "2022-06-18T10:37:02.000",
    "date_modified": "2022-06-18T10:37:57.000",
    "request_status": "Pending",
    "responsible_agency": "Department of Public Works",
    "final_address": "1321 General Taylor St",
    "address_councildis": "B",
    "status": "Pending",
    "rowid": "892768",
    "final_x": "3672807.67054",
    "final_y": "520437.846968",
    "longitude": "-90.095895529972",
    "latitude": "29.925284435241426",
    "geocoded_column": {
      "latitude": "29.925284435241426",
      "longitude": "-90.095895529972"
    }
  },
  {
    "service_request": "2022-892767",
    "request_type": "Abandoned Vehicles",
    "request_reason": "Abandoned/Junk Vehicles",
    "date_created": "2022-06-18T10:32:46.000",
    "date_modified": "2022-06-18T10:32:47.000",
    "request_status": "Pending",
    "responsible_agency": "Department of Public Works",
    "final_address": "5617 Arts St",
    "address_councildis": "D",
    "status": "Pending",
    "rowid": "892767",
    "final_x": "3685861.23234",
    "final_y": "553721.155607",
    "longitude": "-90.05351614945394",
    "latitude": "30.016407843073594",
    "geocoded_column": {
      "latitude": "30.016407843073594",
      "longitude": "-90.05351614945394"
    }
  },
  {
    "service_request": "2022-892766",
    "request_type": "Trash/Recycling",
    "request_reason": "MIssed Recycling Pick-Up",
    "date_created": "2022-06-18T10:20:16.000",
    "date_modified": "2022-06-18T10:20:17.000",
    "request_status": "Pending",
    "responsible_agency": "Department of Sanitation",
    "final_address": "4039 State Street Dr",
    "address_councildis": "B",
    "status": "Assigned to Contractor",
    "contractor": "Richards Disposal",
    "rowid": "892766",
    "final_x": "3668304.70542",
    "final_y": "530469.888898",
    "longitude": "-90.10977185468568",
    "latitude": "29.953002265783212",
    "geocoded_column": {
      "latitude": "29.953002265783212",
      "longitude": "-90.10977185468568"
    }
  },
  {
    "service_request": "2022-892764",
    "request_type": "Roads/Drainage",
    "request_reason": "Debris in Roadway",
    "date_created": "2022-06-18T10:09:32.000",
    "date_modified": "2022-06-18T10:09:32.000",
    "request_status": "Pending",
    "responsible_agency": "Department of Public Works",
    "final_address": "1765 Coliseum St",
    "address_councildis": "B",
    "status": "Pending",
    "rowid": "892764",
    "final_x": "3679389.36751",
    "final_y": "524030.820028",
    "longitude": "-90.07499463769864",
    "latitude": "29.93496685028271",
    "geocoded_column": {
      "latitude": "29.93496685028271",
      "longitude": "-90.07499463769864"
    }
  },
  {
    "service_request": "2022-892763",
    "request_type": "Trash/Recycling",
    "request_reason": "Request a Large Item Pick Up",
    "date_created": "2022-06-18T10:06:58.000",
    "date_modified": "2022-06-18T10:06:59.000",
    "request_status": "Pending",
    "responsible_agency": "Department of Sanitation",
    "final_address": "7311 Cameo St",
    "address_councildis": "D",
    "status": "Assigned to Contractor",
    "contractor": "Metro Disposal",
    "rowid": "892763",
    "final_x": "3667886.45825",
    "final_y": "555628.070233",
    "longitude": "-90.11024455966431",
    "latitude": "30.02219096481864",
    "geocoded_column": {
      "latitude": "30.02219096481864",
      "longitude": "-90.11024455966431"
    }
  },
  {
    "service_request": "2022-892762",
    "request_type": "Abandoned Vehicles",
    "request_reason": "Abandoned/Junk Vehicles",
    "date_created": "2022-06-18T10:05:15.000",
    "date_modified": "2022-06-18T10:05:15.000",
    "request_status": "Pending",
    "responsible_agency": "Department of Public Works",
    "final_address": "1765 Coliseum St",
    "address_councildis": "B",
    "status": "Pending",
    "rowid": "892762",
    "final_x": "3679389.36751",
    "final_y": "524030.820028",
    "longitude": "-90.07499463769864",
    "latitude": "29.93496685028271",
    "geocoded_column": {
      "latitude": "29.93496685028271",
      "longitude": "-90.07499463769864"
    }
  },
  {
    "service_request": "2022-892761",
    "request_type": "Trash/Recycling",
    "request_reason": "Request a Large Item Pick Up",
    "date_created": "2022-06-18T09:59:23.000",
    "date_modified": "2022-06-18T09:59:23.000",
    "request_status": "Pending",
    "responsible_agency": "Department of Sanitation",
    "final_address": "914 Independence St",
    "address_councildis": "C",
    "status": "Assigned to Contractor",
    "contractor": "Metro Disposal",
    "rowid": "892761",
    "final_x": "3690762.6696",
    "final_y": "534864.974406",
    "longitude": "-90.03870291280985",
    "latitude": "29.964408709150703",
    "geocoded_column": {
      "latitude": "29.964408709150703",
      "longitude": "-90.03870291280985"
    }
  },
  {
    "service_request": "2022-892760",
    "request_type": "Trash/Recycling",
    "request_reason": "Replace Trash Cart",
    "date_created": "2022-06-18T09:55:19.000",
    "date_modified": "2022-06-18T09:55:20.000",
    "request_status": "Pending",
    "responsible_agency": "Department of Sanitation",
    "final_address": "811 Opelousas Ave",
    "address_councildis": "C",
    "status": "Assigned to Contractor",
    "contractor": "Richards Disposal",
    "rowid": "892760",
    "final_x": "3687924.93564",
    "final_y": "529038.100032",
    "longitude": "-90.04787066104254",
    "latitude": "29.948474669172093",
    "geocoded_column": {
      "latitude": "29.948474669172093",
      "longitude": "-90.04787066104254"
    }
  },
  {
    "service_request": "2022-892759",
    "request_type": "Trash/Recycling",
    "request_reason": "Damaged Caused By Contractor",
    "date_created": "2022-06-18T09:42:12.000",
    "date_modified": "2022-06-18T09:42:12.000",
    "case_close_date": "2021-04-25T19:00:00.000",
    "request_status": "Pending",
    "responsible_agency": "Department of Sanitation",
    "final_address": "5721 Waterford Blvd",
    "address_councildis": "E",
    "status": "Assigned to Contractor",
    "contractor": "Metro Disposal",
    "rowid": "892759",
    "final_x": "3714220.97272",
    "final_y": "560772.237278",
    "longitude": "-89.96364629005755",
    "latitude": "30.03489406837576",
    "geocoded_column": {
      "latitude": "30.03489406837576",
      "longitude": "-89.96364629005755"
    }
  },
  {
    "service_request": "2022-892758",
    "request_type": "Trash/Recycling",
    "request_reason": "Request a Large Item Pick Up",
    "date_created": "2022-06-18T09:19:16.000",
    "date_modified": "2022-06-18T09:19:17.000",
    "request_status": "Pending",
    "responsible_agency": "Department of Sanitation",
    "final_address": "8005 Plum St",
    "address_councildis": "A",
    "status": "Assigned to Contractor",
    "contractor": "Richards Disposal",
    "rowid": "892758",
    "final_x": "3662504.24909",
    "final_y": "528411.142592",
    "longitude": "-90.1281556128474",
    "latitude": "29.947510412351736",
    "geocoded_column": {
      "latitude": "29.947510412351736",
      "longitude": "-90.1281556128474"
    }
  },
  {
    "service_request": "2022-892757",
    "request_type": "Trash/Recycling",
    "request_reason": "MIssed Recycling Pick-Up",
    "date_created": "2022-06-18T09:18:45.000",
    "date_modified": "2022-06-18T09:18:45.000",
    "request_status": "Pending",
    "responsible_agency": "Department of Sanitation",
    "final_address": "743 Felicity St",
    "address_councildis": "B",
    "status": "Assigned to Contractor",
    "contractor": "Richards Disposal",
    "rowid": "892757",
    "final_x": "3681052.04827",
    "final_y": "522025.25849",
    "longitude": "-90.06981539111247",
    "latitude": "29.929401906320233",
    "geocoded_column": {
      "latitude": "29.929401906320233",
      "longitude": "-90.06981539111247"
    }
  },
  {
    "service_request": "2022-892756",
    "request_type": "Traffic Signals/Signs/Striping/Streetlights",
    "request_reason": "Street Light Outage/Malfunction",
    "date_created": "2022-06-18T09:16:30.000",
    "date_modified": "2022-06-18T09:16:30.000",
    "request_status": "Pending",
    "responsible_agency": "Department of Public Works",
    "final_address": "3456 Constance St",
    "address_councildis": "B",
    "status": "Pending",
    "contractor": "Royal Engineering",
    "rowid": "892756",
    "final_x": "3674706.56187",
    "final_y": "519042.713591",
    "longitude": "-90.08994911046688",
    "latitude": "29.921391743256876",
    "geocoded_column": {
      "latitude": "29.921391743256876",
      "longitude": "-90.08994911046688"
    }
  },
  {
    "service_request": "2022-892755",
    "request_type": "Trash/Recycling",
    "request_reason": "Missed Trash Pick-Up",
    "date_created": "2022-06-18T09:15:32.000",
    "date_modified": "2022-06-18T09:15:33.000",
    "request_status": "Pending",
    "responsible_agency": "Department of Sanitation",
    "final_address": "1334 S Genois St",
    "address_councildis": "B",
    "status": "Assigned to Contractor",
    "contractor": "Richards Disposal",
    "rowid": "892755",
    "final_x": "3669284.4697",
    "final_y": "532195.684355",
    "longitude": "-90.10661984084132",
    "latitude": "29.95771883162878",
    "geocoded_column": {
      "latitude": "29.95771883162878",
      "longitude": "-90.10661984084132"
    }
  },
  {
    "service_request": "2022-892754",
    "request_type": "Traffic Signals/Signs/Striping/Streetlights",
    "request_reason": "Street Light Outage/Malfunction",
    "date_created": "2022-06-18T09:14:51.000",
    "date_modified": "2022-06-18T09:14:52.000",
    "request_status": "Pending",
    "responsible_agency": "Department of Public Works",
    "final_address": "3456 Constance St",
    "address_councildis": "B",
    "status": "Pending",
    "contractor": "Royal Engineering",
    "rowid": "892754",
    "final_x": "3674706.56187",
    "final_y": "519042.713591",
    "longitude": "-90.08994911046688",
    "latitude": "29.921391743256876",
    "geocoded_column": {
      "latitude": "29.921391743256876",
      "longitude": "-90.08994911046688"
    }
  },
  {
    "service_request": "2022-892752",
    "request_type": "Trash/Recycling",
    "request_reason": "Illegal Dumping",
    "date_created": "2022-06-18T09:12:46.000",
    "date_modified": "2022-06-18T09:12:46.000",
    "request_status": "Pending",
    "responsible_agency": "Department of Sanitation",
    "final_address": "1860 Burgundy St",
    "address_councildis": "C",
    "status": "Pending",
    "rowid": "892752",
    "final_x": "3683867.46351",
    "final_y": "535454.942598",
    "longitude": "-90.06045670835087",
    "latitude": "29.96624333054572",
    "geocoded_column": {
      "latitude": "29.96624333054572",
      "longitude": "-90.06045670835087"
    }
  },
  {
    "service_request": "2022-892751",
    "request_type": "Traffic Signals/Signs/Striping/Streetlights",
    "request_reason": "Traffic Signal Malfunctioning/Damaged",
    "date_created": "2022-06-18T09:05:26.000",
    "date_modified": "2022-06-18T09:05:27.000",
    "request_status": "Pending",
    "responsible_agency": "Department of Public Works",
    "final_address": "N GALVEZ ST & ALMONASTER AVE",
    "address_councildis": "D",
    "status": "Pending",
    "rowid": "892751",
    "final_x": "3688081.7",
    "final_y": "540222.18",
    "longitude": "-90.04697926021795",
    "latitude": "29.979222161507888",
    "geocoded_column": {
      "latitude": "29.979222161507888",
      "longitude": "-90.04697926021795"
    }
  },
  {
    "service_request": "2022-892750",
    "request_type": "Trash/Recycling",
    "request_reason": "Missed Trash Pick-Up",
    "date_created": "2022-06-18T08:59:10.000",
    "date_modified": "2022-06-18T08:59:11.000",
    "request_status": "Pending",
    "responsible_agency": "Department of Sanitation",
    "final_address": "317 N Derbigny St",
    "address_councildis": "B",
    "status": "Assigned to Contractor",
    "contractor": "Richards Disposal",
    "rowid": "892750",
    "final_x": "3678642.60302",
    "final_y": "533804.616837",
    "longitude": "-90.0770138582083",
    "latitude": "29.9618640551212",
    "geocoded_column": {
      "latitude": "29.9618640551212",
      "longitude": "-90.0770138582083"
    }
  },
  {
    "service_request": "2022-892748",
    "request_type": "Trash/Recycling",
    "request_reason": "Repair Trash Cart",
    "date_created": "2022-06-18T08:50:22.000",
    "date_modified": "2022-06-18T08:50:23.000",
    "request_status": "Pending",
    "responsible_agency": "Department of Sanitation",
    "final_address": "8823 Birch St",
    "address_councildis": "A",
    "status": "Assigned to Contractor",
    "contractor": "Richards Disposal",
    "rowid": "892748",
    "final_x": "3660965.55917",
    "final_y": "531237.201986",
    "longitude": "-90.13292039944075",
    "latitude": "29.955325579273133",
    "geocoded_column": {
      "latitude": "29.955325579273133",
      "longitude": "-90.13292039944075"
    }
  },
  {
    "service_request": "2022-892747",
    "request_type": "Property Maintenance",
    "request_reason": "Property Maintenance",
    "date_created": "2022-06-18T08:48:45.000",
    "date_modified": "2022-06-18T08:48:45.000",
    "request_status": "Pending",
    "responsible_agency": "Department of Code Enforcement",
    "final_address": "5350 St Bernard Ave",
    "address_councildis": "D",
    "status": "Pending",
    "rowid": "892747",
    "final_x": "3676690.51214",
    "final_y": "551822.477846",
    "longitude": "-90.08255717374155",
    "latitude": "30.011465617920717",
    "geocoded_column": {
      "latitude": "30.011465617920717",
      "longitude": "-90.08255717374155"
    }
  },
  {
    "service_request": "2022-892745",
    "request_type": "EMS",
    "request_reason": "EMS Lost & Found",
    "date_created": "2022-06-18T08:48:05.000",
    "date_modified": "2022-06-18T08:48:06.000",
    "request_status": "Pending",
    "responsible_agency": "Emergency Medical Services",
    "final_address": "4326 Palmyra St",
    "address_councildis": "A",
    "status": "Pending",
    "rowid": "892745",
    "final_x": "3669585.46074",
    "final_y": "538419.458377",
    "longitude": "-90.10545879661791",
    "latitude": "29.97482327109428",
    "geocoded_column": {
      "latitude": "29.97482327109428",
      "longitude": "-90.10545879661791"
    }
  },
  {
    "service_request": "2022-892744",
    "request_type": "Property Maintenance",
    "request_reason": "Property Maintenance",
    "date_created": "2022-06-18T08:38:33.000",
    "date_modified": "2022-06-18T08:38:33.000",
    "request_status": "Pending",
    "responsible_agency": "Department of Code Enforcement",
    "final_address": "5101 Perlita St",
    "address_councildis": "D",
    "status": "Pending",
    "rowid": "892744",
    "final_x": "3678658.38222",
    "final_y": "551023.448917",
    "longitude": "-90.0763675535134",
    "latitude": "30.00920936373124",
    "geocoded_column": {
      "latitude": "30.00920936373124",
      "longitude": "-90.0763675535134"
    }
  },
  {
    "service_request": "2022-892743",
    "request_type": "Property Maintenance",
    "request_reason": "Property Maintenance",
    "date_created": "2022-06-18T08:34:44.000",
    "date_modified": "2022-06-18T08:34:44.000",
    "request_status": "Pending",
    "responsible_agency": "Department of Code Enforcement",
    "final_address": "2631 Dumaine St",
    "address_councildis": "D",
    "status": "Pending",
    "rowid": "892743",
    "final_x": "3677414.52539",
    "final_y": "537369.622216",
    "longitude": "-90.08076887194211",
    "latitude": "29.971703574208803",
    "geocoded_column": {
      "latitude": "29.971703574208803",
      "longitude": "-90.08076887194211"
    }
  },
  {
    "service_request": "2022-892742",
    "request_type": "Trash/Recycling",
    "request_reason": "Illegal Dumping",
    "date_created": "2022-06-18T08:24:56.000",
    "date_modified": "2022-06-18T08:24:56.000",
    "request_status": "Pending",
    "responsible_agency": "Department of Sanitation",
    "final_address": "4901 Hauck Dr",
    "address_councildis": "E",
    "status": "Pending",
    "rowid": "892742",
    "final_x": "3714566.1877",
    "final_y": "557378.631835",
    "longitude": "-89.96268365305812",
    "latitude": "30.025551656244847",
    "geocoded_column": {
      "latitude": "30.025551656244847",
      "longitude": "-89.96268365305812"
    }
  },
  {
    "service_request": "2022-892741",
    "request_type": "Trash/Recycling",
    "request_reason": "MIssed Recycling Pick-Up",
    "date_created": "2022-06-18T08:22:25.000",
    "date_modified": "2022-06-18T08:22:26.000",
    "request_status": "Pending",
    "responsible_agency": "Department of Sanitation",
    "final_address": "1728 S Rendon St",
    "address_councildis": "B",
    "status": "Assigned to Contractor",
    "contractor": "Richards Disposal",
    "rowid": "892741",
    "final_x": "3669580.17735",
    "final_y": "530560.783554",
    "longitude": "-90.10574138784025",
    "latitude": "29.953214684543667",
    "geocoded_column": {
      "latitude": "29.953214684543667",
      "longitude": "-90.10574138784025"
    }
  },
  {
    "service_request": "2022-892740",
    "request_type": "Property Maintenance",
    "request_reason": "Property Maintenance",
    "date_created": "2022-06-18T08:08:41.000",
    "date_modified": "2022-06-18T08:08:42.000",
    "request_status": "Pending",
    "responsible_agency": "Department of Code Enforcement",
    "final_address": "7300 BLK Newcastle St",
    "address_councildis": "E",
    "status": "Pending",
    "rowid": "892740",
    "final_x": "3697493.32906",
    "final_y": "558528.838439",
    "longitude": "-90.01658939425725",
    "latitude": "30.029264775425368",
    "geocoded_column": {
      "latitude": "30.029264775425368",
      "longitude": "-90.01658939425725"
    }
  },
  {
    "service_request": "2022-892739",
    "request_type": "Health Related Questions",
    "request_reason": "Noise Ordinance Complaint",
    "date_created": "2022-06-18T07:56:39.000",
    "date_modified": "2022-06-18T07:56:39.000",
    "request_status": "Pending",
    "responsible_agency": "Health Department",
    "final_address": "4810 Bienville Ave",
    "address_councildis": "A",
    "status": "Pending",
    "rowid": "892739",
    "final_x": "3669159.32314",
    "final_y": "540696.879179",
    "longitude": "-90.1067276538436",
    "latitude": "29.981097958457614",
    "geocoded_column": {
      "latitude": "29.981097958457614",
      "longitude": "-90.1067276538436"
    }
  },
  {
    "service_request": "2022-892737",
    "request_type": "Abandoned Vehicles",
    "request_reason": "Abandoned/Junk Vehicles",
    "date_created": "2022-06-18T07:37:54.000",
    "date_modified": "2022-06-18T07:37:54.000",
    "request_status": "Pending",
    "responsible_agency": "Department of Public Works",
    "final_address": "827 Marengo St",
    "address_councildis": "B",
    "status": "Pending",
    "rowid": "892737",
    "final_x": "3672222.37294",
    "final_y": "518752.899895",
    "longitude": "-90.09780048548345",
    "latitude": "29.92066873629335",
    "geocoded_column": {
      "latitude": "29.92066873629335",
      "longitude": "-90.09780048548345"
    }
  },
  {
    "service_request": "2022-892736",
    "request_type": "Trash/Recycling",
    "request_reason": "Order Trash Cart",
    "date_created": "2022-06-18T07:26:42.000",
    "date_modified": "2022-06-18T07:26:43.000",
    "request_status": "Pending",
    "responsible_agency": "Department of Sanitation",
    "final_address": "1917 N Tonti St",
    "address_councildis": "D",
    "status": "Assigned to Contractor",
    "contractor": "Metro Disposal",
    "rowid": "892736",
    "final_x": "3682205.95144",
    "final_y": "540566.283851",
    "longitude": "-90.0655251286368",
    "latitude": "29.980348393530534",
    "geocoded_column": {
      "latitude": "29.980348393530534",
      "longitude": "-90.0655251286368"
    }
  },
  {
    "service_request": "2022-892735",
    "request_type": "Property Maintenance",
    "request_reason": "Property Maintenance",
    "date_created": "2022-06-18T07:19:26.000",
    "date_modified": "2022-06-18T07:19:26.000",
    "request_status": "Pending",
    "responsible_agency": "Department of Code Enforcement",
    "final_address": "2224 Delery St",
    "address_councildis": "E",
    "status": "Pending",
    "rowid": "892735",
    "final_x": "3702080.64727",
    "final_y": "537142.595016",
    "longitude": "-90.00287836328351",
    "latitude": "29.97031487339651",
    "geocoded_column": {
      "latitude": "29.97031487339651",
      "longitude": "-90.00287836328351"
    }
  },
  {
    "service_request": "2022-892734",
    "request_type": "Abandoned Vehicles",
    "request_reason": "Vehicle Blocking Your Driveway",
    "date_created": "2022-06-18T07:18:12.000",
    "date_modified": "2022-06-18T07:18:12.000",
    "request_status": "Pending",
    "responsible_agency": "Department of Public Works",
    "final_address": "1633 First St Apt 301",
    "address_councildis": "B",
    "status": "Pending",
    "rowid": "892734",
    "final_x": "3676869.71451",
    "final_y": "523531.342139",
    "longitude": "-90.08296637076843",
    "latitude": "29.933669293355027",
    "geocoded_column": {
      "latitude": "29.933669293355027",
      "longitude": "-90.08296637076843"
    }
  },
  {
    "service_request": "2022-892733",
    "request_type": "Trash/Recycling",
    "request_reason": "Missed Trash Pick-Up",
    "date_created": "2022-06-18T06:46:58.000",
    "date_modified": "2022-06-18T06:46:59.000",
    "request_status": "Pending",
    "responsible_agency": "Department of Sanitation",
    "final_address": "440 Pine St",
    "address_councildis": "A",
    "status": "Assigned to Contractor",
    "contractor": "Richards Disposal",
    "rowid": "892733",
    "final_x": "3662079.13799",
    "final_y": "524067.913532",
    "longitude": "-90.12964191636387",
    "latitude": "29.93558020108946",
    "geocoded_column": {
      "latitude": "29.93558020108946",
      "longitude": "-90.12964191636387"
    }
  },
  {
    "service_request": "2022-892732",
    "request_type": "Trash/Recycling",
    "request_reason": "MIssed Recycling Pick-Up",
    "date_created": "2022-06-18T06:29:40.000",
    "date_modified": "2022-06-18T06:29:41.000",
    "request_status": "Pending",
    "responsible_agency": "Department of Sanitation",
    "final_address": "2116 Oretha Castle Haley Blvd",
    "address_councildis": "B",
    "status": "Assigned to Contractor",
    "contractor": "Richards Disposal",
    "rowid": "892732",
    "final_x": "3677023.08584",
    "final_y": "524835.779004",
    "longitude": "-90.08243722889668",
    "latitude": "29.937251464273828",
    "geocoded_column": {
      "latitude": "29.937251464273828",
      "longitude": "-90.08243722889668"
    }
  },
  {
    "service_request": "2022-892731",
    "request_type": "Trash/Recycling",
    "request_reason": "Start Trash Service",
    "date_created": "2022-06-18T05:50:25.000",
    "date_modified": "2022-06-18T05:50:26.000",
    "request_status": "Pending",
    "responsible_agency": "Department of Sanitation",
    "final_address": "81 Flamingo St",
    "address_councildis": "D",
    "status": "Assigned to Contractor",
    "contractor": "Metro Disposal",
    "rowid": "892731",
    "final_x": "3674386.78811",
    "final_y": "555832.358297",
    "longitude": "-90.08969809593215",
    "latitude": "30.02256029616811",
    "geocoded_column": {
      "latitude": "30.02256029616811",
      "longitude": "-90.08969809593215"
    }
  },
  {
    "service_request": "2022-892730",
    "request_type": "Property Maintenance",
    "request_reason": "Property Maintenance",
    "date_created": "2022-06-18T02:11:01.000",
    "date_modified": "2022-06-18T02:11:01.000",
    "request_status": "Pending",
    "responsible_agency": "Department of Code Enforcement",
    "final_address": "7912 Alabama St",
    "address_councildis": "D",
    "status": "Pending",
    "rowid": "892730",
    "final_x": "3694549.03286",
    "final_y": "559410.987933",
    "longitude": "-90.02586144702742",
    "latitude": "30.03178305350519",
    "geocoded_column": {
      "latitude": "30.03178305350519",
      "longitude": "-90.02586144702742"
    }
  },
  {
    "service_request": "2022-892729",
    "request_type": "Abandoned Vehicles",
    "request_reason": "Abandoned/Junk Vehicles",
    "date_created": "2022-06-18T02:00:28.000",
    "date_modified": "2022-06-18T02:00:28.000",
    "request_status": "Pending",
    "responsible_agency": "Department of Public Works",
    "final_address": "7900 Alabama St",
    "address_councildis": "D",
    "status": "Pending",
    "rowid": "892729",
    "final_x": "3694582.1455",
    "final_y": "559312.925853",
    "longitude": "-90.02576034594263",
    "latitude": "30.031512381283623",
    "geocoded_column": {
      "latitude": "30.031512381283623",
      "longitude": "-90.02576034594263"
    }
  },
  {
    "service_request": "2022-892728",
    "request_type": "Property Maintenance",
    "request_reason": "Property Maintenance",
    "date_created": "2022-06-18T01:54:47.000",
    "date_modified": "2022-06-18T01:54:47.000",
    "request_status": "Pending",
    "responsible_agency": "Department of Code Enforcement",
    "final_address": "7900 Alabama St",
    "address_councildis": "D",
    "status": "Pending",
    "rowid": "892728",
    "final_x": "3694582.1455",
    "final_y": "559312.925853",
    "longitude": "-90.02576034594263",
    "latitude": "30.031512381283623",
    "geocoded_column": {
      "latitude": "30.031512381283623",
      "longitude": "-90.02576034594263"
    }
  },
  {
    "service_request": "2022-892727",
    "request_type": "Roads/Drainage",
    "request_reason": "Accessibility Ramps, Curbs and Sidewalk Repair",
    "date_created": "2022-06-18T00:55:41.000",
    "date_modified": "2022-06-18T00:55:41.000",
    "request_status": "Pending",
    "responsible_agency": "Department of Public Works",
    "final_address": "225 Girod St",
    "address_councildis": "B",
    "status": "Pending",
    "rowid": "892727",
    "final_x": "3682330.24213",
    "final_y": "528128.374911",
    "longitude": "-90.06556720930485",
    "latitude": "29.946144625894906",
    "geocoded_column": {
      "latitude": "29.946144625894906",
      "longitude": "-90.06556720930485"
    }
  },
  {
    "service_request": "2022-892725",
    "request_type": "Traffic Signals/Signs/Striping/Streetlights",
    "request_reason": "Street Light Knocked Down/Leaning",
    "date_created": "2022-06-17T23:57:55.000",
    "date_modified": "2022-06-17T23:57:56.000",
    "request_status": "Pending",
    "responsible_agency": "Department of Public Works",
    "final_address": "5800 Bellaire Dr",
    "address_councildis": "A",
    "status": "Pending",
    "contractor": "Royal Engineering",
    "rowid": "892725",
    "final_x": "3664061.85466",
    "final_y": "546597.419409",
    "longitude": "-90.1226309109041",
    "latitude": "29.99747150573592",
    "geocoded_column": {
      "latitude": "29.99747150573592",
      "longitude": "-90.1226309109041"
    }
  },
  {
    "service_request": "2022-892724",
    "request_type": "Trash/Recycling",
    "request_reason": "Replace Trash Cart",
    "date_created": "2022-06-17T22:32:30.000",
    "date_modified": "2022-06-17T22:32:31.000",
    "request_status": "Pending",
    "responsible_agency": "Department of Sanitation",
    "final_address": "3434 Blair St",
    "address_councildis": "C",
    "status": "Assigned to Contractor",
    "contractor": "Richards Disposal",
    "rowid": "892724",
    "final_x": "3709438.52574",
    "final_y": "518010.56383",
    "longitude": "-89.9803550343737",
    "latitude": "29.917471690910695",
    "geocoded_column": {
      "latitude": "29.917471690910695",
      "longitude": "-89.9803550343737"
    }
  },
  {
    "service_request": "2022-892723",
    "request_type": "Trash/Recycling",
    "request_reason": "Missed Trash Pick-Up",
    "date_created": "2022-06-17T22:01:33.000",
    "date_modified": "2022-06-17T22:01:34.000",
    "request_status": "Pending",
    "responsible_agency": "Department of Sanitation",
    "final_address": "416 Elmira Ave, New Orleans, Louisiana, 70114",
    "address_councildis": "C",
    "status": "Assigned to Contractor",
    "contractor": "Richards Disposal",
    "rowid": "892723",
    "final_x": "3688269.18735",
    "final_y": "530169.202561",
    "longitude": "-90.04674361712001",
    "latitude": "29.95157418982283",
    "geocoded_column": {
      "latitude": "29.95157418982283",
      "longitude": "-90.04674361712001"
    }
  },
  {
    "service_request": "2022-892722",
    "request_type": "Traffic Signals/Signs/Striping/Streetlights",
    "request_reason": "Street Light Knocked Down/Leaning",
    "date_created": "2022-06-17T21:37:53.000",
    "date_modified": "2022-06-17T21:37:54.000",
    "request_status": "Pending",
    "responsible_agency": "Department of Public Works",
    "final_address": "400 BLK Academy Dr",
    "address_councildis": "A",
    "status": "Pending",
    "contractor": "Royal Engineering",
    "rowid": "892722",
    "final_x": "3665079.01626",
    "final_y": "545485.233948",
    "longitude": "-90.11945493562071",
    "latitude": "29.994383785060098",
    "geocoded_column": {
      "latitude": "29.994383785060098",
      "longitude": "-90.11945493562071"
    }
  },
  {
    "service_request": "2022-892721",
    "request_type": "Traffic Signals/Signs/Striping/Streetlights",
    "request_reason": "Traffic Signal Malfunctioning/Damaged",
    "date_created": "2022-06-17T21:35:13.000",
    "date_modified": "2022-06-17T21:35:14.000",
    "request_status": "Pending",
    "responsible_agency": "Department of Public Works",
    "final_address": "ST CLAUDE AVE & FRANKLIN AVE",
    "address_councildis": "C",
    "status": "Pending",
    "rowid": "892721",
    "final_x": "3687068.7",
    "final_y": "536547.68",
    "longitude": "-90.05030865196827",
    "latitude": "29.96914980739771",
    "geocoded_column": {
      "latitude": "29.96914980739771",
      "longitude": "-90.05030865196827"
    }
  },
  {
    "service_request": "2022-892720",
    "request_type": "Traffic Signals/Signs/Striping/Streetlights",
    "request_reason": "Street Light Knocked Down/Leaning",
    "date_created": "2022-06-17T21:29:16.000",
    "date_modified": "2022-06-17T21:29:16.000",
    "request_status": "Pending",
    "responsible_agency": "Department of Public Works",
    "final_address": "BELLAIRE DR & ACADEMY DR",
    "address_councildis": "A",
    "status": "Pending",
    "contractor": "Royal Engineering",
    "rowid": "892720",
    "final_x": "3664152.2",
    "final_y": "545718.58",
    "longitude": "-90.12237485156511",
    "latitude": "29.995052372101675",
    "geocoded_column": {
      "latitude": "29.995052372101675",
      "longitude": "-90.12237485156511"
    }
  },
  {
    "service_request": "2022-892719",
    "request_type": "Traffic Signals/Signs/Striping/Streetlights",
    "request_reason": "Street Light Outage/Malfunction",
    "date_created": "2022-06-17T21:13:30.000",
    "date_modified": "2022-06-17T21:13:31.000",
    "request_status": "Pending",
    "responsible_agency": "Department of Public Works",
    "final_address": "2031 Cypress Acres Dr",
    "address_councildis": "C",
    "status": "Pending",
    "contractor": "Royal Engineering",
    "rowid": "892719",
    "final_x": "3696179.7928",
    "final_y": "523423.880187",
    "longitude": "-90.02200962903673",
    "latitude": "29.932780286716888",
    "geocoded_column": {
      "latitude": "29.932780286716888",
      "longitude": "-90.02200962903673"
    }
  },
  {
    "service_request": "2022-892718",
    "request_type": "Roads/Drainage",
    "request_reason": "Pothole",
    "date_created": "2022-06-17T21:07:26.000",
    "date_modified": "2022-06-17T21:07:26.000",
    "request_status": "Pending",
    "responsible_agency": "Department of Public Works",
    "final_address": "1600 BLK Music St",
    "address_councildis": "D",
    "status": "Pending",
    "rowid": "892718",
    "final_x": "3686688.51569",
    "final_y": "538477.923488",
    "longitude": "-90.05144110228335",
    "latitude": "29.974469001595907",
    "geocoded_column": {
      "latitude": "29.974469001595907",
      "longitude": "-90.05144110228335"
    }
  },
  {
    "service_request": "2022-892717",
    "request_type": "Traffic Signals/Signs/Striping/Streetlights",
    "request_reason": "Street Light Outage/Malfunction",
    "date_created": "2022-06-17T21:05:05.000",
    "date_modified": "2022-06-17T21:05:06.000",
    "request_status": "Pending",
    "responsible_agency": "Department of Public Works",
    "final_address": "1618 Music St",
    "address_councildis": "D",
    "status": "Pending",
    "contractor": "Royal Engineering",
    "rowid": "892717",
    "final_x": "3686656.96009",
    "final_y": "538459.026057",
    "longitude": "-90.05154142986366",
    "latitude": "29.97441801094553",
    "geocoded_column": {
      "latitude": "29.97441801094553",
      "longitude": "-90.05154142986366"
    }
  },
  {
    "service_request": "2022-892716",
    "request_type": "Mosquito, Termite & Rodent Control",
    "request_reason": "Mosquito Complaint",
    "date_created": "2022-06-17T21:04:18.000",
    "date_modified": "2022-06-17T21:04:18.000",
    "request_status": "Pending",
    "responsible_agency": "Mosquito, Termite & Rodent Control Board",
    "final_address": "5425 Press Dr",
    "address_councildis": "D",
    "status": "Pending",
    "rowid": "892716",
    "final_x": "3689415.64707",
    "final_y": "553331.678423",
    "longitude": "-90.04229963317827",
    "latitude": "30.015227285255257",
    "geocoded_column": {
      "latitude": "30.015227285255257",
      "longitude": "-90.04229963317827"
    }
  },
  {
    "service_request": "2022-892714",
    "request_type": "Safety & Permits",
    "request_reason": "Licenses & Permits",
    "date_created": "2022-06-17T20:41:29.000",
    "date_modified": "2022-06-17T20:41:29.000",
    "request_status": "Pending",
    "responsible_agency": "Safety and Permits",
    "final_address": "721 Seventh St",
    "address_councildis": "B",
    "status": "Pending",
    "rowid": "892714",
    "final_x": "3677125.86971",
    "final_y": "519302.421879",
    "longitude": "-90.08230346202996",
    "latitude": "29.92203344934166",
    "geocoded_column": {
      "latitude": "29.92203344934166",
      "longitude": "-90.08230346202996"
    }
  },
  {
    "service_request": "2022-892713",
    "request_type": "Trash/Recycling",
    "request_reason": "Illegal Dumping",
    "date_created": "2022-06-17T20:12:49.000",
    "date_modified": "2022-06-17T20:12:50.000",
    "request_status": "Pending",
    "responsible_agency": "Department of Sanitation",
    "final_address": "BELFAST ST & DANTE ST",
    "address_councildis": "A",
    "status": "Pending",
    "rowid": "892713",
    "final_x": "3665057.1",
    "final_y": "532850.08",
    "longitude": "-90.119946823525",
    "latitude": "29.959641971270994",
    "geocoded_column": {
      "latitude": "29.959641971270994",
      "longitude": "-90.119946823525"
    }
  },
  {
    "service_request": "2022-892712",
    "request_type": "Traffic Signals/Signs/Striping/Streetlights",
    "request_reason": "Street Light Outage/Malfunction",
    "date_created": "2022-06-17T20:11:49.000",
    "date_modified": "2022-06-17T20:11:49.000",
    "request_status": "Pending",
    "responsible_agency": "Department of Public Works",
    "final_address": "BELFAST ST & DANTE ST",
    "address_councildis": "A",
    "status": "Pending",
    "contractor": "Royal Engineering",
    "rowid": "892712",
    "final_x": "3665057.1",
    "final_y": "532850.08",
    "longitude": "-90.119946823525",
    "latitude": "29.959641971270994",
    "geocoded_column": {
      "latitude": "29.959641971270994",
      "longitude": "-90.119946823525"
    }
  },