[
  {
    "service_request": "2023-1008052",
    "request_type": "Trash/Recycling",
    "request_reason": "Illegal Dumping",
    "date_created": "2023-06-12T23:57:10.000",
    "date_modified": "2023-06-12T23:57:10.000",
    "request_status": "Pending",
    "responsible_agency": "Department of Sanitation",
    "final_address": "N CLAIBORNE AVE & URSULINES AVE",
    "address_councildis": "D",
    "status": "Pending",
    "rowid": "1008052",
    "final_x": "3680724.68",
    "final_y": "535739.58",
    "longitude": "-90.07037164369352",
    "latitude": "29.967121608050693",
    "geocoded_column": {
      "latitude": "29.967121608050693",
      "longitude": "-90.07037164369352"
    }
  },
  {
    "service_request": "2023-1008051",
    "request_type": "Traffic Signals/Signs/Striping/Streetlights",
    "request_reason": "Request for Stop Sign",
    "date_created": "2023-06-12T23:18:55.000",
    "date_modified": "2023-06-12T23:18:55.000",
    "request_status": "Pending",
    "responsible_agency": "Department of Public Works",
    "final_address": "6700 BLK Cindy Pl",
    "address_councildis": "E",
    "status": "Pending",
    "rowid": "1008051",
    "final_x": "3707228.82304",
    "final_y": "558747.23728",
    "longitude": "-89.98581762317008",
    "latitude": "30.029554077271175",
    "geocoded_column": {
      "latitude": "30.029554077271175",
      "longitude": "-89.98581762317008"
    }
  },
  {
    "service_request": "2023-1008050",
    "request_type": "Property Maintenance",
    "request_reason": "Property Maintenance",
    "date_created": "2023-06-12T23:05:32.000",
    "date_modified": "2023-06-12T23:05:32.000",
    "request_status": "Pending",
    "responsible_agency": "Department of Code Enforcement",
    "final_address": "6700 BLK Cindy Pl",
    "address_councildis": "E",
    "status": "Pending",
    "rowid": "1008050",
    "final_x": "3707228.82304",
    "final_y": "558747.23728",
    "longitude": "-89.98581762317008",
    "latitude": "30.029554077271175",
    "geocoded_column": {
      "latitude": "30.029554077271175",
      "longitude": "-89.98581762317008"
    }
  },
  {
    "service_request": "2023-1008049",
    "request_type": "Abandoned Vehicles",
    "request_reason": "Vehicle Blocking Your Driveway",
    "date_created": "2023-06-12T23:04:10.000",
    "date_modified": "2023-06-12T23:04:10.000",
    "request_status": "Pending",
    "responsible_agency": "Department of Public Works",
    "final_address": "5151 Wilton Dr",
    "address_councildis": "D",
    "status": "Pending",
    "rowid": "1008049",
    "final_x": "3682029.24892",
    "final_y": "551393.149525",
    "longitude": "-90.0657049258178",
    "latitude": "30.010123800406426",
    "geocoded_column": {
      "latitude": "30.010123800406426",
      "longitude": "-90.0657049258178"
    }
  },
  {
    "service_request": "2023-1008048",
    "request_type": "Property Maintenance",
    "request_reason": "Property Maintenance",
    "date_created": "2023-06-12T22:46:49.000",
    "date_modified": "2023-06-12T22:46:49.000",
    "request_status": "Pending",
    "responsible_agency": "Department of Code Enforcement",
    "final_address": "5143 St Ferdinand Dr",
    "address_councildis": "D",
    "status": "Pending",
    "rowid": "1008048",
    "final_x": "3689108.85385",
    "final_y": "552387.758422",
    "longitude": "-90.04330252926833",
    "latitude": "30.012641354933873",
    "geocoded_column": {
      "latitude": "30.012641354933873",
      "longitude": "-90.04330252926833"
    }
  },
  {
    "service_request": "2023-1008047",
    "request_type": "Property Maintenance",
    "request_reason": "Property Maintenance",
    "date_created": "2023-06-12T22:45:10.000",
    "date_modified": "2023-06-12T22:45:10.000",
    "request_status": "Pending",
    "responsible_agency": "Department of Code Enforcement",
    "final_address": "5143 St Ferdinand Dr",
    "address_councildis": "D",
    "status": "Pending",
    "rowid": "1008047",
    "final_x": "3689108.85385",
    "final_y": "552387.758422",
    "longitude": "-90.04330252926833",
    "latitude": "30.012641354933873",
    "geocoded_column": {
      "latitude": "30.012641354933873",
      "longitude": "-90.04330252926833"
    }
  },
  {
    "service_request": "2023-1008046",
    "request_type": "Property Maintenance",
    "request_reason": "Property Maintenance",
    "date_created": "2023-06-12T22:39:19.000",
    "date_modified": "2023-06-12T22:39:19.000",
    "request_status": "Pending",
    "responsible_agency": "Department of Code Enforcement",
    "final_address": "2346 N Galvez St",
    "address_councildis": "D",
    "status": "Pending",
    "rowid": "1008046",
    "final_x": "3685908.10159",
    "final_y": "540052.894667",
    "longitude": "-90.05385028971652",
    "latitude": "29.978823602887914",
    "geocoded_column": {
      "latitude": "29.978823602887914",
      "longitude": "-90.05385028971652"
    }
  },
  {
    "service_request": "2023-1008045",
    "request_type": "Trash/Recycling",
    "request_reason": "Illegal Dumping",
    "date_created": "2023-06-12T22:26:10.000",
    "date_modified": "2023-06-12T22:26:10.000",
    "request_status": "Pending",
    "responsible_agency": "Department of Sanitation",
    "final_address": "4400 Francis Dr",
    "address_councildis": "D",
    "status": "Pending",
    "rowid": "1008045",
    "final_x": "3698374.11997",
    "final_y": "552469.461462",
    "longitude": "-90.01402659418913",
    "latitude": "30.012575933607966",
    "geocoded_column": {
      "latitude": "30.012575933607966",
      "longitude": "-90.01402659418913"
    }
  },
  {
    "service_request": "2023-1008043",
    "request_type": "Trash/Recycling",
    "request_reason": "Request a Large Item Pick Up",
    "date_created": "2023-06-12T22:17:15.000",
    "date_modified": "2023-06-12T22:17:16.000",
    "request_status": "Pending",
    "responsible_agency": "Department of Sanitation",
    "final_address": "11007 Chaucer St",
    "address_councildis": "E",
    "status": "Assigned to Contractor",
    "contractor": "Waste Pro",
    "rowid": "1008043",
    "final_x": "3713050.53291",
    "final_y": "562152.380895",
    "longitude": "-89.96729302467918",
    "latitude": "30.038727328316085",
    "geocoded_column": {
      "latitude": "30.038727328316085",
      "longitude": "-89.96729302467918"
    }
  },
  {
    "service_request": "2023-1008042",
    "request_type": "Trash/Recycling",
    "request_reason": "Request a Large Item Pick Up",
    "date_created": "2023-06-12T20:41:09.000",
    "date_modified": "2023-06-12T20:41:10.000",
    "request_status": "Pending",
    "responsible_agency": "Department of Sanitation",
    "final_address": "5331 Edenboro Rd",
    "address_councildis": "E",
    "status": "Assigned to Contractor",
    "contractor": "Waste Pro",
    "rowid": "1008042",
    "final_x": "3708428.40388",
    "final_y": "557702.064603",
    "longitude": "-89.98206594889406",
    "latitude": "30.02664141866644",
    "geocoded_column": {
      "latitude": "30.02664141866644",
      "longitude": "-89.98206594889406"
    }
  },
  {
    "service_request": "2023-1008040",
    "request_type": "Trash/Recycling",
    "request_reason": "Missed Trash Pick-Up",
    "date_created": "2023-06-12T20:10:01.000",
    "date_modified": "2023-06-12T20:10:02.000",
    "request_status": "Pending",
    "responsible_agency": "Department of Sanitation",
    "final_address": "3018 Paris Ave",
    "address_councildis": "D",
    "status": "Assigned to Contractor",
    "contractor": "IV Waste",
    "rowid": "1008040",
    "final_x": "3679770.86363",
    "final_y": "543506.474126",
    "longitude": "-90.07311403954843",
    "latitude": "29.988506749234578",
    "geocoded_column": {
      "latitude": "29.988506749234578",
      "longitude": "-90.07311403954843"
    }
  },
  {
    "service_request": "2023-1008039",
    "request_type": "Trash/Recycling",
    "request_reason": "Request a Large Item Pick Up",
    "date_created": "2023-06-12T19:39:08.000",
    "date_modified": "2023-06-12T19:39:09.000",
    "request_status": "Pending",
    "responsible_agency": "Department of Sanitation",
    "final_address": "5436 Constance St",
    "address_councildis": "A",
    "status": "Assigned to Contractor",
    "contractor": "Richards Disposal",
    "rowid": "1008039",
    "final_x": "3666395.61191",
    "final_y": "518430.526902",
    "longitude": "-90.11620375910508",
    "latitude": "29.919953784267715",
    "geocoded_column": {
      "latitude": "29.919953784267715",
      "longitude": "-90.11620375910508"
    }
  },
  {
    "service_request": "2023-1008038",
    "request_type": "Roads/Drainage",
    "request_reason": "Catch Basin - Clogged",
    "date_created": "2023-06-12T19:35:16.000",
    "date_modified": "2023-06-12T19:35:16.000",
    "request_status": "Pending",
    "responsible_agency": "Department of Public Works",
    "final_address": "2200 BLK Valence St",
    "address_councildis": "B",
    "status": "Pending",
    "rowid": "1008038",
    "final_x": "3669511.11993",
    "final_y": "523062.048152",
    "longitude": "-90.10621301560455",
    "latitude": "29.932597629364356",
    "geocoded_column": {
      "latitude": "29.932597629364356",
      "longitude": "-90.10621301560455"
    }
  },
  {
    "service_request": "2023-1008037",
    "request_type": "Parks & Parkways",
    "request_reason": "Request Grass Cutting Service (City Owned Property)",
    "date_created": "2023-06-12T19:23:29.000",
    "date_modified": "2023-06-12T19:23:29.000",
    "request_status": "Pending",
    "responsible_agency": "Department of Parks & Parkway",
    "final_address": "LAKE TERRACE DR & LAKESHORE DR",
    "address_councildis": "D",
    "status": "Pending",
    "rowid": "1008037",
    "final_x": "3676845.1",
    "final_y": "557254.38",
    "longitude": "-90.08188133269877",
    "latitude": "30.02639674597133",
    "geocoded_column": {
      "latitude": "30.02639674597133",
      "longitude": "-90.08188133269877"
    }
  },
  {
    "service_request": "2023-1008036",
    "request_type": "Trash/Recycling",
    "request_reason": "Request a Large Item Pick Up",
    "date_created": "2023-06-12T18:47:04.000",
    "date_modified": "2023-06-12T18:47:05.000",
    "request_status": "Pending",
    "responsible_agency": "Department of Sanitation",
    "final_address": "3141 St Philip St",
    "address_councildis": "A",
    "status": "Assigned to Contractor",
    "contractor": "Richards Disposal",
    "rowid": "1008036",
    "final_x": "3675719.54421",
    "final_y": "539194.374602",
    "longitude": "-90.08605915716954",
    "latitude": "29.97677185812415",
    "geocoded_column": {
      "latitude": "29.97677185812415",
      "longitude": "-90.08605915716954"
    }
  },
  {
    "service_request": "2023-1008035",
    "request_type": "Roads/Drainage",
    "request_reason": "Pothole",
    "date_created": "2023-06-12T18:40:45.000",
    "date_modified": "2023-06-12T18:40:45.000",
    "request_status": "Pending",
    "responsible_agency": "Department of Public Works",
    "final_address": "4649 Chantilly Dr",
    "address_councildis": "E",
    "status": "Pending",
    "rowid": "1008035",
    "final_x": "3701007.96887",
    "final_y": "553718.353303",
    "longitude": "-90.00565942503414",
    "latitude": "30.015926264011714",
    "geocoded_column": {
      "latitude": "30.015926264011714",
      "longitude": "-90.00565942503414"
    }
  },
  {
    "service_request": "2023-1008034",
    "request_type": "Traffic Signals/Signs/Striping/Streetlights",
    "request_reason": "Street Light Outage/Malfunction",
    "date_created": "2023-06-12T18:33:01.000",
    "date_modified": "2023-06-12T18:33:02.000",
    "request_status": "Pending",
    "responsible_agency": "Department of Public Works",
    "final_address": "125 20Th St",
    "address_councildis": "A",
    "status": "Assigned to Contractor",
    "contractor": "Legacy Professional Services",
    "rowid": "1008034",
    "final_x": "3665957.89991",
    "final_y": "549049.956755",
    "longitude": "-90.11655906874422",
    "latitude": "30.004159916418892",
    "geocoded_column": {
      "latitude": "30.004159916418892",
      "longitude": "-90.11655906874422"
    }
  },
  {
    "service_request": "2023-1008033",
    "request_type": "Mosquito, Termite & Rodent Control",
    "request_reason": "Rodent Complaint (Rats)",
    "date_created": "2023-06-12T18:21:21.000",
    "date_modified": "2023-06-12T18:21:21.000",
    "request_status": "Pending",
    "responsible_agency": "Mosquito, Termite & Rodent Control Board",
    "final_address": "5928 Pauline Dr",
    "address_councildis": "D",
    "status": "Pending",
    "rowid": "1008033",
    "final_x": "3691447.77718",
    "final_y": "555951.413977",
    "longitude": "-90.03578534925698",
    "latitude": "30.022367466708676",
    "geocoded_column": {
      "latitude": "30.022367466708676",
      "longitude": "-90.03578534925698"
    }
  },
  {
    "service_request": "2023-1008032",
    "request_type": "Trash/Recycling",
    "request_reason": "Request a Large Item Pick Up",
    "date_created": "2023-06-12T18:16:04.000",
    "date_modified": "2023-06-12T18:16:05.000",
    "request_status": "Pending",
    "responsible_agency": "Department of Sanitation",
    "final_address": "919 Hagan St",
    "address_councildis": "A",
    "status": "Assigned to Contractor",
    "contractor": "Richards Disposal",
    "rowid": "1008032",
    "final_x": "3675197.55541",
    "final_y": "539225.452362",
    "longitude": "-90.08770669629075",
    "latitude": "29.976872924464825",
    "geocoded_column": {
      "latitude": "29.976872924464825",
      "longitude": "-90.08770669629075"
    }
  },
  {
    "service_request": "2023-1008031",
    "request_type": "Traffic Signals/Signs/Striping/Streetlights",
    "request_reason": "Additional signage",
    "date_created": "2023-06-12T18:09:58.000",
    "date_modified": "2023-06-12T18:09:58.000",
    "request_status": "Pending",
    "responsible_agency": "Department of Public Works",
    "final_address": "3219 Joseph St",
    "address_councildis": "A",
    "status": "Pending",
    "rowid": "1008031",
    "final_x": "3668125.00884",
    "final_y": "527573.350655",
    "longitude": "-90.11043687009123",
    "latitude": "29.945043003759224",
    "geocoded_column": {
      "latitude": "29.945043003759224",
      "longitude": "-90.11043687009123"
    }
  },
  {
    "service_request": "2023-1008030",
    "request_type": "Property Maintenance",
    "request_reason": "Property Maintenance",
    "date_created": "2023-06-12T18:08:42.000",
    "date_modified": "2023-06-12T18:08:42.000",
    "request_status": "Pending",
    "responsible_agency": "Department of Code Enforcement",
    "final_address": "5922 Pauline Dr",
    "address_councildis": "D",
    "status": "Pending",
    "rowid": "1008030",
    "final_x": "3691507.16348",
    "final_y": "555910.061977",
    "longitude": "-90.03559918350464",
    "latitude": "30.022251914985468",
    "geocoded_column": {
      "latitude": "30.022251914985468",
      "longitude": "-90.03559918350464"
    }
  },
  {
    "service_request": "2023-1008029",
    "request_type": "Property Maintenance",
    "request_reason": "Property Maintenance",
    "date_created": "2023-06-12T18:07:36.000",
    "date_modified": "2023-06-12T18:07:36.000",
    "request_status": "Pending",
    "responsible_agency": "Department of Code Enforcement",
    "final_address": "5917 Debore Dr",
    "address_councildis": "D",
    "status": "Pending",
    "rowid": "1008029",
    "final_x": "3691351.35062",
    "final_y": "555825.624345",
    "longitude": "-90.036094532445",
    "latitude": "30.022024594436857",
    "geocoded_column": {
      "latitude": "30.022024594436857",
      "longitude": "-90.036094532445"
    }
  },
  {
    "service_request": "2023-1008028",
    "request_type": "Trash/Recycling",
    "request_reason": "Request a Large Item Pick Up",
    "date_created": "2023-06-12T17:53:55.000",
    "date_modified": "2023-06-12T17:53:55.000",
    "request_status": "Pending",
    "responsible_agency": "Department of Sanitation",
    "final_address": "4323 Vixen St",
    "address_councildis": "C",
    "status": "Assigned to Contractor",
    "contractor": "Richards Disposal",
    "rowid": "1008028",
    "final_x": "3699517.86109",
    "final_y": "520650.359673",
    "longitude": "-90.01157267668405",
    "latitude": "29.925048597446466",
    "geocoded_column": {
      "latitude": "29.925048597446466",
      "longitude": "-90.01157267668405"
    }
  },
  {
    "service_request": "2023-1008027",
    "request_type": "Roads/Drainage",
    "request_reason": "Damaged Sidewalk",
    "date_created": "2023-06-12T17:53:47.000",
    "date_modified": "2023-06-12T17:53:47.000",
    "request_status": "Pending",
    "responsible_agency": "Department of Public Works",
    "final_address": "2060 Mirabeau Ave",
    "address_councildis": "D",
    "status": "Pending",
    "rowid": "1008027",
    "final_x": "3682928.00898",
    "final_y": "550549.8253",
    "longitude": "-90.06289495497816",
    "latitude": "30.00777759411963",
    "geocoded_column": {
      "latitude": "30.00777759411963",
      "longitude": "-90.06289495497816"
    }
  },
  {
    "service_request": "2023-1008026",
    "request_type": "Trash/Recycling",
    "request_reason": "Request a Large Item Pick Up",
    "date_created": "2023-06-12T17:50:06.000",
    "date_modified": "2023-06-12T17:50:06.000",
    "request_status": "Pending",
    "responsible_agency": "Department of Sanitation",
    "final_address": "939 Iberville St Apt 509",
    "address_councildis": "C",
    "status": "Assigned to Contractor",
    "contractor": "Empire Services",
    "rowid": "1008026",
    "final_x": "3680661.65544",
    "final_y": "531679.765763",
    "longitude": "-90.07071195162636",
    "latitude": "29.955960412090754",
    "geocoded_column": {
      "latitude": "29.955960412090754",
      "longitude": "-90.07071195162636"
    }
  },
  {
    "service_request": "2023-1008025",
    "request_type": "Trash/Recycling",
    "request_reason": "Order Recycling Cart",
    "date_created": "2023-06-12T17:32:22.000",
    "date_modified": "2023-06-12T17:32:22.000",
    "request_status": "Pending",
    "responsible_agency": "Department of Sanitation",
    "final_address": "2326 N Robertson St",
    "address_councildis": "C",
    "status": "Pending",
    "rowid": "1008025",
    "final_x": "3685883.53353",
    "final_y": "537825.0306",
    "longitude": "-90.05400644630909",
    "latitude": "29.972698512344575",
    "geocoded_column": {
      "latitude": "29.972698512344575",
      "longitude": "-90.05400644630909"
    }
  },
  {
    "service_request": "2023-1008024",
    "request_type": "Trash/Recycling",
    "request_reason": "Order Trash Cart",
    "date_created": "2023-06-12T17:31:41.000",
    "date_modified": "2023-06-12T17:31:41.000",
    "request_status": "Pending",
    "responsible_agency": "Department of Sanitation",
    "final_address": "2326 N Robertson St",
    "address_councildis": "C",
    "status": "Assigned to Contractor",
    "contractor": "IV Waste",
    "rowid": "1008024",
    "final_x": "3685883.53353",
    "final_y": "537825.0306",
    "longitude": "-90.05400644630909",
    "latitude": "29.972698512344575",
    "geocoded_column": {
      "latitude": "29.972698512344575",
      "longitude": "-90.05400644630909"
    }
  },
  {
    "service_request": "2023-1008023",
    "request_type": "Trash/Recycling",
    "request_reason": "Start Trash Service",
    "date_created": "2023-06-12T17:30:09.000",
    "date_modified": "2023-06-12T17:30:10.000",
    "request_status": "Pending",
    "responsible_agency": "Department of Sanitation",
    "final_address": "2300 Loyola Ave",
    "address_councildis": "B",
    "status": "Assigned to Contractor",
    "contractor": "Richards Disposal",
    "rowid": "1008023",
    "final_x": "3675926.26049",
    "final_y": "525059.423613",
    "longitude": "-90.08589229209984",
    "latitude": "29.937899292281635",
    "geocoded_column": {
      "latitude": "29.937899292281635",
      "longitude": "-90.08589229209984"
    }
  },
  {
    "service_request": "2023-1008022",
    "request_type": "Abandoned Vehicles",
    "request_reason": "Abandoned/Junk Vehicles",
    "date_created": "2023-06-12T17:22:49.000",
    "date_modified": "2023-06-12T17:22:49.000",
    "request_status": "Pending",
    "responsible_agency": "Department of Public Works",
    "final_address": "430 36th St, New Orleans, Louisiana, 70124",
    "address_councildis": "A",
    "status": "Pending",
    "rowid": "1008022",
    "final_x": "3664615.52647",
    "final_y": "551910.943446",
    "longitude": "-90.12070423487854",
    "latitude": "30.012065765459873",
    "geocoded_column": {
      "latitude": "30.012065765459873",
      "longitude": "-90.12070423487854"
    }
  },
  {
    "service_request": "2023-1008021",
    "request_type": "Trash/Recycling",
    "request_reason": "Request a Large Item Pick Up",
    "date_created": "2023-06-12T17:21:25.000",
    "date_modified": "2023-06-12T17:21:26.000",
    "request_status": "Pending",
    "responsible_agency": "Department of Sanitation",
    "final_address": "2950 Falmouth Dr",
    "address_councildis": "C",
    "status": "Assigned to Contractor",
    "contractor": "Richards Disposal",
    "rowid": "1008021",
    "final_x": "3706706.07467",
    "final_y": "519687.391608",
    "longitude": "-89.98891767014378",
    "latitude": "29.9221708169779",
    "geocoded_column": {
      "latitude": "29.9221708169779",
      "longitude": "-89.98891767014378"
    }
  },
  {
    "service_request": "2023-1008020",
    "request_type": "Traffic Signals/Signs/Striping/Streetlights",
    "request_reason": "Street Light Outage/Malfunction",
    "date_created": "2023-06-12T17:21:06.000",
    "date_modified": "2023-06-12T17:21:06.000",
    "request_status": "Pending",
    "responsible_agency": "Department of Public Works",
    "final_address": "5426 Royal St",
    "address_councildis": "E",
    "status": "Assigned to Contractor",
    "contractor": "Legacy Professional Services",
    "rowid": "1008020",
    "final_x": "3696958.97149",
    "final_y": "532391.210947",
    "longitude": "-90.0192251735729",
    "latitude": "29.957412780620217",
    "geocoded_column": {
      "latitude": "29.957412780620217",
      "longitude": "-90.0192251735729"
    }
  },
  {
    "service_request": "2023-1008018",
    "request_type": "Roads/Drainage",
    "request_reason": "Pothole",
    "date_created": "2023-06-12T17:19:16.000",
    "date_modified": "2023-06-12T17:19:16.000",
    "request_status": "Pending",
    "responsible_agency": "Department of Public Works",
    "final_address": "500 N Carrollton Ave",
    "address_councildis": "A",
    "status": "Pending",
    "rowid": "1008018",
    "final_x": "3672388.13723",
    "final_y": "539543.875082",
    "longitude": "-90.09656889126259",
    "latitude": "29.977832156177136",
    "geocoded_column": {
      "latitude": "29.977832156177136",
      "longitude": "-90.09656889126259"
    }
  },
  {
    "service_request": "2023-1008017",
    "request_type": "Roads/Drainage",
    "request_reason": "Street Flooding / Drainage",
    "date_created": "2023-06-12T17:16:06.000",
    "date_modified": "2023-06-12T17:16:06.000",
    "request_status": "Pending",
    "responsible_agency": "Department of Public Works",
    "final_address": "2000 BLK Filmore Ave",
    "address_councildis": "D",
    "status": "Pending",
    "rowid": "1008017",
    "final_x": "3682424.35952",
    "final_y": "552186.272055",
    "longitude": "-90.06442887785227",
    "latitude": "30.01229257509666",
    "geocoded_column": {
      "latitude": "30.01229257509666",
      "longitude": "-90.06442887785227"
    }
  },
  {
    "service_request": "2023-1008016",
    "request_type": "Traffic Signals/Signs/Striping/Streetlights",
    "request_reason": "Traffic Signal Malfunctioning/Damaged",
    "date_created": "2023-06-12T16:59:39.000",
    "date_modified": "2023-06-12T16:59:40.000",
    "request_status": "Pending",
    "responsible_agency": "Department of Public Works",
    "final_address": "PONTCHARTRAIN BLVD & VETERANS HWY & POLK AVE",
    "address_councildis": "A",
    "status": "Pending",
    "rowid": "1008016",
    "final_x": "3666077.8",
    "final_y": "547430.48",
    "longitude": "-90.11623462521324",
    "latitude": "29.9997034127852",
    "geocoded_column": {
      "latitude": "29.9997034127852",
      "longitude": "-90.11623462521324"
    }
  },
  {
    "service_request": "2023-1008015",
    "request_type": "Trash/Recycling",
    "request_reason": "Request a Large Item Pick Up",
    "date_created": "2023-06-12T16:58:58.000",
    "date_modified": "2023-06-12T16:58:59.000",
    "request_status": "Pending",
    "responsible_agency": "Department of Sanitation",
    "final_address": "7711 Means Ave",
    "address_councildis": "E",
    "status": "Assigned to Contractor",
    "contractor": "Waste Pro",
    "rowid": "1008015",
    "final_x": "3708016.57483",
    "final_y": "564982.83581",
    "longitude": "-89.98309616967384",
    "latitude": "30.0466740042263",
    "geocoded_column": {
      "latitude": "30.0466740042263",
      "longitude": "-89.98309616967384"
    }
  },
  {
    "service_request": "2023-1008014",
    "request_type": "Traffic Signals/Signs/Striping/Streetlights",
    "request_reason": "Street Light Outage/Malfunction",
    "date_created": "2023-06-12T16:55:46.000",
    "date_modified": "2023-06-12T16:55:47.000",
    "request_status": "Pending",
    "responsible_agency": "Department of Public Works",
    "final_address": "323 Opelousas Ave",
    "address_councildis": "C",
    "status": "Assigned to Contractor",
    "contractor": "Legacy Professional Services",
    "rowid": "1008014",
    "final_x": "3686313.68732",
    "final_y": "528991.298432",
    "longitude": "-90.05295968529492",
    "latitude": "29.948395584747722",
    "geocoded_column": {
      "latitude": "29.948395584747722",
      "longitude": "-90.05295968529492"
    }
  },
  {
    "service_request": "2023-1008013",
    "request_type": "Trash/Recycling",
    "request_reason": "Illegal Dumping",
    "date_created": "2023-06-12T16:55:01.000",
    "date_modified": "2023-06-12T16:55:01.000",
    "request_status": "Pending",
    "responsible_agency": "Department of Sanitation",
    "final_address": "2929 Orleans Ave",
    "address_councildis": "A",
    "status": "Pending",
    "rowid": "1008013",
    "final_x": "3675900.98139",
    "final_y": "537749.627272",
    "longitude": "-90.08553581094313",
    "latitude": "29.972793865254754",
    "geocoded_column": {
      "latitude": "29.972793865254754",
      "longitude": "-90.08553581094313"
    }
  },
  {
    "service_request": "2023-1008012",
    "request_type": "Trash/Recycling",
    "request_reason": "Request a Large Item Pick Up",
    "date_created": "2023-06-12T16:54:33.000",
    "date_modified": "2023-06-12T16:54:33.000",
    "request_status": "Pending",
    "responsible_agency": "Department of Sanitation",
    "final_address": "523 Burgundy St",
    "address_councildis": "C",
    "status": "Assigned to Contractor",
    "contractor": "Empire Services",
    "rowid": "1008012",
    "final_x": "3681329.72412",
    "final_y": "532697.852292",
    "longitude": "-90.06856693861894",
    "latitude": "29.95873954553152",
    "geocoded_column": {
      "latitude": "29.95873954553152",
      "longitude": "-90.06856693861894"
    }
  },
  {
    "service_request": "2023-1008011",
    "request_type": "Trash/Recycling",
    "request_reason": "Order Trash Cart",
    "date_created": "2023-06-12T16:53:17.000",
    "date_modified": "2023-06-12T16:53:18.000",
    "request_status": "Pending",
    "responsible_agency": "Department of Sanitation",
    "final_address": "1912 Touro St",
    "address_councildis": "D",
    "status": "Assigned to Contractor",
    "contractor": "IV Waste",
    "rowid": "1008011",
    "final_x": "3683952.51497",
    "final_y": "539342.945738",
    "longitude": "-90.06005167969523",
    "latitude": "29.976931390236473",
    "geocoded_column": {
      "latitude": "29.976931390236473",
      "longitude": "-90.06005167969523"
    }
  },
  {
    "service_request": "2023-1008010",
    "request_type": "Trash/Recycling",
    "request_reason": "Order Recycling Cart",
    "date_created": "2023-06-12T16:52:41.000",
    "date_modified": "2023-06-12T16:52:42.000",
    "request_status": "Pending",
    "responsible_agency": "Department of Sanitation",
    "final_address": "1912 Touro St",
    "address_councildis": "D",
    "status": "Pending",
    "rowid": "1008010",
    "final_x": "3683952.51497",
    "final_y": "539342.945738",
    "longitude": "-90.06005167969523",
    "latitude": "29.976931390236473",
    "geocoded_column": {
      "latitude": "29.976931390236473",
      "longitude": "-90.06005167969523"
    }
  },
  {
    "service_request": "2023-1008008",
    "request_type": "Trash/Recycling",
    "request_reason": "Request a Large Item Pick Up",
    "date_created": "2023-06-12T16:50:53.000",
    "date_modified": "2023-06-12T16:50:54.000",
    "request_status": "Pending",
    "responsible_agency": "Department of Sanitation",
    "final_address": "2104 Brainard St",
    "address_councildis": "B",
    "status": "Assigned to Contractor",
    "contractor": "Richards Disposal",
    "rowid": "1008008",
    "final_x": "3677465.33922",
    "final_y": "524397.225532",
    "longitude": "-90.08105613799965",
    "latitude": "29.93603230350768",
    "geocoded_column": {
      "latitude": "29.93603230350768",
      "longitude": "-90.08105613799965"
    }
  },
  {
    "service_request": "2023-1008006",
    "request_type": "Trash/Recycling",
    "request_reason": "Missed Trash Pick-Up",
    "date_created": "2023-06-12T16:36:46.000",
    "date_modified": "2023-06-12T16:36:47.000",
    "request_status": "Pending",
    "responsible_agency": "Department of Sanitation",
    "final_address": "725 Hagan St",
    "address_councildis": "A",
    "status": "Assigned to Contractor",
    "contractor": "Richards Disposal",
    "rowid": "1008006",
    "final_x": "3674762.31803",
    "final_y": "538649.247113",
    "longitude": "-90.08910107657262",
    "latitude": "29.975301559389216",
    "geocoded_column": {
      "latitude": "29.975301559389216",
      "longitude": "-90.08910107657262"
    }
  },
  {
    "service_request": "2023-1008005",
    "request_type": "Trash/Recycling",
    "request_reason": "Illegal Dumping",
    "date_created": "2023-06-12T16:31:25.000",
    "date_modified": "2023-06-12T16:31:25.000",
    "request_status": "Pending",
    "responsible_agency": "Department of Sanitation",
    "final_address": "3301 St Philip St",
    "address_councildis": "A",
    "status": "Pending",
    "rowid": "1008005",
    "final_x": "3675373.58933",
    "final_y": "539457.162122",
    "longitude": "-90.08714276578908",
    "latitude": "29.977504783920264",
    "geocoded_column": {
      "latitude": "29.977504783920264",
      "longitude": "-90.08714276578908"
    }
  },
  {
    "service_request": "2023-1008003",
    "request_type": "Trash/Recycling",
    "request_reason": "Missed Trash Pick-Up",
    "date_created": "2023-06-12T16:30:55.000",
    "date_modified": "2023-06-12T16:30:55.000",
    "request_status": "Pending",
    "responsible_agency": "Department of Sanitation",
    "final_address": "2700 BLK Banks St",
    "address_councildis": "B",
    "status": "Assigned to Contractor",
    "contractor": "Richards Disposal",
    "rowid": "1008003",
    "final_x": "3674273.1524",
    "final_y": "534429.694708",
    "longitude": "-90.09079050597947",
    "latitude": "29.96371381506504",
    "geocoded_column": {
      "latitude": "29.96371381506504",
      "longitude": "-90.09079050597947"
    }
  },
  {
    "service_request": "2023-1008002",
    "request_type": "Trash/Recycling",
    "request_reason": "Order Trash Cart",
    "date_created": "2023-06-12T16:25:59.000",
    "date_modified": "2023-06-12T16:25:59.000",
    "request_status": "Pending",
    "responsible_agency": "Department of Sanitation",
    "final_address": "118 Oaktree Dr",
    "address_councildis": "A",
    "status": "Assigned to Contractor",
    "contractor": "IV Waste",
    "rowid": "1008002",
    "final_x": "3665451.01581",
    "final_y": "544864.536207",
    "longitude": "-90.11830062332645",
    "latitude": "29.992666236691193",
    "geocoded_column": {
      "latitude": "29.992666236691193",
      "longitude": "-90.11830062332645"
    }
  },
  {
    "service_request": "2023-1008001",
    "request_type": "Trash/Recycling",
    "request_reason": "Request a Large Item Pick Up",
    "date_created": "2023-06-12T16:23:58.000",
    "date_modified": "2023-06-12T16:23:59.000",
    "request_status": "Pending",
    "responsible_agency": "Department of Sanitation",
    "final_address": "8925 Fig St",
    "address_councildis": "A",
    "status": "Assigned to Contractor",
    "contractor": "Richards Disposal",
    "rowid": "1008001",
    "final_x": "3664096.12749",
    "final_y": "535202.769862",
    "longitude": "-90.12290288785279",
    "latitude": "29.96613904359966",
    "geocoded_column": {
      "latitude": "29.96613904359966",
      "longitude": "-90.12290288785279"
    }
  },
  {
    "service_request": "2023-1008000",
    "request_type": "Trash/Recycling",
    "request_reason": "Repair Trash Cart",
    "date_created": "2023-06-12T16:22:55.000",
    "date_modified": "2023-06-12T16:22:55.000",
    "request_status": "Pending",
    "responsible_agency": "Department of Sanitation",
    "final_address": "2809 S Prieur St",
    "address_councildis": "B",
    "status": "Assigned to Contractor",
    "contractor": "Richards Disposal",
    "rowid": "1008000",
    "final_x": "3672390.03681",
    "final_y": "527532.985343",
    "longitude": "-90.09697220561603",
    "latitude": "29.9448061625944",
    "geocoded_column": {
      "latitude": "29.9448061625944",
      "longitude": "-90.09697220561603"
    }
  },
  {
    "service_request": "2023-1007999",
    "request_type": "Trash/Recycling",
    "request_reason": "Repair Trash Cart",
    "date_created": "2023-06-12T16:20:28.000",
    "date_modified": "2023-06-12T17:36:44.000",
    "request_status": "Pending",
    "responsible_agency": "Department of Sanitation",
    "final_address": "2725 Tulane Ave",
    "address_councildis": "B",
    "contractor": "Richards Disposal",
    "rowid": "1007999",
    "final_x": "3674115.08884",
    "final_y": "533916.126277",
    "longitude": "-90.09130723502992",
    "latitude": "29.962306386428974",
    "geocoded_column": {
      "latitude": "29.962306386428974",
      "longitude": "-90.09130723502992"
    }
  },
  {
    "service_request": "2023-1007998",
    "request_type": "Roads/Drainage",
    "request_reason": "Pothole",
    "date_created": "2023-06-12T16:19:31.000",
    "date_modified": "2023-06-12T16:19:31.000",
    "request_status": "Pending",
    "responsible_agency": "Department of Public Works",
    "final_address": "2420 Behrman Hwy",
    "address_councildis": "C",
    "status": "Pending",
    "rowid": "1007998",
    "final_x": "3692048.57161",
    "final_y": "521488.831161",
    "longitude": "-90.0351207292212",
    "latitude": "29.927588910951254",
    "geocoded_column": {
      "latitude": "29.927588910951254",
      "longitude": "-90.0351207292212"
    }
  },
  {
    "service_request": "2023-1007997",
    "request_type": "Abandoned Vehicles",
    "request_reason": "Abandoned/Junk Vehicles",
    "date_created": "2023-06-12T16:07:05.000",
    "date_modified": "2023-06-12T16:07:05.000",
    "request_status": "Pending",
    "responsible_agency": "Department of Public Works",
    "final_address": "503 Washington Ave, New Orleans, Louisiana, 70130",
    "address_councildis": "B",
    "status": "Pending",
    "rowid": "1007997",
    "final_x": "3678302.76002",
    "final_y": "519027.153015",
    "longitude": "-90.07859802571423",
    "latitude": "29.92124116526272",
    "geocoded_column": {
      "latitude": "29.92124116526272",
      "longitude": "-90.07859802571423"
    }
  },
  {
    "service_request": "2023-1007996",
    "request_type": "Parks & Parkways",
    "request_reason": "Request Tree Service (Right of Way/Public Property)",
    "date_created": "2023-06-12T16:03:55.000",
    "date_modified": "2023-06-12T16:03:56.000",
    "request_status": "Pending",
    "responsible_agency": "Department of Parks & Parkway",
    "final_address": "4801 Lonely Oak Dr",
    "address_councildis": "E",
    "status": "Pending",
    "rowid": "1007996",
    "final_x": "3702362.45719",
    "final_y": "554610.183896",
    "longitude": "-90.00134712271661",
    "latitude": "30.018335234107713",
    "geocoded_column": {
      "latitude": "30.018335234107713",
      "longitude": "-90.00134712271661"
    }
  },
  {
    "service_request": "2023-1007995",
    "request_type": "Trash/Recycling",
    "request_reason": "Order Trash Cart",
    "date_created": "2023-06-12T16:02:49.000",
    "date_modified": "2023-06-12T16:02:50.000",
    "request_status": "Pending",
    "responsible_agency": "Department of Sanitation",
    "final_address": "345 Wagner St",
    "address_councildis": "C",
    "status": "Assigned to Contractor",
    "contractor": "Richards Disposal",
    "rowid": "1007995",
    "final_x": "3690555.2671",
    "final_y": "530272.117377",
    "longitude": "-90.03952164008138",
    "latitude": "29.95178639124781",
    "geocoded_column": {
      "latitude": "29.95178639124781",
      "longitude": "-90.03952164008138"
    }
  },
  {
    "service_request": "2023-1007994",
    "request_type": "Trash/Recycling",
    "request_reason": "Missed Trash Pick-Up",
    "date_created": "2023-06-12T15:58:10.000",
    "date_modified": "2023-06-12T15:58:11.000",
    "request_status": "Pending",
    "responsible_agency": "Department of Sanitation",
    "final_address": "3200 BLK Banks St",
    "address_councildis": "B",
    "status": "Assigned to Contractor",
    "contractor": "Richards Disposal",
    "rowid": "1007994",
    "final_x": "3672986.71764",
    "final_y": "535362.008788",
    "longitude": "-90.09482112312286",
    "latitude": "29.966315660920028",
    "geocoded_column": {
      "latitude": "29.966315660920028",
      "longitude": "-90.09482112312286"
    }
  },
  {
    "service_request": "2023-1007993",
    "request_type": "Roads/Drainage",
    "request_reason": "Pothole",
    "date_created": "2023-06-12T15:56:02.000",
    "date_modified": "2023-06-12T15:56:02.000",
    "request_status": "Pending",
    "responsible_agency": "Department of Public Works",
    "final_address": "203 Rhodes Ave",
    "address_councildis": "C",
    "status": "Pending",
    "rowid": "1007993",
    "final_x": "3706190.37195",
    "final_y": "519311.706231",
    "longitude": "-89.99055941325352",
    "latitude": "29.921154440347443",
    "geocoded_column": {
      "latitude": "29.921154440347443",
      "longitude": "-89.99055941325352"
    }
  },
  {
    "service_request": "2023-1007992",
    "request_type": "Trash/Recycling",
    "request_reason": "Request a Large Item Pick Up",
    "date_created": "2023-06-12T15:55:52.000",
    "date_modified": "2023-06-12T15:55:53.000",
    "request_status": "Pending",
    "responsible_agency": "Department of Sanitation",
    "final_address": "4884 Cardenas Dr",
    "address_councildis": "E",
    "status": "Assigned to Contractor",
    "contractor": "Waste Pro",
    "rowid": "1007992",
    "final_x": "3713531.88779",
    "final_y": "557158.548187",
    "longitude": "-89.96596015739834",
    "latitude": "30.024980491805888",
    "geocoded_column": {
      "latitude": "30.024980491805888",
      "longitude": "-89.96596015739834"
    }
  },
  {
    "service_request": "2023-1007991",
    "request_type": "Property Maintenance",
    "request_reason": "Property Maintenance",
    "date_created": "2023-06-12T15:55:35.000",
    "date_modified": "2023-06-12T15:55:35.000",
    "request_status": "Pending",
    "responsible_agency": "Department of Code Enforcement",
    "final_address": "5260 Revel St",
    "address_councildis": "E",
    "status": "Pending",
    "rowid": "1007991",
    "final_x": "3725015.19097",
    "final_y": "562870.764512",
    "longitude": "-89.92945414626176",
    "latitude": "30.0403049550689",
    "geocoded_column": {
      "latitude": "30.0403049550689",
      "longitude": "-89.92945414626176"
    }
  },
  {
    "service_request": "2023-1007990",
    "request_type": "Roads/Drainage",
    "request_reason": "Pothole",
    "date_created": "2023-06-12T15:53:13.000",
    "date_modified": "2023-06-12T15:53:13.000",
    "request_status": "Pending",
    "responsible_agency": "Department of Public Works",
    "final_address": "8026 Spruce St",
    "address_councildis": "A",
    "status": "Pending",
    "rowid": "1007990",
    "final_x": "3663986.71866",
    "final_y": "530284.474241",
    "longitude": "-90.1234124049381",
    "latitude": "29.952618512722502",
    "geocoded_column": {
      "latitude": "29.952618512722502",
      "longitude": "-90.1234124049381"
    }
  },
  {
    "service_request": "2023-1007989",
    "request_type": "Trash/Recycling",
    "request_reason": "MIssed Recycling Pick-Up",
    "date_created": "2023-06-12T15:48:53.000",
    "date_modified": "2023-06-12T15:48:54.000",
    "request_status": "Pending",
    "responsible_agency": "Department of Sanitation",
    "final_address": "7501 Anne Marie Ct",
    "address_councildis": "E",
    "status": "Assigned to Contractor",
    "contractor": "Waste Pro",
    "rowid": "1007989",
    "final_x": "3718466.75692",
    "final_y": "570726.404071",
    "longitude": "-89.94984931981011",
    "latitude": "30.062123705258955",
    "geocoded_column": {
      "latitude": "30.062123705258955",
      "longitude": "-89.94984931981011"
    }
  },
  {
    "service_request": "2023-1007988",
    "request_type": "Trash/Recycling",
    "request_reason": "Repair Trash Cart",
    "date_created": "2023-06-12T15:39:58.000",
    "date_modified": "2023-06-12T15:39:59.000",
    "request_status": "Pending",
    "responsible_agency": "Department of Sanitation",
    "final_address": "5116 Bayouview Ct",
    "address_councildis": "E",
    "status": "Assigned to Contractor",
    "contractor": "Waste Pro",
    "rowid": "1007988",
    "final_x": "3699093.2538",
    "final_y": "556202.993562",
    "longitude": "-90.01161847886243",
    "latitude": "30.022818942968602",
    "geocoded_column": {
      "latitude": "30.022818942968602",
      "longitude": "-90.01161847886243"
    }
  },
  {
    "service_request": "2023-1007987",
    "request_type": "Abandoned Vehicles",
    "request_reason": "Abandoned/Junk Vehicles",
    "date_created": "2023-06-12T15:36:42.000",
    "date_modified": "2023-06-12T15:36:42.000",
    "request_status": "Pending",
    "responsible_agency": "Department of Public Works",
    "final_address": "4100 BLK Orleans Ave",
    "address_councildis": "A",
    "status": "Pending",
    "rowid": "1007987",
    "final_x": "3672212.65521",
    "final_y": "540560.162106",
    "longitude": "-90.09708849515505",
    "latitude": "29.98063180607939",
    "geocoded_column": {
      "latitude": "29.98063180607939",
      "longitude": "-90.09708849515505"
    }
  },
  {
    "service_request": "2023-1007986",
    "request_type": "Trash/Recycling",
    "request_reason": "Repair Recycling Cart",
    "date_created": "2023-06-12T15:35:37.000",
    "date_modified": "2023-06-12T15:35:39.000",
    "request_status": "Pending",
    "responsible_agency": "Department of Sanitation",
    "final_address": "2600 Comet St",
    "address_councildis": "C",
    "status": "Pending",
    "rowid": "1007986",
    "final_x": "3699891.16048",
    "final_y": "521456.933241",
    "longitude": "-90.01036490202578",
    "latitude": "29.9272545516801",
    "geocoded_column": {
      "latitude": "29.9272545516801",
      "longitude": "-90.01036490202578"
    }
  },
  {
    "service_request": "2023-1007985",
    "request_type": "Trash/Recycling",
    "request_reason": "Return Trash Cart",
    "date_created": "2023-06-12T15:30:07.000",
    "date_modified": "2023-06-12T15:30:08.000",
    "request_status": "Pending",
    "responsible_agency": "Department of Sanitation",
    "final_address": "1316 Jefferson Ave",
    "address_councildis": "A",
    "status": "Assigned to Contractor",
    "contractor": "Richards Disposal",
    "rowid": "1007985",
    "final_x": "3666983.81402",
    "final_y": "520214.006328",
    "longitude": "-90.114287190637",
    "latitude": "29.924840597977575",
    "geocoded_column": {
      "latitude": "29.924840597977575",
      "longitude": "-90.114287190637"
    }
  },
  {
    "service_request": "2023-1007984",
    "request_type": "Trash/Recycling",
    "request_reason": "Request a Large Item Pick Up",
    "date_created": "2023-06-12T15:29:53.000",
    "date_modified": "2023-06-12T15:29:55.000",
    "request_status": "Pending",
    "responsible_agency": "Department of Sanitation",
    "final_address": "1494 Burbank Dr",
    "address_councildis": "D",
    "status": "Assigned to Contractor",
    "contractor": "IV Waste",
    "rowid": "1007984",
    "final_x": "3678231.65186",
    "final_y": "554270.683352",
    "longitude": "-90.07760331034703",
    "latitude": "30.018150953741422",
    "geocoded_column": {
      "latitude": "30.018150953741422",
      "longitude": "-90.07760331034703"
    }
  },
  {
    "service_request": "2023-1007983",
    "request_type": "Trash/Recycling",
    "request_reason": "Order Recycling Cart",
    "date_created": "2023-06-12T15:29:52.000",
    "date_modified": "2023-06-12T15:29:53.000",
    "request_status": "Pending",
    "responsible_agency": "Department of Sanitation",
    "final_address": "1566 N Dorgenois St",
    "address_councildis": "D",
    "status": "Pending",
    "rowid": "1007983",
    "final_x": "3679501.02856",
    "final_y": "539664.464714",
    "longitude": "-90.07409972993683",
    "latitude": "29.977950719173315",
    "geocoded_column": {
      "latitude": "29.977950719173315",
      "longitude": "-90.07409972993683"
    }
  },
  {
    "service_request": "2023-1007982",
    "request_type": "Trash/Recycling",
    "request_reason": "Replace Trash Cart",
    "date_created": "2023-06-12T15:26:45.000",
    "date_modified": "2023-06-12T15:26:47.000",
    "request_status": "Pending",
    "responsible_agency": "Department of Sanitation",
    "final_address": "1667 N Rocheblave St",
    "address_councildis": "D",
    "status": "Assigned to Contractor",
    "contractor": "IV Waste",
    "rowid": "1007982",
    "final_x": "3680268.60181",
    "final_y": "540001.248139",
    "longitude": "-90.07166375327496",
    "latitude": "29.978853540153157",
    "geocoded_column": {
      "latitude": "29.978853540153157",
      "longitude": "-90.07166375327496"
    }
  },
  {
    "service_request": "2023-1007981",
    "request_type": "Trash/Recycling",
    "request_reason": "Replace Trash Cart",
    "date_created": "2023-06-12T15:23:05.000",
    "date_modified": "2023-06-12T15:23:05.000",
    "request_status": "Pending",
    "responsible_agency": "Department of Sanitation",
    "final_address": "4851 Strasbourg Pl",
    "address_councildis": "E",
    "status": "Assigned to Contractor",
    "contractor": "Waste Pro",
    "rowid": "1007981",
    "final_x": "3725880.71398",
    "final_y": "561376.787358",
    "longitude": "-89.92677680973574",
    "latitude": "30.036167948512176",
    "geocoded_column": {
      "latitude": "30.036167948512176",
      "longitude": "-89.92677680973574"
    }
  },
  {
    "service_request": "2023-1007980",
    "request_type": "Abandoned Vehicles",
    "request_reason": "Abandoned/Junk Vehicles",
    "date_created": "2023-06-12T15:21:57.000",
    "date_modified": "2023-06-12T15:21:57.000",
    "request_status": "Pending",
    "responsible_agency": "Department of Public Works",
    "final_address": "3901 Tulane Ave",
    "address_councildis": "B",
    "status": "Pending",
    "rowid": "1007980",
    "final_x": "3670228.07636",
    "final_y": "535970.072263",
    "longitude": "-90.10351227689367",
    "latitude": "29.968069331859475",
    "geocoded_column": {
      "latitude": "29.968069331859475",
      "longitude": "-90.10351227689367"
    }
  },
  {
    "service_request": "2023-1007979",
    "request_type": "Trash/Recycling",
    "request_reason": "MIssed Recycling Pick-Up",
    "date_created": "2023-06-12T15:21:21.000",
    "date_modified": "2023-06-12T15:21:22.000",
    "request_status": "Pending",
    "responsible_agency": "Department of Sanitation",
    "final_address": "423 S Bernadotte St",
    "address_councildis": "A",
    "status": "Assigned to Contractor",
    "contractor": "Richards Disposal",
    "rowid": "1007979",
    "final_x": "3667931.70401",
    "final_y": "538956.189962",
    "longitude": "-90.11066370601611",
    "latitude": "29.97634772726156",
    "geocoded_column": {
      "latitude": "29.97634772726156",
      "longitude": "-90.11066370601611"
    }
  },
  {
    "service_request": "2023-1007978",
    "request_type": "Trash/Recycling",
    "request_reason": "Request a Large Item Pick Up",
    "date_created": "2023-06-12T15:20:50.000",
    "date_modified": "2023-06-12T15:20:52.000",
    "request_status": "Pending",
    "responsible_agency": "Department of Sanitation",
    "final_address": "4516 S Roman St",
    "address_councildis": "B",
    "status": "Assigned to Contractor",
    "contractor": "Richards Disposal",
    "rowid": "1007978",
    "final_x": "3669735.46894",
    "final_y": "526464.347838",
    "longitude": "-90.1053896587823",
    "latitude": "29.941946247754846",
    "geocoded_column": {
      "latitude": "29.941946247754846",
      "longitude": "-90.1053896587823"
    }
  },
  {
    "service_request": "2023-1007977",
    "request_type": "Property Maintenance",
    "request_reason": "Property Maintenance",
    "date_created": "2023-06-12T15:17:50.000",
    "date_modified": "2023-06-12T15:17:50.000",
    "request_status": "Pending",
    "responsible_agency": "Department of Code Enforcement",
    "final_address": "ELMWOOD PARK DR & ELMWOOD ST & ARIZONA ST",
    "address_councildis": "C",
    "status": "Pending",
    "rowid": "1007977",
    "final_x": "3691657.4",
    "final_y": "521313.18",
    "longitude": "-90.03636183449187",
    "latitude": "29.92711810993203",
    "geocoded_column": {
      "latitude": "29.92711810993203",
      "longitude": "-90.03636183449187"
    }
  },
  {
    "service_request": "2023-1007976",
    "request_type": "Trash/Recycling",
    "request_reason": "Repair Trash Cart",
    "date_created": "2023-06-12T15:17:48.000",
    "date_modified": "2023-06-12T15:17:49.000",
    "request_status": "Pending",
    "responsible_agency": "Department of Sanitation",
    "final_address": "1738 Franklin Ave",
    "address_councildis": "D",
    "status": "Assigned to Contractor",
    "contractor": "IV Waste",
    "rowid": "1007976",
    "final_x": "3687648.65993",
    "final_y": "539004.685642",
    "longitude": "-90.04839008780975",
    "latitude": "29.975887841856682",
    "geocoded_column": {
      "latitude": "29.975887841856682",
      "longitude": "-90.04839008780975"
    }
  },
  {
    "service_request": "2023-1007975",
    "request_type": "Traffic Signals/Signs/Striping/Streetlights",
    "request_reason": "Street Light Outage/Malfunction",
    "date_created": "2023-06-12T15:17:46.000",
    "date_modified": "2023-06-12T15:17:46.000",
    "request_status": "Pending",
    "responsible_agency": "Department of Public Works",
    "final_address": "7241 Chadbourne Dr",
    "address_councildis": "E",
    "status": "Assigned to Contractor",
    "contractor": "Legacy Professional Services",
    "rowid": "1007975",
    "final_x": "3701043.99447",
    "final_y": "557554.303259",
    "longitude": "-90.00540514249765",
    "latitude": "30.026472509956278",
    "geocoded_column": {
      "latitude": "30.026472509956278",
      "longitude": "-90.00540514249765"
    }
  },
  {
    "service_request": "2023-1007974",
    "request_type": "Trash/Recycling",
    "request_reason": "Missed Trash Pick-Up",
    "date_created": "2023-06-12T15:17:33.000",
    "date_modified": "2023-06-12T15:17:34.000",
    "request_status": "Pending",
    "responsible_agency": "Department of Sanitation",
    "final_address": "3208 Bienville Ave",
    "address_councildis": "B",
    "status": "Assigned to Contractor",
    "contractor": "Richards Disposal",
    "rowid": "1007974",
    "final_x": "3674233.67483",
    "final_y": "536863.877896",
    "longitude": "-90.09083181873308",
    "latitude": "29.97040817423551",
    "geocoded_column": {
      "latitude": "29.97040817423551",
      "longitude": "-90.09083181873308"
    }
  },
  {
    "service_request": "2023-1007973",
    "request_type": "Trash/Recycling",
    "request_reason": "Request a Large Item Pick Up",
    "date_created": "2023-06-12T15:14:56.000",
    "date_modified": "2023-06-12T15:14:57.000",
    "request_status": "Pending",
    "responsible_agency": "Department of Sanitation",
    "final_address": "1941 Marigny St",
    "address_councildis": "D",
    "status": "Assigned to Contractor",
    "contractor": "IV Waste",
    "rowid": "1007973",
    "final_x": "3685198.60047",
    "final_y": "539623.03745",
    "longitude": "-90.05610629173594",
    "latitude": "29.977663411579922",
    "geocoded_column": {
      "latitude": "29.977663411579922",
      "longitude": "-90.05610629173594"
    }
  },
  {
    "service_request": "2023-1007972",
    "request_type": "Trash/Recycling",
    "request_reason": "Request a Large Item Pick Up",
    "date_created": "2023-06-12T15:12:25.000",
    "date_modified": "2023-06-12T15:12:25.000",
    "request_status": "Pending",
    "responsible_agency": "Department of Sanitation",
    "final_address": "619 Nashville Ave, New Orleans, Louisiana, 70115",
    "address_councildis": "A",
    "status": "Assigned to Contractor",
    "contractor": "Richards Disposal",
    "rowid": "1007972",
    "final_x": "3665499.86407",
    "final_y": "518462.692598",
    "longitude": "-90.11903013677679",
    "latitude": "29.92006836205396",
    "geocoded_column": {
      "latitude": "29.92006836205396",
      "longitude": "-90.11903013677679"
    }
  },
  {
    "service_request": "2023-1007971",
    "request_type": "Trash/Recycling",
    "request_reason": "Return Recycling Cart",
    "date_created": "2023-06-12T15:10:56.000",
    "date_modified": "2023-06-12T15:10:56.000",
    "request_status": "Pending",
    "responsible_agency": "Department of Sanitation",
    "final_address": "1426 Elysian Fields Ave",
    "address_councildis": "C",
    "status": "Pending",
    "rowid": "1007971",
    "final_x": "3684817.26716",
    "final_y": "537629.213064",
    "longitude": "-90.05738079278383",
    "latitude": "29.97219277343975",
    "geocoded_column": {
      "latitude": "29.97219277343975",
      "longitude": "-90.05738079278383"
    }
  },
  {
    "service_request": "2023-1007970",
    "request_type": "Trash/Recycling",
    "request_reason": "Illegal Dumping",
    "date_created": "2023-06-12T15:10:30.000",
    "date_modified": "2023-06-12T15:10:31.000",
    "request_status": "Pending",
    "responsible_agency": "Department of Sanitation",
    "final_address": "11 Marywood Ct",
    "address_councildis": "E",
    "status": "Pending",
    "rowid": "1007970",
    "final_x": "3712740.68568",
    "final_y": "566519.477859",
    "longitude": "-89.9681077810853",
    "latitude": "30.050745234532226",
    "geocoded_column": {
      "latitude": "30.050745234532226",
      "longitude": "-89.9681077810853"
    }
  },
  {
    "service_request": "2023-1007969",
    "request_type": "Property Maintenance",
    "request_reason": "Property Maintenance",
    "date_created": "2023-06-12T15:09:38.000",
    "date_modified": "2023-06-12T15:56:03.000",
    "request_status": "Pending",
    "responsible_agency": "Department of Code Enforcement",
    "final_address": "4133 Pauger St",
    "address_councildis": "D",
    "rowid": "1007969",
    "final_x": "3682983.69468",
    "final_y": "547901.957842",
    "longitude": "-90.06281178408187",
    "latitude": "30.000495213977544",
    "geocoded_column": {
      "latitude": "30.000495213977544",
      "longitude": "-90.06281178408187"
    }
  },
  {
    "service_request": "2023-1007967",
    "request_type": "Trash/Recycling",
    "request_reason": "Replace Trash Cart",
    "date_created": "2023-06-12T15:06:52.000",
    "date_modified": "2023-06-12T15:06:53.000",
    "request_status": "Pending",
    "responsible_agency": "Department of Sanitation",
    "final_address": "1426 Elysian Fields Ave",
    "address_councildis": "C",
    "status": "Assigned to Contractor",
    "contractor": "IV Waste",
    "rowid": "1007967",
    "final_x": "3684817.26716",
    "final_y": "537629.213064",
    "longitude": "-90.05738079278383",
    "latitude": "29.97219277343975",
    "geocoded_column": {
      "latitude": "29.97219277343975",
      "longitude": "-90.05738079278383"
    }
  },
  {
    "service_request": "2023-1007966",
    "request_type": "Abandoned Vehicles",
    "request_reason": "Abandoned/Junk Vehicles",
    "date_created": "2023-06-12T15:05:16.000",
    "date_modified": "2023-06-12T15:05:16.000",
    "request_status": "Pending",
    "responsible_agency": "Department of Public Works",
    "final_address": "3901 Tulane Ave",
    "address_councildis": "B",
    "status": "Pending",
    "rowid": "1007966",
    "final_x": "3670228.07636",
    "final_y": "535970.072263",
    "longitude": "-90.10351227689367",
    "latitude": "29.968069331859475",
    "geocoded_column": {
      "latitude": "29.968069331859475",
      "longitude": "-90.10351227689367"
    }
  },
  {
    "service_request": "2023-1007965",
    "request_type": "Property Maintenance",
    "request_reason": "Property Maintenance",
    "date_created": "2023-06-12T15:04:51.000",
    "date_modified": "2023-06-12T15:04:52.000",
    "request_status": "Pending",
    "responsible_agency": "Department of Code Enforcement",
    "final_address": "5101 Sandhurst Dr",
    "address_councildis": "E",
    "status": "Pending",
    "rowid": "1007965",
    "final_x": "3705272.05028",
    "final_y": "556679.877082",
    "longitude": "-89.99207741461058",
    "latitude": "30.023932769594037",
    "geocoded_column": {
      "latitude": "30.023932769594037",
      "longitude": "-89.99207741461058"
    }
  },
  {
    "service_request": "2023-1007964",
    "request_type": "Trash/Recycling",
    "request_reason": "Repair Trash Cart",
    "date_created": "2023-06-12T14:58:24.000",
    "date_modified": "2023-06-12T14:58:25.000",
    "request_status": "Pending",
    "responsible_agency": "Department of Sanitation",
    "final_address": "737 Eleonore St",
    "address_councildis": "A",
    "status": "Assigned to Contractor",
    "contractor": "Richards Disposal",
    "rowid": "1007964",
    "final_x": "3665250.75239",
    "final_y": "519020.469111",
    "longitude": "-90.11979781935953",
    "latitude": "29.921609329573183",
    "geocoded_column": {
      "latitude": "29.921609329573183",
      "longitude": "-90.11979781935953"
    }
  },
  {
    "service_request": "2023-1007962",
    "request_type": "Trash/Recycling",
    "request_reason": "Illegal Dumping",
    "date_created": "2023-06-12T14:56:19.000",
    "date_modified": "2023-06-12T14:56:19.000",
    "request_status": "Pending",
    "responsible_agency": "Department of Sanitation",
    "final_address": "2000 BLK Senate St",
    "address_councildis": "D",
    "status": "Pending",
    "rowid": "1007962",
    "final_x": "3683134.94833",
    "final_y": "547644.797871",
    "longitude": "-90.06234297577534",
    "latitude": "29.99978350387805",
    "geocoded_column": {
      "latitude": "29.99978350387805",
      "longitude": "-90.06234297577534"
    }
  },
  {
    "service_request": "2023-1007961",
    "request_type": "Abandoned Vehicles",
    "request_reason": "Abandoned/Junk Vehicles",
    "date_created": "2023-06-12T14:53:55.000",
    "date_modified": "2023-06-12T14:53:55.000",
    "request_status": "Pending",
    "responsible_agency": "Department of Public Works",
    "final_address": "3716 Banks St",
    "address_councildis": "B",
    "status": "Pending",
    "rowid": "1007961",
    "final_x": "3671452.0578",
    "final_y": "536470.331655",
    "longitude": "-90.09962987845485",
    "latitude": "29.96940869838671",
    "geocoded_column": {
      "latitude": "29.96940869838671",
      "longitude": "-90.09962987845485"
    }
  },
  {
    "service_request": "2023-1007960",
    "request_type": "Abandoned Vehicles",
    "request_reason": "Abandoned/Junk Vehicles",
    "date_created": "2023-06-12T14:51:58.000",
    "date_modified": "2023-06-12T14:51:59.000",
    "request_status": "Pending",
    "responsible_agency": "Department of Public Works",
    "final_address": "3519 Laurel St",
    "address_councildis": "B",
    "status": "Pending",
    "rowid": "1007960",
    "final_x": "3674500.91323",
    "final_y": "518667.742263",
    "longitude": "-90.09061109086615",
    "latitude": "29.92036682673512",
    "geocoded_column": {
      "latitude": "29.92036682673512",
      "longitude": "-90.09061109086615"
    }
  },
  {
    "service_request": "2023-1007959",
    "request_type": "Trash/Recycling",
    "request_reason": "Request a Large Item Pick Up",
    "date_created": "2023-06-12T14:50:27.000",
    "date_modified": "2023-06-12T14:50:42.000",
    "request_status": "Pending",
    "responsible_agency": "Department of Sanitation",
    "final_address": "8011 Windward Ct",
    "address_councildis": "E",
    "status": "Assigned to Contractor",
    "contractor": "Waste Pro",
    "rowid": "1007959",
    "final_x": "3715022.66891",
    "final_y": "570650.033703",
    "longitude": "-89.96073891008369",
    "latitude": "30.0620276075965",
    "geocoded_column": {
      "latitude": "30.0620276075965",
      "longitude": "-89.96073891008369"
    }
  },
  {
    "service_request": "2023-1007958",
    "request_type": "Traffic Signals/Signs/Striping/Streetlights",
    "request_reason": "Additional signage",
    "date_created": "2023-06-12T14:49:19.000",
    "date_modified": "2023-06-12T14:49:19.000",
    "request_status": "Pending",
    "responsible_agency": "Department of Public Works",
    "final_address": "1620 Pratt Dr",
    "address_councildis": "D",
    "status": "Pending",
    "rowid": "1007958",
    "final_x": "3679653.19407",
    "final_y": "548465.091154",
    "longitude": "-90.07331348606844",
    "latitude": "30.00214475124765",
    "geocoded_column": {
      "latitude": "30.00214475124765",
      "longitude": "-90.07331348606844"
    }
  },
  {
    "service_request": "2023-1007957",
    "request_type": "Roads/Drainage",
    "request_reason": "Street Subsidence (Sinking)",
    "date_created": "2023-06-12T14:44:06.000",
    "date_modified": "2023-06-12T16:46:38.000",
    "case_close_date": "2023-06-12T11:46:38.000",
    "request_status": "Closed",
    "responsible_agency": "Department of Public Works",
    "final_address": "6021 Spain St",
    "address_councildis": "D",
    "status": "Captured by Project",
    "rowid": "1007957",
    "final_x": "3684711.34012",
    "final_y": "555239.410009",
    "longitude": "-90.0570958771809",
    "latitude": "30.020617749176512",
    "geocoded_column": {
      "latitude": "30.020617749176512",
      "longitude": "-90.0570958771809"
    }
  },
  {
    "service_request": "2023-1007956",
    "request_type": "Trash/Recycling",
    "request_reason": "Repair Trash Cart",
    "date_created": "2023-06-12T14:42:49.000",
    "date_modified": "2023-06-12T14:42:50.000",
    "request_status": "Pending",
    "responsible_agency": "Department of Sanitation",
    "final_address": "4311 State Street Dr",
    "address_councildis": "B",
    "status": "Assigned to Contractor",
    "contractor": "Richards Disposal",
    "rowid": "1007956",
    "final_x": "3668558.99514",
    "final_y": "531229.526466",
    "longitude": "-90.1089432864963",
    "latitude": "29.95508355119546",
    "geocoded_column": {
      "latitude": "29.95508355119546",
      "longitude": "-90.1089432864963"
    }
  },
  {
    "service_request": "2023-1007955",
    "request_type": "Trash/Recycling",
    "request_reason": "Return Trash Cart",
    "date_created": "2023-06-12T14:41:47.000",
    "date_modified": "2023-06-12T14:41:48.000",
    "request_status": "Pending",
    "responsible_agency": "Department of Sanitation",
    "final_address": "5523 Magazine St",
    "address_councildis": "A",
    "status": "Assigned to Contractor",
    "contractor": "Richards Disposal",
    "rowid": "1007955",
    "final_x": "3666252.95425",
    "final_y": "518906.549047",
    "longitude": "-90.11663810711416",
    "latitude": "29.921266861735837",
    "geocoded_column": {
      "latitude": "29.921266861735837",
      "longitude": "-90.11663810711416"
    }
  },
  {
    "service_request": "2023-1007954",
    "request_type": "Trash/Recycling",
    "request_reason": "Replace Trash Cart",
    "date_created": "2023-06-12T14:40:19.000",
    "date_modified": "2023-06-12T14:40:20.000",
    "request_status": "Pending",
    "responsible_agency": "Department of Sanitation",
    "final_address": "3135 Bell St",
    "address_councildis": "A",
    "status": "Assigned to Contractor",
    "contractor": "Richards Disposal",
    "rowid": "1007954",
    "final_x": "3675972.1563",
    "final_y": "539574.853834",
    "longitude": "-90.08524823928616",
    "latitude": "29.977810482233114",
    "geocoded_column": {
      "latitude": "29.977810482233114",
      "longitude": "-90.08524823928616"
    }
  },
  {
    "service_request": "2023-1007953",
    "request_type": "Abandoned Vehicles",
    "request_reason": "Abandoned/Junk Vehicles",
    "date_created": "2023-06-12T14:39:39.000",
    "date_modified": "2023-06-12T14:39:39.000",
    "request_status": "Pending",
    "responsible_agency": "Department of Public Works",
    "final_address": "4700 BLK Peoples Ave",
    "address_councildis": "D",
    "status": "Pending",
    "rowid": "1007953",
    "final_x": "3688183.36539",
    "final_y": "550727.00004",
    "longitude": "-90.04628549191577",
    "latitude": "30.0081034963117",
    "geocoded_column": {
      "latitude": "30.0081034963117",
      "longitude": "-90.04628549191577"
    }
  },
  {
    "service_request": "2023-1007952",
    "request_type": "Trash/Recycling",
    "request_reason": "Request a Large Item Pick Up",
    "date_created": "2023-06-12T14:37:01.000",
    "date_modified": "2023-06-12T14:37:01.000",
    "request_status": "Pending",
    "responsible_agency": "Department of Sanitation",
    "final_address": "7625 Hickory St",
    "address_councildis": "A",
    "status": "Assigned to Contractor",
    "contractor": "Richards Disposal",
    "rowid": "1007952",
    "final_x": "3664556.16141",
    "final_y": "528906.345024",
    "longitude": "-90.12166036906066",
    "latitude": "29.948812557311605",
    "geocoded_column": {
      "latitude": "29.948812557311605",
      "longitude": "-90.12166036906066"
    }
  },
  {
    "service_request": "2023-1007951",
    "request_type": "Trash/Recycling",
    "request_reason": "Missed Trash Pick-Up",
    "date_created": "2023-06-12T14:35:48.000",
    "date_modified": "2023-06-12T14:35:49.000",
    "request_status": "Pending",
    "responsible_agency": "Department of Sanitation",
    "final_address": "128 N Alexander St",
    "address_councildis": "A",
    "status": "Assigned to Contractor",
    "contractor": "Richards Disposal",
    "rowid": "1007951",
    "final_x": "3670225.64359",
    "final_y": "539387.417802",
    "longitude": "-90.10340411862146",
    "latitude": "29.9774659538659",
    "geocoded_column": {
      "latitude": "29.9774659538659",
      "longitude": "-90.10340411862146"
    }
  },
  {
    "service_request": "2023-1007950",
    "request_type": "Roads/Drainage",
    "request_reason": "Debris in Roadway",
    "date_created": "2023-06-12T14:33:37.000",
    "date_modified": "2023-06-12T14:33:38.000",
    "request_status": "Pending",
    "responsible_agency": "Department of Public Works",
    "final_address": "4208 State Street Dr",
    "address_councildis": "B",
    "status": "Pending",
    "rowid": "1007950",
    "final_x": "3668463.88705",
    "final_y": "531182.38253",
    "longitude": "-90.1092451936064",
    "latitude": "29.954956714928553",
    "geocoded_column": {
      "latitude": "29.954956714928553",
      "longitude": "-90.1092451936064"
    }
  },
  {
    "service_request": "2023-1007949",
    "request_type": "Trash/Recycling",
    "request_reason": "Repair Trash Cart",
    "date_created": "2023-06-12T14:33:26.000",
    "date_modified": "2023-06-12T14:33:26.000",
    "request_status": "Pending",
    "responsible_agency": "Department of Sanitation",
    "final_address": "3135 Bell St",
    "address_councildis": "A",
    "status": "Assigned to Contractor",
    "contractor": "Richards Disposal",
    "rowid": "1007949",
    "final_x": "3675972.1563",
    "final_y": "539574.853834",
    "longitude": "-90.08524823928616",
    "latitude": "29.977810482233114",
    "geocoded_column": {
      "latitude": "29.977810482233114",
      "longitude": "-90.08524823928616"
    }
  },
  {
    "service_request": "2023-1007948",
    "request_type": "Trash/Recycling",
    "request_reason": "Replace Trash Cart",
    "date_created": "2023-06-12T14:30:02.000",
    "date_modified": "2023-06-12T14:30:03.000",
    "request_status": "Pending",
    "responsible_agency": "Department of Sanitation",
    "final_address": "2608 Magnolia St",
    "address_councildis": "B",
    "status": "Assigned to Contractor",
    "contractor": "Richards Disposal",
    "rowid": "1007948",
    "final_x": "3674205.35803",
    "final_y": "526080.457854",
    "longitude": "-90.091290391251",
    "latitude": "29.940758205316882",
    "geocoded_column": {
      "latitude": "29.940758205316882",
      "longitude": "-90.091290391251"
    }
  },
  {
    "service_request": "2023-1007947",
    "request_type": "Trash/Recycling",
    "request_reason": "Return Recycling Cart",
    "date_created": "2023-06-12T14:29:18.000",
    "date_modified": "2023-06-12T14:29:18.000",
    "request_status": "Pending",
    "responsible_agency": "Department of Sanitation",
    "final_address": "829 Pleasant St",
    "address_councildis": "B",
    "status": "Pending",
    "rowid": "1007947",
    "final_x": "3675973.1444",
    "final_y": "519111.475319",
    "longitude": "-90.08594869846623",
    "latitude": "29.92154296342679",
    "geocoded_column": {
      "latitude": "29.92154296342679",
      "longitude": "-90.08594869846623"
    }
  },
  {
    "service_request": "2023-1007946",
    "request_type": "Trash/Recycling",
    "request_reason": "Replace Trash Cart",
    "date_created": "2023-06-12T14:24:24.000",
    "date_modified": "2023-06-12T14:24:25.000",
    "request_status": "Pending",
    "responsible_agency": "Department of Sanitation",
    "final_address": "2917 Hamilton St",
    "address_councildis": "A",
    "status": "Assigned to Contractor",
    "contractor": "Richards Disposal",
    "rowid": "1007946",
    "final_x": "3663585.31488",
    "final_y": "535344.656454",
    "longitude": "-90.12451130261263",
    "latitude": "29.966544012576186",
    "geocoded_column": {
      "latitude": "29.966544012576186",
      "longitude": "-90.12451130261263"
    }
  },
  {
    "service_request": "2023-1007945",
    "request_type": "Property Maintenance",
    "request_reason": "Property Maintenance",
    "date_created": "2023-06-12T14:24:15.000",
    "date_modified": "2023-06-12T14:24:15.000",
    "request_status": "Pending",
    "responsible_agency": "Department of Code Enforcement",
    "final_address": "6200 St Charles Ave",
    "address_councildis": "A",
    "status": "Pending",
    "rowid": "1007945",
    "final_x": "3665015.65242",
    "final_y": "522892.342139",
    "longitude": "-90.1204105578782",
    "latitude": "29.932262605146033",
    "geocoded_column": {
      "latitude": "29.932262605146033",
      "longitude": "-90.1204105578782"
    }
  },
  {
    "service_request": "2023-1007944",
    "request_type": "Trash/Recycling",
    "request_reason": "Request a Large Item Pick Up",
    "date_created": "2023-06-12T14:19:55.000",
    "date_modified": "2023-06-12T14:19:56.000",
    "request_status": "Pending",
    "responsible_agency": "Department of Sanitation",
    "final_address": "4609 Annunciation St",
    "address_councildis": "B",
    "status": "Assigned to Contractor",
    "contractor": "Richards Disposal",
    "rowid": "1007944",
    "final_x": "3670315.25249",
    "final_y": "517705.291894",
    "longitude": "-90.10385588218017",
    "latitude": "29.917844552602926",
    "geocoded_column": {
      "latitude": "29.917844552602926",
      "longitude": "-90.10385588218017"
    }
  },
  {
    "service_request": "2023-1007943",
    "request_type": "Roads/Drainage",
    "request_reason": "Pothole",
    "date_created": "2023-06-12T14:18:10.000",
    "date_modified": "2023-06-12T14:18:10.000",
    "request_status": "Pending",
    "responsible_agency": "Department of Public Works",
    "final_address": "705 Cadiz St",
    "address_councildis": "B",
    "status": "Pending",
    "rowid": "1007943",
    "final_x": "3670410.31393",
    "final_y": "518066.735798",
    "longitude": "-90.1035435801404",
    "latitude": "29.918835604003373",
    "geocoded_column": {
      "latitude": "29.918835604003373",
      "longitude": "-90.1035435801404"
    }
  },
  {
    "service_request": "2023-1007942",
    "request_type": "Property Maintenance",
    "request_reason": "Property Maintenance",
    "date_created": "2023-06-12T14:15:59.000",
    "date_modified": "2023-06-12T14:16:00.000",
    "request_status": "Pending",
    "responsible_agency": "Department of Code Enforcement",
    "final_address": "1750 Horace St",
    "address_councildis": "C",
    "status": "Pending",
    "rowid": "1007942",
    "final_x": "3696330.50845",
    "final_y": "524861.124796",
    "longitude": "-90.02148188786026",
    "latitude": "29.93672747151174",
    "geocoded_column": {
      "latitude": "29.93672747151174",
      "longitude": "-90.02148188786026"
    }
  },
  {
    "service_request": "2023-1007941",
    "request_type": "Trash/Recycling",
    "request_reason": "Order Recycling Cart",
    "date_created": "2023-06-12T14:09:28.000",
    "date_modified": "2023-06-12T14:09:29.000",
    "request_status": "Pending",
    "responsible_agency": "Department of Sanitation",
    "final_address": "5611 Maple Ridge Dr",
    "address_councildis": "E",
    "status": "Pending",
    "rowid": "1007941",
    "final_x": "3724518.51238",
    "final_y": "564241.745185",
    "longitude": "-89.93097076253792",
    "latitude": "30.044091307892025",
    "geocoded_column": {
      "latitude": "30.044091307892025",
      "longitude": "-89.93097076253792"
    }
  },
  {
    "service_request": "2023-1007940",
    "request_type": "Trash/Recycling",
    "request_reason": "Order Trash Cart",
    "date_created": "2023-06-12T14:08:54.000",
    "date_modified": "2023-06-12T14:08:54.000",
    "request_status": "Pending",
    "responsible_agency": "Department of Sanitation",
    "final_address": "5611 Maple Ridge Dr",
    "address_councildis": "E",
    "status": "Assigned to Contractor",
    "contractor": "Waste Pro",
    "rowid": "1007940",
    "final_x": "3724518.51238",
    "final_y": "564241.745185",
    "longitude": "-89.93097076253792",
    "latitude": "30.044091307892025",
    "geocoded_column": {
      "latitude": "30.044091307892025",
      "longitude": "-89.93097076253792"
    }
  },
  {
    "service_request": "2023-1007939",
    "request_type": "Trash/Recycling",
    "request_reason": "Request a Large Item Pick Up",
    "date_created": "2023-06-12T14:07:23.000",
    "date_modified": "2023-06-12T14:07:23.000",
    "request_status": "Pending",
    "responsible_agency": "Department of Sanitation",
    "final_address": "901 Crystal St",
    "address_councildis": "D",
    "status": "Assigned to Contractor",
    "contractor": "IV Waste",
    "rowid": "1007939",
    "final_x": "3671027.1266",
    "final_y": "556664.408346",
    "longitude": "-90.10028556544776",
    "latitude": "30.0249479703225",
    "geocoded_column": {
      "latitude": "30.0249479703225",
      "longitude": "-90.10028556544776"
    }
  },
  {
    "service_request": "2023-1007938",
    "request_type": "Trash/Recycling",
    "request_reason": "Return Trash Cart",
    "date_created": "2023-06-12T13:59:35.000",
    "date_modified": "2023-06-12T13:59:35.000",
    "request_status": "Pending",
    "responsible_agency": "Department of Sanitation",
    "final_address": "2559 St Nick Dr",
    "address_councildis": "C",
    "status": "Assigned to Contractor",
    "contractor": "Richards Disposal",
    "rowid": "1007938",
    "final_x": "3699300.36848",
    "final_y": "521672.750585",
    "longitude": "-90.01222201613227",
    "latitude": "29.92786671792598",
    "geocoded_column": {
      "latitude": "29.92786671792598",
      "longitude": "-90.01222201613227"
    }
  },
  {
    "service_request": "2023-1007937",
    "request_type": "Trash/Recycling",
    "request_reason": "Repair Trash Cart",
    "date_created": "2023-06-12T13:58:42.000",
    "date_modified": "2023-06-12T13:58:43.000",
    "request_status": "Pending",
    "responsible_agency": "Department of Sanitation",
    "final_address": "2559 St Nick Dr",
    "address_councildis": "C",
    "status": "Assigned to Contractor",
    "contractor": "Richards Disposal",
    "rowid": "1007937",
    "final_x": "3699300.36848",
    "final_y": "521672.750585",
    "longitude": "-90.01222201613227",
    "latitude": "29.92786671792598",
    "geocoded_column": {
      "latitude": "29.92786671792598",
      "longitude": "-90.01222201613227"
    }
  },
  {
    "service_request": "2023-1007936",
    "request_type": "Trash/Recycling",
    "request_reason": "Order Trash Cart",
    "date_created": "2023-06-12T13:57:50.000",
    "date_modified": "2023-06-12T13:57:51.000",
    "request_status": "Pending",
    "responsible_agency": "Department of Sanitation",
    "final_address": "1001 Lamanche St",
    "address_councildis": "E",
    "status": "Assigned to Contractor",
    "contractor": "Waste Pro",
    "rowid": "1007936",
    "final_x": "3698290.17245",
    "final_y": "533265.899524",
    "longitude": "-90.01498988632088",
    "latitude": "29.95977581818476",
    "geocoded_column": {
      "latitude": "29.95977581818476",
      "longitude": "-90.01498988632088"
    }
  },
  {
    "service_request": "2023-1007935",
    "request_type": "Trash/Recycling",
    "request_reason": "Request a Large Item Pick Up",
    "date_created": "2023-06-12T13:57:07.000",
    "date_modified": "2023-06-12T13:57:08.000",
    "request_status": "Pending",
    "responsible_agency": "Department of Sanitation",
    "final_address": "5300 BLK Camp St",
    "address_councildis": "B",
    "status": "Assigned to Contractor",
    "contractor": "Richards Disposal",
    "rowid": "1007935",
    "final_x": "3667042.90702",
    "final_y": "519112.772914",
    "longitude": "-90.1141376406354",
    "latitude": "29.921810824517088",
    "geocoded_column": {
      "latitude": "29.921810824517088",
      "longitude": "-90.1141376406354"
    }
  },
  {
    "service_request": "2023-1007934",
    "request_type": "Abandoned Vehicles",
    "request_reason": "Abandoned/Junk Vehicles",
    "date_created": "2023-06-12T13:53:35.000",
    "date_modified": "2023-06-12T13:53:36.000",
    "request_status": "Pending",
    "responsible_agency": "Department of Public Works",
    "final_address": "5668 General Diaz St",
    "address_councildis": "A",
    "status": "Pending",
    "rowid": "1007934",
    "final_x": "3669106.75802",
    "final_y": "545004.936527",
    "longitude": "-90.10674802226166",
    "latitude": "29.992945192653305",
    "geocoded_column": {
      "latitude": "29.992945192653305",
      "longitude": "-90.10674802226166"
    }
  },
  {
    "service_request": "2023-1007933",
    "request_type": "Trash/Recycling",
    "request_reason": "Request a Large Item Pick Up",
    "date_created": "2023-06-12T13:48:35.000",
    "date_modified": "2023-06-12T13:48:36.000",
    "request_status": "Pending",
    "responsible_agency": "Department of Sanitation",
    "final_address": "4754 Haydel St",
    "address_councildis": "E",
    "status": "Assigned to Contractor",
    "contractor": "Waste Pro",
    "rowid": "1007933",
    "final_x": "3698945.72727",
    "final_y": "554553.0182",
    "longitude": "-90.0121447397655",
    "latitude": "30.018286817149566",
    "geocoded_column": {
      "latitude": "30.018286817149566",
      "longitude": "-90.0121447397655"
    }
  },
  {
    "service_request": "2023-1007932",
    "request_type": "Trash/Recycling",
    "request_reason": "Repair Trash Cart",
    "date_created": "2023-06-12T13:45:15.000",
    "date_modified": "2023-06-12T13:45:15.000",
    "request_status": "Pending",
    "responsible_agency": "Department of Sanitation",
    "final_address": "4759 Franklin Ave",
    "address_councildis": "D",
    "status": "Assigned to Contractor",
    "contractor": "IV Waste",
    "rowid": "1007932",
    "final_x": "3686892.5343",
    "final_y": "550734.076437",
    "longitude": "-90.0503633615844",
    "latitude": "30.008162757853828",
    "geocoded_column": {
      "latitude": "30.008162757853828",
      "longitude": "-90.0503633615844"
    }
  },
  {
    "service_request": "2023-1007931",
    "request_type": "Trash/Recycling",
    "request_reason": "MIssed Recycling Pick-Up",
    "date_created": "2023-06-12T13:44:00.000",
    "date_modified": "2023-06-12T15:32:48.000",
    "case_close_date": "2023-06-12T10:32:48.000",
    "request_status": "Closed",
    "responsible_agency": "Department of Sanitation",
    "final_address": "4400 BLK Jeanne Marie Pl",
    "address_councildis": "D",
    "status": "Assigned to Contractor",
    "contractor": "IV Waste",
    "contractor_action": "Invalid Pick-Up",
    "rowid": "1007931",
    "final_x": "3678524.11568",
    "final_y": "548748.434771",
    "longitude": "-90.07687056179029",
    "latitude": "30.002957936362364",
    "geocoded_column": {
      "latitude": "30.002957936362364",
      "longitude": "-90.07687056179029"
    }
  },
  {
    "service_request": "2023-1007930",
    "request_type": "Trash/Recycling",
    "request_reason": "Request a Large Item Pick Up",
    "date_created": "2023-06-12T13:43:36.000",
    "date_modified": "2023-06-12T13:43:37.000",
    "request_status": "Pending",
    "responsible_agency": "Department of Sanitation",
    "final_address": "5870 Orleans Ave",
    "address_councildis": "A",
    "status": "Assigned to Contractor",
    "contractor": "IV Waste",
    "rowid": "1007930",
    "final_x": "3670763.81121",
    "final_y": "546314.962064",
    "longitude": "-90.10146917935803",
    "latitude": "29.996498431789025",
    "geocoded_column": {
      "latitude": "29.996498431789025",
      "longitude": "-90.10146917935803"
    }
  },
  {
    "service_request": "2023-1007929",
    "request_type": "Roads/Drainage",
    "request_reason": "Accessibility Ramps, Curbs and Sidewalk Repair",
    "date_created": "2023-06-12T13:42:27.000",
    "date_modified": "2023-06-12T13:42:27.000",
    "request_status": "Pending",
    "responsible_agency": "Department of Public Works",
    "final_address": "14592 Duane Rd",
    "address_councildis": "E",
    "status": "Pending",
    "rowid": "1007929",
    "final_x": "3721178.63474",
    "final_y": "573464.70161",
    "longitude": "-89.94117197691024",
    "latitude": "30.06956255997951",
    "geocoded_column": {
      "latitude": "30.06956255997951",
      "longitude": "-89.94117197691024"
    }
  },
  {
    "service_request": "2023-1007928",
    "request_type": "Abandoned Vehicles",
    "request_reason": "Abandoned/Junk Vehicles",
    "date_created": "2023-06-12T13:40:22.000",
    "date_modified": "2023-06-12T13:40:24.000",
    "request_status": "Pending",
    "responsible_agency": "Department of Public Works",
    "final_address": "5314 S Liberty St",
    "address_councildis": "B",
    "status": "Pending",
    "rowid": "1007928",
    "final_x": "3667986.16858",
    "final_y": "523165.961979",
    "longitude": "-90.1110236749343",
    "latitude": "29.932928176674846",
    "geocoded_column": {
      "latitude": "29.932928176674846",
      "longitude": "-90.1110236749343"
    }
  },
  {
    "service_request": "2023-1007927",
    "request_type": "Trash/Recycling",
    "request_reason": "Missed Trash Pick-Up",
    "date_created": "2023-06-12T13:40:00.000",
    "date_modified": "2023-06-12T16:36:54.000",
    "case_close_date": "2023-06-12T11:36:54.000",
    "request_status": "Closed",
    "responsible_agency": "Department of Sanitation",
    "final_address": "4349 Vixen St",
    "address_councildis": "C",
    "status": "Duplicate Request",
    "contractor": "Richards Disposal",
    "rowid": "1007927",
    "final_x": "3699742.62116",
    "final_y": "520641.702328",
    "longitude": "-90.01086350171144",
    "latitude": "29.925017661815442",
    "geocoded_column": {
      "latitude": "29.925017661815442",
      "longitude": "-90.01086350171144"
    }
  },
  {
    "service_request": "2023-1007926",
    "request_type": "Trash/Recycling",
    "request_reason": "Order Trash Cart",
    "date_created": "2023-06-12T13:39:00.000",
    "date_modified": "2023-06-12T13:39:01.000",
    "request_status": "Pending",
    "responsible_agency": "Department of Sanitation",
    "final_address": "3431 Octavia Street",
    "address_councildis": "A",
    "status": "Assigned to Contractor",
    "contractor": "Richards Disposal",
    "rowid": "1007926",
    "final_x": "3668573.07348",
    "final_y": "528247.856256",
    "longitude": "-90.10899943188868",
    "latitude": "29.946884518642303",
    "geocoded_column": {
      "latitude": "29.946884518642303",
      "longitude": "-90.10899943188868"
    }
  },
  {
    "service_request": "2023-1007925",
    "request_type": "Property Maintenance",
    "request_reason": "Property Maintenance",
    "date_created": "2023-06-12T13:36:39.000",
    "date_modified": "2023-06-12T13:36:39.000",
    "request_status": "Pending",
    "responsible_agency": "Department of Code Enforcement",
    "final_address": "5410 Peoples Ave",
    "address_councildis": "D",
    "status": "Pending",
    "rowid": "1007925",
    "final_x": "3687951.43017",
    "final_y": "553122.985751",
    "longitude": "-90.04693326205012",
    "latitude": "30.01469873829396",
    "geocoded_column": {
      "latitude": "30.01469873829396",
      "longitude": "-90.04693326205012"
    }
  },
  {
    "service_request": "2023-1007924",
    "request_type": "Trash/Recycling",
    "request_reason": "Replace Recycling Cart",
    "date_created": "2023-06-12T13:35:15.000",
    "date_modified": "2023-06-12T13:35:15.000",
    "request_status": "Pending",
    "responsible_agency": "Department of Sanitation",
    "final_address": "5891 Bellaire Dr",
    "address_councildis": "A",
    "status": "Pending",
    "rowid": "1007924",
    "final_x": "3664283.50944",
    "final_y": "547096.498385",
    "longitude": "-90.12191403922468",
    "latitude": "29.998837360597854",
    "geocoded_column": {
      "latitude": "29.998837360597854",
      "longitude": "-90.12191403922468"
    }
  },
  {
    "service_request": "2023-1007923",
    "request_type": "Trash/Recycling",
    "request_reason": "Request a Large Item Pick Up",
    "date_created": "2023-06-12T13:33:28.000",
    "date_modified": "2023-06-12T13:33:29.000",
    "request_status": "Pending",
    "responsible_agency": "Department of Sanitation",
    "final_address": "5314 S Liberty St",
    "address_councildis": "B",
    "status": "Assigned to Contractor",
    "contractor": "Richards Disposal",
    "rowid": "1007923",
    "final_x": "3667986.16858",
    "final_y": "523165.961979",
    "longitude": "-90.1110236749343",
    "latitude": "29.932928176674846",
    "geocoded_column": {
      "latitude": "29.932928176674846",
      "longitude": "-90.1110236749343"
    }
  },
  {
    "service_request": "2023-1007917",
    "request_type": "Trash/Recycling",
    "request_reason": "Request a Large Item Pick Up",
    "date_created": "2023-06-12T13:23:29.000",
    "date_modified": "2023-06-12T13:23:30.000",
    "request_status": "Pending",
    "responsible_agency": "Department of Sanitation",
    "final_address": "5610 Clements Dr",
    "address_councildis": "E",
    "status": "Assigned to Contractor",
    "contractor": "Waste Pro",
    "rowid": "1007917",
    "final_x": "3702389.11786",
    "final_y": "556309.50281",
    "longitude": "-90.00120046410092",
    "latitude": "30.023006856725793",
    "geocoded_column": {
      "latitude": "30.023006856725793",
      "longitude": "-90.00120046410092"
    }
  },
  {
    "service_request": "2023-1007916",
    "request_type": "Trash/Recycling",
    "request_reason": "Repair Trash Cart",
    "date_created": "2023-06-12T13:23:06.000",
    "date_modified": "2023-06-12T13:23:07.000",
    "request_status": "Pending",
    "responsible_agency": "Department of Sanitation",
    "final_address": "5100 Michoud Blvd",
    "address_councildis": "E",
    "status": "Assigned to Contractor",
    "contractor": "Waste Pro",
    "rowid": "1007916",
    "final_x": "3724721.15878",
    "final_y": "562095.163167",
    "longitude": "-89.93041338095155",
    "latitude": "30.038182273286072",
    "geocoded_column": {
      "latitude": "30.038182273286072",
      "longitude": "-89.93041338095155"
    }
  },
  {
    "service_request": "2023-1007915",
    "request_type": "Trash/Recycling",
    "request_reason": "MIssed Recycling Pick-Up",
    "date_created": "2023-06-12T13:21:45.000",
    "date_modified": "2023-06-12T13:21:46.000",
    "request_status": "Pending",
    "responsible_agency": "Department of Sanitation",
    "final_address": "7116 Fig St",
    "address_councildis": "B",
    "status": "Assigned to Contractor",
    "contractor": "Richards Disposal",
    "rowid": "1007915",
    "final_x": "3667786.64493",
    "final_y": "531749.636867",
    "longitude": "-90.11136457426683",
    "latitude": "29.956536354531263",
    "geocoded_column": {
      "latitude": "29.956536354531263",
      "longitude": "-90.11136457426683"
    }
  },
  {
    "service_request": "2023-1007913",
    "request_type": "Property Maintenance",
    "request_reason": "Property Maintenance",
    "date_created": "2023-06-12T13:17:10.000",
    "date_modified": "2023-06-12T13:17:10.000",
    "request_status": "Pending",
    "responsible_agency": "Department of Code Enforcement",
    "final_address": "2002 Foucher St",
    "address_councildis": "B",
    "status": "Pending",
    "rowid": "1007913",
    "final_x": "3672969.34171",
    "final_y": "522665.342778",
    "longitude": "-90.09530921223478",
    "latitude": "29.93140452983933",
    "geocoded_column": {
      "latitude": "29.93140452983933",
      "longitude": "-90.09530921223478"
    }
  },
  {
    "service_request": "2023-1007912",
    "request_type": "Roads/Drainage",
    "request_reason": "Catch Basin - Clogged",
    "date_created": "2023-06-12T13:10:10.000",
    "date_modified": "2023-06-12T13:10:11.000",
    "request_status": "Pending",
    "responsible_agency": "Department of Public Works",
    "final_address": "4919 Laurel St",
    "address_councildis": "B",
    "status": "Pending",
    "rowid": "1007912",
    "final_x": "3668799.68398",
    "final_y": "517878.27039",
    "longitude": "-90.1086338760351",
    "latitude": "29.918364817084896",
    "geocoded_column": {
      "latitude": "29.918364817084896",
      "longitude": "-90.1086338760351"
    }
  },
  {
    "service_request": "2023-1007911",
    "request_type": "Trash/Recycling",
    "request_reason": "Repair Trash Cart",
    "date_created": "2023-06-12T13:09:46.000",
    "date_modified": "2023-06-12T13:09:47.000",
    "request_status": "Pending",
    "responsible_agency": "Department of Sanitation",
    "final_address": "4986 Corinne St",
    "address_councildis": "E",
    "status": "Assigned to Contractor",
    "contractor": "Waste Pro",
    "rowid": "1007911",
    "final_x": "3714833.03474",
    "final_y": "558070.587867",
    "longitude": "-89.96181429267332",
    "latitude": "30.02744548074051",
    "geocoded_column": {
      "latitude": "30.02744548074051",
      "longitude": "-89.96181429267332"
    }
  },
  {
    "service_request": "2023-1007910",
    "request_type": "Trash/Recycling",
    "request_reason": "Repair Recycling Cart",
    "date_created": "2023-06-12T13:04:43.000",
    "date_modified": "2023-06-12T13:04:43.000",
    "request_status": "Pending",
    "responsible_agency": "Department of Sanitation",
    "final_address": "2039 Valence St",
    "address_councildis": "B",
    "status": "Pending",
    "rowid": "1007910",
    "final_x": "3669611.1449",
    "final_y": "522491.684026",
    "longitude": "-90.10591653215063",
    "latitude": "29.931026364952196",
    "geocoded_column": {
      "latitude": "29.931026364952196",
      "longitude": "-90.10591653215063"
    }
  },
  {
    "service_request": "2023-1007909",
    "request_type": "Trash/Recycling",
    "request_reason": "Replace Trash Cart",
    "date_created": "2023-06-12T13:04:32.000",
    "date_modified": "2023-06-12T13:04:32.000",
    "request_status": "Pending",
    "responsible_agency": "Department of Sanitation",
    "final_address": "906 N White St",
    "address_councildis": "A",
    "status": "Assigned to Contractor",
    "contractor": "Richards Disposal",
    "rowid": "1007909",
    "final_x": "3676779.89761",
    "final_y": "537916.246217",
    "longitude": "-90.08275428370251",
    "latitude": "29.97322566351935",
    "geocoded_column": {
      "latitude": "29.97322566351935",
      "longitude": "-90.08275428370251"
    }
  },
  {
    "service_request": "2023-1007908",
    "request_type": "Trash/Recycling",
    "request_reason": "Replace Trash Cart",
    "date_created": "2023-06-12T13:04:13.000",
    "date_modified": "2023-06-12T13:04:14.000",
    "request_status": "Pending",
    "responsible_agency": "Department of Sanitation",
    "final_address": "904 N White St",
    "address_councildis": "A",
    "status": "Assigned to Contractor",
    "contractor": "Richards Disposal",
    "rowid": "1007908",
    "final_x": "3676763.88718",
    "final_y": "537893.831561",
    "longitude": "-90.0828056204716",
    "latitude": "29.973164511345114",
    "geocoded_column": {
      "latitude": "29.973164511345114",
      "longitude": "-90.0828056204716"
    }
  },
  {
    "service_request": "2023-1007907",
    "request_type": "Property Maintenance",
    "request_reason": "Property Maintenance",
    "date_created": "2023-06-12T12:59:14.000",
    "date_modified": "2023-06-12T12:59:14.000",
    "request_status": "Pending",
    "responsible_agency": "Department of Code Enforcement",
    "final_address": "1739 Port St",
    "address_councildis": "D",
    "status": "Pending",
    "rowid": "1007907",
    "final_x": "3688101.5622",
    "final_y": "538929.787018",
    "longitude": "-90.04696235276438",
    "latitude": "29.97566792423976",
    "geocoded_column": {
      "latitude": "29.97566792423976",
      "longitude": "-90.04696235276438"
    }
  },
  {
    "service_request": "2023-1007906",
    "request_type": "Trash/Recycling",
    "request_reason": "MIssed Recycling Pick-Up",
    "date_created": "2023-06-12T12:58:37.000",
    "date_modified": "2023-06-12T12:58:37.000",
    "request_status": "Pending",
    "responsible_agency": "Department of Sanitation",
    "final_address": "719 S Dupre St",
    "address_councildis": "B",
    "status": "Assigned to Contractor",
    "contractor": "Richards Disposal",
    "rowid": "1007906",
    "final_x": "3673011.51131",
    "final_y": "533619.045125",
    "longitude": "-90.09480232008228",
    "latitude": "29.96152235837982",
    "geocoded_column": {
      "latitude": "29.96152235837982",
      "longitude": "-90.09480232008228"
    }
  },
  {
    "service_request": "2023-1007905",
    "request_type": "Abandoned Vehicles",
    "request_reason": "Abandoned/Junk Vehicles",
    "date_created": "2023-06-12T12:57:24.000",
    "date_modified": "2023-06-12T12:57:24.000",
    "request_status": "Pending",
    "responsible_agency": "Department of Public Works",
    "final_address": "2800 Banks St",
    "address_councildis": "B",
    "status": "Pending",
    "rowid": "1007905",
    "final_x": "3674083.11752",
    "final_y": "534477.686021",
    "longitude": "-90.09138897541445",
    "latitude": "29.963851439977457",
    "geocoded_column": {
      "latitude": "29.963851439977457",
      "longitude": "-90.09138897541445"
    }
  },
  {
    "service_request": "2023-1007904",
    "request_type": "Traffic Signals/Signs/Striping/Streetlights",
    "request_reason": "Street Light Outage/Malfunction",
    "date_created": "2023-06-12T12:55:45.000",
    "date_modified": "2023-06-12T12:55:45.000",
    "request_status": "Pending",
    "responsible_agency": "Department of Public Works",
    "final_address": "7241 Thornley Dr, New Orleans, Louisiana, 70126",
    "address_councildis": "E",
    "status": "Assigned to Contractor",
    "contractor": "Legacy Professional Services",
    "rowid": "1007904",
    "final_x": "3702918.9907",
    "final_y": "560366.594205",
    "longitude": "-89.99937695539374",
    "latitude": "30.034145335945688",
    "geocoded_column": {
      "latitude": "30.034145335945688",
      "longitude": "-89.99937695539374"
    }
  },
  {
    "service_request": "2023-1007903",
    "request_type": "Trash/Recycling",
    "request_reason": "Replace Trash Cart",
    "date_created": "2023-06-12T12:52:15.000",
    "date_modified": "2023-06-12T12:52:16.000",
    "request_status": "Pending",
    "responsible_agency": "Department of Sanitation",
    "final_address": "2216 Valence St",
    "address_councildis": "B",
    "status": "Assigned to Contractor",
    "contractor": "Richards Disposal",
    "rowid": "1007903",
    "final_x": "3669401.92398",
    "final_y": "523036.346491",
    "longitude": "-90.1065586076973",
    "latitude": "29.932530173099984",
    "geocoded_column": {
      "latitude": "29.932530173099984",
      "longitude": "-90.1065586076973"
    }
  },
  {
    "service_request": "2023-1007902",
    "request_type": "Trash/Recycling",
    "request_reason": "Order Trash Cart",
    "date_created": "2023-06-12T12:51:49.000",
    "date_modified": "2023-06-12T12:51:50.000",
    "request_status": "Pending",
    "responsible_agency": "Department of Sanitation",
    "final_address": "6312 S Claiborne Ave",
    "address_councildis": "A",
    "status": "Assigned to Contractor",
    "contractor": "Richards Disposal",
    "rowid": "1007902",
    "final_x": "3666901.10093",
    "final_y": "527935.765439",
    "longitude": "-90.1142889663585",
    "latitude": "29.94607538705741",
    "geocoded_column": {
      "latitude": "29.94607538705741",
      "longitude": "-90.1142889663585"
    }
  },
  {
    "service_request": "2023-1007900",
    "request_type": "Abandoned Vehicles",
    "request_reason": "Abandoned/Junk Vehicles",
    "date_created": "2023-06-12T12:48:54.000",
    "date_modified": "2023-06-12T12:48:54.000",
    "request_status": "Pending",
    "responsible_agency": "Department of Public Works",
    "final_address": "2800 Banks St",
    "address_councildis": "B",
    "status": "Pending",
    "rowid": "1007900",
    "final_x": "3674083.11752",
    "final_y": "534477.686021",
    "longitude": "-90.09138897541445",
    "latitude": "29.963851439977457",
    "geocoded_column": {
      "latitude": "29.963851439977457",
      "longitude": "-90.09138897541445"
    }
  },