[
  {
    "service_request": "2023-990709",
    "request_type": "Trash/Recycling",
    "request_reason": "Request a Large Item Pick Up",
    "date_created": "2023-04-13T01:28:49.000",
    "date_modified": "2023-04-13T01:28:50.000",
    "request_status": "Pending",
    "responsible_agency": "Department of Sanitation",
    "final_address": "5810 Pratt Dr",
    "address_councildis": "D",
    "status": "Assigned to Contractor",
    "contractor": "IV Waste",
    "rowid": "990709",
    "final_x": "3680159.51439",
    "final_y": "554006.18204",
    "longitude": "-90.07152119517099",
    "latitude": "30.01736543739235",
    "geocoded_column": {
      "latitude": "30.01736543739235",
      "longitude": "-90.07152119517099"
    }
  },
  {
    "service_request": "2023-990708",
    "request_type": "Trash/Recycling",
    "request_reason": "Repair Recycling Cart",
    "date_created": "2023-04-13T01:08:49.000",
    "date_modified": "2023-04-13T01:08:49.000",
    "request_status": "Pending",
    "responsible_agency": "Department of Sanitation",
    "final_address": "1117 Robert St",
    "address_councildis": "B",
    "status": "Pending",
    "rowid": "990708",
    "final_x": "3668710.70138",
    "final_y": "519493.487799",
    "longitude": "-90.10886026485268",
    "latitude": "29.922808769872223",
    "geocoded_column": {
      "latitude": "29.922808769872223",
      "longitude": "-90.10886026485268"
    }
  },
  {
    "service_request": "2023-990707",
    "request_type": "Traffic Signals/Signs/Striping/Streetlights",
    "request_reason": "Traffic Sign Missing/Damaged",
    "date_created": "2023-04-12T22:31:49.000",
    "date_modified": "2023-04-12T22:31:49.000",
    "request_status": "Pending",
    "responsible_agency": "Department of Public Works",
    "final_address": "4999 Burgundy St",
    "address_councildis": "E",
    "status": "Pending",
    "rowid": "990707",
    "final_x": "3695720.30346",
    "final_y": "533554.829381",
    "longitude": "-90.02309448107401",
    "latitude": "29.960651323674767",
    "geocoded_column": {
      "latitude": "29.960651323674767",
      "longitude": "-90.02309448107401"
    }
  },
  {
    "service_request": "2023-990706",
    "request_type": "Traffic Signals/Signs/Striping/Streetlights",
    "request_reason": "Street Light Outage/Malfunction",
    "date_created": "2023-04-12T22:11:21.000",
    "date_modified": "2023-04-12T22:11:22.000",
    "request_status": "Pending",
    "responsible_agency": "Department of Public Works",
    "final_address": "6939 Pinebrook Dr",
    "address_councildis": "E",
    "status": "Assigned to Contractor",
    "contractor": "Legacy Professional Services",
    "rowid": "990706",
    "final_x": "3720061.10866",
    "final_y": "569277.898534",
    "longitude": "-89.94486509450095",
    "latitude": "30.058087893279666",
    "geocoded_column": {
      "latitude": "30.058087893279666",
      "longitude": "-89.94486509450095"
    }
  },
  {
    "service_request": "2023-990705",
    "request_type": "Trash/Recycling",
    "request_reason": "Return Recycling Cart",
    "date_created": "2023-04-12T21:52:04.000",
    "date_modified": "2023-04-12T21:52:04.000",
    "request_status": "Pending",
    "responsible_agency": "Department of Sanitation",
    "final_address": "1437 Allen Toussaint Blvd",
    "address_councildis": "D",
    "status": "Pending",
    "rowid": "990705",
    "final_x": "3678236.10779",
    "final_y": "555444.131097",
    "longitude": "-90.0775485972214",
    "latitude": "30.021377375126377",
    "geocoded_column": {
      "latitude": "30.021377375126377",
      "longitude": "-90.0775485972214"
    }
  },
  {
    "service_request": "2023-990704",
    "request_type": "Trash/Recycling",
    "request_reason": "Illegal Dumping",
    "date_created": "2023-04-12T21:46:14.000",
    "date_modified": "2023-04-12T21:46:14.000",
    "request_status": "Pending",
    "responsible_agency": "Department of Sanitation",
    "final_address": "2825 Monticello Ave",
    "address_councildis": "A",
    "status": "Pending",
    "rowid": "990704",
    "final_x": "3662609.70451",
    "final_y": "535964.583879",
    "longitude": "-90.12757168402511",
    "latitude": "29.96827687392088",
    "geocoded_column": {
      "latitude": "29.96827687392088",
      "longitude": "-90.12757168402511"
    }
  },
  {
    "service_request": "2023-990702",
    "request_type": "Trash/Recycling",
    "request_reason": "Request a Large Item Pick Up",
    "date_created": "2023-04-12T20:44:31.000",
    "date_modified": "2023-04-12T20:44:32.000",
    "request_status": "Pending",
    "responsible_agency": "Department of Sanitation",
    "final_address": "7915 Means Ave",
    "address_councildis": "E",
    "status": "Assigned to Contractor",
    "contractor": "Waste Pro",
    "rowid": "990702",
    "final_x": "3707639.03889",
    "final_y": "565606.397922",
    "longitude": "-89.9842661685792",
    "latitude": "30.048400777390995",
    "geocoded_column": {
      "latitude": "30.048400777390995",
      "longitude": "-89.9842661685792"
    }
  },
  {
    "service_request": "2023-990701",
    "request_type": "Roads/Drainage",
    "request_reason": "Pothole",
    "date_created": "2023-04-12T20:35:04.000",
    "date_modified": "2023-04-12T20:35:04.000",
    "request_status": "Pending",
    "responsible_agency": "Department of Public Works",
    "final_address": "QUEISSER ST & READ BLVD",
    "address_councildis": "E",
    "status": "Pending",
    "rowid": "990701",
    "final_x": "3708679.4",
    "final_y": "564156.88",
    "longitude": "-89.98103211993126",
    "latitude": "30.04438146374777",
    "geocoded_column": {
      "latitude": "30.04438146374777",
      "longitude": "-89.98103211993126"
    }
  },
  {
    "service_request": "2023-990700",
    "request_type": "Trash/Recycling",
    "request_reason": "Order Trash Cart",
    "date_created": "2023-04-12T20:32:38.000",
    "date_modified": "2023-04-12T20:32:38.000",
    "request_status": "Pending",
    "responsible_agency": "Department of Sanitation",
    "final_address": "8230 Colony Ct",
    "address_councildis": "E",
    "status": "Assigned to Contractor",
    "contractor": "Waste Pro",
    "rowid": "990700",
    "final_x": "3703123.98494",
    "final_y": "560256.991837",
    "longitude": "-89.99873318583155",
    "latitude": "30.03383740868411",
    "geocoded_column": {
      "latitude": "30.03383740868411",
      "longitude": "-89.99873318583155"
    }
  },
  {
    "service_request": "2023-990699",
    "request_type": "Trash/Recycling",
    "request_reason": "MIssed Recycling Pick-Up",
    "date_created": "2023-04-12T20:24:07.000",
    "date_modified": "2023-04-12T20:24:08.000",
    "request_status": "Pending",
    "responsible_agency": "Department of Sanitation",
    "final_address": "3212 Prytania St",
    "address_councildis": "B",
    "status": "Assigned to Contractor",
    "contractor": "Richards Disposal",
    "rowid": "990699",
    "final_x": "3675025.34568",
    "final_y": "521262.878137",
    "longitude": "-90.08886673564436",
    "latitude": "29.927486964821558",
    "geocoded_column": {
      "latitude": "29.927486964821558",
      "longitude": "-90.08886673564436"
    }
  },
  {
    "service_request": "2023-990698",
    "request_type": "Traffic Signals/Signs/Striping/Streetlights",
    "request_reason": "Street Light Outage/Malfunction",
    "date_created": "2023-04-12T20:04:41.000",
    "date_modified": "2023-04-12T20:04:42.000",
    "request_status": "Pending",
    "responsible_agency": "Department of Public Works",
    "final_address": "1037 Dauphine St",
    "address_councildis": "C",
    "status": "Assigned to Contractor",
    "contractor": "Legacy Professional Services",
    "rowid": "990698",
    "final_x": "3682763.26741",
    "final_y": "534067.717573",
    "longitude": "-90.06399226380465",
    "latitude": "29.962462619863196",
    "geocoded_column": {
      "latitude": "29.962462619863196",
      "longitude": "-90.06399226380465"
    }
  },
  {
    "service_request": "2023-990697",
    "request_type": "Traffic Signals/Signs/Striping/Streetlights",
    "request_reason": "Street Light Outage/Malfunction",
    "date_created": "2023-04-12T19:57:53.000",
    "date_modified": "2023-04-12T19:57:54.000",
    "request_status": "Pending",
    "responsible_agency": "Department of Public Works",
    "final_address": "2025 Lamarque St",
    "address_councildis": "C",
    "status": "Assigned to Contractor",
    "contractor": "Legacy Professional Services",
    "rowid": "990697",
    "final_x": "3691613.80457",
    "final_y": "526571.891838",
    "longitude": "-90.03631154732832",
    "latitude": "29.94157913766319",
    "geocoded_column": {
      "latitude": "29.94157913766319",
      "longitude": "-90.03631154732832"
    }
  },
  {
    "service_request": "2023-990696",
    "request_type": "Trash/Recycling",
    "request_reason": "Missed Trash Pick-Up",
    "date_created": "2023-04-12T19:30:28.000",
    "date_modified": "2023-04-12T19:30:28.000",
    "request_status": "Pending",
    "responsible_agency": "Department of Sanitation",
    "final_address": "1811 Upperline St",
    "address_councildis": "B",
    "status": "Assigned to Contractor",
    "contractor": "Richards Disposal",
    "rowid": "990696",
    "final_x": "3669134.45601",
    "final_y": "521544.387513",
    "longitude": "-90.10745337339478",
    "latitude": "29.928435633966558",
    "geocoded_column": {
      "latitude": "29.928435633966558",
      "longitude": "-90.10745337339478"
    }
  },
  {
    "service_request": "2023-990695",
    "request_type": "Traffic Signals/Signs/Striping/Streetlights",
    "request_reason": "Street Light Outage/Malfunction",
    "date_created": "2023-04-12T19:24:15.000",
    "date_modified": "2023-04-12T19:24:16.000",
    "request_status": "Pending",
    "responsible_agency": "Department of Public Works",
    "final_address": "CAMP ST & MILAN ST",
    "address_councildis": "B",
    "status": "Assigned to Contractor",
    "contractor": "Legacy Professional Services",
    "rowid": "990695",
    "final_x": "3671768.9",
    "final_y": "519228.98",
    "longitude": "-90.0992157079703",
    "latitude": "29.921991242266316",
    "geocoded_column": {
      "latitude": "29.921991242266316",
      "longitude": "-90.0992157079703"
    }
  },
  {
    "service_request": "2023-990694",
    "request_type": "Trash/Recycling",
    "request_reason": "MIssed Recycling Pick-Up",
    "date_created": "2023-04-12T19:15:16.000",
    "date_modified": "2023-04-12T19:15:17.000",
    "request_status": "Pending",
    "responsible_agency": "Department of Sanitation",
    "final_address": "2118 Freret St",
    "address_councildis": "B",
    "status": "Assigned to Contractor",
    "contractor": "Richards Disposal",
    "rowid": "990694",
    "final_x": "3675801.34357",
    "final_y": "526418.156094",
    "longitude": "-90.08623997872645",
    "latitude": "29.941639099133855",
    "geocoded_column": {
      "latitude": "29.941639099133855",
      "longitude": "-90.08623997872645"
    }
  },
  {
    "service_request": "2023-990693",
    "request_type": "Abandoned Vehicles",
    "request_reason": "Abandoned/Junk Vehicles",
    "date_created": "2023-04-12T19:08:16.000",
    "date_modified": "2023-04-12T19:08:16.000",
    "request_status": "Pending",
    "responsible_agency": "Department of Public Works",
    "final_address": "3011 Annunciation St",
    "address_councildis": "B",
    "status": "Pending",
    "rowid": "990693",
    "final_x": "3676873.22626",
    "final_y": "519435.414583",
    "longitude": "-90.08309637172255",
    "latitude": "29.922406718516633",
    "geocoded_column": {
      "latitude": "29.922406718516633",
      "longitude": "-90.08309637172255"
    }
  },
  {
    "service_request": "2023-990692",
    "request_type": "Trash/Recycling",
    "request_reason": "Missed Trash Pick-Up",
    "date_created": "2023-04-12T19:02:56.000",
    "date_modified": "2023-04-12T19:02:57.000",
    "request_status": "Pending",
    "responsible_agency": "Department of Sanitation",
    "final_address": "1001 Kentucky St",
    "address_councildis": "C",
    "status": "Assigned to Contractor",
    "contractor": "IV Waste",
    "rowid": "990692",
    "final_x": "3693260.45398",
    "final_y": "534528.608645",
    "longitude": "-90.03082721330206",
    "latitude": "29.963405986632843",
    "geocoded_column": {
      "latitude": "29.963405986632843",
      "longitude": "-90.03082721330206"
    }
  },
  {
    "service_request": "2023-990691",
    "request_type": "Abandoned Vehicles",
    "request_reason": "Abandoned/Junk Vehicles",
    "date_created": "2023-04-12T19:02:37.000",
    "date_modified": "2023-04-12T19:02:37.000",
    "request_status": "Pending",
    "responsible_agency": "Department of Public Works",
    "final_address": "1014 Richard St",
    "address_councildis": "B",
    "status": "Pending",
    "rowid": "990691",
    "final_x": "3680248.49717",
    "final_y": "523038.328123",
    "longitude": "-90.0723168567334",
    "latitude": "29.93221185439287",
    "geocoded_column": {
      "latitude": "29.93221185439287",
      "longitude": "-90.0723168567334"
    }
  },
  {
    "service_request": "2023-990690",
    "request_type": "Trash/Recycling",
    "request_reason": "Repair Trash Cart",
    "date_created": "2023-04-12T18:38:45.000",
    "date_modified": "2023-04-12T18:38:46.000",
    "request_status": "Pending",
    "responsible_agency": "Department of Sanitation",
    "final_address": "1814 Lowerline St",
    "address_councildis": "A",
    "status": "Assigned to Contractor",
    "contractor": "Richards Disposal",
    "rowid": "990690",
    "final_x": "3664873.61159",
    "final_y": "528746.99904",
    "longitude": "-90.1206633632439",
    "latitude": "29.948365173147952",
    "geocoded_column": {
      "latitude": "29.948365173147952",
      "longitude": "-90.1206633632439"
    }
  },
  {
    "service_request": "2023-990689",
    "request_type": "Trash/Recycling",
    "request_reason": "Request a Large Item Pick Up",
    "date_created": "2023-04-12T18:34:30.000",
    "date_modified": "2023-04-12T18:34:31.000",
    "request_status": "Pending",
    "responsible_agency": "Department of Sanitation",
    "final_address": "3318 Danneel St",
    "address_councildis": "B",
    "status": "Assigned to Contractor",
    "contractor": "Richards Disposal",
    "rowid": "990689",
    "final_x": "3673878.06862",
    "final_y": "522868.784123",
    "longitude": "-90.09243351262032",
    "latitude": "29.931936899125702",
    "geocoded_column": {
      "latitude": "29.931936899125702",
      "longitude": "-90.09243351262032"
    }
  },
  {
    "service_request": "2023-990688",
    "request_type": "Abandoned Vehicles",
    "request_reason": "Vehicle Blocking Your Driveway",
    "date_created": "2023-04-12T18:33:33.000",
    "date_modified": "2023-04-12T18:33:33.000",
    "request_status": "Pending",
    "responsible_agency": "Department of Public Works",
    "final_address": "403 iberville Street",
    "address_councildis": "B",
    "status": "Pending",
    "rowid": "990688",
    "final_x": "3676666.02856",
    "final_y": "534692.957062",
    "longitude": "-90.08322496660458",
    "latitude": "29.96436613173269",
    "geocoded_column": {
      "latitude": "29.96436613173269",
      "longitude": "-90.08322496660458"
    }
  },
  {
    "service_request": "2023-990687",
    "request_type": "Trash/Recycling",
    "request_reason": "Order Recycling Cart",
    "date_created": "2023-04-12T18:27:04.000",
    "date_modified": "2023-04-12T18:27:05.000",
    "request_status": "Pending",
    "responsible_agency": "Department of Sanitation",
    "final_address": "5321 Norgate Dr",
    "address_councildis": "E",
    "status": "Pending",
    "rowid": "990687",
    "final_x": "3707404.29956",
    "final_y": "557631.163291",
    "longitude": "-89.98530461570515",
    "latitude": "30.02647963540662",
    "geocoded_column": {
      "latitude": "30.02647963540662",
      "longitude": "-89.98530461570515"
    }
  },
  {
    "service_request": "2023-990686",
    "request_type": "Trash/Recycling",
    "request_reason": "Request a Large Item Pick Up",
    "date_created": "2023-04-12T18:24:40.000",
    "date_modified": "2023-04-12T18:24:40.000",
    "request_status": "Pending",
    "responsible_agency": "Department of Sanitation",
    "final_address": "4607 Haydel St",
    "address_councildis": "E",
    "status": "Assigned to Contractor",
    "contractor": "Waste Pro",
    "rowid": "990686",
    "final_x": "3699167.99428",
    "final_y": "553673.120855",
    "longitude": "-90.01147453520497",
    "latitude": "30.01586038464293",
    "geocoded_column": {
      "latitude": "30.01586038464293",
      "longitude": "-90.01147453520497"
    }
  },
  {
    "service_request": "2023-990685",
    "request_type": "Abandoned Vehicles",
    "request_reason": "Abandoned/Junk Vehicles",
    "date_created": "2023-04-12T18:18:09.000",
    "date_modified": "2023-04-12T18:18:09.000",
    "request_status": "Pending",
    "responsible_agency": "Department of Public Works",
    "final_address": "1527 Burdette St",
    "address_councildis": "A",
    "status": "Pending",
    "rowid": "990685",
    "final_x": "3663684.89018",
    "final_y": "528527.143424",
    "longitude": "-90.12442399035471",
    "latitude": "29.94779517966754",
    "geocoded_column": {
      "latitude": "29.94779517966754",
      "longitude": "-90.12442399035471"
    }
  },
  {
    "service_request": "2023-990684",
    "request_type": "Abandoned Vehicles",
    "request_reason": "Vehicle Blocking Your Driveway",
    "date_created": "2023-04-12T18:09:22.000",
    "date_modified": "2023-04-12T18:09:22.000",
    "request_status": "Pending",
    "responsible_agency": "Department of Public Works",
    "final_address": "1029 Broadway St",
    "address_councildis": "A",
    "status": "Pending",
    "rowid": "990684",
    "final_x": "3663930.43354",
    "final_y": "526050.50771",
    "longitude": "-90.12373125784737",
    "latitude": "29.94097809967886",
    "geocoded_column": {
      "latitude": "29.94097809967886",
      "longitude": "-90.12373125784737"
    }
  },
  {
    "service_request": "2023-990683",
    "request_type": "Roads/Drainage",
    "request_reason": "Pothole",
    "date_created": "2023-04-12T18:06:17.000",
    "date_modified": "2023-04-12T18:06:17.000",
    "request_status": "Pending",
    "responsible_agency": "Department of Public Works",
    "status": "Pending",
    "rowid": "990683",
    "longitude": "0.0",
    "latitude": "0.0",
    "geocoded_column": {
      "latitude": "0.0",
      "longitude": "0.0"
    }
  },
  {
    "service_request": "2023-990681",
    "request_type": "Trash/Recycling",
    "request_reason": "Replace Recycling Cart",
    "date_created": "2023-04-12T18:01:43.000",
    "date_modified": "2023-04-12T18:01:43.000",
    "request_status": "Pending",
    "responsible_agency": "Department of Sanitation",
    "status": "Pending",
    "rowid": "990681",
    "longitude": "0.0",
    "latitude": "0.0",
    "geocoded_column": {
      "latitude": "0.0",
      "longitude": "0.0"
    }
  },
  {
    "service_request": "2023-990680",
    "request_type": "Trash/Recycling",
    "request_reason": "Missed Trash Pick-Up",
    "date_created": "2023-04-12T18:01:12.000",
    "date_modified": "2023-04-12T18:01:12.000",
    "request_status": "Pending",
    "responsible_agency": "Department of Sanitation",
    "final_address": "5700 Franklin Ave",
    "address_councildis": "D",
    "status": "Assigned to Contractor",
    "contractor": "IV Waste",
    "rowid": "990680",
    "final_x": "3686427.78326",
    "final_y": "554127.227096",
    "longitude": "-90.05171174656263",
    "latitude": "30.01750697836572",
    "geocoded_column": {
      "latitude": "30.01750697836572",
      "longitude": "-90.05171174656263"
    }
  },
  {
    "service_request": "2023-990679",
    "request_type": "Trash/Recycling",
    "request_reason": "Missed Trash Pick-Up",
    "date_created": "2023-04-12T18:00:51.000",
    "date_modified": "2023-04-12T18:00:52.000",
    "request_status": "Pending",
    "responsible_agency": "Department of Sanitation",
    "final_address": "2919 Baudin St",
    "address_councildis": "B",
    "status": "Assigned to Contractor",
    "contractor": "Richards Disposal",
    "rowid": "990679",
    "final_x": "3673522.87611",
    "final_y": "534523.101765",
    "longitude": "-90.09315661493548",
    "latitude": "29.963993002899183",
    "geocoded_column": {
      "latitude": "29.963993002899183",
      "longitude": "-90.09315661493548"
    }
  },
  {
    "service_request": "2023-990678",
    "request_type": "Trash/Recycling",
    "request_reason": "Request a Large Item Pick Up",
    "date_created": "2023-04-12T17:49:16.000",
    "date_modified": "2023-04-12T17:49:17.000",
    "request_status": "Pending",
    "responsible_agency": "Department of Sanitation",
    "final_address": "334 Bermuda St",
    "address_councildis": "C",
    "status": "Assigned to Contractor",
    "contractor": "Richards Disposal",
    "rowid": "990678",
    "final_x": "3686477.92655",
    "final_y": "530565.750722",
    "longitude": "-90.05238554144559",
    "latitude": "29.952719743768533",
    "geocoded_column": {
      "latitude": "29.952719743768533",
      "longitude": "-90.05238554144559"
    }
  },
  {
    "service_request": "2023-990677",
    "request_type": "Trash/Recycling",
    "request_reason": "Repair Trash Cart",
    "date_created": "2023-04-12T17:47:58.000",
    "date_modified": "2023-04-12T17:47:59.000",
    "request_status": "Pending",
    "responsible_agency": "Department of Sanitation",
    "final_address": "4407 Fontainebleau Dr",
    "address_councildis": "B",
    "status": "Assigned to Contractor",
    "contractor": "Richards Disposal",
    "rowid": "990677",
    "final_x": "3669237.49556",
    "final_y": "529635.506945",
    "longitude": "-90.10685470437741",
    "latitude": "29.950680567438372",
    "geocoded_column": {
      "latitude": "29.950680567438372",
      "longitude": "-90.10685470437741"
    }
  },
  {
    "service_request": "2023-990676",
    "request_type": "Traffic Signals/Signs/Striping/Streetlights",
    "request_reason": "Street Light Outage/Malfunction",
    "date_created": "2023-04-12T17:45:59.000",
    "date_modified": "2023-04-12T17:46:00.000",
    "request_status": "Pending",
    "responsible_agency": "Department of Public Works",
    "final_address": "9824 E Rockton Cir",
    "address_councildis": "E",
    "status": "Assigned to Contractor",
    "contractor": "Legacy Professional Services",
    "rowid": "990676",
    "final_x": "3708408.50603",
    "final_y": "563081.234464",
    "longitude": "-89.98192835419465",
    "latitude": "30.041432655691604",
    "geocoded_column": {
      "latitude": "30.041432655691604",
      "longitude": "-89.98192835419465"
    }
  },
  {
    "service_request": "2023-990675",
    "request_type": "Roads/Drainage",
    "request_reason": "Catch Basin - Clogged",
    "date_created": "2023-04-12T17:45:13.000",
    "date_modified": "2023-04-12T17:45:13.000",
    "request_status": "Pending",
    "responsible_agency": "Department of Public Works",
    "final_address": "509 Dauphine St",
    "address_councildis": "C",
    "status": "Pending",
    "rowid": "990675",
    "final_x": "3681564.63752",
    "final_y": "532403.911875",
    "longitude": "-90.06783539427661",
    "latitude": "29.957924177569353",
    "geocoded_column": {
      "latitude": "29.957924177569353",
      "longitude": "-90.06783539427661"
    }
  },
  {
    "service_request": "2023-990674",
    "request_type": "Roads/Drainage",
    "request_reason": "Catch Basin - Clogged",
    "date_created": "2023-04-12T17:42:20.000",
    "date_modified": "2023-04-12T17:42:20.000",
    "request_status": "Pending",
    "responsible_agency": "Department of Public Works",
    "final_address": "921 St Louis St",
    "address_councildis": "C",
    "status": "Pending",
    "rowid": "990674",
    "final_x": "3681393.12124",
    "final_y": "532435.578435",
    "longitude": "-90.06837588985634",
    "latitude": "29.95801645733983",
    "geocoded_column": {
      "latitude": "29.95801645733983",
      "longitude": "-90.06837588985634"
    }
  },
  {
    "service_request": "2023-990673",
    "request_type": "Property Maintenance",
    "request_reason": "Property Maintenance",
    "date_created": "2023-04-12T17:41:11.000",
    "date_modified": "2023-04-12T17:41:11.000",
    "request_status": "Pending",
    "responsible_agency": "Department of Code Enforcement",
    "final_address": "1 Peoples Ave",
    "address_councildis": "D",
    "status": "Pending",
    "rowid": "990673",
    "final_x": "3688554.35215",
    "final_y": "544473.663567",
    "longitude": "-90.04533550688092",
    "latitude": "29.990897626169275",
    "geocoded_column": {
      "latitude": "29.990897626169275",
      "longitude": "-90.04533550688092"
    }
  },
  {
    "service_request": "2023-990672",
    "request_type": "Traffic Signals/Signs/Striping/Streetlights",
    "request_reason": "Street Light Knocked Down/Leaning",
    "date_created": "2023-04-12T17:37:49.000",
    "date_modified": "2023-04-12T17:37:49.000",
    "request_status": "Pending",
    "responsible_agency": "Department of Public Works",
    "final_address": "1026 Bienville St",
    "address_councildis": "C",
    "status": "Pending",
    "contractor": "Legacy Professional Services",
    "rowid": "990672",
    "final_x": "3680669.99567",
    "final_y": "532008.496771",
    "longitude": "-90.07067417762168",
    "latitude": "29.95686405830543",
    "geocoded_column": {
      "latitude": "29.95686405830543",
      "longitude": "-90.07067417762168"
    }
  },
  {
    "service_request": "2023-990671",
    "request_type": "Roads/Drainage",
    "request_reason": "Pothole",
    "date_created": "2023-04-12T17:34:27.000",
    "date_modified": "2023-04-12T17:34:27.000",
    "request_status": "Pending",
    "responsible_agency": "Department of Public Works",
    "final_address": "8741 Morrison Rd",
    "address_councildis": "E",
    "status": "Pending",
    "rowid": "990671",
    "final_x": "3705080.78718",
    "final_y": "561690.438303",
    "longitude": "-89.9924964973855",
    "latitude": "30.03771600990439",
    "geocoded_column": {
      "latitude": "30.03771600990439",
      "longitude": "-89.9924964973855"
    }
  },
  {
    "service_request": "2023-990670",
    "request_type": "Abandoned Vehicles",
    "request_reason": "Abandoned/Junk Vehicles",
    "date_created": "2023-04-12T17:33:16.000",
    "date_modified": "2023-04-12T17:33:16.000",
    "request_status": "Pending",
    "responsible_agency": "Department of Public Works",
    "final_address": "4719 Charlmark Dr",
    "address_councildis": "E",
    "status": "Pending",
    "rowid": "990670",
    "final_x": "3711532.1571",
    "final_y": "555847.435737",
    "longitude": "-89.97232813049104",
    "latitude": "30.021440912047105",
    "geocoded_column": {
      "latitude": "30.021440912047105",
      "longitude": "-89.97232813049104"
    }
  },
  {
    "service_request": "2023-990669",
    "request_type": "Abandoned Vehicles",
    "request_reason": "Abandoned/Junk Vehicles",
    "date_created": "2023-04-12T17:33:16.000",
    "date_modified": "2023-04-12T17:33:16.000",
    "request_status": "Pending",
    "responsible_agency": "Department of Public Works",
    "final_address": "4719 Charlmark Dr",
    "address_councildis": "E",
    "status": "Pending",
    "rowid": "990669",
    "final_x": "3711532.1571",
    "final_y": "555847.435737",
    "longitude": "-89.97232813049104",
    "latitude": "30.021440912047105",
    "geocoded_column": {
      "latitude": "30.021440912047105",
      "longitude": "-89.97232813049104"
    }
  },
  {
    "service_request": "2023-990667",
    "request_type": "Abandoned Vehicles",
    "request_reason": "Abandoned/Junk Vehicles",
    "date_created": "2023-04-12T17:31:47.000",
    "date_modified": "2023-04-12T17:31:48.000",
    "request_status": "Pending",
    "responsible_agency": "Department of Public Works",
    "final_address": "CURRAN BLVD & GANNON RD",
    "address_councildis": "E",
    "status": "Pending",
    "rowid": "990667",
    "final_x": "3716158.0",
    "final_y": "570188.98",
    "longitude": "-89.95716765774026",
    "latitude": "30.060722457420827",
    "geocoded_column": {
      "latitude": "30.060722457420827",
      "longitude": "-89.95716765774026"
    }
  },
  {
    "service_request": "2023-990666",
    "request_type": "Trash/Recycling",
    "request_reason": "Repair Recycling Cart",
    "date_created": "2023-04-12T17:26:32.000",
    "date_modified": "2023-04-12T17:31:05.000",
    "request_status": "Pending",
    "responsible_agency": "Department of Sanitation",
    "final_address": "7049 Queensway Dr",
    "address_councildis": "E",
    "status": "Pending",
    "rowid": "990666",
    "final_x": "3719209.84479",
    "final_y": "569547.874662",
    "longitude": "-89.94754549055219",
    "latitude": "30.058858550449006",
    "geocoded_column": {
      "latitude": "30.058858550449006",
      "longitude": "-89.94754549055219"
    }
  },
  {
    "service_request": "2023-990665",
    "request_type": "Trash/Recycling",
    "request_reason": "Replace Trash Cart",
    "date_created": "2023-04-12T17:25:13.000",
    "date_modified": "2023-04-12T17:26:12.000",
    "request_status": "Pending",
    "responsible_agency": "Department of Sanitation",
    "final_address": "7049 Queensway Dr",
    "address_councildis": "E",
    "status": "Assigned to Contractor",
    "contractor": "Waste Pro",
    "rowid": "990665",
    "final_x": "3719209.84479",
    "final_y": "569547.874662",
    "longitude": "-89.94754549055219",
    "latitude": "30.058858550449006",
    "geocoded_column": {
      "latitude": "30.058858550449006",
      "longitude": "-89.94754549055219"
    }
  },
  {
    "service_request": "2023-990664",
    "request_type": "Trash/Recycling",
    "request_reason": "Missed Trash Pick-Up",
    "date_created": "2023-04-12T17:24:41.000",
    "date_modified": "2023-04-12T17:24:42.000",
    "request_status": "Pending",
    "responsible_agency": "Department of Sanitation",
    "final_address": "11239 Winrock Dr",
    "address_councildis": "E",
    "status": "Assigned to Contractor",
    "contractor": "Waste Pro",
    "rowid": "990664",
    "final_x": "3716253.83116",
    "final_y": "561443.522014",
    "longitude": "-89.9571967423345",
    "latitude": "30.036672858770157",
    "geocoded_column": {
      "latitude": "30.036672858770157",
      "longitude": "-89.9571967423345"
    }
  },
  {
    "service_request": "2023-990663",
    "request_type": "Trash/Recycling",
    "request_reason": "Missed Trash Pick-Up",
    "date_created": "2023-04-12T17:21:45.000",
    "date_modified": "2023-04-12T17:21:46.000",
    "request_status": "Pending",
    "responsible_agency": "Department of Sanitation",
    "status": "Assigned to Contractor",
    "rowid": "990663",
    "longitude": "0.0",
    "latitude": "0.0",
    "geocoded_column": {
      "latitude": "0.0",
      "longitude": "0.0"
    }
  },
  {
    "service_request": "2023-990662",
    "request_type": "Trash/Recycling",
    "request_reason": "Request a Large Item Pick Up",
    "date_created": "2023-04-12T17:17:36.000",
    "date_modified": "2023-04-12T17:17:37.000",
    "request_status": "Pending",
    "responsible_agency": "Department of Sanitation",
    "final_address": "8524 Huntington Park Dr, New Orleans, Louisiana, 70127",
    "address_councildis": "E",
    "status": "Assigned to Contractor",
    "contractor": "Waste Pro",
    "rowid": "990662",
    "final_x": "3705275.10027",
    "final_y": "560077.547869",
    "longitude": "-89.99194209562998",
    "latitude": "30.033274941454422",
    "geocoded_column": {
      "latitude": "30.033274941454422",
      "longitude": "-89.99194209562998"
    }
  },
  {
    "service_request": "2023-990661",
    "request_type": "Trash/Recycling",
    "request_reason": "Missed Trash Pick-Up",
    "date_created": "2023-04-12T17:17:28.000",
    "date_modified": "2023-04-12T17:17:29.000",
    "request_status": "Pending",
    "responsible_agency": "Department of Sanitation",
    "final_address": "2823 Second St",
    "address_councildis": "B",
    "status": "Assigned to Contractor",
    "contractor": "Richards Disposal",
    "rowid": "990661",
    "final_x": "3674291.72552",
    "final_y": "526780.611518",
    "longitude": "-90.09099374698583",
    "latitude": "29.942680823820208",
    "geocoded_column": {
      "latitude": "29.942680823820208",
      "longitude": "-90.09099374698583"
    }
  },
  {
    "service_request": "2023-990660",
    "request_type": "Trash/Recycling",
    "request_reason": "Request a Large Item Pick Up",
    "date_created": "2023-04-12T17:14:57.000",
    "date_modified": "2023-04-12T17:14:57.000",
    "request_status": "Pending",
    "responsible_agency": "Department of Sanitation",
    "final_address": "6201 Waldo Dr",
    "address_councildis": "D",
    "status": "Assigned to Contractor",
    "contractor": "IV Waste",
    "rowid": "990660",
    "final_x": "3681158.46767",
    "final_y": "555629.635417",
    "longitude": "-90.06830827550976",
    "latitude": "30.021799056046582",
    "geocoded_column": {
      "latitude": "30.021799056046582",
      "longitude": "-90.06830827550976"
    }
  },
  {
    "service_request": "2023-990659",
    "request_type": "Abandoned Vehicles",
    "request_reason": "Abandoned/Junk Vehicles",
    "date_created": "2023-04-12T17:13:21.000",
    "date_modified": "2023-04-12T17:13:21.000",
    "request_status": "Pending",
    "responsible_agency": "Department of Public Works",
    "final_address": "4432 Magazine St",
    "address_councildis": "B",
    "status": "Pending",
    "rowid": "990659",
    "final_x": "3670740.33505",
    "final_y": "518721.877303",
    "longitude": "-90.10247965862342",
    "latitude": "29.920627291955082",
    "geocoded_column": {
      "latitude": "29.920627291955082",
      "longitude": "-90.10247965862342"
    }
  },
  {
    "service_request": "2023-990658",
    "request_type": "Trash/Recycling",
    "request_reason": "Missed Trash Pick-Up",
    "date_created": "2023-04-12T17:13:15.000",
    "date_modified": "2023-04-12T17:13:15.000",
    "request_status": "Pending",
    "responsible_agency": "Department of Sanitation",
    "final_address": "5440 Stillwater Dr",
    "address_councildis": "E",
    "status": "Assigned to Contractor",
    "contractor": "Waste Pro",
    "rowid": "990658",
    "final_x": "3716708.64159",
    "final_y": "560438.35299",
    "longitude": "-89.95579765117569",
    "latitude": "30.03389402236349",
    "geocoded_column": {
      "latitude": "30.03389402236349",
      "longitude": "-89.95579765117569"
    }
  },
  {
    "service_request": "2023-990657",
    "request_type": "Abandoned Vehicles",
    "request_reason": "Abandoned/Junk Vehicles",
    "date_created": "2023-04-12T17:11:10.000",
    "date_modified": "2023-04-12T17:11:10.000",
    "request_status": "Pending",
    "responsible_agency": "Department of Public Works",
    "status": "Pending",
    "rowid": "990657",
    "longitude": "0.0",
    "latitude": "0.0",
    "geocoded_column": {
      "latitude": "0.0",
      "longitude": "0.0"
    }
  },
  {
    "service_request": "2023-990656",
    "request_type": "Trash/Recycling",
    "request_reason": "Missed Trash Pick-Up",
    "date_created": "2023-04-12T17:10:27.000",
    "date_modified": "2023-04-12T17:10:28.000",
    "request_status": "Pending",
    "responsible_agency": "Department of Sanitation",
    "final_address": "8524 Huntington Park Dr, New Orleans, Louisiana, 70127",
    "address_councildis": "E",
    "status": "Assigned to Contractor",
    "contractor": "Waste Pro",
    "rowid": "990656",
    "final_x": "3705275.10027",
    "final_y": "560077.547869",
    "longitude": "-89.99194209562998",
    "latitude": "30.033274941454422",
    "geocoded_column": {
      "latitude": "30.033274941454422",
      "longitude": "-89.99194209562998"
    }
  },
  {
    "service_request": "2023-990655",
    "request_type": "Trash/Recycling",
    "request_reason": "Request a Large Item Pick Up",
    "date_created": "2023-04-12T17:06:46.000",
    "date_modified": "2023-04-12T17:06:46.000",
    "request_status": "Pending",
    "responsible_agency": "Department of Sanitation",
    "final_address": "2826 Eagle St",
    "address_councildis": "A",
    "status": "Assigned to Contractor",
    "contractor": "Richards Disposal",
    "rowid": "990655",
    "final_x": "3664126.31117",
    "final_y": "534485.560837",
    "longitude": "-90.12283149552843",
    "latitude": "29.96416607768551",
    "geocoded_column": {
      "latitude": "29.96416607768551",
      "longitude": "-90.12283149552843"
    }
  },
  {
    "service_request": "2023-990654",
    "request_type": "Trash/Recycling",
    "request_reason": "Order Trash Cart",
    "date_created": "2023-04-12T17:04:31.000",
    "date_modified": "2023-04-12T17:04:32.000",
    "request_status": "Pending",
    "responsible_agency": "Department of Sanitation",
    "final_address": "627 s tonti",
    "address_councildis": "B",
    "status": "Assigned to Contractor",
    "contractor": "Richards Disposal",
    "rowid": "990654",
    "final_x": "3675054.64897",
    "final_y": "532565.186948",
    "longitude": "-90.08838658681513",
    "latitude": "29.95856371986607",
    "geocoded_column": {
      "latitude": "29.95856371986607",
      "longitude": "-90.08838658681513"
    }
  },
  {
    "service_request": "2023-990653",
    "request_type": "Trash/Recycling",
    "request_reason": "Missed Trash Pick-Up",
    "date_created": "2023-04-12T17:02:31.000",
    "date_modified": "2023-04-12T17:02:32.000",
    "request_status": "Pending",
    "responsible_agency": "Department of Sanitation",
    "final_address": "366 Pine St",
    "address_councildis": "A",
    "status": "Assigned to Contractor",
    "contractor": "Richards Disposal",
    "rowid": "990653",
    "final_x": "3661866.85658",
    "final_y": "523723.295995",
    "longitude": "-90.13032351675592",
    "latitude": "29.934638741605077",
    "geocoded_column": {
      "latitude": "29.934638741605077",
      "longitude": "-90.13032351675592"
    }
  },
  {
    "service_request": "2023-990652",
    "request_type": "Roads/Drainage",
    "request_reason": "Pothole",
    "date_created": "2023-04-12T16:59:59.000",
    "date_modified": "2023-04-12T16:59:59.000",
    "request_status": "Pending",
    "responsible_agency": "Department of Public Works",
    "final_address": "1226 N Dupre St",
    "address_councildis": "A",
    "status": "Pending",
    "rowid": "990652",
    "final_x": "3677114.44424",
    "final_y": "539401.055818",
    "longitude": "-90.0816464925173",
    "latitude": "29.97729833640949",
    "geocoded_column": {
      "latitude": "29.97729833640949",
      "longitude": "-90.0816464925173"
    }
  },
  {
    "service_request": "2023-990650",
    "request_type": "Trash/Recycling",
    "request_reason": "Return Recycling Cart",
    "date_created": "2023-04-12T16:48:15.000",
    "date_modified": "2023-04-12T16:48:16.000",
    "request_status": "Pending",
    "responsible_agency": "Department of Sanitation",
    "final_address": "4423 Cerise Ave",
    "address_councildis": "E",
    "status": "Pending",
    "rowid": "990650",
    "final_x": "3708856.08145",
    "final_y": "553934.245656",
    "longitude": "-89.98085507565031",
    "latitude": "30.016267510895208",
    "geocoded_column": {
      "latitude": "30.016267510895208",
      "longitude": "-89.98085507565031"
    }
  },
  {
    "service_request": "2023-990649",
    "request_type": "Roads/Drainage",
    "request_reason": "Debris in Roadway",
    "date_created": "2023-04-12T16:47:28.000",
    "date_modified": "2023-04-12T16:47:29.000",
    "request_status": "Pending",
    "responsible_agency": "Department of Public Works",
    "final_address": "WALES ST & EBBTIDE DR & EBBTIDE CT",
    "address_councildis": "E",
    "status": "Pending",
    "rowid": "990649",
    "final_x": "3701931.9",
    "final_y": "562179.68",
    "longitude": "-90.00242971914265",
    "latitude": "30.039162174022326",
    "geocoded_column": {
      "latitude": "30.039162174022326",
      "longitude": "-90.00242971914265"
    }
  },
  {
    "service_request": "2023-990648",
    "request_type": "Trash/Recycling",
    "request_reason": "Missed Trash Pick-Up",
    "date_created": "2023-04-12T16:47:20.000",
    "date_modified": "2023-04-12T16:47:21.000",
    "request_status": "Pending",
    "responsible_agency": "Department of Sanitation",
    "final_address": "334 Pine St",
    "address_councildis": "A",
    "status": "Assigned to Contractor",
    "contractor": "Richards Disposal",
    "rowid": "990648",
    "final_x": "3661727.11219",
    "final_y": "523457.096507",
    "longitude": "-90.13077350916909",
    "latitude": "29.93391081035991",
    "geocoded_column": {
      "latitude": "29.93391081035991",
      "longitude": "-90.13077350916909"
    }
  },
  {
    "service_request": "2023-990647",
    "request_type": "Property Maintenance",
    "request_reason": "Property Maintenance",
    "date_created": "2023-04-12T16:45:27.000",
    "date_modified": "2023-04-12T16:45:27.000",
    "request_status": "Pending",
    "responsible_agency": "Department of Code Enforcement",
    "final_address": "4103 N Claiborne Ave",
    "address_councildis": "D",
    "status": "Pending",
    "rowid": "990647",
    "final_x": "3692615.33609",
    "final_y": "537124.439944",
    "longitude": "-90.03277137418692",
    "latitude": "29.970563754496176",
    "geocoded_column": {
      "latitude": "29.970563754496176",
      "longitude": "-90.03277137418692"
    }
  },
  {
    "service_request": "2023-990646",
    "request_type": "Roads/Drainage",
    "request_reason": "Catch Basin - Broken/Damage",
    "date_created": "2023-04-12T16:42:41.000",
    "date_modified": "2023-04-12T16:42:42.000",
    "request_status": "Pending",
    "responsible_agency": "Department of Public Works",
    "final_address": "1300 Elysian Fields Ave",
    "address_councildis": "C",
    "status": "Pending",
    "rowid": "990646",
    "final_x": "3684855.47484",
    "final_y": "537062.585032",
    "longitude": "-90.05728005535073",
    "latitude": "29.97063357367015",
    "geocoded_column": {
      "latitude": "29.97063357367015",
      "longitude": "-90.05728005535073"
    }
  },
  {
    "service_request": "2023-990645",
    "request_type": "Trash/Recycling",
    "request_reason": "Replace Trash Cart",
    "date_created": "2023-04-12T16:40:49.000",
    "date_modified": "2023-04-12T16:40:50.000",
    "request_status": "Pending",
    "responsible_agency": "Department of Sanitation",
    "status": "Assigned to Contractor",
    "rowid": "990645",
    "longitude": "0.0",
    "latitude": "0.0",
    "geocoded_column": {
      "latitude": "0.0",
      "longitude": "0.0"
    }
  },
  {
    "service_request": "2023-990644",
    "request_type": "Mosquito, Termite & Rodent Control",
    "request_reason": "Rodent Complaint (Rats)",
    "date_created": "2023-04-12T16:38:41.000",
    "date_modified": "2023-04-12T16:38:41.000",
    "request_status": "Closed",
    "responsible_agency": "Mosquito, Termite & Rodent Control Board",
    "final_address": "1300 BLK Elysian Fields Ave",
    "address_councildis": "C",
    "status": "Inspected",
    "rowid": "990644",
    "final_x": "3684887.30506",
    "final_y": "537220.043786",
    "longitude": "-90.05717399361248",
    "latitude": "29.971065555742346",
    "geocoded_column": {
      "latitude": "29.971065555742346",
      "longitude": "-90.05717399361248"
    }
  },
  {
    "service_request": "2023-990643",
    "request_type": "Trash/Recycling",
    "request_reason": "Illegal Dumping",
    "date_created": "2023-04-12T16:37:14.000",
    "date_modified": "2023-04-12T16:37:15.000",
    "request_status": "Pending",
    "responsible_agency": "Department of Sanitation",
    "final_address": "800 BLK Chartres St",
    "address_councildis": "C",
    "status": "Pending",
    "rowid": "990643",
    "final_x": "3683125.67341",
    "final_y": "532620.702591",
    "longitude": "-90.06289850098541",
    "latitude": "29.958472780118342",
    "geocoded_column": {
      "latitude": "29.958472780118342",
      "longitude": "-90.06289850098541"
    }
  },
  {
    "service_request": "2023-990642",
    "request_type": "Trash/Recycling",
    "request_reason": "Request a Large Item Pick Up",
    "date_created": "2023-04-12T16:35:09.000",
    "date_modified": "2023-04-12T16:35:10.000",
    "request_status": "Pending",
    "responsible_agency": "Department of Sanitation",
    "final_address": "3501 Annunciation street new orleans 70115",
    "address_councildis": "B",
    "status": "Assigned to Contractor",
    "contractor": "Richards Disposal",
    "rowid": "990642",
    "final_x": "3674775.35713",
    "final_y": "518399.114934",
    "longitude": "-90.0897540022201",
    "latitude": "29.91962000043516",
    "geocoded_column": {
      "latitude": "29.91962000043516",
      "longitude": "-90.0897540022201"
    }
  },
  {
    "service_request": "2023-990641",
    "request_type": "Trash/Recycling",
    "request_reason": "Order Trash Cart",
    "date_created": "2023-04-12T16:32:59.000",
    "date_modified": "2023-04-12T16:33:00.000",
    "request_status": "Pending",
    "responsible_agency": "Department of Sanitation",
    "final_address": "5021 Burgundy St",
    "address_councildis": "E",
    "status": "Assigned to Contractor",
    "contractor": "Waste Pro",
    "rowid": "990641",
    "final_x": "3695956.8975",
    "final_y": "533485.315908",
    "longitude": "-90.02234987902236",
    "latitude": "29.960452745169103",
    "geocoded_column": {
      "latitude": "29.960452745169103",
      "longitude": "-90.02234987902236"
    }
  },
  {
    "service_request": "2023-990640",
    "request_type": "Property Maintenance",
    "request_reason": "Property Maintenance",
    "date_created": "2023-04-12T16:32:58.000",
    "date_modified": "2023-04-12T16:32:58.000",
    "request_status": "Pending",
    "responsible_agency": "Department of Code Enforcement",
    "final_address": "3211 Jackson Ave",
    "address_councildis": "B",
    "status": "Pending",
    "rowid": "990640",
    "final_x": "3673911.57704",
    "final_y": "528621.478848",
    "longitude": "-90.09213100920283",
    "latitude": "29.94775393116905",
    "geocoded_column": {
      "latitude": "29.94775393116905",
      "longitude": "-90.09213100920283"
    }
  },
  {
    "service_request": "2023-990639",
    "request_type": "Trash/Recycling",
    "request_reason": "Order Trash Cart",
    "date_created": "2023-04-12T16:32:47.000",
    "date_modified": "2023-04-12T16:32:47.000",
    "request_status": "Pending",
    "responsible_agency": "Department of Sanitation",
    "final_address": "1204 Louisa St",
    "address_councildis": "C",
    "status": "Assigned to Contractor",
    "contractor": "IV Waste",
    "rowid": "990639",
    "final_x": "3689631.52099",
    "final_y": "536284.680007",
    "longitude": "-90.04222446334778",
    "latitude": "29.96834749536938",
    "geocoded_column": {
      "latitude": "29.96834749536938",
      "longitude": "-90.04222446334778"
    }
  },
  {
    "service_request": "2023-990638",
    "request_type": "Trash/Recycling",
    "request_reason": "Replace Trash Cart",
    "date_created": "2023-04-12T16:28:38.000",
    "date_modified": "2023-04-12T16:28:38.000",
    "request_status": "Pending",
    "responsible_agency": "Department of Sanitation",
    "final_address": "4657 Knight Dr",
    "address_councildis": "E",
    "status": "Assigned to Contractor",
    "contractor": "Waste Pro",
    "rowid": "990638",
    "final_x": "3708260.57368",
    "final_y": "555031.125849",
    "longitude": "-89.98269575265019",
    "latitude": "30.019302819804192",
    "geocoded_column": {
      "latitude": "30.019302819804192",
      "longitude": "-89.98269575265019"
    }
  },
  {
    "service_request": "2023-990637",
    "request_type": "Abandoned Vehicles",
    "request_reason": "Abandoned/Junk Vehicles",
    "date_created": "2023-04-12T16:27:46.000",
    "date_modified": "2023-04-12T16:27:46.000",
    "request_status": "Pending",
    "responsible_agency": "Department of Public Works",
    "final_address": "2764 Orleans Ave",
    "address_councildis": "A",
    "status": "Pending",
    "rowid": "990637",
    "final_x": "3676305.53217",
    "final_y": "537276.924168",
    "longitude": "-90.08427443633565",
    "latitude": "29.971481973276305",
    "geocoded_column": {
      "latitude": "29.971481973276305",
      "longitude": "-90.08427443633565"
    }
  },
  {
    "service_request": "2023-990636",
    "request_type": "Traffic Signals/Signs/Striping/Streetlights",
    "request_reason": "Street Light Outage/Malfunction",
    "date_created": "2023-04-12T16:26:51.000",
    "date_modified": "2023-04-12T16:26:51.000",
    "request_status": "Pending",
    "responsible_agency": "Department of Public Works",
    "final_address": "216 S Roadway St",
    "address_councildis": "A",
    "status": "Assigned to Contractor",
    "contractor": "Legacy Professional Services",
    "rowid": "990636",
    "final_x": "3666217.77313",
    "final_y": "556182.03849",
    "longitude": "-90.11549860676338",
    "latitude": "30.023763051746272",
    "geocoded_column": {
      "latitude": "30.023763051746272",
      "longitude": "-90.11549860676338"
    }
  },
  {
    "service_request": "2023-990635",
    "request_type": "Abandoned Vehicles",
    "request_reason": "Abandoned/Junk Vehicles",
    "date_created": "2023-04-12T16:23:38.000",
    "date_modified": "2023-04-12T16:23:39.000",
    "request_status": "Pending",
    "responsible_agency": "Department of Public Works",
    "final_address": "216 S Roadway St",
    "address_councildis": "A",
    "status": "Pending",
    "rowid": "990635",
    "final_x": "3666217.77313",
    "final_y": "556182.03849",
    "longitude": "-90.11549860676338",
    "latitude": "30.023763051746272",
    "geocoded_column": {
      "latitude": "30.023763051746272",
      "longitude": "-90.11549860676338"
    }
  },
  {
    "service_request": "2023-990634",
    "request_type": "Trash/Recycling",
    "request_reason": "Repair Recycling Cart",
    "date_created": "2023-04-12T16:22:30.000",
    "date_modified": "2023-04-12T16:22:30.000",
    "request_status": "Pending",
    "responsible_agency": "Department of Sanitation",
    "final_address": "9824 E Rockton Cir",
    "address_councildis": "E",
    "status": "Pending",
    "rowid": "990634",
    "final_x": "3708408.50603",
    "final_y": "563081.234464",
    "longitude": "-89.98192835419465",
    "latitude": "30.041432655691604",
    "geocoded_column": {
      "latitude": "30.041432655691604",
      "longitude": "-89.98192835419465"
    }
  },
  {
    "service_request": "2023-990633",
    "request_type": "Abandoned Vehicles",
    "request_reason": "Abandoned/Junk Vehicles",
    "date_created": "2023-04-12T16:21:23.000",
    "date_modified": "2023-04-12T16:21:24.000",
    "request_status": "Pending",
    "responsible_agency": "Department of Public Works",
    "final_address": "1216 Broadway St",
    "address_councildis": "A",
    "status": "Pending",
    "rowid": "990633",
    "final_x": "3664214.22887",
    "final_y": "526656.237566",
    "longitude": "-90.12281505726502",
    "latitude": "29.9426354223679",
    "geocoded_column": {
      "latitude": "29.9426354223679",
      "longitude": "-90.12281505726502"
    }
  },
  {
    "service_request": "2023-990632",
    "request_type": "Trash/Recycling",
    "request_reason": "Order Trash Cart",
    "date_created": "2023-04-12T16:14:11.000",
    "date_modified": "2023-04-12T16:14:12.000",
    "request_status": "Pending",
    "responsible_agency": "Department of Sanitation",
    "final_address": "4920 S Robertson St",
    "address_councildis": "B",
    "status": "Assigned to Contractor",
    "contractor": "Richards Disposal",
    "rowid": "990632",
    "final_x": "3668924.13786",
    "final_y": "524231.333436",
    "longitude": "-90.10802660070784",
    "latitude": "29.935830060764264",
    "geocoded_column": {
      "latitude": "29.935830060764264",
      "longitude": "-90.10802660070784"
    }
  },
  {
    "service_request": "2023-990631",
    "request_type": "Trash/Recycling",
    "request_reason": "Order Recycling Cart",
    "date_created": "2023-04-12T16:12:12.000",
    "date_modified": "2023-04-12T16:12:12.000",
    "request_status": "Pending",
    "responsible_agency": "Department of Sanitation",
    "final_address": "4334 Randolph Ave",
    "address_councildis": "D",
    "status": "Pending",
    "rowid": "990631",
    "final_x": "3677659.94466",
    "final_y": "548367.870674",
    "longitude": "-90.0796137568314",
    "latitude": "30.001937547450204",
    "geocoded_column": {
      "latitude": "30.001937547450204",
      "longitude": "-90.0796137568314"
    }
  },
  {
    "service_request": "2023-990630",
    "request_type": "Abandoned Vehicles",
    "request_reason": "Abandoned/Junk Vehicles",
    "date_created": "2023-04-12T16:10:35.000",
    "date_modified": "2023-04-12T16:10:35.000",
    "request_status": "Pending",
    "responsible_agency": "Department of Public Works",
    "final_address": "2776 Dreux Ave",
    "address_councildis": "D",
    "status": "Pending",
    "rowid": "990630",
    "final_x": "3688006.84265",
    "final_y": "552296.080982",
    "longitude": "-90.04678752035544",
    "latitude": "30.0124233440232",
    "geocoded_column": {
      "latitude": "30.0124233440232",
      "longitude": "-90.04678752035544"
    }
  },
  {
    "service_request": "2023-990629",
    "request_type": "Abandoned Vehicles",
    "request_reason": "Abandoned/Junk Vehicles",
    "date_created": "2023-04-12T16:09:17.000",
    "date_modified": "2023-04-12T16:09:17.000",
    "request_status": "Pending",
    "responsible_agency": "Department of Public Works",
    "final_address": "2753 Orleans Ave",
    "address_councildis": "A",
    "status": "Pending",
    "rowid": "990629",
    "final_x": "3676440.72789",
    "final_y": "537345.421768",
    "longitude": "-90.08384510925013",
    "latitude": "29.971666265328352",
    "geocoded_column": {
      "latitude": "29.971666265328352",
      "longitude": "-90.08384510925013"
    }
  },
  {
    "service_request": "2023-990628",
    "request_type": "Abandoned Vehicles",
    "request_reason": "Abandoned/Junk Vehicles",
    "date_created": "2023-04-12T16:06:22.000",
    "date_modified": "2023-04-12T16:06:22.000",
    "request_status": "Pending",
    "responsible_agency": "Department of Public Works",
    "final_address": "1837 Milan St",
    "address_councildis": "B",
    "status": "Pending",
    "rowid": "990628",
    "final_x": "3671553.83156",
    "final_y": "521975.075706",
    "longitude": "-90.09980127364697",
    "latitude": "29.929548494655222",
    "geocoded_column": {
      "latitude": "29.929548494655222",
      "longitude": "-90.09980127364697"
    }
  },
  {
    "service_request": "2023-990627",
    "request_type": "Abandoned Vehicles",
    "request_reason": "Vehicle Blocking Your Driveway",
    "date_created": "2023-04-12T16:00:16.000",
    "date_modified": "2023-04-12T16:00:16.000",
    "request_status": "Pending",
    "responsible_agency": "Department of Public Works",
    "status": "Pending",
    "rowid": "990627",
    "longitude": "0.0",
    "latitude": "0.0",
    "geocoded_column": {
      "latitude": "0.0",
      "longitude": "0.0"
    }
  },
  {
    "service_request": "2023-990626",
    "request_type": "Trash/Recycling",
    "request_reason": "Replace Trash Cart",
    "date_created": "2023-04-12T15:53:29.000",
    "date_modified": "2023-04-12T15:53:29.000",
    "request_status": "Pending",
    "responsible_agency": "Department of Sanitation",
    "final_address": "6592 Coveview Ct",
    "address_councildis": "E",
    "status": "Assigned to Contractor",
    "contractor": "Waste Pro",
    "rowid": "990626",
    "final_x": "3699018.5896",
    "final_y": "555671.850905",
    "longitude": "-90.0118737543386",
    "latitude": "30.021360871166255",
    "geocoded_column": {
      "latitude": "30.021360871166255",
      "longitude": "-90.0118737543386"
    }
  },
  {
    "service_request": "2023-990625",
    "request_type": "Trash/Recycling",
    "request_reason": "Request a Large Item Pick Up",
    "date_created": "2023-04-12T15:52:41.000",
    "date_modified": "2023-04-12T15:52:42.000",
    "request_status": "Pending",
    "responsible_agency": "Department of Sanitation",
    "final_address": "7713 Unity Dr",
    "address_councildis": "E",
    "status": "Assigned to Contractor",
    "contractor": "Waste Pro",
    "rowid": "990625",
    "final_x": "3711987.59627",
    "final_y": "567244.395812",
    "longitude": "-89.9704607616289",
    "latitude": "30.052763114442538",
    "geocoded_column": {
      "latitude": "30.052763114442538",
      "longitude": "-89.9704607616289"
    }
  },
  {
    "service_request": "2023-990624",
    "request_type": "Trash/Recycling",
    "request_reason": "Request a Large Item Pick Up",
    "date_created": "2023-04-12T15:49:31.000",
    "date_modified": "2023-04-12T15:49:32.000",
    "request_status": "Pending",
    "responsible_agency": "Department of Sanitation",
    "final_address": "1814 Camp St",
    "address_councildis": "B",
    "status": "Assigned to Contractor",
    "contractor": "Richards Disposal",
    "rowid": "990624",
    "final_x": "3679550.33064",
    "final_y": "523192.912059",
    "longitude": "-90.07451553952943",
    "latitude": "29.93265801785025",
    "geocoded_column": {
      "latitude": "29.93265801785025",
      "longitude": "-90.07451553952943"
    }
  },
  {
    "service_request": "2023-990623",
    "request_type": "Trash/Recycling",
    "request_reason": "Missed Trash Pick-Up",
    "date_created": "2023-04-12T15:41:31.000",
    "date_modified": "2023-04-12T15:41:31.000",
    "request_status": "Pending",
    "responsible_agency": "Department of Sanitation",
    "final_address": "7901 Devine Ave",
    "address_councildis": "E",
    "status": "Assigned to Contractor",
    "contractor": "Waste Pro",
    "rowid": "990623",
    "final_x": "3705310.89745",
    "final_y": "563839.626145",
    "longitude": "-89.99168977325742",
    "latitude": "30.04361802092966",
    "geocoded_column": {
      "latitude": "30.04361802092966",
      "longitude": "-89.99168977325742"
    }
  },
  {
    "service_request": "2023-990622",
    "request_type": "Trash/Recycling",
    "request_reason": "Order Trash Cart",
    "date_created": "2023-04-12T15:40:54.000",
    "date_modified": "2023-04-12T15:40:55.000",
    "request_status": "Pending",
    "responsible_agency": "Department of Sanitation",
    "final_address": "2658 Treasure St",
    "address_councildis": "D",
    "status": "Assigned to Contractor",
    "contractor": "IV Waste",
    "rowid": "990622",
    "final_x": "3687879.23279",
    "final_y": "544271.422479",
    "longitude": "-90.04747521049423",
    "latitude": "29.990362384837383",
    "geocoded_column": {
      "latitude": "29.990362384837383",
      "longitude": "-90.04747521049423"
    }
  },
  {
    "service_request": "2023-990621",
    "request_type": "Property Maintenance",
    "request_reason": "Property Maintenance",
    "date_created": "2023-04-12T15:36:16.000",
    "date_modified": "2023-04-12T15:36:16.000",
    "request_status": "Pending",
    "responsible_agency": "Department of Code Enforcement",
    "final_address": "7109 Edinburgh St",
    "address_councildis": "B",
    "status": "Pending",
    "rowid": "990621",
    "final_x": "3668920.24558",
    "final_y": "533184.945796",
    "longitude": "-90.10773654623806",
    "latitude": "29.960449690801134",
    "geocoded_column": {
      "latitude": "29.960449690801134",
      "longitude": "-90.10773654623806"
    }
  },
  {
    "service_request": "2023-990620",
    "request_type": "Traffic Signals/Signs/Striping/Streetlights",
    "request_reason": "Street Light Outage/Malfunction",
    "date_created": "2023-04-12T15:33:24.000",
    "date_modified": "2023-04-12T15:33:25.000",
    "request_status": "Pending",
    "responsible_agency": "Department of Public Works",
    "final_address": "7530 Wave Dr",
    "address_councildis": "E",
    "status": "Assigned to Contractor",
    "contractor": "Legacy Professional Services",
    "rowid": "990620",
    "final_x": "3715221.51039",
    "final_y": "568301.103845",
    "longitude": "-89.96019935469486",
    "latitude": "30.05556246890622",
    "geocoded_column": {
      "latitude": "30.05556246890622",
      "longitude": "-89.96019935469486"
    }
  },
  {
    "service_request": "2023-990619",
    "request_type": "Trash/Recycling",
    "request_reason": "Order Trash Cart",
    "date_created": "2023-04-12T15:32:29.000",
    "date_modified": "2023-04-12T15:32:30.000",
    "request_status": "Pending",
    "responsible_agency": "Department of Sanitation",
    "final_address": "1909 Jackson Ave",
    "address_councildis": "B",
    "status": "Assigned to Contractor",
    "contractor": "Richards Disposal",
    "rowid": "990619",
    "final_x": "3676795.27368",
    "final_y": "524840.984444",
    "longitude": "-90.08315626739817",
    "latitude": "29.93727261396047",
    "geocoded_column": {
      "latitude": "29.93727261396047",
      "longitude": "-90.08315626739817"
    }
  },
  {
    "service_request": "2023-990618",
    "request_type": "Trash/Recycling",
    "request_reason": "Request a Large Item Pick Up",
    "date_created": "2023-04-12T15:31:38.000",
    "date_modified": "2023-04-12T15:31:38.000",
    "request_status": "Pending",
    "responsible_agency": "Department of Sanitation",
    "final_address": "1614 Simon Bolivar Ave",
    "address_councildis": "B",
    "status": "Assigned to Contractor",
    "contractor": "Richards Disposal",
    "rowid": "990618",
    "final_x": "3677135.02856",
    "final_y": "526306.382654",
    "longitude": "-90.0820331175139",
    "latitude": "29.941291779238668",
    "geocoded_column": {
      "latitude": "29.941291779238668",
      "longitude": "-90.0820331175139"
    }
  },
  {
    "service_request": "2023-990617",
    "request_type": "Trash/Recycling",
    "request_reason": "Request a Large Item Pick Up",
    "date_created": "2023-04-12T15:31:32.000",
    "date_modified": "2023-04-12T15:31:32.000",
    "request_status": "Pending",
    "responsible_agency": "Department of Sanitation",
    "final_address": "8036 Read Blvd",
    "address_councildis": "E",
    "status": "Assigned to Contractor",
    "contractor": "Waste Pro",
    "rowid": "990617",
    "final_x": "3707699.87761",
    "final_y": "565823.164643",
    "longitude": "-89.98406581714222",
    "latitude": "30.0489948292551",
    "geocoded_column": {
      "latitude": "30.0489948292551",
      "longitude": "-89.98406581714222"
    }
  },
  {
    "service_request": "2023-990616",
    "request_type": "Property Maintenance",
    "request_reason": "Property Maintenance",
    "date_created": "2023-04-12T15:25:43.000",
    "date_modified": "2023-04-12T15:25:44.000",
    "request_status": "Pending",
    "responsible_agency": "Department of Code Enforcement",
    "final_address": "8001 Tarpon St",
    "address_councildis": "E",
    "status": "Pending",
    "rowid": "990616",
    "final_x": "3698351.26813",
    "final_y": "561053.775006",
    "longitude": "-90.01378646094489",
    "latitude": "30.036180240834106",
    "geocoded_column": {
      "latitude": "30.036180240834106",
      "longitude": "-90.01378646094489"
    }
  },
  {
    "service_request": "2023-990615",
    "request_type": "Trash/Recycling",
    "request_reason": "MIssed Recycling Pick-Up",
    "date_created": "2023-04-12T15:23:44.000",
    "date_modified": "2023-04-12T15:23:44.000",
    "request_status": "Pending",
    "responsible_agency": "Department of Sanitation",
    "final_address": "151 E Greenbrier Dr",
    "address_councildis": "E",
    "status": "Assigned to Contractor",
    "contractor": "Waste Pro",
    "rowid": "990615",
    "final_x": "3717500.82546",
    "final_y": "565218.420962",
    "longitude": "-89.95311232998944",
    "latitude": "30.047011057294082",
    "geocoded_column": {
      "latitude": "30.047011057294082",
      "longitude": "-89.95311232998944"
    }
  },
  {
    "service_request": "2023-990614",
    "request_type": "Trash/Recycling",
    "request_reason": "Order Trash Cart",
    "date_created": "2023-04-12T15:22:19.000",
    "date_modified": "2023-04-12T15:22:19.000",
    "request_status": "Pending",
    "responsible_agency": "Department of Sanitation",
    "final_address": "1926 Pace Blvd",
    "address_councildis": "C",
    "status": "Assigned to Contractor",
    "contractor": "Richards Disposal",
    "rowid": "990614",
    "final_x": "3694509.54435",
    "final_y": "523423.507835",
    "longitude": "-90.02728246051238",
    "latitude": "29.932831716181393",
    "geocoded_column": {
      "latitude": "29.932831716181393",
      "longitude": "-90.02728246051238"
    }
  },
  {
    "service_request": "2023-990613",
    "request_type": "Trash/Recycling",
    "request_reason": "Replace Trash Cart",
    "date_created": "2023-04-12T15:21:23.000",
    "date_modified": "2023-04-12T15:21:23.000",
    "request_status": "Pending",
    "responsible_agency": "Department of Sanitation",
    "final_address": "1231 Lesseps St, New Orleans, Louisiana, 70117",
    "address_councildis": "D",
    "status": "Assigned to Contractor",
    "contractor": "IV Waste",
    "rowid": "990613",
    "final_x": "3692887.87593",
    "final_y": "535677.660679",
    "longitude": "-90.03196255793293",
    "latitude": "29.96657711482382",
    "geocoded_column": {
      "latitude": "29.96657711482382",
      "longitude": "-90.03196255793293"
    }
  },
  {
    "service_request": "2023-990612",
    "request_type": "Roads/Drainage",
    "request_reason": "Damaged Sidewalk",
    "date_created": "2023-04-12T15:21:15.000",
    "date_modified": "2023-04-12T15:21:15.000",
    "request_status": "Pending",
    "responsible_agency": "Department of Public Works",
    "final_address": "719 N Alexander St",
    "address_councildis": "A",
    "status": "Pending",
    "rowid": "990612",
    "final_x": "3671518.91943",
    "final_y": "541263.673932",
    "longitude": "-90.09925568880392",
    "latitude": "29.98258678571909",
    "geocoded_column": {
      "latitude": "29.98258678571909",
      "longitude": "-90.09925568880392"
    }
  },
  {
    "service_request": "2023-990611",
    "request_type": "Trash/Recycling",
    "request_reason": "Replace Trash Cart",
    "date_created": "2023-04-12T15:20:42.000",
    "date_modified": "2023-04-12T15:20:43.000",
    "request_status": "Pending",
    "responsible_agency": "Department of Sanitation",
    "final_address": "1229 Lesseps St, New Orleans, Louisiana, 70117",
    "address_councildis": "D",
    "status": "Assigned to Contractor",
    "contractor": "IV Waste",
    "rowid": "990611",
    "final_x": "3692885.37597",
    "final_y": "535668.910662",
    "longitude": "-90.03197076657892",
    "latitude": "29.966553133436637",
    "geocoded_column": {
      "latitude": "29.966553133436637",
      "longitude": "-90.03197076657892"
    }
  },
  {
    "service_request": "2023-990610",
    "request_type": "Trash/Recycling",
    "request_reason": "Repair Trash Cart",
    "date_created": "2023-04-12T15:17:23.000",
    "date_modified": "2023-04-12T15:17:23.000",
    "request_status": "Pending",
    "responsible_agency": "Department of Sanitation",
    "final_address": "550 Octavia St",
    "address_councildis": "A",
    "status": "Assigned to Contractor",
    "contractor": "Richards Disposal",
    "rowid": "990610",
    "final_x": "3666260.69319",
    "final_y": "518307.202998",
    "longitude": "-90.1166337672771",
    "latitude": "29.9196186221375",
    "geocoded_column": {
      "latitude": "29.9196186221375",
      "longitude": "-90.1166337672771"
    }
  },
  {
    "service_request": "2023-990609",
    "request_type": "Trash/Recycling",
    "request_reason": "Order Recycling Cart",
    "date_created": "2023-04-12T15:13:25.000",
    "date_modified": "2023-04-12T15:13:26.000",
    "request_status": "Pending",
    "responsible_agency": "Department of Sanitation",
    "final_address": "4935 Read Blvd",
    "address_councildis": "E",
    "status": "Pending",
    "rowid": "990609",
    "final_x": "3712762.98802",
    "final_y": "557206.061211",
    "longitude": "-89.9683879435076",
    "latitude": "30.025136340787622",
    "geocoded_column": {
      "latitude": "30.025136340787622",
      "longitude": "-89.9683879435076"
    }
  },
  {
    "service_request": "2023-990608",
    "request_type": "Trash/Recycling",
    "request_reason": "Repair Trash Cart",
    "date_created": "2023-04-12T15:13:02.000",
    "date_modified": "2023-04-12T15:17:37.000",
    "request_status": "Pending",
    "responsible_agency": "Department of Sanitation",
    "final_address": "7841 Willow St, New Orleans, Louisiana, 70118",
    "address_councildis": "A",
    "contractor": "Richards Disposal",
    "rowid": "990608",
    "final_x": "3663074.09747",
    "final_y": "528366.343616",
    "longitude": "-90.12635786217724",
    "latitude": "29.947370736877296",
    "geocoded_column": {
      "latitude": "29.947370736877296",
      "longitude": "-90.12635786217724"
    }
  },
  {
    "service_request": "2023-990607",
    "request_type": "Trash/Recycling",
    "request_reason": "MIssed Recycling Pick-Up",
    "date_created": "2023-04-12T15:08:37.000",
    "date_modified": "2023-04-12T15:08:37.000",
    "request_status": "Pending",
    "responsible_agency": "Department of Sanitation",
    "final_address": "5863 Marcia Ave",
    "address_councildis": "A",
    "status": "Assigned to Contractor",
    "contractor": "IV Waste",
    "rowid": "990607",
    "final_x": "3664879.04589",
    "final_y": "546819.179089",
    "longitude": "-90.12004200074693",
    "latitude": "29.99805750177402",
    "geocoded_column": {
      "latitude": "29.99805750177402",
      "longitude": "-90.12004200074693"
    }
  },
  {
    "service_request": "2023-990606",
    "request_type": "Parks & Parkways",
    "request_reason": "Request Tree Service (Right of Way/Public Property)",
    "date_created": "2023-04-12T15:06:08.000",
    "date_modified": "2023-04-12T15:06:09.000",
    "request_status": "Pending",
    "responsible_agency": "Department of Parks & Parkway",
    "final_address": "10614 Prentiss Ave",
    "address_councildis": "E",
    "status": "Pending",
    "rowid": "990606",
    "final_x": "3714751.27346",
    "final_y": "556443.278554",
    "longitude": "-89.96213418350783",
    "latitude": "30.02297371660274",
    "geocoded_column": {
      "latitude": "30.02297371660274",
      "longitude": "-89.96213418350783"
    }
  },
  {
    "service_request": "2023-990605",
    "request_type": "Trash/Recycling",
    "request_reason": "MIssed Recycling Pick-Up",
    "date_created": "2023-04-12T15:05:15.000",
    "date_modified": "2023-04-12T15:05:15.000",
    "request_status": "Pending",
    "responsible_agency": "Department of Sanitation",
    "final_address": "2319 Constance St",
    "address_councildis": "B",
    "status": "Assigned to Contractor",
    "contractor": "Richards Disposal",
    "rowid": "990605",
    "final_x": "3678569.79029",
    "final_y": "521521.058361",
    "longitude": "-90.07766886278453",
    "latitude": "29.928090550927262",
    "geocoded_column": {
      "latitude": "29.928090550927262",
      "longitude": "-90.07766886278453"
    }
  },
  {
    "service_request": "2023-990604",
    "request_type": "Trash/Recycling",
    "request_reason": "Order Trash Cart",
    "date_created": "2023-04-12T15:02:46.000",
    "date_modified": "2023-04-12T15:02:47.000",
    "request_status": "Pending",
    "responsible_agency": "Department of Sanitation",
    "final_address": "4020 Camp St",
    "address_councildis": "B",
    "status": "Assigned to Contractor",
    "contractor": "Richards Disposal",
    "rowid": "990604",
    "final_x": "3672329.72443",
    "final_y": "519227.943799",
    "longitude": "-90.09744545234194",
    "latitude": "29.92197177222624",
    "geocoded_column": {
      "latitude": "29.92197177222624",
      "longitude": "-90.09744545234194"
    }
  },
  {
    "service_request": "2023-990603",
    "request_type": "Trash/Recycling",
    "request_reason": "Replace Trash Cart",
    "date_created": "2023-04-12T15:02:20.000",
    "date_modified": "2023-04-12T15:02:21.000",
    "request_status": "Pending",
    "responsible_agency": "Department of Sanitation",
    "status": "Assigned to Contractor",
    "rowid": "990603",
    "longitude": "0.0",
    "latitude": "0.0",
    "geocoded_column": {
      "latitude": "0.0",
      "longitude": "0.0"
    }
  },
  {
    "service_request": "2023-990602",
    "request_type": "Trash/Recycling",
    "request_reason": "Missed Trash Pick-Up",
    "date_created": "2023-04-12T15:00:20.000",
    "date_modified": "2023-04-12T15:00:21.000",
    "request_status": "Pending",
    "responsible_agency": "Department of Sanitation",
    "final_address": "6462 General Haig St",
    "address_councildis": "A",
    "status": "Assigned to Contractor",
    "contractor": "IV Waste",
    "rowid": "990602",
    "final_x": "3670752.81691",
    "final_y": "550343.346132",
    "longitude": "-90.10136709057798",
    "latitude": "30.007575407254222",
    "geocoded_column": {
      "latitude": "30.007575407254222",
      "longitude": "-90.10136709057798"
    }
  },
  {
    "service_request": "2023-990601",
    "request_type": "Trash/Recycling",
    "request_reason": "Request a Large Item Pick Up",
    "date_created": "2023-04-12T14:57:09.000",
    "date_modified": "2023-04-12T16:24:05.000",
    "case_close_date": "2023-04-12T11:24:05.000",
    "request_status": "Closed",
    "responsible_agency": "Department of Sanitation",
    "final_address": "5111 Baccich St",
    "address_councildis": "D",
    "status": "Assigned to Contractor",
    "contractor": "IV Waste",
    "contractor_action": "Completed",
    "rowid": "990601",
    "final_x": "3687669.31503",
    "final_y": "551817.053654",
    "longitude": "-90.04787089534223",
    "latitude": "30.011116610881647",
    "geocoded_column": {
      "latitude": "30.011116610881647",
      "longitude": "-90.04787089534223"
    }
  },
  {
    "service_request": "2023-990600",
    "request_type": "Abandoned Vehicles",
    "request_reason": "Abandoned/Junk Vehicles",
    "date_created": "2023-04-12T14:56:30.000",
    "date_modified": "2023-04-12T14:56:31.000",
    "request_status": "Pending",
    "responsible_agency": "Department of Public Works",
    "final_address": "1628 N Rocheblave St",
    "address_councildis": "D",
    "status": "Pending",
    "rowid": "990600",
    "final_x": "3680135.54991",
    "final_y": "539681.591306",
    "longitude": "-90.07209509424405",
    "latitude": "29.97797862238351",
    "geocoded_column": {
      "latitude": "29.97797862238351",
      "longitude": "-90.07209509424405"
    }
  },
  {
    "service_request": "2023-990599",
    "request_type": "Trash/Recycling",
    "request_reason": "Illegal Dumping",
    "date_created": "2023-04-12T14:55:07.000",
    "date_modified": "2023-04-12T14:55:07.000",
    "request_status": "Pending",
    "responsible_agency": "Department of Code Enforcement",
    "final_address": "2930 Camp St",
    "address_councildis": "B",
    "status": "Pending",
    "rowid": "990599",
    "final_x": "3676232.91918",
    "final_y": "520673.226681",
    "longitude": "-90.08507499743682",
    "latitude": "29.925829496791156",
    "geocoded_column": {
      "latitude": "29.925829496791156",
      "longitude": "-90.08507499743682"
    }
  },
  {
    "service_request": "2023-990598",
    "request_type": "Trash/Recycling",
    "request_reason": "Change Size of Trash Cart",
    "date_created": "2023-04-12T14:54:03.000",
    "date_modified": "2023-04-12T14:54:03.000",
    "request_status": "Pending",
    "responsible_agency": "Department of Sanitation",
    "final_address": "5408 Constance St",
    "address_councildis": "A",
    "status": "Assigned to Contractor",
    "contractor": "Richards Disposal",
    "rowid": "990598",
    "final_x": "3666571.14145",
    "final_y": "518389.782902",
    "longitude": "-90.1156510619975",
    "latitude": "29.9198366231002",
    "geocoded_column": {
      "latitude": "29.9198366231002",
      "longitude": "-90.1156510619975"
    }
  },
  {
    "service_request": "2023-990597",
    "request_type": "Trash/Recycling",
    "request_reason": "Repair Trash Cart",
    "date_created": "2023-04-12T14:53:47.000",
    "date_modified": "2023-04-12T14:53:48.000",
    "request_status": "Pending",
    "responsible_agency": "Department of Sanitation",
    "final_address": "5111 Baccich St",
    "address_councildis": "D",
    "status": "Assigned to Contractor",
    "contractor": "IV Waste",
    "rowid": "990597",
    "final_x": "3687669.31503",
    "final_y": "551817.053654",
    "longitude": "-90.04787089534223",
    "latitude": "30.011116610881647",
    "geocoded_column": {
      "latitude": "30.011116610881647",
      "longitude": "-90.04787089534223"
    }
  },
  {
    "service_request": "2023-990596",
    "request_type": "Trash/Recycling",
    "request_reason": "MIssed Recycling Pick-Up",
    "date_created": "2023-04-12T14:53:12.000",
    "date_modified": "2023-04-12T14:53:12.000",
    "request_status": "Pending",
    "responsible_agency": "Department of Sanitation",
    "final_address": "2912 Prytania St",
    "address_councildis": "B",
    "status": "Assigned to Contractor",
    "contractor": "Richards Disposal",
    "rowid": "990596",
    "final_x": "3675712.04833",
    "final_y": "521691.998777",
    "longitude": "-90.08668424402123",
    "latitude": "29.928646382325645",
    "geocoded_column": {
      "latitude": "29.928646382325645",
      "longitude": "-90.08668424402123"
    }
  },
  {
    "service_request": "2023-990595",
    "request_type": "Roads/Drainage",
    "request_reason": "Pothole",
    "date_created": "2023-04-12T14:52:28.000",
    "date_modified": "2023-04-12T14:52:28.000",
    "request_status": "Pending",
    "responsible_agency": "Department of Public Works",
    "final_address": "3147 Royal St",
    "address_councildis": "C",
    "status": "Pending",
    "rowid": "990595",
    "final_x": "3688979.10799",
    "final_y": "534449.628229",
    "longitude": "-90.04434999913762",
    "latitude": "29.96332194144711",
    "geocoded_column": {
      "latitude": "29.96332194144711",
      "longitude": "-90.04434999913762"
    }
  },
  {
    "service_request": "2023-990594",
    "request_type": "Trash/Recycling",
    "request_reason": "Repair Trash Cart",
    "date_created": "2023-04-12T14:47:02.000",
    "date_modified": "2023-04-12T14:47:03.000",
    "request_status": "Pending",
    "responsible_agency": "Department of Sanitation",
    "final_address": "11412 Melvin Pl",
    "address_councildis": "E",
    "status": "Assigned to Contractor",
    "contractor": "Waste Pro",
    "rowid": "990594",
    "final_x": "3717834.56165",
    "final_y": "561556.993311",
    "longitude": "-89.9521970402148",
    "latitude": "30.036932564505054",
    "geocoded_column": {
      "latitude": "30.036932564505054",
      "longitude": "-89.9521970402148"
    }
  },
  {
    "service_request": "2023-990593",
    "request_type": "Trash/Recycling",
    "request_reason": "Order Trash Cart",
    "date_created": "2023-04-12T14:42:03.000",
    "date_modified": "2023-04-12T14:42:04.000",
    "request_status": "Pending",
    "responsible_agency": "Department of Sanitation",
    "final_address": "7811 Brevard Ave",
    "address_councildis": "E",
    "status": "Assigned to Contractor",
    "contractor": "Waste Pro",
    "rowid": "990593",
    "final_x": "3706117.00779",
    "final_y": "563955.491553",
    "longitude": "-89.98913784316636",
    "latitude": "30.043910627567858",
    "geocoded_column": {
      "latitude": "30.043910627567858",
      "longitude": "-89.98913784316636"
    }
  },
  {
    "service_request": "2023-990592",
    "request_type": "Trash/Recycling",
    "request_reason": "Dead Animal Pick Up",
    "date_created": "2023-04-12T14:32:26.000",
    "date_modified": "2023-04-12T14:32:27.000",
    "request_status": "Pending",
    "responsible_agency": "Department of Sanitation",
    "final_address": "I 10 W & MORRISON RD",
    "address_councildis": "D",
    "status": "Assigned to Contractor",
    "contractor": "Waste Pro",
    "rowid": "990592",
    "final_x": "3698370.8",
    "final_y": "556565.98",
    "longitude": "-90.0138880469834",
    "latitude": "30.023839911264684",
    "geocoded_column": {
      "latitude": "30.023839911264684",
      "longitude": "-90.0138880469834"
    }
  },
  {
    "service_request": "2023-990591",
    "request_type": "Property Maintenance",
    "request_reason": "Property Maintenance",
    "date_created": "2023-04-12T14:20:29.000",
    "date_modified": "2023-04-12T14:20:29.000",
    "request_status": "Pending",
    "responsible_agency": "Department of Code Enforcement",
    "status": "Pending",
    "rowid": "990591",
    "longitude": "0.0",
    "latitude": "0.0",
    "geocoded_column": {
      "latitude": "0.0",
      "longitude": "0.0"
    }
  },
  {
    "service_request": "2023-990590",
    "request_type": "Trash/Recycling",
    "request_reason": "Request a Large Item Pick Up",
    "date_created": "2023-04-12T14:18:22.000",
    "date_modified": "2023-04-12T14:18:22.000",
    "request_status": "Pending",
    "responsible_agency": "Department of Sanitation",
    "final_address": "2509 S Johnson St",
    "address_councildis": "B",
    "status": "Assigned to Contractor",
    "contractor": "Richards Disposal",
    "rowid": "990590",
    "final_x": "3673083.92737",
    "final_y": "528359.492032",
    "longitude": "-90.09475317236914",
    "latitude": "29.947058179280592",
    "geocoded_column": {
      "latitude": "29.947058179280592",
      "longitude": "-90.09475317236914"
    }
  },
  {
    "service_request": "2023-990589",
    "request_type": "Property Maintenance",
    "request_reason": "Property Maintenance",
    "date_created": "2023-04-12T14:18:12.000",
    "date_modified": "2023-04-12T14:18:12.000",
    "request_status": "Pending",
    "responsible_agency": "Department of Code Enforcement",
    "final_address": "4234 Touro St",
    "address_councildis": "D",
    "status": "Pending",
    "rowid": "990589",
    "final_x": "3683209.70543",
    "final_y": "548333.110098",
    "longitude": "-90.06208269134503",
    "latitude": "30.00167383532067",
    "geocoded_column": {
      "latitude": "30.00167383532067",
      "longitude": "-90.06208269134503"
    }
  },
  {
    "service_request": "2023-990587",
    "request_type": "Trash/Recycling",
    "request_reason": "Repair Trash Cart",
    "date_created": "2023-04-12T14:15:00.000",
    "date_modified": "2023-04-12T14:15:01.000",
    "request_status": "Pending",
    "responsible_agency": "Department of Sanitation",
    "final_address": "2509 S Johnson St",
    "address_councildis": "B",
    "status": "Assigned to Contractor",
    "contractor": "Richards Disposal",
    "rowid": "990587",
    "final_x": "3673083.92737",
    "final_y": "528359.492032",
    "longitude": "-90.09475317236914",
    "latitude": "29.947058179280592",
    "geocoded_column": {
      "latitude": "29.947058179280592",
      "longitude": "-90.09475317236914"
    }
  },
  {
    "service_request": "2023-990586",
    "request_type": "Trash/Recycling",
    "request_reason": "Request a Large Item Pick Up",
    "date_created": "2023-04-12T14:11:00.000",
    "date_modified": "2023-04-12T14:11:01.000",
    "request_status": "Pending",
    "responsible_agency": "Department of Sanitation",
    "final_address": "1909 Jackson Ave",
    "address_councildis": "B",
    "status": "Assigned to Contractor",
    "contractor": "Richards Disposal",
    "rowid": "990586",
    "final_x": "3676795.27368",
    "final_y": "524840.984444",
    "longitude": "-90.08315626739817",
    "latitude": "29.93727261396047",
    "geocoded_column": {
      "latitude": "29.93727261396047",
      "longitude": "-90.08315626739817"
    }
  },
  {
    "service_request": "2023-990585",
    "request_type": "Roads/Drainage",
    "request_reason": "Accessibility Ramps, Curbs and Sidewalk Repair",
    "date_created": "2023-04-12T14:08:55.000",
    "date_modified": "2023-04-12T14:08:55.000",
    "request_status": "Pending",
    "responsible_agency": "Department of Public Works",
    "final_address": "2018 Joliet St",
    "address_councildis": "A",
    "status": "Pending",
    "rowid": "990585",
    "final_x": "3662864.09952",
    "final_y": "531539.882627",
    "longitude": "-90.12691541101884",
    "latitude": "29.95610302660331",
    "geocoded_column": {
      "latitude": "29.95610302660331",
      "longitude": "-90.12691541101884"
    }
  },
  {
    "service_request": "2023-990584",
    "request_type": "Trash/Recycling",
    "request_reason": "Request a Large Item Pick Up",
    "date_created": "2023-04-12T14:05:41.000",
    "date_modified": "2023-04-12T14:05:42.000",
    "request_status": "Pending",
    "responsible_agency": "Department of Sanitation",
    "final_address": "816 Upperline St",
    "address_councildis": "B",
    "status": "Assigned to Contractor",
    "contractor": "Richards Disposal",
    "rowid": "990584",
    "final_x": "3668889.7986",
    "final_y": "518356.503542",
    "longitude": "-90.10833329334672",
    "latitude": "29.91967715877183",
    "geocoded_column": {
      "latitude": "29.91967715877183",
      "longitude": "-90.10833329334672"
    }
  },
  {
    "service_request": "2023-990583",
    "request_type": "Trash/Recycling",
    "request_reason": "Replace Trash Cart",
    "date_created": "2023-04-12T13:59:25.000",
    "date_modified": "2023-04-12T13:59:25.000",
    "request_status": "Pending",
    "responsible_agency": "Department of Sanitation",
    "final_address": "524 S Rendon St",
    "address_councildis": "B",
    "status": "Assigned to Contractor",
    "contractor": "Richards Disposal",
    "rowid": "990583",
    "final_x": "3672525.99297",
    "final_y": "535000.85703",
    "longitude": "-90.09628839931105",
    "latitude": "29.96533629970597",
    "geocoded_column": {
      "latitude": "29.96533629970597",
      "longitude": "-90.09628839931105"
    }
  },
  {
    "service_request": "2023-990582",
    "request_type": "Abandoned Vehicles",
    "request_reason": "Abandoned/Junk Vehicles",
    "date_created": "2023-04-12T13:57:31.000",
    "date_modified": "2023-04-12T13:57:32.000",
    "request_status": "Pending",
    "responsible_agency": "Department of Public Works",
    "final_address": "2423 Royal St",
    "address_councildis": "C",
    "status": "Pending",
    "rowid": "990582",
    "final_x": "3686071.47074",
    "final_y": "534977.18695",
    "longitude": "-90.0535133636992",
    "latitude": "29.964862162657926",
    "geocoded_column": {
      "latitude": "29.964862162657926",
      "longitude": "-90.0535133636992"
    }
  },
  {
    "service_request": "2023-990581",
    "request_type": "Traffic Signals/Signs/Striping/Streetlights",
    "request_reason": "Street Light Outage/Malfunction",
    "date_created": "2023-04-12T13:56:02.000",
    "date_modified": "2023-04-12T13:56:03.000",
    "request_status": "Pending",
    "responsible_agency": "Department of Public Works",
    "final_address": "2423 Royal St",
    "address_councildis": "C",
    "status": "Assigned to Contractor",
    "contractor": "Legacy Professional Services",
    "rowid": "990581",
    "final_x": "3686071.47074",
    "final_y": "534977.18695",
    "longitude": "-90.0535133636992",
    "latitude": "29.964862162657926",
    "geocoded_column": {
      "latitude": "29.964862162657926",
      "longitude": "-90.0535133636992"
    }
  },
  {
    "service_request": "2023-990580",
    "request_type": "Traffic Signals/Signs/Striping/Streetlights",
    "request_reason": "Street Light Outage/Malfunction",
    "date_created": "2023-04-12T13:55:34.000",
    "date_modified": "2023-04-12T13:55:35.000",
    "request_status": "Pending",
    "responsible_agency": "Department of Public Works",
    "final_address": "5752 Bellaire Dr",
    "address_councildis": "A",
    "status": "Assigned to Contractor",
    "contractor": "Legacy Professional Services",
    "rowid": "990580",
    "final_x": "3664121.65882",
    "final_y": "546271.8004",
    "longitude": "-90.12245286067477",
    "latitude": "29.996574427029966",
    "geocoded_column": {
      "latitude": "29.996574427029966",
      "longitude": "-90.12245286067477"
    }
  },
  {
    "service_request": "2023-990579",
    "request_type": "Trash/Recycling",
    "request_reason": "Request a Large Item Pick Up",
    "date_created": "2023-04-12T13:52:42.000",
    "date_modified": "2023-04-12T13:52:42.000",
    "request_status": "Pending",
    "responsible_agency": "Department of Sanitation",
    "final_address": "131 S Rendon St",
    "address_councildis": "B",
    "status": "Assigned to Contractor",
    "contractor": "Richards Disposal",
    "rowid": "990579",
    "final_x": "3673353.23329",
    "final_y": "536264.249415",
    "longitude": "-90.09363284460643",
    "latitude": "29.968785620484017",
    "geocoded_column": {
      "latitude": "29.968785620484017",
      "longitude": "-90.09363284460643"
    }
  },
  {
    "service_request": "2023-990578",
    "request_type": "Trash/Recycling",
    "request_reason": "Request a Large Item Pick Up",
    "date_created": "2023-04-12T13:49:32.000",
    "date_modified": "2023-04-12T13:49:33.000",
    "request_status": "Pending",
    "responsible_agency": "Department of Sanitation",
    "final_address": "2247 Cambronne St",
    "address_councildis": "A",
    "status": "Assigned to Contractor",
    "contractor": "Richards Disposal",
    "rowid": "990578",
    "final_x": "3663813.54727",
    "final_y": "531949.150211",
    "longitude": "-90.12390372450294",
    "latitude": "29.957200858436877",
    "geocoded_column": {
      "latitude": "29.957200858436877",
      "longitude": "-90.12390372450294"
    }
  },
  {
    "service_request": "2023-990577",
    "request_type": "Trash/Recycling",
    "request_reason": "Missed Trash Pick-Up",
    "date_created": "2023-04-12T13:46:13.000",
    "date_modified": "2023-04-12T13:46:13.000",
    "request_status": "Pending",
    "responsible_agency": "Department of Sanitation",
    "final_address": "137 S Gayoso St",
    "address_councildis": "B",
    "status": "Assigned to Contractor",
    "contractor": "Richards Disposal",
    "rowid": "990577",
    "final_x": "3674083.81544",
    "final_y": "535596.712134",
    "longitude": "-90.09134846855515",
    "latitude": "29.966928364139118",
    "geocoded_column": {
      "latitude": "29.966928364139118",
      "longitude": "-90.09134846855515"
    }
  },
  {
    "service_request": "2023-990576",
    "request_type": "Property Maintenance",
    "request_reason": "Property Maintenance",
    "date_created": "2023-04-12T13:42:59.000",
    "date_modified": "2023-04-12T13:42:59.000",
    "request_status": "Pending",
    "responsible_agency": "Department of Code Enforcement",
    "final_address": "848 Harrison Ave",
    "address_councildis": "A",
    "status": "Pending",
    "rowid": "990576",
    "final_x": "3669766.08046",
    "final_y": "549034.592147",
    "longitude": "-90.10452882573644",
    "latitude": "30.00400592568403",
    "geocoded_column": {
      "latitude": "30.00400592568403",
      "longitude": "-90.10452882573644"
    }
  },
  {
    "service_request": "2023-990575",
    "request_type": "Property Maintenance",
    "request_reason": "Property Maintenance",
    "date_created": "2023-04-12T13:42:58.000",
    "date_modified": "2023-04-12T13:42:58.000",
    "request_status": "Pending",
    "responsible_agency": "Department of Code Enforcement",
    "final_address": "848 Harrison Ave",
    "address_councildis": "A",
    "status": "Pending",
    "rowid": "990575",
    "final_x": "3669766.08046",
    "final_y": "549034.592147",
    "longitude": "-90.10452882573644",
    "latitude": "30.00400592568403",
    "geocoded_column": {
      "latitude": "30.00400592568403",
      "longitude": "-90.10452882573644"
    }
  },
  {
    "service_request": "2023-990574",
    "request_type": "Property Maintenance",
    "request_reason": "Property Maintenance",
    "date_created": "2023-04-12T13:36:10.000",
    "date_modified": "2023-04-12T13:36:11.000",
    "request_status": "Pending",
    "responsible_agency": "Department of Code Enforcement",
    "final_address": "2005 Touro St",
    "address_councildis": "D",
    "status": "Pending",
    "rowid": "990574",
    "final_x": "3683995.02985",
    "final_y": "539627.939082",
    "longitude": "-90.05990740114498",
    "latitude": "29.97771372315989",
    "geocoded_column": {
      "latitude": "29.97771372315989",
      "longitude": "-90.05990740114498"
    }
  },
  {
    "service_request": "2023-990573",
    "request_type": "Trash/Recycling",
    "request_reason": "Return Trash Cart",
    "date_created": "2023-04-12T13:34:03.000",
    "date_modified": "2023-04-12T13:34:04.000",
    "request_status": "Pending",
    "responsible_agency": "Department of Sanitation",
    "final_address": "4935 Eunice Dr",
    "address_councildis": "E",
    "status": "Assigned to Contractor",
    "contractor": "Waste Pro",
    "rowid": "990573",
    "final_x": "3710491.94718",
    "final_y": "556991.430746",
    "longitude": "-89.9755720460466",
    "latitude": "30.024620381506185",
    "geocoded_column": {
      "latitude": "30.024620381506185",
      "longitude": "-89.9755720460466"
    }
  },
  {
    "service_request": "2023-990572",
    "request_type": "Abandoned Vehicles",
    "request_reason": "Abandoned/Junk Vehicles",
    "date_created": "2023-04-12T13:32:59.000",
    "date_modified": "2023-04-12T13:32:59.000",
    "request_status": "Pending",
    "responsible_agency": "Department of Public Works",
    "status": "Pending",
    "rowid": "990572",
    "longitude": "0.0",
    "latitude": "0.0",
    "geocoded_column": {
      "latitude": "0.0",
      "longitude": "0.0"
    }
  },
  {
    "service_request": "2023-990571",
    "request_type": "Abandoned Vehicles",
    "request_reason": "Abandoned/Junk Vehicles",
    "date_created": "2023-04-12T13:24:00.000",
    "date_modified": "2023-04-12T13:24:02.000",
    "request_status": "Pending",
    "responsible_agency": "Department of Public Works",
    "final_address": "1712 Marais St",
    "address_councildis": "C",
    "status": "Pending",
    "rowid": "990571",
    "final_x": "3683224.07036",
    "final_y": "536488.369287",
    "longitude": "-90.06245233181133",
    "latitude": "29.969104533925186",
    "geocoded_column": {
      "latitude": "29.969104533925186",
      "longitude": "-90.06245233181133"
    }
  },
  {
    "service_request": "2023-990570",
    "request_type": "Trash/Recycling",
    "request_reason": "Replace Trash Cart",
    "date_created": "2023-04-12T13:19:44.000",
    "date_modified": "2023-04-12T13:19:45.000",
    "request_status": "Pending",
    "responsible_agency": "Department of Sanitation",
    "final_address": "605 Herald St, New Orleans, Louisiana, 70131",
    "address_councildis": "C",
    "status": "Assigned to Contractor",
    "contractor": "Richards Disposal",
    "rowid": "990570",
    "final_x": "3702254.45585",
    "final_y": "520678.674489",
    "longitude": "-90.00293315562077",
    "latitude": "29.925039369826564",
    "geocoded_column": {
      "latitude": "29.925039369826564",
      "longitude": "-90.00293315562077"
    }
  },
  {
    "service_request": "2023-990569",
    "request_type": "Trash/Recycling",
    "request_reason": "Request a Large Item Pick Up",
    "date_created": "2023-04-12T13:18:42.000",
    "date_modified": "2023-04-12T13:18:42.000",
    "request_status": "Pending",
    "responsible_agency": "Department of Sanitation",
    "final_address": "5725 Congress Dr",
    "address_councildis": "D",
    "status": "Assigned to Contractor",
    "contractor": "IV Waste",
    "rowid": "990569",
    "final_x": "3691330.73302",
    "final_y": "554991.842776",
    "longitude": "-90.03618950273196",
    "latitude": "30.019732648983453",
    "geocoded_column": {
      "latitude": "30.019732648983453",
      "longitude": "-90.03618950273196"
    }
  },
  {
    "service_request": "2023-990568",
    "request_type": "Trash/Recycling",
    "request_reason": "Order Trash Cart",
    "date_created": "2023-04-12T13:15:43.000",
    "date_modified": "2023-04-12T13:15:44.000",
    "request_status": "Pending",
    "responsible_agency": "Department of Sanitation",
    "final_address": "3006 Wall Blvd",
    "address_councildis": "C",
    "status": "Assigned to Contractor",
    "contractor": "Richards Disposal",
    "rowid": "990568",
    "final_x": "3695167.7681",
    "final_y": "523967.067644",
    "longitude": "-90.02518491867804",
    "latitude": "29.934305673533263",
    "geocoded_column": {
      "latitude": "29.934305673533263",
      "longitude": "-90.02518491867804"
    }
  },
  {
    "service_request": "2023-990567",
    "request_type": "Trash/Recycling",
    "request_reason": "Order Recycling Cart",
    "date_created": "2023-04-12T13:15:01.000",
    "date_modified": "2023-04-12T13:15:43.000",
    "case_close_date": "2022-03-17T19:00:00.000",
    "request_status": "Pending",
    "responsible_agency": "Department of Sanitation",
    "final_address": "3700 Dickens Dr",
    "address_councildis": "C",
    "rowid": "990567",
    "final_x": "3708030.83742",
    "final_y": "517225.687605",
    "longitude": "-89.98482742994905",
    "latitude": "29.915359183047528",
    "geocoded_column": {
      "latitude": "29.915359183047528",
      "longitude": "-89.98482742994905"
    }
  },
  {
    "service_request": "2023-990566",
    "request_type": "Trash/Recycling",
    "request_reason": "MIssed Recycling Pick-Up",
    "date_created": "2023-04-12T13:14:26.000",
    "date_modified": "2023-04-12T13:14:27.000",
    "case_close_date": "2022-03-17T19:00:00.000",
    "request_status": "Pending",
    "responsible_agency": "Department of Sanitation",
    "final_address": "3700 Dickens Dr",
    "address_councildis": "C",
    "status": "Assigned to Contractor",
    "contractor": "Richards Disposal",
    "rowid": "990566",
    "final_x": "3708030.83742",
    "final_y": "517225.687605",
    "longitude": "-89.98482742994905",
    "latitude": "29.915359183047528",
    "geocoded_column": {
      "latitude": "29.915359183047528",
      "longitude": "-89.98482742994905"
    }
  },
  {
    "service_request": "2023-990565",
    "request_type": "Traffic Signals/Signs/Striping/Streetlights",
    "request_reason": "Street Light Outage/Malfunction",
    "date_created": "2023-04-12T13:14:13.000",
    "date_modified": "2023-04-12T13:15:00.000",
    "request_status": "Pending",
    "responsible_agency": "Department of Public Works",
    "final_address": "E HERMES ST & PANDORA ST",
    "address_councildis": "D",
    "status": "Assigned to Contractor",
    "contractor": "Legacy Professional Services",
    "rowid": "990565",
    "final_x": "3697260.9",
    "final_y": "557501.98",
    "longitude": "-90.0173611266353",
    "latitude": "30.026448649576697",
    "geocoded_column": {
      "latitude": "30.026448649576697",
      "longitude": "-90.0173611266353"
    }
  },