[
  {
    "service_request": "2022-860058",
    "request_type": "Trash/Recycling",
    "request_reason": "Missed Trash Pick-Up",
    "date_created": "2022-02-09T23:40:57.000",
    "date_modified": "2022-02-09T23:40:58.000",
    "request_status": "Pending",
    "responsible_agency": "Department of Sanitation",
    "final_address": "2614 Saint Philip St, New Orleans, Louisiana, 70119",
    "status": "Assigned to Contractor",
    "rowid": "860058",
    "longitude": "0.0",
    "latitude": "0.0",
    "geocoded_column": {
      "latitude": "0.0",
      "longitude": "0.0"
    }
  },
  {
    "service_request": "2022-860057",
    "request_type": "Traffic Signals/Signs/Striping/Streetlights",
    "request_reason": "Traffic Signal Malfunctioning/Damaged",
    "date_created": "2022-02-09T22:52:34.000",
    "date_modified": "2022-02-09T22:52:34.000",
    "request_status": "Pending",
    "responsible_agency": "Department of Public Works",
    "final_address": "GRAVIER ST & CARONDELET ST",
    "address_councildis": "B",
    "status": "Pending",
    "rowid": "860057",
    "final_x": "3680519.3",
    "final_y": "530223.58",
    "longitude": "-90.07121210828917",
    "latitude": "29.95196070542126",
    "geocoded_column": {
      "latitude": "29.95196070542126",
      "longitude": "-90.07121210828917"
    }
  },
  {
    "service_request": "2022-860055",
    "request_type": "Abandoned Vehicles",
    "request_reason": "Abandoned/Junk Vehicles",
    "date_created": "2022-02-09T21:47:42.000",
    "date_modified": "2022-02-09T21:48:23.000",
    "request_status": "Pending",
    "responsible_agency": "Department of Public Works",
    "final_address": "ST THOMAS ST & FELICITY ST",
    "address_councildis": "B",
    "status": "Pending",
    "rowid": "860055",
    "final_x": "3681284.8",
    "final_y": "521744.58",
    "longitude": "-90.06909041361665",
    "latitude": "29.928623073599137",
    "geocoded_column": {
      "latitude": "29.928623073599137",
      "longitude": "-90.06909041361665"
    }
  },
  {
    "service_request": "2022-860054",
    "request_type": "Traffic Signals/Signs/Striping/Streetlights",
    "request_reason": "Street Light Outage/Malfunction",
    "date_created": "2022-02-09T20:56:23.000",
    "date_modified": "2022-02-09T20:56:23.000",
    "request_status": "Pending",
    "responsible_agency": "Department of Public Works",
    "final_address": "2439 Bienville Ave",
    "address_councildis": "B",
    "status": "Pending",
    "contractor": "Royal Engineering",
    "rowid": "860054",
    "final_x": "3676676.06414",
    "final_y": "535160.719686",
    "longitude": "-90.08317715865607",
    "latitude": "29.965652019434806",
    "geocoded_column": {
      "latitude": "29.965652019434806",
      "longitude": "-90.08317715865607"
    }
  },
  {
    "service_request": "2022-860053",
    "request_type": "Traffic Signals/Signs/Striping/Streetlights",
    "request_reason": "Street Light Outage/Malfunction",
    "date_created": "2022-02-09T20:49:47.000",
    "date_modified": "2022-02-09T20:49:48.000",
    "request_status": "Pending",
    "responsible_agency": "Department of Public Works",
    "final_address": "2438 Bienville Ave",
    "address_councildis": "B",
    "status": "Pending",
    "contractor": "Royal Engineering",
    "rowid": "860053",
    "final_x": "3676594.20001",
    "final_y": "535053.249542",
    "longitude": "-90.08343938467613",
    "latitude": "29.965358968615725",
    "geocoded_column": {
      "latitude": "29.965358968615725",
      "longitude": "-90.08343938467613"
    }
  },
  {
    "service_request": "2022-860052",
    "request_type": "Traffic Signals/Signs/Striping/Streetlights",
    "request_reason": "Street Light Outage/Malfunction",
    "date_created": "2022-02-09T20:39:24.000",
    "date_modified": "2022-02-09T20:39:24.000",
    "request_status": "Pending",
    "responsible_agency": "Department of Public Works",
    "final_address": "2500 Bienville Ave",
    "address_councildis": "B",
    "status": "Pending",
    "contractor": "Royal Engineering",
    "rowid": "860052",
    "final_x": "3676536.17109",
    "final_y": "535091.81863",
    "longitude": "-90.08362130896269",
    "latitude": "29.96546676090681",
    "geocoded_column": {
      "latitude": "29.96546676090681",
      "longitude": "-90.08362130896269"
    }
  },
  {
    "service_request": "2022-860051",
    "request_type": "Traffic Signals/Signs/Striping/Streetlights",
    "request_reason": "Request for Stop Sign",
    "date_created": "2022-02-09T20:23:19.000",
    "date_modified": "2022-02-09T20:23:19.000",
    "request_status": "Pending",
    "responsible_agency": "Department of Public Works",
    "final_address": "9TH ST & ST THOMAS ST",
    "address_councildis": "B",
    "status": "Pending",
    "rowid": "860051",
    "final_x": "3676870.0",
    "final_y": "518522.08",
    "longitude": "-90.0831380116361",
    "latitude": "29.91989543981808",
    "geocoded_column": {
      "latitude": "29.91989543981808",
      "longitude": "-90.0831380116361"
    }
  },
  {
    "service_request": "2022-860050",
    "request_type": "Trash/Recycling",
    "request_reason": "Start Trash Service",
    "date_created": "2022-02-09T20:19:36.000",
    "date_modified": "2022-02-09T20:19:37.000",
    "request_status": "Pending",
    "responsible_agency": "Department of Sanitation",
    "final_address": "8002 Plum St",
    "address_councildis": "A",
    "status": "Assigned to Contractor",
    "contractor": "Richards Disposal",
    "rowid": "860050",
    "final_x": "3662439.11226",
    "final_y": "528363.258048",
    "longitude": "-90.12836286598905",
    "latitude": "29.947380628837305",
    "geocoded_column": {
      "latitude": "29.947380628837305",
      "longitude": "-90.12836286598905"
    }
  },
  {
    "service_request": "2022-860049",
    "request_type": "COVID-19",
    "request_reason": "COVID-19 Business Non-Compliance",
    "date_created": "2022-02-09T19:45:05.000",
    "date_modified": "2022-02-09T19:45:06.000",
    "request_status": "Pending",
    "responsible_agency": "Safety and Permits",
    "final_address": "1111 Canal St",
    "address_councildis": "C",
    "status": "Pending",
    "rowid": "860049",
    "final_x": "3679986.71823",
    "final_y": "531707.587395",
    "longitude": "-90.07284220329849",
    "latitude": "29.956057344840524",
    "geocoded_column": {
      "latitude": "29.956057344840524",
      "longitude": "-90.07284220329849"
    }
  },
  {
    "service_request": "2022-860048",
    "request_type": "COVID-19",
    "request_reason": "COVID-19 Business Non-Compliance",
    "date_created": "2022-02-09T19:43:56.000",
    "date_modified": "2022-02-09T19:43:57.000",
    "request_status": "Pending",
    "responsible_agency": "Safety and Permits",
    "final_address": "900 City Park Ave",
    "address_councildis": "A",
    "status": "Pending",
    "rowid": "860048",
    "final_x": "3671883.13575",
    "final_y": "541596.47182",
    "longitude": "-90.09809397847974",
    "latitude": "29.983491075181448",
    "geocoded_column": {
      "latitude": "29.983491075181448",
      "longitude": "-90.09809397847974"
    }
  },
  {
    "service_request": "2022-860047",
    "request_type": "COVID-19",
    "request_reason": "COVID-19 Business Non-Compliance",
    "date_created": "2022-02-09T19:41:43.000",
    "date_modified": "2022-02-09T19:41:44.000",
    "request_status": "Pending",
    "responsible_agency": "Safety and Permits",
    "final_address": "4330 St Charles Ave",
    "address_councildis": "B",
    "status": "Pending",
    "rowid": "860047",
    "final_x": "3671025.63707",
    "final_y": "520786.529849",
    "longitude": "-90.10150902799256",
    "latitude": "29.926295998672114",
    "geocoded_column": {
      "latitude": "29.926295998672114",
      "longitude": "-90.10150902799256"
    }
  },
  {
    "service_request": "2022-860046",
    "request_type": "COVID-19",
    "request_reason": "COVID-19 Business Non-Compliance",
    "date_created": "2022-02-09T19:40:20.000",
    "date_modified": "2022-02-09T19:40:22.000",
    "request_status": "Pending",
    "responsible_agency": "Safety and Permits",
    "final_address": "1645 Tchoupitoulas St",
    "address_councildis": "B",
    "status": "Pending",
    "rowid": "860046",
    "final_x": "3682050.14792",
    "final_y": "522137.396154",
    "longitude": "-90.06666066512598",
    "latitude": "29.929679947168598",
    "geocoded_column": {
      "latitude": "29.929679947168598",
      "longitude": "-90.06666066512598"
    }
  },
  {
    "service_request": "2022-860045",
    "request_type": "Tax and Revenue",
    "request_reason": "New Business Application",
    "date_created": "2022-02-09T19:32:23.000",
    "date_modified": "2022-02-09T19:32:23.000",
    "request_status": "Pending",
    "responsible_agency": "Safety and Permits",
    "final_address": "1131 Elysian Fields Ave",
    "address_councildis": "C",
    "status": "Pending",
    "rowid": "860045",
    "final_x": "3685088.57685",
    "final_y": "536633.805767",
    "longitude": "-90.0565589815002",
    "latitude": "29.96944743986998",
    "geocoded_column": {
      "latitude": "29.96944743986998",
      "longitude": "-90.0565589815002"
    }
  },
  {
    "service_request": "2022-860044",
    "request_type": "Roads/Drainage",
    "request_reason": "Catch Basin - Clogged",
    "date_created": "2022-02-09T19:04:23.000",
    "date_modified": "2022-02-09T19:04:23.000",
    "request_status": "Pending",
    "responsible_agency": "Department of Public Works",
    "final_address": "800 Baronne St",
    "address_councildis": "B",
    "status": "Pending",
    "rowid": "860044",
    "final_x": "3679629.39983",
    "final_y": "528154.097152",
    "longitude": "-90.07409380407206",
    "latitude": "29.946297243500503",
    "geocoded_column": {
      "latitude": "29.946297243500503",
      "longitude": "-90.07409380407206"
    }
  },
  {
    "service_request": "2022-860043",
    "request_type": "Parks & Parkways",
    "request_reason": "Request Tree Service (Right of Way/Public Property)",
    "date_created": "2022-02-09T19:00:18.000",
    "date_modified": "2022-02-09T19:00:18.000",
    "request_status": "Pending",
    "responsible_agency": "Department of Parks & Parkway",
    "final_address": "832 Lafayette St",
    "address_councildis": "B",
    "status": "Pending",
    "rowid": "860043",
    "final_x": "3679949.49352",
    "final_y": "529042.4672",
    "longitude": "-90.07305230652852",
    "latitude": "29.94873028731025",
    "geocoded_column": {
      "latitude": "29.94873028731025",
      "longitude": "-90.07305230652852"
    }
  },
  {
    "service_request": "2022-860042",
    "request_type": "COVID-19",
    "request_reason": "COVID-19 Business Non-Compliance",
    "date_created": "2022-02-09T18:54:40.000",
    "date_modified": "2022-02-09T18:54:41.000",
    "request_status": "Pending",
    "responsible_agency": "Safety and Permits",
    "final_address": "2601 Royal St",
    "address_councildis": "C",
    "status": "Pending",
    "rowid": "860042",
    "final_x": "3686778.46486",
    "final_y": "534992.593542",
    "longitude": "-90.05128018210614",
    "latitude": "29.964882793535896",
    "geocoded_column": {
      "latitude": "29.964882793535896",
      "longitude": "-90.05128018210614"
    }
  },
  {
    "service_request": "2022-860041",
    "request_type": "Abandoned Vehicles",
    "request_reason": "Abandoned/Junk Vehicles",
    "date_created": "2022-02-09T18:50:08.000",
    "date_modified": "2022-02-09T18:50:08.000",
    "request_status": "Pending",
    "responsible_agency": "Department of Public Works",
    "final_address": "KENILWORTH ST & LOUISVILLE ST",
    "address_councildis": "A",
    "status": "Pending",
    "rowid": "860041",
    "final_x": "3667640.3",
    "final_y": "546100.38",
    "longitude": "-90.1113434200986",
    "latitude": "29.99600036858634",
    "geocoded_column": {
      "latitude": "29.99600036858634",
      "longitude": "-90.1113434200986"
    }
  },
  {
    "service_request": "2022-860040",
    "request_type": "Trash/Recycling",
    "request_reason": "Request a Large Item Pick Up",
    "date_created": "2022-02-09T18:40:29.000",
    "date_modified": "2022-02-09T18:40:30.000",
    "request_status": "Pending",
    "responsible_agency": "Department of Sanitation",
    "final_address": "831 Josephine St, New Orleans, Louisiana, 70130",
    "address_councildis": "B",
    "status": "Assigned to Contractor",
    "contractor": "Richards Disposal",
    "rowid": "860040",
    "final_x": "3679759.36591",
    "final_y": "521634.851193",
    "longitude": "-90.07390969494041",
    "latitude": "29.928367545849266",
    "geocoded_column": {
      "latitude": "29.928367545849266",
      "longitude": "-90.07390969494041"
    }
  },
  {
    "service_request": "2022-860039",
    "request_type": "Traffic Signals/Signs/Striping/Streetlights",
    "request_reason": "Street Light Outage/Malfunction",
    "date_created": "2022-02-09T18:10:45.000",
    "date_modified": "2022-02-09T18:10:45.000",
    "request_status": "Pending",
    "responsible_agency": "Department of Public Works",
    "final_address": "150 Baronne St",
    "address_councildis": "B",
    "status": "Pending",
    "contractor": "Royal Engineering",
    "rowid": "860039",
    "final_x": "3680393.04085",
    "final_y": "530831.534338",
    "longitude": "-90.07158963689385",
    "latitude": "29.953636198302387",
    "geocoded_column": {
      "latitude": "29.953636198302387",
      "longitude": "-90.07158963689385"
    }
  },
  {
    "service_request": "2022-860038",
    "request_type": "Traffic Signals/Signs/Striping/Streetlights",
    "request_reason": "Street Light Outage/Malfunction",
    "date_created": "2022-02-09T18:10:18.000",
    "date_modified": "2022-02-09T18:10:18.000",
    "request_status": "Pending",
    "responsible_agency": "Department of Public Works",
    "final_address": "150 Baronne St",
    "address_councildis": "B",
    "status": "Pending",
    "contractor": "Royal Engineering",
    "rowid": "860038",
    "final_x": "3680393.04085",
    "final_y": "530831.534338",
    "longitude": "-90.07158963689385",
    "latitude": "29.953636198302387",
    "geocoded_column": {
      "latitude": "29.953636198302387",
      "longitude": "-90.07158963689385"
    }
  },
  {
    "service_request": "2022-860037",
    "request_type": "Traffic Signals/Signs/Striping/Streetlights",
    "request_reason": "Street Light Outage/Malfunction",
    "date_created": "2022-02-09T18:09:52.000",
    "date_modified": "2022-02-09T18:09:54.000",
    "request_status": "Pending",
    "responsible_agency": "Department of Public Works",
    "final_address": "1942 Alabo St",
    "address_councildis": "E",
    "status": "Pending",
    "contractor": "Royal Engineering",
    "rowid": "860037",
    "final_x": "3699751.58148",
    "final_y": "536870.095624",
    "longitude": "-90.01024369673299",
    "latitude": "29.969639752026687",
    "geocoded_column": {
      "latitude": "29.969639752026687",
      "longitude": "-90.01024369673299"
    }
  },
  {
    "service_request": "2022-860036",
    "request_type": "Safety & Permits",
    "request_reason": "School Bus Complaints",
    "date_created": "2022-02-09T18:05:55.000",
    "date_modified": "2022-02-09T18:05:55.000",
    "request_status": "Pending",
    "responsible_agency": "Safety and Permits",
    "final_address": "2100 Martin Luther King, Jr. Blvd",
    "address_councildis": "B",
    "status": "Pending",
    "rowid": "860036",
    "final_x": "3677451.4715",
    "final_y": "526559.541566",
    "longitude": "-90.08102531096411",
    "latitude": "29.941978376830928",
    "geocoded_column": {
      "latitude": "29.941978376830928",
      "longitude": "-90.08102531096411"
    }
  },
  {
    "service_request": "2022-860035",
    "request_type": "Trash/Recycling",
    "request_reason": "Damaged Caused By Contractor",
    "date_created": "2022-02-09T18:03:14.000",
    "date_modified": "2022-02-09T18:03:15.000",
    "request_status": "Pending",
    "responsible_agency": "Department of Sanitation",
    "final_address": "613 River Oaks Dr",
    "address_councildis": "C",
    "status": "Assigned to Contractor",
    "contractor": "Richards Disposal",
    "rowid": "860035",
    "final_x": "3701444.39185",
    "final_y": "520489.256376",
    "longitude": "-90.0054971769647",
    "latitude": "29.92454437221062",
    "geocoded_column": {
      "latitude": "29.92454437221062",
      "longitude": "-90.0054971769647"
    }
  },
  {
    "service_request": "2022-860034",
    "request_type": "Trash/Recycling",
    "request_reason": "Repair Recycling Cart",
    "date_created": "2022-02-09T17:57:04.000",
    "date_modified": "2022-02-09T17:57:04.000",
    "request_status": "Pending",
    "responsible_agency": "Department of Sanitation",
    "final_address": "8417 Freret St",
    "address_councildis": "A",
    "status": "Pending",
    "rowid": "860034",
    "final_x": "3660599.31072",
    "final_y": "528725.724096",
    "longitude": "-90.13415987916204",
    "latitude": "29.948430365599883",
    "geocoded_column": {
      "latitude": "29.948430365599883",
      "longitude": "-90.13415987916204"
    }
  },
  {
    "service_request": "2022-860033",
    "request_type": "Trash/Recycling",
    "request_reason": "Request a Large Item Pick Up",
    "date_created": "2022-02-09T17:55:49.000",
    "date_modified": "2022-02-09T17:55:50.000",
    "request_status": "Pending",
    "responsible_agency": "Department of Sanitation",
    "final_address": "8417 Freret St",
    "address_councildis": "A",
    "status": "Assigned to Contractor",
    "contractor": "Richards Disposal",
    "rowid": "860033",
    "final_x": "3660599.31072",
    "final_y": "528725.724096",
    "longitude": "-90.13415987916204",
    "latitude": "29.948430365599883",
    "geocoded_column": {
      "latitude": "29.948430365599883",
      "longitude": "-90.13415987916204"
    }
  },
  {
    "service_request": "2022-860032",
    "request_type": "Trash/Recycling",
    "request_reason": "Missed Trash Pick-Up",
    "date_created": "2022-02-09T17:54:05.000",
    "date_modified": "2022-02-09T17:54:05.000",
    "request_status": "Pending",
    "responsible_agency": "Department of Sanitation",
    "final_address": "1914 Adams St",
    "address_councildis": "A",
    "status": "Assigned to Contractor",
    "contractor": "Richards Disposal",
    "rowid": "860032",
    "final_x": "3664770.9088",
    "final_y": "529319.459777",
    "longitude": "-90.12096851552486",
    "latitude": "29.94994224358321",
    "geocoded_column": {
      "latitude": "29.94994224358321",
      "longitude": "-90.12096851552486"
    }
  },
  {
    "service_request": "2022-860031",
    "request_type": "Trash/Recycling",
    "request_reason": "Request a Large Item Pick Up",
    "date_created": "2022-02-09T17:51:04.000",
    "date_modified": "2022-02-09T17:51:04.000",
    "request_status": "Pending",
    "responsible_agency": "Department of Sanitation",
    "final_address": "1216 N Gayoso St",
    "address_councildis": "A",
    "status": "Assigned to Contractor",
    "contractor": "Richards Disposal",
    "rowid": "860031",
    "final_x": "3676727.45486",
    "final_y": "539459.597962",
    "longitude": "-90.08286671578426",
    "latitude": "29.97747092532655",
    "geocoded_column": {
      "latitude": "29.97747092532655",
      "longitude": "-90.08286671578426"
    }
  },
  {
    "service_request": "2022-860030",
    "request_type": "Mayor's Request",
    "request_reason": "Entergy Bill Payment Assistance",
    "date_created": "2022-02-09T17:47:00.000",
    "date_modified": "2022-02-09T17:47:01.000",
    "request_status": "Pending",
    "responsible_agency": "Executive Office of the Mayor",
    "final_address": "6037 Beechcraft St",
    "address_councildis": "D",
    "status": "Pending",
    "rowid": "860030",
    "final_x": "3696636.26333",
    "final_y": "553173.737431",
    "longitude": "-90.01949171692398",
    "latitude": "30.014567332173513",
    "geocoded_column": {
      "latitude": "30.014567332173513",
      "longitude": "-90.01949171692398"
    }
  },
  {
    "service_request": "2022-860029",
    "request_type": "Trash/Recycling",
    "request_reason": "Missed Trash Pick-Up",
    "date_created": "2022-02-09T17:43:50.000",
    "date_modified": "2022-02-09T17:43:51.000",
    "request_status": "Pending",
    "responsible_agency": "Department of Sanitation",
    "final_address": "7739 Jeannette St, New Orleans, Louisiana, 70118",
    "address_councildis": "A",
    "status": "Assigned to Contractor",
    "contractor": "Richards Disposal",
    "rowid": "860029",
    "final_x": "3663571.44064",
    "final_y": "528397.424192",
    "longitude": "-90.12478651706756",
    "latitude": "29.94744178417641",
    "geocoded_column": {
      "latitude": "29.94744178417641",
      "longitude": "-90.12478651706756"
    }
  },
  {
    "service_request": "2022-860028",
    "request_type": "Abandoned Vehicles",
    "request_reason": "Abandoned/Junk Vehicles",
    "date_created": "2022-02-09T17:41:29.000",
    "date_modified": "2022-02-09T17:41:29.000",
    "request_status": "Pending",
    "responsible_agency": "Department of Public Works",
    "final_address": "3856 Mimosa Dr",
    "address_councildis": "C",
    "status": "Pending",
    "rowid": "860028",
    "final_x": "3704279.51332",
    "final_y": "513116.898673",
    "longitude": "-89.99681917515323",
    "latitude": "29.904182278992106",
    "geocoded_column": {
      "latitude": "29.904182278992106",
      "longitude": "-89.99681917515323"
    }
  },
  {
    "service_request": "2022-860027",
    "request_type": "Abandoned Vehicles",
    "request_reason": "Abandoned/Junk Vehicles",
    "date_created": "2022-02-09T17:35:12.000",
    "date_modified": "2022-02-09T17:35:12.000",
    "request_status": "Pending",
    "responsible_agency": "Department of Public Works",
    "final_address": "3735 Inwood Ave",
    "address_councildis": "C",
    "status": "Pending",
    "rowid": "860027",
    "final_x": "3704647.3091",
    "final_y": "514650.360563",
    "longitude": "-89.9956019136155",
    "latitude": "29.908386974858715",
    "geocoded_column": {
      "latitude": "29.908386974858715",
      "longitude": "-89.9956019136155"
    }
  },
  {
    "service_request": "2022-860025",
    "request_type": "Trash/Recycling",
    "request_reason": "Order Recycling Cart",
    "date_created": "2022-02-09T17:29:44.000",
    "date_modified": "2022-02-09T17:29:44.000",
    "request_status": "Pending",
    "responsible_agency": "Department of Sanitation",
    "final_address": "1209 Desire St",
    "address_councildis": "C",
    "status": "Pending",
    "rowid": "860025",
    "final_x": "3690328.73584",
    "final_y": "536152.907655",
    "longitude": "-90.0400273308647",
    "latitude": "29.967963547815195",
    "geocoded_column": {
      "latitude": "29.967963547815195",
      "longitude": "-90.0400273308647"
    }
  },
  {
    "service_request": "2022-860024",
    "request_type": "Trash/Recycling",
    "request_reason": "Request a Large Item Pick Up",
    "date_created": "2022-02-09T17:29:43.000",
    "date_modified": "2022-02-09T17:29:44.000",
    "request_status": "Pending",
    "responsible_agency": "Department of Sanitation",
    "final_address": "624 S Solomon St",
    "address_councildis": "A",
    "status": "Assigned to Contractor",
    "contractor": "Richards Disposal",
    "rowid": "860024",
    "final_x": "3669381.09601",
    "final_y": "536925.0962",
    "longitude": "-90.10615477972517",
    "latitude": "29.970720297024993",
    "geocoded_column": {
      "latitude": "29.970720297024993",
      "longitude": "-90.10615477972517"
    }
  },
  {
    "service_request": "2022-860023",
    "request_type": "Trash/Recycling",
    "request_reason": "Missed Trash Pick-Up",
    "date_created": "2022-02-09T17:28:21.000",
    "date_modified": "2022-02-09T17:28:21.000",
    "request_status": "Pending",
    "responsible_agency": "Department of Sanitation",
    "final_address": "2934 Grand Route St John St",
    "address_councildis": "A",
    "status": "Assigned to Contractor",
    "contractor": "Metro Disposal",
    "rowid": "860023",
    "final_x": "3677389.546",
    "final_y": "540250.658187",
    "longitude": "-90.08074829693389",
    "latitude": "29.97962618411389",
    "geocoded_column": {
      "latitude": "29.97962618411389",
      "longitude": "-90.08074829693389"
    }
  },
  {
    "service_request": "2022-860022",
    "request_type": "Traffic Signals/Signs/Striping/Streetlights",
    "request_reason": "Street Light Outage/Malfunction",
    "date_created": "2022-02-09T17:23:55.000",
    "date_modified": "2022-02-09T17:23:56.000",
    "request_status": "Pending",
    "responsible_agency": "Department of Public Works",
    "final_address": "4640 Berkley Dr",
    "address_councildis": "C",
    "status": "Pending",
    "contractor": "Royal Engineering",
    "rowid": "860022",
    "final_x": "3701109.86212",
    "final_y": "518352.963062",
    "longitude": "-90.00663124620368",
    "latitude": "29.918680954384367",
    "geocoded_column": {
      "latitude": "29.918680954384367",
      "longitude": "-90.00663124620368"
    }
  },
  {
    "service_request": "2022-860021",
    "request_type": "Trash/Recycling",
    "request_reason": "Order Recycling Cart",
    "date_created": "2022-02-09T17:20:20.000",
    "date_modified": "2022-02-09T17:20:20.000",
    "request_status": "Pending",
    "responsible_agency": "Department of Sanitation",
    "final_address": "4640 Berkley Dr",
    "address_councildis": "C",
    "status": "Pending",
    "rowid": "860021",
    "final_x": "3701109.86212",
    "final_y": "518352.963062",
    "longitude": "-90.00663124620368",
    "latitude": "29.918680954384367",
    "geocoded_column": {
      "latitude": "29.918680954384367",
      "longitude": "-90.00663124620368"
    }
  },
  {
    "service_request": "2022-860020",
    "request_type": "Abandoned Vehicles",
    "request_reason": "Vehicle Blocking Your Driveway",
    "date_created": "2022-02-09T17:15:52.000",
    "date_modified": "2022-02-09T18:17:18.000",
    "request_status": "Pending",
    "responsible_agency": "Department of Public Works",
    "final_address": "New Orleans,LA",
    "rowid": "860020",
    "longitude": "0.0",
    "latitude": "0.0",
    "geocoded_column": {
      "latitude": "0.0",
      "longitude": "0.0"
    }
  },
  {
    "service_request": "2022-860019",
    "request_type": "Trash/Recycling",
    "request_reason": "Request a Large Item Pick Up",
    "date_created": "2022-02-09T17:11:04.000",
    "date_modified": "2022-02-09T17:11:05.000",
    "request_status": "Pending",
    "responsible_agency": "Department of Sanitation",
    "final_address": "2647 St Ann St",
    "address_councildis": "D",
    "status": "Assigned to Contractor",
    "contractor": "Richards Disposal",
    "rowid": "860019",
    "final_x": "3677095.8747",
    "final_y": "537165.19252",
    "longitude": "-90.08178227198593",
    "latitude": "29.971151036415",
    "geocoded_column": {
      "latitude": "29.971151036415",
      "longitude": "-90.08178227198593"
    }
  },
  {
    "service_request": "2022-860017",
    "request_type": "Property Maintenance",
    "request_reason": "Property Maintenance",
    "date_created": "2022-02-09T16:55:44.000",
    "date_modified": "2022-02-09T18:14:56.000",
    "request_status": "Pending",
    "responsible_agency": "Department of Code Enforcement",
    "final_address": "New Orleans,LA",
    "address_councildis": "D",
    "rowid": "860017",
    "final_x": "3679355.5172",
    "final_y": "541184.911756",
    "longitude": "-90.07450654960651",
    "latitude": "29.982135817218385",
    "geocoded_column": {
      "latitude": "29.982135817218385",
      "longitude": "-90.07450654960651"
    }
  },
  {
    "service_request": "2022-860016",
    "request_type": "Trash/Recycling",
    "request_reason": "Missed Trash Pick-Up",
    "date_created": "2022-02-09T16:50:46.000",
    "date_modified": "2022-02-09T16:50:47.000",
    "request_status": "Pending",
    "responsible_agency": "Department of Sanitation",
    "final_address": "6126 Willow St",
    "address_councildis": "A",
    "status": "Assigned to Contractor",
    "contractor": "Richards Disposal",
    "rowid": "860016",
    "final_x": "3666591.34497",
    "final_y": "525771.868093",
    "longitude": "-90.11533959941936",
    "latitude": "29.940134424247983",
    "geocoded_column": {
      "latitude": "29.940134424247983",
      "longitude": "-90.11533959941936"
    }
  },
  {
    "service_request": "2022-860015",
    "request_type": "Trash/Recycling",
    "request_reason": "Replace Trash Cart",
    "date_created": "2022-02-09T16:48:42.000",
    "date_modified": "2022-02-09T16:48:43.000",
    "request_status": "Pending",
    "responsible_agency": "Department of Sanitation",
    "final_address": "3504 S Tonti St",
    "address_councildis": "B",
    "status": "Assigned to Contractor",
    "contractor": "Richards Disposal",
    "rowid": "860015",
    "final_x": "3671157.55412",
    "final_y": "528254.039424",
    "longitude": "-90.10083904715685",
    "latitude": "29.946825334493983",
    "geocoded_column": {
      "latitude": "29.946825334493983",
      "longitude": "-90.10083904715685"
    }
  },
  {
    "service_request": "2022-860014",
    "request_type": "Roads/Drainage",
    "request_reason": "Pothole",
    "date_created": "2022-02-09T16:48:22.000",
    "date_modified": "2022-02-09T16:48:22.000",
    "request_status": "Pending",
    "responsible_agency": "Department of Public Works",
    "final_address": "2659 Ursulines Ave",
    "address_councildis": "D",
    "status": "Pending",
    "rowid": "860014",
    "final_x": "3677724.05608",
    "final_y": "538151.482761",
    "longitude": "-90.07976431242798",
    "latitude": "29.973844115395334",
    "geocoded_column": {
      "latitude": "29.973844115395334",
      "longitude": "-90.07976431242798"
    }
  },
  {
    "service_request": "2022-860013",
    "request_type": "Roads/Drainage",
    "request_reason": "Pothole",
    "date_created": "2022-02-09T16:47:58.000",
    "date_modified": "2022-02-09T16:47:58.000",
    "request_status": "Pending",
    "responsible_agency": "Department of Public Works",
    "final_address": "2500 Ursulines Ave",
    "address_councildis": "D",
    "status": "Pending",
    "rowid": "860013",
    "final_x": "3678335.12053",
    "final_y": "537475.488008",
    "longitude": "-90.07785782773584",
    "latitude": "29.97196696584154",
    "geocoded_column": {
      "latitude": "29.97196696584154",
      "longitude": "-90.07785782773584"
    }
  },
  {
    "service_request": "2022-860012",
    "request_type": "Roads/Drainage",
    "request_reason": "Pothole",
    "date_created": "2022-02-09T16:47:14.000",
    "date_modified": "2022-02-09T16:47:14.000",
    "request_status": "Pending",
    "responsible_agency": "Department of Public Works",
    "final_address": "URSULINES AVE & N CLAIBORNE AVE",
    "address_councildis": "D",
    "status": "Pending",
    "rowid": "860012",
    "final_x": "3680620.2",
    "final_y": "535824.58",
    "longitude": "-90.07069863429241",
    "latitude": "29.967358494978164",
    "geocoded_column": {
      "latitude": "29.967358494978164",
      "longitude": "-90.07069863429241"
    }
  },
  {
    "service_request": "2022-860011",
    "request_type": "Traffic Signals/Signs/Striping/Streetlights",
    "request_reason": "Traffic Signal Malfunctioning/Damaged",
    "date_created": "2022-02-09T16:38:26.000",
    "date_modified": "2022-02-09T16:38:26.000",
    "request_status": "Pending",
    "responsible_agency": "Department of Public Works",
    "final_address": "803 Elysian Fields Ave",
    "address_councildis": "C",
    "status": "Pending",
    "rowid": "860011",
    "final_x": "3685173.27369",
    "final_y": "535276.443846",
    "longitude": "-90.05633927557189",
    "latitude": "29.965712570144284",
    "geocoded_column": {
      "latitude": "29.965712570144284",
      "longitude": "-90.05633927557189"
    }
  },
  {
    "service_request": "2022-860010",
    "request_type": "Roads/Drainage",
    "request_reason": "Damaged Sidewalk",
    "date_created": "2022-02-09T16:34:03.000",
    "date_modified": "2022-02-09T16:34:03.000",
    "request_status": "Pending",
    "responsible_agency": "Department of Public Works",
    "final_address": "2225 Valmont St",
    "address_councildis": "B",
    "status": "Pending",
    "rowid": "860010",
    "final_x": "3668247.949",
    "final_y": "523763.357435",
    "longitude": "-90.11017711892981",
    "latitude": "29.934563141906896",
    "geocoded_column": {
      "latitude": "29.934563141906896",
      "longitude": "-90.11017711892981"
    }
  },
  {
    "service_request": "2022-860009",
    "request_type": "Trash/Recycling",
    "request_reason": "Order Trash Cart",
    "date_created": "2022-02-09T16:33:38.000",
    "date_modified": "2022-02-09T16:33:39.000",
    "request_status": "Pending",
    "responsible_agency": "Department of Sanitation",
    "final_address": "4721 Laurel St",
    "address_councildis": "B",
    "status": "Assigned to Contractor",
    "contractor": "Richards Disposal",
    "rowid": "860009",
    "final_x": "3669813.51719",
    "final_y": "518017.542134",
    "longitude": "-90.105429026617",
    "latitude": "29.918717935741782",
    "geocoded_column": {
      "latitude": "29.918717935741782",
      "longitude": "-90.105429026617"
    }
  },
  {
    "service_request": "2022-860008",
    "request_type": "Trash/Recycling",
    "request_reason": "Request a Large Item Pick Up",
    "date_created": "2022-02-09T16:21:27.000",
    "date_modified": "2022-02-09T16:21:27.000",
    "request_status": "Pending",
    "responsible_agency": "Department of Sanitation",
    "final_address": "4623 Laine Ave",
    "address_councildis": "E",
    "status": "Assigned to Contractor",
    "contractor": "Metro Disposal",
    "rowid": "860008",
    "final_x": "3705928.19153",
    "final_y": "554651.552728",
    "longitude": "-89.99007928534928",
    "latitude": "30.01833452825426",
    "geocoded_column": {
      "latitude": "30.01833452825426",
      "longitude": "-89.99007928534928"
    }
  },
  {
    "service_request": "2022-860007",
    "request_type": "Trash/Recycling",
    "request_reason": "Request a Large Item Pick Up",
    "date_created": "2022-02-09T16:17:23.000",
    "date_modified": "2022-02-09T16:17:24.000",
    "request_status": "Pending",
    "responsible_agency": "Department of Sanitation",
    "final_address": "5417 S Tonti St",
    "address_councildis": "A",
    "status": "Assigned to Contractor",
    "contractor": "Richards Disposal",
    "rowid": "860007",
    "final_x": "3668694.80558",
    "final_y": "528070.913215",
    "longitude": "-90.1086210490126",
    "latitude": "29.946394405731247",
    "geocoded_column": {
      "latitude": "29.946394405731247",
      "longitude": "-90.1086210490126"
    }
  },
  {
    "service_request": "2022-860006",
    "request_type": "Trash/Recycling",
    "request_reason": "Request a Large Item Pick Up",
    "date_created": "2022-02-09T16:17:20.000",
    "date_modified": "2022-02-09T16:17:23.000",
    "request_status": "Pending",
    "responsible_agency": "Department of Sanitation",
    "final_address": "5061 Bancroft Dr",
    "address_councildis": "D",
    "status": "Assigned to Contractor",
    "contractor": "Metro Disposal",
    "rowid": "860006",
    "final_x": "3676390.48859",
    "final_y": "550899.512981",
    "longitude": "-90.08353687833646",
    "latitude": "30.008936795742564",
    "geocoded_column": {
      "latitude": "30.008936795742564",
      "longitude": "-90.08353687833646"
    }
  },
  {
    "service_request": "2022-860005",
    "request_type": "Trash/Recycling",
    "request_reason": "Request a Large Item Pick Up",
    "date_created": "2022-02-09T16:10:40.000",
    "date_modified": "2022-02-09T16:10:43.000",
    "request_status": "Pending",
    "responsible_agency": "Department of Sanitation",
    "final_address": "428 Belleville St",
    "address_councildis": "C",
    "status": "Assigned to Contractor",
    "contractor": "Richards Disposal",
    "rowid": "860005",
    "final_x": "3687905.39747",
    "final_y": "530099.002561",
    "longitude": "-90.04789477298706",
    "latitude": "29.95139239059275",
    "geocoded_column": {
      "latitude": "29.95139239059275",
      "longitude": "-90.04789477298706"
    }
  },
  {
    "service_request": "2022-860004",
    "request_type": "Mosquito, Termite & Rodent Control",
    "request_reason": "Rodent Complaint (Rats)",
    "date_created": "2022-02-09T16:09:33.000",
    "date_modified": "2022-02-09T16:09:33.000",
    "request_status": "Pending",
    "responsible_agency": "Mosquito, Termite & Rodent Control Board",
    "final_address": "3414 S Robertson St",
    "address_councildis": "B",
    "status": "Pending",
    "rowid": "860004",
    "final_x": "3672668.38152",
    "final_y": "524699.507132",
    "longitude": "-90.09618997564415",
    "latitude": "29.937006760885293",
    "geocoded_column": {
      "latitude": "29.937006760885293",
      "longitude": "-90.09618997564415"
    }
  },
  {
    "service_request": "2022-860003",
    "request_type": "Property Maintenance",
    "request_reason": "Property Maintenance",
    "date_created": "2022-02-09T16:07:20.000",
    "date_modified": "2022-02-09T16:07:20.000",
    "request_status": "Pending",
    "responsible_agency": "Department of Code Enforcement",
    "final_address": "3414 S Robertson St",
    "address_councildis": "B",
    "status": "Pending",
    "rowid": "860003",
    "final_x": "3672668.38152",
    "final_y": "524699.507132",
    "longitude": "-90.09618997564415",
    "latitude": "29.937006760885293",
    "geocoded_column": {
      "latitude": "29.937006760885293",
      "longitude": "-90.09618997564415"
    }
  },
  {
    "service_request": "2022-860002",
    "request_type": "Trash/Recycling",
    "request_reason": "Request a Large Item Pick Up",
    "date_created": "2022-02-09T16:02:49.000",
    "date_modified": "2022-02-09T16:02:50.000",
    "request_status": "Pending",
    "responsible_agency": "Department of Sanitation",
    "final_address": "2715 Edna St",
    "address_councildis": "D",
    "status": "Assigned to Contractor",
    "contractor": "Metro Disposal",
    "rowid": "860002",
    "final_x": "3689526.94403",
    "final_y": "545319.454415",
    "longitude": "-90.04223322848158",
    "latitude": "29.993193149646114",
    "geocoded_column": {
      "latitude": "29.993193149646114",
      "longitude": "-90.04223322848158"
    }
  },
  {
    "service_request": "2022-860001",
    "request_type": "Trash/Recycling",
    "request_reason": "MIssed Recycling Pick-Up",
    "date_created": "2022-02-09T16:02:23.000",
    "date_modified": "2022-02-09T16:02:24.000",
    "request_status": "Pending",
    "responsible_agency": "Department of Sanitation",
    "final_address": "4168 Bienville Ave",
    "address_councildis": "A",
    "status": "Assigned to Contractor",
    "contractor": "Richards Disposal",
    "rowid": "860001",
    "final_x": "3671067.42177",
    "final_y": "539211.940362",
    "longitude": "-90.10075145618346",
    "latitude": "29.976958578932322",
    "geocoded_column": {
      "latitude": "29.976958578932322",
      "longitude": "-90.10075145618346"
    }
  },
  {
    "service_request": "2022-860000",
    "request_type": "Abandoned Vehicles",
    "request_reason": "Abandoned/Junk Vehicles",
    "date_created": "2022-02-09T16:02:12.000",
    "date_modified": "2022-02-09T16:02:12.000",
    "request_status": "Pending",
    "responsible_agency": "Department of Public Works",
    "final_address": "3036 Banks St",
    "address_councildis": "B",
    "status": "Pending",
    "rowid": "860000",
    "final_x": "3673342.12187",
    "final_y": "535035.860422",
    "longitude": "-90.09370990358758",
    "latitude": "29.96540829505505",
    "geocoded_column": {
      "latitude": "29.96540829505505",
      "longitude": "-90.09370990358758"
    }
  },
  {
    "service_request": "2022-859999",
    "request_type": "Trash/Recycling",
    "request_reason": "Request a Large Item Pick Up",
    "date_created": "2022-02-09T16:00:07.000",
    "date_modified": "2022-02-09T16:00:09.000",
    "request_status": "Pending",
    "responsible_agency": "Department of Sanitation",
    "final_address": "2713 Soniat St, New Orleans, Louisiana, 70115",
    "address_councildis": "B",
    "status": "Assigned to Contractor",
    "contractor": "Richards Disposal",
    "rowid": "859999",
    "final_x": "3668661.34311",
    "final_y": "525467.528445",
    "longitude": "-90.10881454432104",
    "latitude": "29.939236923788368",
    "geocoded_column": {
      "latitude": "29.939236923788368",
      "longitude": "-90.10881454432104"
    }
  },
  {
    "service_request": "2022-859998",
    "request_type": "Traffic Signals/Signs/Striping/Streetlights",
    "request_reason": "Street Light Outage/Malfunction",
    "date_created": "2022-02-09T15:59:43.000",
    "date_modified": "2022-02-09T15:59:44.000",
    "request_status": "Pending",
    "responsible_agency": "Department of Public Works",
    "final_address": "5670 Rosemary Pl",
    "address_councildis": "A",
    "status": "Pending",
    "contractor": "Royal Engineering",
    "rowid": "859998",
    "final_x": "3667117.12986",
    "final_y": "545258.179535",
    "longitude": "-90.11302441326724",
    "latitude": "29.993699937158567",
    "geocoded_column": {
      "latitude": "29.993699937158567",
      "longitude": "-90.11302441326724"
    }
  },
  {
    "service_request": "2022-859997",
    "request_type": "Traffic Signals/Signs/Striping/Streetlights",
    "request_reason": "Street Light Outage/Malfunction",
    "date_created": "2022-02-09T15:57:52.000",
    "date_modified": "2022-02-09T15:57:53.000",
    "request_status": "Pending",
    "responsible_agency": "Department of Public Works",
    "final_address": "5618 Rosemary Pl",
    "address_councildis": "A",
    "status": "Pending",
    "contractor": "Royal Engineering",
    "rowid": "859997",
    "final_x": "3667084.38605",
    "final_y": "544913.741647",
    "longitude": "-90.11313943270619",
    "latitude": "29.99275380967612",
    "geocoded_column": {
      "latitude": "29.99275380967612",
      "longitude": "-90.11313943270619"
    }
  },
  {
    "service_request": "2022-859996",
    "request_type": "Trash/Recycling",
    "request_reason": "Request a Large Item Pick Up",
    "date_created": "2022-02-09T15:57:51.000",
    "date_modified": "2022-02-09T15:57:53.000",
    "request_status": "Pending",
    "responsible_agency": "Department of Sanitation",
    "final_address": "1511 St Ann St",
    "address_councildis": "C",
    "status": "Assigned to Contractor",
    "contractor": "Richards Disposal",
    "rowid": "859996",
    "final_x": "3680461.75637",
    "final_y": "534562.861637",
    "longitude": "-90.07124288922185",
    "latitude": "29.963894000940588",
    "geocoded_column": {
      "latitude": "29.963894000940588",
      "longitude": "-90.07124288922185"
    }
  },
  {
    "service_request": "2022-859995",
    "request_type": "Traffic Signals/Signs/Striping/Streetlights",
    "request_reason": "Street Light Outage/Malfunction",
    "date_created": "2022-02-09T15:56:45.000",
    "date_modified": "2022-02-09T15:56:46.000",
    "request_status": "Pending",
    "responsible_agency": "Department of Public Works",
    "final_address": "5646 Rosemary Pl",
    "address_councildis": "A",
    "status": "Pending",
    "contractor": "Royal Engineering",
    "rowid": "859995",
    "final_x": "3667094.79329",
    "final_y": "545044.211215",
    "longitude": "-90.1131021691299",
    "latitude": "29.99311225160902",
    "geocoded_column": {
      "latitude": "29.99311225160902",
      "longitude": "-90.1131021691299"
    }
  },
  {
    "service_request": "2022-859994",
    "request_type": "Traffic Signals/Signs/Striping/Streetlights",
    "request_reason": "Street Light Outage/Malfunction",
    "date_created": "2022-02-09T15:52:34.000",
    "date_modified": "2022-02-09T15:52:35.000",
    "request_status": "Pending",
    "responsible_agency": "Department of Public Works",
    "final_address": "5618 Rosemary Pl",
    "address_councildis": "A",
    "status": "Pending",
    "contractor": "Royal Engineering",
    "rowid": "859994",
    "final_x": "3667084.38605",
    "final_y": "544913.741647",
    "longitude": "-90.11313943270619",
    "latitude": "29.99275380967612",
    "geocoded_column": {
      "latitude": "29.99275380967612",
      "longitude": "-90.11313943270619"
    }
  },
  {
    "service_request": "2022-859993",
    "request_type": "Roads/Drainage",
    "request_reason": "Street Flooding / Drainage",
    "date_created": "2022-02-09T15:50:22.000",
    "date_modified": "2022-02-09T15:50:22.000",
    "request_status": "Pending",
    "responsible_agency": "Department of Public Works",
    "final_address": "3400 Touro St",
    "address_councildis": "D",
    "status": "Pending",
    "rowid": "859993",
    "final_x": "3683473.27362",
    "final_y": "545123.721295",
    "longitude": "-90.06136260194431",
    "latitude": "29.992841120388324",
    "geocoded_column": {
      "latitude": "29.992841120388324",
      "longitude": "-90.06136260194431"
    }
  },
  {
    "service_request": "2022-859992",
    "request_type": "Abandoned Vehicles",
    "request_reason": "Abandoned/Junk Vehicles",
    "date_created": "2022-02-09T15:49:39.000",
    "date_modified": "2022-02-09T15:49:39.000",
    "request_status": "Pending",
    "responsible_agency": "Department of Public Works",
    "final_address": "7517 Benjamin St",
    "address_councildis": "A",
    "status": "Pending",
    "rowid": "859992",
    "final_x": "3661316.65472",
    "final_y": "524746.652284",
    "longitude": "-90.1320266311693",
    "latitude": "29.937468520816015",
    "geocoded_column": {
      "latitude": "29.937468520816015",
      "longitude": "-90.1320266311693"
    }
  },
  {
    "service_request": "2022-859990",
    "request_type": "Roads/Drainage",
    "request_reason": "Catch Basin - Broken/Damage",
    "date_created": "2022-02-09T15:46:00.000",
    "date_modified": "2022-02-09T15:46:00.000",
    "request_status": "Pending",
    "responsible_agency": "Department of Public Works",
    "final_address": "1689 Soniat St",
    "address_councildis": "B",
    "status": "Pending",
    "rowid": "859990",
    "final_x": "3668531.95566",
    "final_y": "521744.992442",
    "longitude": "-90.10934857832234",
    "latitude": "29.92900494392171",
    "geocoded_column": {
      "latitude": "29.92900494392171",
      "longitude": "-90.10934857832234"
    }
  },
  {
    "service_request": "2022-859989",
    "request_type": "COVID-19",
    "request_reason": "COVID-19 Business Non-Compliance",
    "date_created": "2022-02-09T15:45:00.000",
    "date_modified": "2022-02-09T15:45:02.000",
    "request_status": "Pending",
    "responsible_agency": "Safety and Permits",
    "final_address": "1751 Gentilly Blvd",
    "address_councildis": "A",
    "status": "Pending",
    "rowid": "859989",
    "final_x": "3678544.05627",
    "final_y": "541708.166924",
    "longitude": "-90.07705141583963",
    "latitude": "29.98359907466318",
    "geocoded_column": {
      "latitude": "29.98359907466318",
      "longitude": "-90.07705141583963"
    }
  },
  {
    "service_request": "2022-859988",
    "request_type": "Trash/Recycling",
    "request_reason": "Return Trash Cart",
    "date_created": "2022-02-09T15:44:51.000",
    "date_modified": "2022-02-09T15:44:52.000",
    "request_status": "Pending",
    "responsible_agency": "Department of Sanitation",
    "final_address": "6000 Stratford Pl",
    "address_councildis": "C",
    "status": "Assigned to Contractor",
    "contractor": "Richards Disposal",
    "rowid": "859988",
    "final_x": "3705956.59697",
    "final_y": "516250.40946",
    "longitude": "-89.99141049762083",
    "latitude": "29.912744464208984",
    "geocoded_column": {
      "latitude": "29.912744464208984",
      "longitude": "-89.99141049762083"
    }
  },
  {
    "service_request": "2022-859987",
    "request_type": "Trash/Recycling",
    "request_reason": "Missed Trash Pick-Up",
    "date_created": "2022-02-09T15:40:11.000",
    "date_modified": "2022-02-09T15:40:12.000",
    "request_status": "Pending",
    "responsible_agency": "Department of Sanitation",
    "final_address": "4621 Lennox Blvd",
    "address_councildis": "C",
    "status": "Assigned to Contractor",
    "contractor": "Richards Disposal",
    "rowid": "859987",
    "final_x": "3700675.33949",
    "final_y": "513845.040242",
    "longitude": "-90.0081673570154",
    "latitude": "29.906299525100106",
    "geocoded_column": {
      "latitude": "29.906299525100106",
      "longitude": "-90.0081673570154"
    }
  },
  {
    "service_request": "2022-859986",
    "request_type": "Property Maintenance",
    "request_reason": "Property Maintenance",
    "date_created": "2022-02-09T15:38:46.000",
    "date_modified": "2022-02-09T15:38:46.000",
    "request_status": "Pending",
    "responsible_agency": "Department of Code Enforcement",
    "final_address": "10902 Curran Rd",
    "address_councildis": "E",
    "status": "Pending",
    "rowid": "859986",
    "final_x": "3710103.98622",
    "final_y": "565790.345507",
    "longitude": "-89.97646869102844",
    "latitude": "30.048826531222797",
    "geocoded_column": {
      "latitude": "30.048826531222797",
      "longitude": "-89.97646869102844"
    }
  },
  {
    "service_request": "2022-859985",
    "request_type": "Roads/Drainage",
    "request_reason": "Pothole",
    "date_created": "2022-02-09T15:32:14.000",
    "date_modified": "2022-02-09T15:32:14.000",
    "request_status": "Pending",
    "responsible_agency": "Department of Public Works",
    "final_address": "2229 Allen St",
    "address_councildis": "D",
    "status": "Pending",
    "rowid": "859985",
    "final_x": "3682467.06498",
    "final_y": "540417.521931",
    "longitude": "-90.06470562356382",
    "latitude": "29.97993140372142",
    "geocoded_column": {
      "latitude": "29.97993140372142",
      "longitude": "-90.06470562356382"
    }
  },
  {
    "service_request": "2022-859983",
    "request_type": "Trash/Recycling",
    "request_reason": "Order Trash Cart",
    "date_created": "2022-02-09T15:19:43.000",
    "date_modified": "2022-02-09T15:19:44.000",
    "request_status": "Pending",
    "responsible_agency": "Department of Sanitation",
    "final_address": "1831 Caffin Ave",
    "address_councildis": "E",
    "status": "Assigned to Contractor",
    "contractor": "Metro Disposal",
    "rowid": "859983",
    "final_x": "3698884.38308",
    "final_y": "536604.479623",
    "longitude": "-90.01299203428648",
    "latitude": "29.968936908458307",
    "geocoded_column": {
      "latitude": "29.968936908458307",
      "longitude": "-90.01299203428648"
    }
  },
  {
    "service_request": "2022-859984",
    "request_type": "Traffic Signals/Signs/Striping/Streetlights",
    "request_reason": "Street Light Outage/Malfunction",
    "date_created": "2022-02-09T15:19:43.000",
    "date_modified": "2022-02-09T15:19:44.000",
    "request_status": "Pending",
    "responsible_agency": "Department of Public Works",
    "final_address": "3800 Banks St",
    "address_councildis": "B",
    "status": "Pending",
    "contractor": "Royal Engineering",
    "rowid": "859984",
    "final_x": "3671271.29441",
    "final_y": "536602.703879",
    "longitude": "-90.10019624617942",
    "latitude": "29.969778027778283",
    "geocoded_column": {
      "latitude": "29.969778027778283",
      "longitude": "-90.10019624617942"
    }
  },
  {
    "service_request": "2022-859982",
    "request_type": "Traffic Signals/Signs/Striping/Streetlights",
    "request_reason": "Street Light Outage/Malfunction",
    "date_created": "2022-02-09T15:19:24.000",
    "date_modified": "2022-02-09T15:19:25.000",
    "request_status": "Pending",
    "responsible_agency": "Department of Public Works",
    "final_address": "3800 Banks St",
    "address_councildis": "B",
    "status": "Pending",
    "contractor": "Royal Engineering",
    "rowid": "859982",
    "final_x": "3671271.29441",
    "final_y": "536602.703879",
    "longitude": "-90.10019624617942",
    "latitude": "29.969778027778283",
    "geocoded_column": {
      "latitude": "29.969778027778283",
      "longitude": "-90.10019624617942"
    }
  },
  {
    "service_request": "2022-859981",
    "request_type": "Traffic Signals/Signs/Striping/Streetlights",
    "request_reason": "Street Light Outage/Malfunction",
    "date_created": "2022-02-09T15:19:10.000",
    "date_modified": "2022-02-09T15:19:10.000",
    "request_status": "Pending",
    "responsible_agency": "Department of Public Works",
    "final_address": "3800 Banks St",
    "address_councildis": "B",
    "status": "Pending",
    "contractor": "Royal Engineering",
    "rowid": "859981",
    "final_x": "3671271.29441",
    "final_y": "536602.703879",
    "longitude": "-90.10019624617942",
    "latitude": "29.969778027778283",
    "geocoded_column": {
      "latitude": "29.969778027778283",
      "longitude": "-90.10019624617942"
    }
  },
  {
    "service_request": "2022-859980",
    "request_type": "Traffic Signals/Signs/Striping/Streetlights",
    "request_reason": "Street Light Outage/Malfunction",
    "date_created": "2022-02-09T15:18:38.000",
    "date_modified": "2022-02-09T15:18:39.000",
    "request_status": "Pending",
    "responsible_agency": "Department of Public Works",
    "final_address": "3800 Banks St",
    "address_councildis": "B",
    "status": "Pending",
    "contractor": "Royal Engineering",
    "rowid": "859980",
    "final_x": "3671271.29441",
    "final_y": "536602.703879",
    "longitude": "-90.10019624617942",
    "latitude": "29.969778027778283",
    "geocoded_column": {
      "latitude": "29.969778027778283",
      "longitude": "-90.10019624617942"
    }
  },
  {
    "service_request": "2022-859979",
    "request_type": "Property Maintenance",
    "request_reason": "Property Maintenance",
    "date_created": "2022-02-09T15:09:56.000",
    "date_modified": "2022-02-09T15:09:56.000",
    "request_status": "Pending",
    "responsible_agency": "Department of Code Enforcement",
    "final_address": "413 Park Blvd",
    "address_councildis": "C",
    "status": "Pending",
    "rowid": "859979",
    "final_x": "3686888.70249",
    "final_y": "525757.390525",
    "longitude": "-90.05125837577367",
    "latitude": "29.93948575522105",
    "geocoded_column": {
      "latitude": "29.93948575522105",
      "longitude": "-90.05125837577367"
    }
  },
  {
    "service_request": "2022-859978",
    "request_type": "Roads/Drainage",
    "request_reason": "Street Subsidence (Sinking)",
    "date_created": "2022-02-09T15:02:50.000",
    "date_modified": "2022-02-09T15:02:50.000",
    "request_status": "Pending",
    "responsible_agency": "Department of Public Works",
    "final_address": "3000 BLK Jena St",
    "address_councildis": "B",
    "status": "Pending",
    "rowid": "859978",
    "final_x": "3669930.61023",
    "final_y": "526043.198029",
    "longitude": "-90.10478781112886",
    "latitude": "29.94078247066316",
    "geocoded_column": {
      "latitude": "29.94078247066316",
      "longitude": "-90.10478781112886"
    }
  },
  {
    "service_request": "2022-859977",
    "request_type": "Trash/Recycling",
    "request_reason": "Request a Large Item Pick Up",
    "date_created": "2022-02-09T14:56:05.000",
    "date_modified": "2022-02-09T14:56:06.000",
    "request_status": "Pending",
    "responsible_agency": "Department of Sanitation",
    "final_address": "839 Taft Pl",
    "address_councildis": "A",
    "status": "Assigned to Contractor",
    "contractor": "Richards Disposal",
    "rowid": "859977",
    "final_x": "3673752.38286",
    "final_y": "539648.711882",
    "longitude": "-90.09225653704952",
    "latitude": "29.978079862357944",
    "geocoded_column": {
      "latitude": "29.978079862357944",
      "longitude": "-90.09225653704952"
    }
  },
  {
    "service_request": "2022-859976",
    "request_type": "Roads/Drainage",
    "request_reason": "Street Subsidence (Sinking)",
    "date_created": "2022-02-09T14:54:25.000",
    "date_modified": "2022-02-09T14:54:25.000",
    "request_status": "Pending",
    "responsible_agency": "Department of Public Works",
    "final_address": "915 Hidalgo St",
    "address_councildis": "A",
    "status": "Pending",
    "rowid": "859976",
    "final_x": "3669663.09306",
    "final_y": "544083.646926",
    "longitude": "-90.10502184859273",
    "latitude": "29.990395575957006",
    "geocoded_column": {
      "latitude": "29.990395575957006",
      "longitude": "-90.10502184859273"
    }
  },
  {
    "service_request": "2022-859975",
    "request_type": "Trash/Recycling",
    "request_reason": "Dead Animal Pick Up",
    "date_created": "2022-02-09T14:53:50.000",
    "date_modified": "2022-02-09T14:53:50.000",
    "request_status": "Pending",
    "responsible_agency": "Department of Sanitation",
    "final_address": "7200 BLK Hanover Rd",
    "address_councildis": "E",
    "status": "Assigned to Contractor",
    "contractor": "Metro Disposal",
    "rowid": "859975",
    "final_x": "3709759.38359",
    "final_y": "562868.33829",
    "longitude": "-89.97766709428645",
    "latitude": "30.040803399436495",
    "geocoded_column": {
      "latitude": "30.040803399436495",
      "longitude": "-89.97766709428645"
    }
  },
  {
    "service_request": "2022-859974",
    "request_type": "Roads/Drainage",
    "request_reason": "Pothole",
    "date_created": "2022-02-09T14:52:32.000",
    "date_modified": "2022-02-09T14:52:32.000",
    "request_status": "Pending",
    "responsible_agency": "Department of Public Works",
    "final_address": "1467 N Johnson St",
    "address_councildis": "D",
    "status": "Pending",
    "rowid": "859974",
    "final_x": "3680474.54939",
    "final_y": "537946.817929",
    "longitude": "-90.07108477162852",
    "latitude": "29.97319833157213",
    "geocoded_column": {
      "latitude": "29.97319833157213",
      "longitude": "-90.07108477162852"
    }
  },
  {
    "service_request": "2022-859973",
    "request_type": "Property Maintenance",
    "request_reason": "Property Maintenance",
    "date_created": "2022-02-09T14:50:05.000",
    "date_modified": "2022-02-09T14:50:05.000",
    "request_status": "Pending",
    "responsible_agency": "Department of Code Enforcement",
    "final_address": "2526 First St",
    "address_councildis": "B",
    "status": "Pending",
    "rowid": "859973",
    "final_x": "3674969.79137",
    "final_y": "526128.667262",
    "longitude": "-90.08887528631725",
    "latitude": "29.940867959096558",
    "geocoded_column": {
      "latitude": "29.940867959096558",
      "longitude": "-90.08887528631725"
    }
  },
  {
    "service_request": "2022-859972",
    "request_type": "Trash/Recycling",
    "request_reason": "Repair Trash Cart",
    "date_created": "2022-02-09T14:45:50.000",
    "date_modified": "2022-02-09T14:45:51.000",
    "request_status": "Pending",
    "responsible_agency": "Department of Sanitation",
    "final_address": "1242 Vallette St",
    "address_councildis": "C",
    "status": "Assigned to Contractor",
    "contractor": "Richards Disposal",
    "rowid": "859972",
    "final_x": "3687455.02556",
    "final_y": "526869.024638",
    "longitude": "-90.04943109839154",
    "latitude": "29.942524937021815",
    "geocoded_column": {
      "latitude": "29.942524937021815",
      "longitude": "-90.04943109839154"
    }
  },
  {
    "service_request": "2022-859970",
    "request_type": "Roads/Drainage",
    "request_reason": "Street Subsidence (Sinking)",
    "date_created": "2022-02-09T14:36:45.000",
    "date_modified": "2022-02-09T14:36:45.000",
    "request_status": "Pending",
    "responsible_agency": "Department of Public Works",
    "final_address": "150 Baronne St, New Orleans, Louisiana, 70112",
    "address_councildis": "B",
    "status": "Pending",
    "rowid": "859970",
    "final_x": "3680393.04085",
    "final_y": "530831.534338",
    "longitude": "-90.07158963689385",
    "latitude": "29.953636198302387",
    "geocoded_column": {
      "latitude": "29.953636198302387",
      "longitude": "-90.07158963689385"
    }
  },
  {
    "service_request": "2022-859969",
    "request_type": "Traffic Signals/Signs/Striping/Streetlights",
    "request_reason": "Street Light Outage/Malfunction",
    "date_created": "2022-02-09T14:34:38.000",
    "date_modified": "2022-02-09T18:09:32.000",
    "request_status": "Pending",
    "responsible_agency": "Department of Public Works",
    "final_address": "150 Baronne St, New Orleans, Louisiana, 70112",
    "address_councildis": "B",
    "status": "Pending",
    "contractor": "Royal Engineering",
    "rowid": "859969",
    "final_x": "3680393.04085",
    "final_y": "530831.534338",
    "longitude": "-90.07158963689385",
    "latitude": "29.953636198302387",
    "geocoded_column": {
      "latitude": "29.953636198302387",
      "longitude": "-90.07158963689385"
    }
  },
  {
    "service_request": "2022-859968",
    "request_type": "Trash/Recycling",
    "request_reason": "Order Recycling Cart",
    "date_created": "2022-02-09T14:30:10.000",
    "date_modified": "2022-02-09T14:30:10.000",
    "request_status": "Pending",
    "responsible_agency": "Department of Sanitation",
    "final_address": "5424 Grand Bayou Dr",
    "address_councildis": "E",
    "status": "Pending",
    "contractor": "Metro Disposal",
    "rowid": "859968",
    "final_x": "3725934.8752",
    "final_y": "563846.240289",
    "longitude": "-89.92650983855195",
    "latitude": "30.042956094561248",
    "geocoded_column": {
      "latitude": "30.042956094561248",
      "longitude": "-89.92650983855195"
    }
  },
  {
    "service_request": "2022-859967",
    "request_type": "Trash/Recycling",
    "request_reason": "Order Trash Cart",
    "date_created": "2022-02-09T14:29:32.000",
    "date_modified": "2022-02-09T14:29:33.000",
    "request_status": "Pending",
    "responsible_agency": "Department of Sanitation",
    "final_address": "5424 Grand Bayou Dr",
    "address_councildis": "E",
    "status": "Assigned to Contractor",
    "contractor": "Metro Disposal",
    "rowid": "859967",
    "final_x": "3725934.8752",
    "final_y": "563846.240289",
    "longitude": "-89.92650983855195",
    "latitude": "30.042956094561248",
    "geocoded_column": {
      "latitude": "30.042956094561248",
      "longitude": "-89.92650983855195"
    }
  },
  {
    "service_request": "2022-859966",
    "request_type": "Trash/Recycling",
    "request_reason": "Start Trash Service",
    "date_created": "2022-02-09T14:28:57.000",
    "date_modified": "2022-02-09T14:28:58.000",
    "request_status": "Pending",
    "responsible_agency": "Department of Sanitation",
    "final_address": "5424 Grand Bayou Dr",
    "address_councildis": "E",
    "status": "Assigned to Contractor",
    "contractor": "Metro Disposal",
    "rowid": "859966",
    "final_x": "3725934.8752",
    "final_y": "563846.240289",
    "longitude": "-89.92650983855195",
    "latitude": "30.042956094561248",
    "geocoded_column": {
      "latitude": "30.042956094561248",
      "longitude": "-89.92650983855195"
    }
  },
  {
    "service_request": "2022-859965",
    "request_type": "Trash/Recycling",
    "request_reason": "Order Recycling Cart",
    "date_created": "2022-02-09T14:28:45.000",
    "date_modified": "2022-02-09T14:28:45.000",
    "request_status": "Pending",
    "responsible_agency": "Department of Sanitation",
    "final_address": "3931 Octavia St",
    "address_councildis": "B",
    "status": "Pending",
    "rowid": "859965",
    "final_x": "3668936.18382",
    "final_y": "529976.781313",
    "longitude": "-90.10779457015788",
    "latitude": "29.951627825016892",
    "geocoded_column": {
      "latitude": "29.951627825016892",
      "longitude": "-90.10779457015788"
    }
  },
  {
    "service_request": "2022-859964",
    "request_type": "Trash/Recycling",
    "request_reason": "Order Recycling Cart",
    "date_created": "2022-02-09T14:28:30.000",
    "date_modified": "2022-02-09T14:28:30.000",
    "request_status": "Pending",
    "responsible_agency": "Department of Sanitation",
    "final_address": "3929 Octavia St",
    "address_councildis": "B",
    "status": "Pending",
    "rowid": "859964",
    "final_x": "3668926.27489",
    "final_y": "529957.280001",
    "longitude": "-90.10782651644354",
    "latitude": "29.951574494200347",
    "geocoded_column": {
      "latitude": "29.951574494200347",
      "longitude": "-90.10782651644354"
    }
  },
  {
    "service_request": "2022-859963",
    "request_type": "Trash/Recycling",
    "request_reason": "Order Recycling Cart",
    "date_created": "2022-02-09T14:27:18.000",
    "date_modified": "2022-02-09T14:27:18.000",
    "request_status": "Pending",
    "responsible_agency": "Department of Sanitation",
    "final_address": "1920 Robert E Lee Blvd",
    "address_councildis": "D",
    "status": "Pending",
    "rowid": "859963",
    "final_x": "3681606.86997",
    "final_y": "555493.074585",
    "longitude": "-90.06689621131395",
    "latitude": "30.021409944291612",
    "geocoded_column": {
      "latitude": "30.021409944291612",
      "longitude": "-90.06689621131395"
    }
  },
  {
    "service_request": "2022-859962",
    "request_type": "Abandoned Vehicles",
    "request_reason": "Abandoned/Junk Vehicles",
    "date_created": "2022-02-09T14:23:41.000",
    "date_modified": "2022-02-09T14:23:41.000",
    "request_status": "Pending",
    "responsible_agency": "Department of Public Works",
    "final_address": "1908 Foucher St",
    "address_councildis": "B",
    "status": "Pending",
    "rowid": "859962",
    "final_x": "3673064.21684",
    "final_y": "522383.48025",
    "longitude": "-90.09501931865658",
    "latitude": "29.93062667994702",
    "geocoded_column": {
      "latitude": "29.93062667994702",
      "longitude": "-90.09501931865658"
    }
  },
  {
    "service_request": "2022-859961",
    "request_type": "Trash/Recycling",
    "request_reason": "Repair Trash Cart",
    "date_created": "2022-02-09T14:14:52.000",
    "date_modified": "2022-02-09T14:14:52.000",
    "request_status": "Pending",
    "responsible_agency": "Department of Sanitation",
    "final_address": "4601 Longfellow Dr",
    "address_councildis": "E",
    "status": "Assigned to Contractor",
    "contractor": "Metro Disposal",
    "rowid": "859961",
    "final_x": "3709783.24984",
    "final_y": "554880.658264",
    "longitude": "-89.97789028369054",
    "latitude": "30.018839653654233",
    "geocoded_column": {
      "latitude": "30.018839653654233",
      "longitude": "-89.97789028369054"
    }
  },
  {
    "service_request": "2022-859960",
    "request_type": "Abandoned Vehicles",
    "request_reason": "Abandoned/Junk Vehicles",
    "date_created": "2022-02-09T14:09:37.000",
    "date_modified": "2022-02-09T14:09:37.000",
    "request_status": "Pending",
    "responsible_agency": "Department of Public Works",
    "final_address": "2320 Second St",
    "address_councildis": "B",
    "status": "Pending",
    "rowid": "859960",
    "final_x": "3675197.75265",
    "final_y": "525252.532221",
    "longitude": "-90.08818562977775",
    "latitude": "29.93845206538085",
    "geocoded_column": {
      "latitude": "29.93845206538085",
      "longitude": "-90.08818562977775"
    }
  },
  {
    "service_request": "2022-859959",
    "request_type": "Trash/Recycling",
    "request_reason": "Order Recycling Cart",
    "date_created": "2022-02-09T14:08:48.000",
    "date_modified": "2022-02-09T14:08:48.000",
    "request_status": "Pending",
    "responsible_agency": "Department of Sanitation",
    "final_address": "1700 Fern St, New Orleans, Louisiana, 70118",
    "address_councildis": "A",
    "status": "Pending",
    "rowid": "859959",
    "final_x": "3663710.84243",
    "final_y": "529199.635968",
    "longitude": "-90.12431964450678",
    "latitude": "29.949643564749703",
    "geocoded_column": {
      "latitude": "29.949643564749703",
      "longitude": "-90.12431964450678"
    }
  },
  {
    "service_request": "2022-859958",
    "request_type": "Trash/Recycling",
    "request_reason": "Order Recycling Cart",
    "date_created": "2022-02-09T14:08:19.000",
    "date_modified": "2022-02-09T14:08:19.000",
    "request_status": "Pending",
    "responsible_agency": "Department of Sanitation",
    "final_address": "2022 Chippewa St",
    "address_councildis": "B",
    "status": "Pending",
    "rowid": "859958",
    "final_x": "3680319.5629",
    "final_y": "521299.788281",
    "longitude": "-90.07215291779012",
    "latitude": "29.927429290313864",
    "geocoded_column": {
      "latitude": "29.927429290313864",
      "longitude": "-90.07215291779012"
    }
  },
  {
    "service_request": "2022-859957",
    "request_type": "Abandoned Vehicles",
    "request_reason": "Abandoned/Junk Vehicles",
    "date_created": "2022-02-09T14:08:11.000",
    "date_modified": "2022-02-09T14:08:11.000",
    "request_status": "Pending",
    "responsible_agency": "Department of Public Works",
    "final_address": "4909 St Claude Ave",
    "address_councildis": "E",
    "status": "Pending",
    "rowid": "859957",
    "final_x": "3695516.3464",
    "final_y": "534493.739141",
    "longitude": "-90.02370464712493",
    "latitude": "29.96323940476458",
    "geocoded_column": {
      "latitude": "29.96323940476458",
      "longitude": "-90.02370464712493"
    }
  },
  {
    "service_request": "2022-859956",
    "request_type": "Property Maintenance",
    "request_reason": "Property Maintenance",
    "date_created": "2022-02-09T14:03:15.000",
    "date_modified": "2022-02-09T14:03:15.000",
    "request_status": "Pending",
    "responsible_agency": "Department of Code Enforcement",
    "final_address": "3235 Jefferson Ave",
    "address_councildis": "B",
    "status": "Pending",
    "rowid": "859956",
    "final_x": "3668745.09786",
    "final_y": "527213.031487",
    "longitude": "-90.10849121197104",
    "latitude": "29.944034031365618",
    "geocoded_column": {
      "latitude": "29.944034031365618",
      "longitude": "-90.10849121197104"
    }
  },
  {
    "service_request": "2022-859955",
    "request_type": "Traffic Signals/Signs/Striping/Streetlights",
    "request_reason": "Additional signage",
    "date_created": "2022-02-09T14:00:53.000",
    "date_modified": "2022-02-09T14:00:53.000",
    "request_status": "Pending",
    "responsible_agency": "Department of Public Works",
    "final_address": "1530 Washington Ave",
    "address_councildis": "B",
    "status": "Pending",
    "rowid": "859955",
    "final_x": "3676010.01326",
    "final_y": "522297.475258",
    "longitude": "-90.08572281898638",
    "latitude": "29.930302328735703",
    "geocoded_column": {
      "latitude": "29.930302328735703",
      "longitude": "-90.08572281898638"
    }
  },
  {
    "service_request": "2022-859954",
    "request_type": "Trash/Recycling",
    "request_reason": "Missed Trash Pick-Up",
    "date_created": "2022-02-09T14:00:49.000",
    "date_modified": "2022-02-09T14:00:50.000",
    "request_status": "Pending",
    "responsible_agency": "Department of Sanitation",
    "final_address": "2230 Lafreniere St",
    "address_councildis": "D",
    "status": "Assigned to Contractor",
    "contractor": "Metro Disposal",
    "rowid": "859954",
    "final_x": "3684597.87292",
    "final_y": "545459.262608",
    "longitude": "-90.05779839994479",
    "latitude": "29.99372936500407",
    "geocoded_column": {
      "latitude": "29.99372936500407",
      "longitude": "-90.05779839994479"
    }
  },
  {
    "service_request": "2022-859953",
    "request_type": "Trash/Recycling",
    "request_reason": "MIssed Recycling Pick-Up",
    "date_created": "2022-02-09T13:59:14.000",
    "date_modified": "2022-02-09T13:59:15.000",
    "request_status": "Pending",
    "responsible_agency": "Department of Sanitation",
    "final_address": "3914 Erato St",
    "address_councildis": "B",
    "status": "Assigned to Contractor",
    "contractor": "Richards Disposal",
    "rowid": "859953",
    "final_x": "3672563.54964",
    "final_y": "530390.842626",
    "longitude": "-90.09632696191888",
    "latitude": "29.952659180478108",
    "geocoded_column": {
      "latitude": "29.952659180478108",
      "longitude": "-90.09632696191888"
    }
  },
  {
    "service_request": "2022-859952",
    "request_type": "Abandoned Vehicles",
    "request_reason": "Abandoned/Junk Vehicles",
    "date_created": "2022-02-09T13:59:14.000",
    "date_modified": "2022-02-09T13:59:14.000",
    "request_status": "Pending",
    "responsible_agency": "Department of Public Works",
    "final_address": "1300 BLK Pelican Ave",
    "address_councildis": "C",
    "status": "Pending",
    "rowid": "859952",
    "final_x": "3689722.64414",
    "final_y": "530689.918723",
    "longitude": "-90.042135791699",
    "latitude": "29.952961025437528",
    "geocoded_column": {
      "latitude": "29.952961025437528",
      "longitude": "-90.042135791699"
    }
  },
  {
    "service_request": "2022-859951",
    "request_type": "Abandoned Vehicles",
    "request_reason": "Abandoned/Junk Vehicles",
    "date_created": "2022-02-09T13:57:07.000",
    "date_modified": "2022-02-09T13:57:07.000",
    "request_status": "Pending",
    "responsible_agency": "Department of Public Works",
    "final_address": "1300 BLK Pelican Ave",
    "address_councildis": "C",
    "status": "Pending",
    "rowid": "859951",
    "final_x": "3689722.64414",
    "final_y": "530689.918723",
    "longitude": "-90.042135791699",
    "latitude": "29.952961025437528",
    "geocoded_column": {
      "latitude": "29.952961025437528",
      "longitude": "-90.042135791699"
    }
  },
  {
    "service_request": "2022-859950",
    "request_type": "Roads/Drainage",
    "request_reason": "Street Subsidence (Sinking)",
    "date_created": "2022-02-09T13:56:01.000",
    "date_modified": "2022-02-09T13:56:01.000",
    "request_status": "Pending",
    "responsible_agency": "Department of Public Works",
    "final_address": "5338 Music St",
    "address_councildis": "D",
    "status": "Pending",
    "rowid": "859950",
    "final_x": "3685502.40719",
    "final_y": "552755.020502",
    "longitude": "-90.05468394365658",
    "latitude": "30.013762341025657",
    "geocoded_column": {
      "latitude": "30.013762341025657",
      "longitude": "-90.05468394365658"
    }
  },
  {
    "service_request": "2022-859949",
    "request_type": "Abandoned Vehicles",
    "request_reason": "Abandoned/Junk Vehicles",
    "date_created": "2022-02-09T13:55:53.000",
    "date_modified": "2022-02-09T13:55:53.000",
    "request_status": "Pending",
    "responsible_agency": "Department of Public Works",
    "final_address": "1300 BLK Pelican Ave",
    "address_councildis": "C",
    "status": "Pending",
    "rowid": "859949",
    "final_x": "3689722.64414",
    "final_y": "530689.918723",
    "longitude": "-90.042135791699",
    "latitude": "29.952961025437528",
    "geocoded_column": {
      "latitude": "29.952961025437528",
      "longitude": "-90.042135791699"
    }
  },
  {
    "service_request": "2022-859948",
    "request_type": "Trash/Recycling",
    "request_reason": "MIssed Recycling Pick-Up",
    "date_created": "2022-02-09T13:54:17.000",
    "date_modified": "2022-02-09T13:54:18.000",
    "request_status": "Pending",
    "responsible_agency": "Department of Sanitation",
    "final_address": "1920 St Philip St",
    "address_councildis": "D",
    "status": "Assigned to Contractor",
    "contractor": "Richards Disposal",
    "rowid": "859948",
    "final_x": "3679705.30229",
    "final_y": "536016.342407",
    "longitude": "-90.07358123689761",
    "latitude": "29.967913464977755",
    "geocoded_column": {
      "latitude": "29.967913464977755",
      "longitude": "-90.07358123689761"
    }
  },
  {
    "service_request": "2022-859947",
    "request_type": "Abandoned Vehicles",
    "request_reason": "Abandoned/Junk Vehicles",
    "date_created": "2022-02-09T13:54:10.000",
    "date_modified": "2022-02-09T13:54:11.000",
    "request_status": "Pending",
    "responsible_agency": "Department of Public Works",
    "final_address": "1300 BLK Pelican Ave",
    "address_councildis": "C",
    "status": "Pending",
    "rowid": "859947",
    "final_x": "3689722.64414",
    "final_y": "530689.918723",
    "longitude": "-90.042135791699",
    "latitude": "29.952961025437528",
    "geocoded_column": {
      "latitude": "29.952961025437528",
      "longitude": "-90.042135791699"
    }
  },
  {
    "service_request": "2022-859946",
    "request_type": "Traffic Signals/Signs/Striping/Streetlights",
    "request_reason": "Street Light Outage/Malfunction",
    "date_created": "2022-02-09T13:48:56.000",
    "date_modified": "2022-02-09T13:48:57.000",
    "request_status": "Pending",
    "responsible_agency": "Department of Public Works",
    "final_address": "11348 Will Stutley Dr",
    "address_councildis": "E",
    "status": "Pending",
    "contractor": "Royal Engineering",
    "rowid": "859946",
    "final_x": "3717243.74796",
    "final_y": "558164.959835",
    "longitude": "-89.95419313902964",
    "latitude": "30.02762540480389",
    "geocoded_column": {
      "latitude": "30.02762540480389",
      "longitude": "-89.95419313902964"
    }
  },
  {
    "service_request": "2022-859945",
    "request_type": "Traffic Signals/Signs/Striping/Streetlights",
    "request_reason": "Traffic Signal Malfunctioning/Damaged",
    "date_created": "2022-02-09T13:46:56.000",
    "date_modified": "2022-02-09T13:46:56.000",
    "request_status": "Pending",
    "responsible_agency": "Department of Public Works",
    "final_address": "1718 Urquhart St",
    "address_councildis": "C",
    "status": "Pending",
    "rowid": "859945",
    "final_x": "3683265.47279",
    "final_y": "536801.357512",
    "longitude": "-90.06231061593071",
    "latitude": "29.969963880521334",
    "geocoded_column": {
      "latitude": "29.969963880521334",
      "longitude": "-90.06231061593071"
    }
  },
  {
    "service_request": "2022-859944",
    "request_type": "Abandoned Vehicles",
    "request_reason": "Abandoned/Junk Vehicles",
    "date_created": "2022-02-09T13:36:20.000",
    "date_modified": "2022-02-09T13:36:21.000",
    "request_status": "Pending",
    "responsible_agency": "Department of Public Works",
    "final_address": "3025 St Bernard Ave",
    "address_councildis": "D",
    "status": "Pending",
    "rowid": "859944",
    "final_x": "3679485.22607",
    "final_y": "543471.050126",
    "longitude": "-90.0740175082217",
    "latitude": "29.988417980587034",
    "geocoded_column": {
      "latitude": "29.988417980587034",
      "longitude": "-90.0740175082217"
    }
  },
  {
    "service_request": "2022-859943",
    "request_type": "Property Maintenance",
    "request_reason": "Property Maintenance",
    "date_created": "2022-02-09T13:34:25.000",
    "date_modified": "2022-02-09T13:34:25.000",
    "request_status": "Pending",
    "responsible_agency": "Department of Code Enforcement",
    "final_address": "2829 S Derbigny St",
    "address_councildis": "B",
    "status": "Pending",
    "rowid": "859943",
    "final_x": "3672675.48577",
    "final_y": "526941.296062",
    "longitude": "-90.09609112697268",
    "latitude": "29.943170738759598",
    "geocoded_column": {
      "latitude": "29.943170738759598",
      "longitude": "-90.09609112697268"
    }
  },
  {
    "service_request": "2022-859942",
    "request_type": "Trash/Recycling",
    "request_reason": "Request a Large Item Pick Up",
    "date_created": "2022-02-09T13:30:49.000",
    "date_modified": "2022-02-09T13:30:50.000",
    "request_status": "Pending",
    "responsible_agency": "Department of Sanitation",
    "final_address": "3035 Nashville Ave",
    "address_councildis": "A",
    "status": "Assigned to Contractor",
    "contractor": "Richards Disposal",
    "rowid": "859942",
    "final_x": "3667820.0073",
    "final_y": "527103.888895",
    "longitude": "-90.111415664027",
    "latitude": "29.943761082845786",
    "geocoded_column": {
      "latitude": "29.943761082845786",
      "longitude": "-90.111415664027"
    }
  },
  {
    "service_request": "2022-859940",
    "request_type": "Property Maintenance",
    "request_reason": "Property Maintenance",
    "date_created": "2022-02-09T13:12:59.000",
    "date_modified": "2022-02-09T13:12:59.000",
    "request_status": "Pending",
    "responsible_agency": "Department of Code Enforcement",
    "final_address": "2640 Clover St",
    "address_councildis": "D",
    "status": "Pending",
    "rowid": "859940",
    "final_x": "3687473.8623",
    "final_y": "546632.998865",
    "longitude": "-90.0486720351078",
    "latitude": "29.996868373337655",
    "geocoded_column": {
      "latitude": "29.996868373337655",
      "longitude": "-90.0486720351078"
    }
  },
  {
    "service_request": "2022-859939",
    "request_type": "Trash/Recycling",
    "request_reason": "Missed Trash Pick-Up",
    "date_created": "2022-02-09T13:11:56.000",
    "date_modified": "2022-02-09T13:11:58.000",
    "request_status": "Pending",
    "responsible_agency": "Department of Sanitation",
    "final_address": "6970 Ridgefield Dr",
    "address_councildis": "E",
    "status": "Assigned to Contractor",
    "contractor": "Metro Disposal",
    "rowid": "859939",
    "final_x": "3719604.95468",
    "final_y": "569185.780518",
    "longitude": "-89.94631045283741",
    "latitude": "30.057849797451297",
    "geocoded_column": {
      "latitude": "30.057849797451297",
      "longitude": "-89.94631045283741"
    }
  },
  {
    "service_request": "2022-859938",
    "request_type": "Traffic Signals/Signs/Striping/Streetlights",
    "request_reason": "Street Light Outage/Malfunction",
    "date_created": "2022-02-09T13:10:25.000",
    "date_modified": "2022-02-09T13:10:26.000",
    "request_status": "Pending",
    "responsible_agency": "Department of Public Works",
    "final_address": "2623 Rousseau St",
    "address_councildis": "B",
    "status": "Pending",
    "contractor": "Royal Engineering",
    "rowid": "859938",
    "final_x": "3678620.86549",
    "final_y": "519206.061367",
    "longitude": "-90.07758771865518",
    "latitude": "29.921723523281997",
    "geocoded_column": {
      "latitude": "29.921723523281997",
      "longitude": "-90.07758771865518"
    }
  },
  {
    "service_request": "2022-859936",
    "request_type": "Trash/Recycling",
    "request_reason": "Missed Trash Pick-Up",
    "date_created": "2022-02-09T13:07:39.000",
    "date_modified": "2022-02-09T13:07:43.000",
    "request_status": "Pending",
    "responsible_agency": "Department of Sanitation",
    "final_address": "800 Pacific Ave",
    "address_councildis": "C",
    "status": "Assigned to Contractor",
    "contractor": "Richards Disposal",
    "rowid": "859936",
    "final_x": "3688504.63548",
    "final_y": "528661.126912",
    "longitude": "-90.0460536835043",
    "latitude": "29.94742022725461",
    "geocoded_column": {
      "latitude": "29.94742022725461",
      "longitude": "-90.0460536835043"
    }
  },
  {
    "service_request": "2022-859935",
    "request_type": "Abandoned Vehicles",
    "request_reason": "Abandoned/Junk Vehicles",
    "date_created": "2022-02-09T13:07:05.000",
    "date_modified": "2022-02-09T13:07:05.000",
    "request_status": "Pending",
    "responsible_agency": "Department of Public Works",
    "final_address": "2326 Onzaga St",
    "address_councildis": "D",
    "status": "Pending",
    "rowid": "859935",
    "final_x": "3680189.2452",
    "final_y": "539727.090826",
    "longitude": "-90.07192392372444",
    "latitude": "29.978102105046705",
    "geocoded_column": {
      "latitude": "29.978102105046705",
      "longitude": "-90.07192392372444"
    }
  },
  {
    "service_request": "2022-859934",
    "request_type": "Abandoned Vehicles",
    "request_reason": "Abandoned/Junk Vehicles",
    "date_created": "2022-02-09T13:06:31.000",
    "date_modified": "2022-02-09T13:06:31.000",
    "request_status": "Pending",
    "responsible_agency": "Department of Public Works",
    "final_address": "2439 St Ann St",
    "address_councildis": "D",
    "status": "Pending",
    "rowid": "859934",
    "final_x": "3677791.29326",
    "final_y": "536611.542471",
    "longitude": "-90.07960517645742",
    "latitude": "29.96960778397358",
    "geocoded_column": {
      "latitude": "29.96960778397358",
      "longitude": "-90.07960517645742"
    }
  },
  {
    "service_request": "2022-859933",
    "request_type": "Trash/Recycling",
    "request_reason": "Replace Trash Cart",
    "date_created": "2022-02-09T12:57:18.000",
    "date_modified": "2022-02-09T12:57:19.000",
    "request_status": "Pending",
    "responsible_agency": "Department of Sanitation",
    "final_address": "3966 Peach Tree Ct",
    "address_councildis": "C",
    "status": "Assigned to Contractor",
    "contractor": "Richards Disposal",
    "rowid": "859933",
    "final_x": "3703982.19639",
    "final_y": "512823.500721",
    "longitude": "-89.99776829808265",
    "latitude": "29.903385066596528",
    "geocoded_column": {
      "latitude": "29.903385066596528",
      "longitude": "-89.99776829808265"
    }
  },
  {
    "service_request": "2022-859932",
    "request_type": "Trash/Recycling",
    "request_reason": "Request a Large Item Pick Up",
    "date_created": "2022-02-09T12:56:00.000",
    "date_modified": "2022-02-09T12:56:01.000",
    "request_status": "Pending",
    "responsible_agency": "Department of Sanitation",
    "final_address": "6527 West End Blvd",
    "address_councildis": "A",
    "status": "Assigned to Contractor",
    "contractor": "Metro Disposal",
    "rowid": "859932",
    "final_x": "3666726.08122",
    "final_y": "551104.866517",
    "longitude": "-90.11406315775392",
    "latitude": "30.00978775139419",
    "geocoded_column": {
      "latitude": "30.00978775139419",
      "longitude": "-90.11406315775392"
    }
  },
  {
    "service_request": "2022-859931",
    "request_type": "Trash/Recycling",
    "request_reason": "Repair Recycling Cart",
    "date_created": "2022-02-09T12:55:09.000",
    "date_modified": "2022-02-09T12:55:10.000",
    "request_status": "Pending",
    "responsible_agency": "Department of Sanitation",
    "final_address": "1521 Seventh St",
    "address_councildis": "B",
    "status": "Pending",
    "rowid": "859931",
    "final_x": "3675453.74952",
    "final_y": "521818.869434",
    "longitude": "-90.08749528563158",
    "latitude": "29.929002960207683",
    "geocoded_column": {
      "latitude": "29.929002960207683",
      "longitude": "-90.08749528563158"
    }
  },
  {
    "service_request": "2022-859930",
    "request_type": "Roads/Drainage",
    "request_reason": "Catch Basin - Clogged",
    "date_created": "2022-02-09T12:52:20.000",
    "date_modified": "2022-02-09T13:50:37.000",
    "request_status": "Pending",
    "responsible_agency": "Department of Public Works",
    "final_address": "4074 Fairmont Dr",
    "address_councildis": "D",
    "status": "Inspected",
    "rowid": "859930",
    "final_x": "3684471.6285",
    "final_y": "547365.762641",
    "longitude": "-90.05813016396982",
    "latitude": "29.998975421254247",
    "geocoded_column": {
      "latitude": "29.998975421254247",
      "longitude": "-90.05813016396982"
    }
  },
  {
    "service_request": "2022-859929",
    "request_type": "Roads/Drainage",
    "request_reason": "Catch Basin - Clogged",
    "date_created": "2022-02-09T12:51:55.000",
    "date_modified": "2022-02-09T13:43:19.000",
    "request_status": "Pending",
    "responsible_agency": "Department of Public Works",
    "final_address": "4074 Fairmont Dr",
    "address_councildis": "D",
    "status": "Inspected",
    "rowid": "859929",
    "final_x": "3684471.6285",
    "final_y": "547365.762641",
    "longitude": "-90.05813016396982",
    "latitude": "29.998975421254247",
    "geocoded_column": {
      "latitude": "29.998975421254247",
      "longitude": "-90.05813016396982"
    }
  },
  {
    "service_request": "2022-859927",
    "request_type": "Roads/Drainage",
    "request_reason": "Catch Basin - Broken/Damage",
    "date_created": "2022-02-09T12:47:27.000",
    "date_modified": "2022-02-09T13:28:28.000",
    "case_close_date": "2022-02-09T07:28:28.000",
    "request_status": "Closed",
    "responsible_agency": "Department of Public Works",
    "final_address": "2150 Timoleon St",
    "address_councildis": "D",
    "status": "Duplicate Case",
    "rowid": "859927",
    "final_x": "3683498.4989",
    "final_y": "551008.715925",
    "longitude": "-90.06107651418581",
    "latitude": "30.009021972633647",
    "geocoded_column": {
      "latitude": "30.009021972633647",
      "longitude": "-90.06107651418581"
    }
  },
  {
    "service_request": "2022-859926",
    "request_type": "Abandoned Vehicles",
    "request_reason": "Abandoned/Junk Vehicles",
    "date_created": "2022-02-09T12:46:22.000",
    "date_modified": "2022-02-09T12:46:22.000",
    "request_status": "Pending",
    "responsible_agency": "Department of Public Works",
    "final_address": "2705 Soniat St",
    "address_councildis": "B",
    "status": "Pending",
    "rowid": "859926",
    "final_x": "3668600.09607",
    "final_y": "525376.588285",
    "longitude": "-90.10901097727508",
    "latitude": "29.938988667245795",
    "geocoded_column": {
      "latitude": "29.938988667245795",
      "longitude": "-90.10901097727508"
    }
  },
  {
    "service_request": "2022-859925",
    "request_type": "Tax and Revenue",
    "request_reason": "General Tax Question",
    "date_created": "2022-02-09T12:45:13.000",
    "date_modified": "2022-02-09T12:45:13.000",
    "request_status": "Pending",
    "responsible_agency": "Bureau of Revenue",
    "final_address": "6027 Hurst St",
    "address_councildis": "A",
    "status": "Pending",
    "rowid": "859925",
    "final_x": "3665308.27418",
    "final_y": "521945.154362",
    "longitude": "-90.11951845069618",
    "latitude": "29.929649618249087",
    "geocoded_column": {
      "latitude": "29.929649618249087",
      "longitude": "-90.11951845069618"
    }
  },
  {
    "service_request": "2022-859924",
    "request_type": "Roads/Drainage",
    "request_reason": "Damaged Sidewalk",
    "date_created": "2022-02-09T12:44:46.000",
    "date_modified": "2022-02-09T12:44:46.000",
    "request_status": "Pending",
    "responsible_agency": "Department of Public Works",
    "final_address": "5025 Willow St",
    "address_councildis": "B",
    "status": "Pending",
    "rowid": "859924",
    "final_x": "3668680.10772",
    "final_y": "525354.336189",
    "longitude": "-90.10875912108402",
    "latitude": "29.93892513016516",
    "geocoded_column": {
      "latitude": "29.93892513016516",
      "longitude": "-90.10875912108402"
    }
  },
  {
    "service_request": "2022-859923",
    "request_type": "Traffic Signals/Signs/Striping/Streetlights",
    "request_reason": "Street Light Outage/Malfunction",
    "date_created": "2022-02-09T12:43:20.000",
    "date_modified": "2022-02-09T12:43:20.000",
    "case_close_date": "2020-03-04T18:00:00.000",
    "request_status": "Pending",
    "responsible_agency": "Department of Public Works",
    "final_address": "6033 Carlisle Ct",
    "address_councildis": "C",
    "status": "Pending",
    "contractor": "Royal Engineering",
    "rowid": "859923",
    "final_x": "3706196.54769",
    "final_y": "516413.566517",
    "longitude": "-89.9906471161181",
    "latitude": "29.913185360759755",
    "geocoded_column": {
      "latitude": "29.913185360759755",
      "longitude": "-89.9906471161181"
    }
  },
  {
    "service_request": "2022-859922",
    "request_type": "Traffic Signals/Signs/Striping/Streetlights",
    "request_reason": "Street Light Outage/Malfunction",
    "date_created": "2022-02-09T12:43:06.000",
    "date_modified": "2022-02-09T12:43:06.000",
    "case_close_date": "2020-03-04T18:00:00.000",
    "request_status": "Pending",
    "responsible_agency": "Department of Public Works",
    "final_address": "6033 Carlisle Ct",
    "address_councildis": "C",
    "status": "Pending",
    "contractor": "Royal Engineering",
    "rowid": "859922",
    "final_x": "3706196.54769",
    "final_y": "516413.566517",
    "longitude": "-89.9906471161181",
    "latitude": "29.913185360759755",
    "geocoded_column": {
      "latitude": "29.913185360759755",
      "longitude": "-89.9906471161181"
    }
  },
  {
    "service_request": "2022-859920",
    "request_type": "Traffic Signals/Signs/Striping/Streetlights",
    "request_reason": "Street Light Outage/Malfunction",
    "date_created": "2022-02-09T12:42:39.000",
    "date_modified": "2022-02-09T12:42:39.000",
    "case_close_date": "2020-03-04T18:00:00.000",
    "request_status": "Pending",
    "responsible_agency": "Department of Public Works",
    "final_address": "6033 Carlisle Ct",
    "address_councildis": "C",
    "status": "Pending",
    "contractor": "Royal Engineering",
    "rowid": "859920",
    "final_x": "3706196.54769",
    "final_y": "516413.566517",
    "longitude": "-89.9906471161181",
    "latitude": "29.913185360759755",
    "geocoded_column": {
      "latitude": "29.913185360759755",
      "longitude": "-89.9906471161181"
    }
  },
  {
    "service_request": "2022-859919",
    "request_type": "Traffic Signals/Signs/Striping/Streetlights",
    "request_reason": "Street Light Outage/Malfunction",
    "date_created": "2022-02-09T12:42:09.000",
    "date_modified": "2022-02-09T12:42:09.000",
    "case_close_date": "2020-03-04T18:00:00.000",
    "request_status": "Pending",
    "responsible_agency": "Department of Public Works",
    "final_address": "6033 Carlisle Ct",
    "address_councildis": "C",
    "status": "Pending",
    "contractor": "Royal Engineering",
    "rowid": "859919",
    "final_x": "3706196.54769",
    "final_y": "516413.566517",
    "longitude": "-89.9906471161181",
    "latitude": "29.913185360759755",
    "geocoded_column": {
      "latitude": "29.913185360759755",
      "longitude": "-89.9906471161181"
    }
  },
  {
    "service_request": "2022-859918",
    "request_type": "Traffic Signals/Signs/Striping/Streetlights",
    "request_reason": "Street Light Outage/Malfunction",
    "date_created": "2022-02-09T12:41:43.000",
    "date_modified": "2022-02-09T12:41:43.000",
    "case_close_date": "2020-03-04T18:00:00.000",
    "request_status": "Pending",
    "responsible_agency": "Department of Public Works",
    "final_address": "6033 Carlisle Ct",
    "address_councildis": "C",
    "status": "Pending",
    "contractor": "Royal Engineering",
    "rowid": "859918",
    "final_x": "3706196.54769",
    "final_y": "516413.566517",
    "longitude": "-89.9906471161181",
    "latitude": "29.913185360759755",
    "geocoded_column": {
      "latitude": "29.913185360759755",
      "longitude": "-89.9906471161181"
    }
  },
  {
    "service_request": "2022-859917",
    "request_type": "Traffic Signals/Signs/Striping/Streetlights",
    "request_reason": "Street Light Outage/Malfunction",
    "date_created": "2022-02-09T12:41:14.000",
    "date_modified": "2022-02-09T12:41:15.000",
    "case_close_date": "2020-03-04T18:00:00.000",
    "request_status": "Pending",
    "responsible_agency": "Department of Public Works",
    "final_address": "6033 Carlisle Ct",
    "address_councildis": "C",
    "status": "Pending",
    "contractor": "Royal Engineering",
    "rowid": "859917",
    "final_x": "3706196.54769",
    "final_y": "516413.566517",
    "longitude": "-89.9906471161181",
    "latitude": "29.913185360759755",
    "geocoded_column": {
      "latitude": "29.913185360759755",
      "longitude": "-89.9906471161181"
    }
  },
  {
    "service_request": "2022-859916",
    "request_type": "Traffic Signals/Signs/Striping/Streetlights",
    "request_reason": "Traffic Signal Malfunctioning/Damaged",
    "date_created": "2022-02-09T12:40:22.000",
    "date_modified": "2022-02-09T12:40:22.000",
    "request_status": "Pending",
    "responsible_agency": "Department of Public Works",
    "final_address": "739 Elysian Fields Ave",
    "address_councildis": "C",
    "status": "Pending",
    "rowid": "859916",
    "final_x": "3685181.88207",
    "final_y": "535195.604102",
    "longitude": "-90.05631493582123",
    "latitude": "29.965490025029638",
    "geocoded_column": {
      "latitude": "29.965490025029638",
      "longitude": "-90.05631493582123"
    }
  },
  {
    "service_request": "2022-859915",
    "request_type": "Trash/Recycling",
    "request_reason": "Request a Large Item Pick Up",
    "date_created": "2022-02-09T12:40:20.000",
    "date_modified": "2022-02-09T12:40:21.000",
    "request_status": "Pending",
    "responsible_agency": "Department of Sanitation",
    "final_address": "4814 Stemway Dr",
    "address_councildis": "D",
    "status": "Assigned to Contractor",
    "contractor": "Metro Disposal",
    "rowid": "859915",
    "final_x": "3696813.50301",
    "final_y": "554514.319128",
    "longitude": "-90.01888314105888",
    "latitude": "30.01824783719075",
    "geocoded_column": {
      "latitude": "30.01824783719075",
      "longitude": "-90.01888314105888"
    }
  },
  {
    "service_request": "2022-859914",
    "request_type": "Trash/Recycling",
    "request_reason": "Request a Large Item Pick Up",
    "date_created": "2022-02-09T12:40:12.000",
    "date_modified": "2022-02-09T12:40:13.000",
    "request_status": "Pending",
    "responsible_agency": "Department of Sanitation",
    "final_address": "7671 Branch Dr",
    "address_councildis": "E",
    "status": "Assigned to Contractor",
    "contractor": "Metro Disposal",
    "rowid": "859914",
    "final_x": "3714677.64293",
    "final_y": "568881.832677",
    "longitude": "-89.96189642713944",
    "latitude": "30.057177143915183",
    "geocoded_column": {
      "latitude": "30.057177143915183",
      "longitude": "-89.96189642713944"
    }
  },
  {
    "service_request": "2022-859913",
    "request_type": "Safety & Permits",
    "request_reason": "Short term Rental (Enforcement)",
    "date_created": "2022-02-09T12:39:37.000",
    "date_modified": "2022-02-09T12:39:37.000",
    "request_status": "Pending",
    "responsible_agency": "Safety and Permits",
    "final_address": "2011 Iberville St",
    "address_councildis": "B",
    "status": "Pending",
    "rowid": "859913",
    "final_x": "3677744.83253",
    "final_y": "533939.329925",
    "longitude": "-90.0798442226131",
    "latitude": "29.96226150574373",
    "geocoded_column": {
      "latitude": "29.96226150574373",
      "longitude": "-90.0798442226131"
    }
  },
  {
    "service_request": "2022-859912",
    "request_type": "Trash/Recycling",
    "request_reason": "Replace Trash Cart",
    "date_created": "2022-02-09T12:39:21.000",
    "date_modified": "2022-02-09T12:39:22.000",
    "request_status": "Pending",
    "responsible_agency": "Department of Sanitation",
    "final_address": "1914 Mandeville St",
    "address_councildis": "D",
    "status": "Assigned to Contractor",
    "contractor": "Metro Disposal",
    "rowid": "859912",
    "final_x": "3685494.13705",
    "final_y": "539452.507914",
    "longitude": "-90.05517889591934",
    "latitude": "29.977185453895668",
    "geocoded_column": {
      "latitude": "29.977185453895668",
      "longitude": "-90.05517889591934"
    }
  },