[
  {
    "service_request": "2023-1032387",
    "request_type": "Trash/Recycling",
    "request_reason": "Illegal Dumping",
    "date_created": "2023-09-06T02:06:58.000",
    "date_modified": "2023-09-06T02:06:58.000",
    "request_status": "Pending",
    "responsible_agency": "Department of Sanitation",
    "final_address": "1516 Soniat St",
    "address_councildis": "B",
    "status": "Pending",
    "rowid": "1032387",
    "final_x": "3668314.3753",
    "final_y": "520566.220216",
    "longitude": "-90.11007516436523",
    "latitude": "29.925770083884853",
    "geocoded_column": {
      "latitude": "29.925770083884853",
      "longitude": "-90.11007516436523"
    }
  },
  {
    "service_request": "2023-1032386",
    "request_type": "Trash/Recycling",
    "request_reason": "Illegal Dumping",
    "date_created": "2023-09-06T00:25:31.000",
    "date_modified": "2023-09-06T00:25:31.000",
    "request_status": "Pending",
    "responsible_agency": "Department of Sanitation",
    "final_address": "1636 Jefferson Ave",
    "address_councildis": "A",
    "status": "Pending",
    "rowid": "1032386",
    "final_x": "3667374.86394",
    "final_y": "521940.29881",
    "longitude": "-90.11299473427253",
    "latitude": "29.929575909750156",
    "geocoded_column": {
      "latitude": "29.929575909750156",
      "longitude": "-90.11299473427253"
    }
  },
  {
    "service_request": "2023-1032385",
    "request_type": "Tax and Revenue",
    "request_reason": "Sales Tax Question",
    "date_created": "2023-09-06T00:22:57.000",
    "date_modified": "2023-09-06T00:22:57.000",
    "request_status": "Pending",
    "responsible_agency": "Bureau of Revenue",
    "final_address": "2120 Rousseau St",
    "address_councildis": "B",
    "status": "Pending",
    "rowid": "1032385",
    "final_x": "3680388.31112",
    "final_y": "520381.419896",
    "longitude": "-90.07196781025753",
    "latitude": "29.924901997001097",
    "geocoded_column": {
      "latitude": "29.924901997001097",
      "longitude": "-90.07196781025753"
    }
  },
  {
    "service_request": "2023-1032384",
    "request_type": "Trash/Recycling",
    "request_reason": "Illegal Dumping",
    "date_created": "2023-09-06T00:14:25.000",
    "date_modified": "2023-09-06T00:14:25.000",
    "request_status": "Pending",
    "responsible_agency": "Department of Sanitation",
    "final_address": "DELACHAISE ST & LA SALLE ST",
    "address_councildis": "B",
    "status": "Pending",
    "rowid": "1032384",
    "final_x": "3672699.7",
    "final_y": "524001.98",
    "longitude": "-90.0961148787636",
    "latitude": "29.935087857813507",
    "geocoded_column": {
      "latitude": "29.935087857813507",
      "longitude": "-90.0961148787636"
    }
  },
  {
    "service_request": "2023-1032383",
    "request_type": "Trash/Recycling",
    "request_reason": "Start Trash Service",
    "date_created": "2023-09-06T00:12:38.000",
    "date_modified": "2023-09-06T00:12:38.000",
    "request_status": "Pending",
    "responsible_agency": "Department of Sanitation",
    "final_address": "9005 Olive St",
    "address_councildis": "A",
    "status": "Assigned to Contractor",
    "contractor": "Richards Disposal",
    "rowid": "1032383",
    "final_x": "3664872.52519",
    "final_y": "536388.138631",
    "longitude": "-90.12041140634454",
    "latitude": "29.96937584174801",
    "geocoded_column": {
      "latitude": "29.96937584174801",
      "longitude": "-90.12041140634454"
    }
  },
  {
    "service_request": "2023-1032382",
    "request_type": "Traffic Signals/Signs/Striping/Streetlights",
    "request_reason": "Street Light Outage/Malfunction",
    "date_created": "2023-09-06T00:11:20.000",
    "date_modified": "2023-09-06T00:11:20.000",
    "request_status": "Pending",
    "responsible_agency": "Department of Public Works",
    "final_address": "204 W Brooks St",
    "address_councildis": "A",
    "status": "Assigned to Contractor",
    "contractor": "Legacy Professional Services",
    "rowid": "1032382",
    "final_x": "3665502.21364",
    "final_y": "546557.949521",
    "longitude": "-90.1180821658897",
    "latitude": "29.997321051717698",
    "geocoded_column": {
      "latitude": "29.997321051717698",
      "longitude": "-90.1180821658897"
    }
  },
  {
    "service_request": "2023-1032381",
    "request_type": "Trash/Recycling",
    "request_reason": "Request a Large Item Pick Up",
    "date_created": "2023-09-06T00:07:35.000",
    "date_modified": "2023-09-06T00:07:36.000",
    "request_status": "Pending",
    "responsible_agency": "Department of Sanitation",
    "final_address": "1536 Painters St",
    "address_councildis": "C",
    "status": "Assigned to Contractor",
    "contractor": "IV Waste",
    "rowid": "1032381",
    "final_x": "3687390.50806",
    "final_y": "538235.898185",
    "longitude": "-90.04923261324863",
    "latitude": "29.973781904141617",
    "geocoded_column": {
      "latitude": "29.973781904141617",
      "longitude": "-90.04923261324863"
    }
  },
  {
    "service_request": "2023-1032380",
    "request_type": "Parks & Parkways",
    "request_reason": "Request Tree Service (Right of Way/Public Property)",
    "date_created": "2023-09-06T00:05:02.000",
    "date_modified": "2023-09-06T00:05:02.000",
    "request_status": "Pending",
    "responsible_agency": "Department of Parks & Parkway",
    "final_address": "POLK AVE & MILNE BLVD",
    "address_councildis": "A",
    "status": "Pending",
    "rowid": "1032380",
    "final_x": "3666997.6",
    "final_y": "547485.88",
    "longitude": "-90.11332706689275",
    "latitude": "29.999828847510674",
    "geocoded_column": {
      "latitude": "29.999828847510674",
      "longitude": "-90.11332706689275"
    }
  },
  {
    "service_request": "2023-1032379",
    "request_type": "Trash/Recycling",
    "request_reason": "Illegal Dumping",
    "date_created": "2023-09-06T00:04:05.000",
    "date_modified": "2023-09-06T00:04:05.000",
    "request_status": "Pending",
    "responsible_agency": "Department of Sanitation",
    "final_address": "5200 BLK Danneel St",
    "address_councildis": "B",
    "status": "Pending",
    "rowid": "1032379",
    "final_x": "3668060.05328",
    "final_y": "522163.577836",
    "longitude": "-90.11082418753892",
    "latitude": "29.93016977275902",
    "geocoded_column": {
      "latitude": "29.93016977275902",
      "longitude": "-90.11082418753892"
    }
  },
  {
    "service_request": "2023-1032378",
    "request_type": "Traffic Signals/Signs/Striping/Streetlights",
    "request_reason": "Additional signage",
    "date_created": "2023-09-05T23:58:57.000",
    "date_modified": "2023-09-05T23:58:57.000",
    "request_status": "Pending",
    "responsible_agency": "Department of Public Works",
    "final_address": "FLEUR DE LIS DR & VETERANS HWY",
    "address_councildis": "A",
    "status": "Pending",
    "rowid": "1032378",
    "final_x": "3665176.2",
    "final_y": "547361.18",
    "longitude": "-90.11908514685713",
    "latitude": "29.9995391633153",
    "geocoded_column": {
      "latitude": "29.9995391633153",
      "longitude": "-90.11908514685713"
    }
  },
  {
    "service_request": "2023-1032376",
    "request_type": "Trash/Recycling",
    "request_reason": "Request a Large Item Pick Up",
    "date_created": "2023-09-05T23:38:44.000",
    "date_modified": "2023-09-05T23:38:45.000",
    "request_status": "Pending",
    "responsible_agency": "Department of Sanitation",
    "final_address": "2621 Rousseau St",
    "address_councildis": "B",
    "status": "Assigned to Contractor",
    "contractor": "Richards Disposal",
    "rowid": "1032376",
    "final_x": "3678641.1837",
    "final_y": "519208.824631",
    "longitude": "-90.07752348716248",
    "latitude": "29.921730509074422",
    "geocoded_column": {
      "latitude": "29.921730509074422",
      "longitude": "-90.07752348716248"
    }
  },
  {
    "service_request": "2023-1032375",
    "request_type": "Trash/Recycling",
    "request_reason": "Replace Trash Cart",
    "date_created": "2023-09-05T23:29:57.000",
    "date_modified": "2023-09-05T23:29:58.000",
    "request_status": "Pending",
    "responsible_agency": "Department of Sanitation",
    "final_address": "6631 Bamberry St",
    "address_councildis": "E",
    "status": "Assigned to Contractor",
    "contractor": "Waste Pro",
    "rowid": "1032375",
    "final_x": "3697966.03479",
    "final_y": "558775.096028",
    "longitude": "-90.01508671177875",
    "latitude": "30.02992694453299",
    "geocoded_column": {
      "latitude": "30.02992694453299",
      "longitude": "-90.01508671177875"
    }
  },
  {
    "service_request": "2023-1032374",
    "request_type": "Roads/Drainage",
    "request_reason": "Street Subsidence (Sinking)",
    "date_created": "2023-09-05T23:01:11.000",
    "date_modified": "2023-09-05T23:01:11.000",
    "request_status": "Pending",
    "responsible_agency": "Department of Public Works",
    "final_address": "439 S Solomon St, New Orleans, Louisiana, 70119",
    "address_councildis": "A",
    "status": "Pending",
    "rowid": "1032374",
    "final_x": "3669623.90337",
    "final_y": "537522.955976",
    "longitude": "-90.10536772792187",
    "latitude": "29.97235705826537",
    "geocoded_column": {
      "latitude": "29.97235705826537",
      "longitude": "-90.10536772792187"
    }
  },
  {
    "service_request": "2023-1032373",
    "request_type": "Roads/Drainage",
    "request_reason": "Pothole",
    "date_created": "2023-09-05T22:59:38.000",
    "date_modified": "2023-09-05T22:59:38.000",
    "request_status": "Pending",
    "responsible_agency": "Department of Public Works",
    "final_address": "439 S Solomon St, New Orleans, Louisiana, 70119",
    "address_councildis": "A",
    "status": "Pending",
    "rowid": "1032373",
    "final_x": "3669623.90337",
    "final_y": "537522.955976",
    "longitude": "-90.10536772792187",
    "latitude": "29.97235705826537",
    "geocoded_column": {
      "latitude": "29.97235705826537",
      "longitude": "-90.10536772792187"
    }
  },
  {
    "service_request": "2023-1032372",
    "request_type": "Abandoned Vehicles",
    "request_reason": "Abandoned/Junk Vehicles",
    "date_created": "2023-09-05T22:03:26.000",
    "date_modified": "2023-09-05T22:03:26.000",
    "request_status": "Pending",
    "responsible_agency": "Department of Public Works",
    "final_address": "4674 Arthur Dr",
    "address_councildis": "E",
    "status": "Pending",
    "rowid": "1032372",
    "final_x": "3707664.09073",
    "final_y": "555023.880153",
    "longitude": "-89.98458068869662",
    "latitude": "30.01930221590529",
    "geocoded_column": {
      "latitude": "30.01930221590529",
      "longitude": "-89.98458068869662"
    }
  },
  {
    "service_request": "2023-1032371",
    "request_type": "Trash/Recycling",
    "request_reason": "Request a Large Item Pick Up",
    "date_created": "2023-09-05T22:01:58.000",
    "date_modified": "2023-09-05T22:01:59.000",
    "request_status": "Pending",
    "responsible_agency": "Department of Sanitation",
    "final_address": "5427 Charlotte Dr",
    "address_councildis": "D",
    "status": "Assigned to Contractor",
    "contractor": "IV Waste",
    "rowid": "1032371",
    "final_x": "3680150.05538",
    "final_y": "552543.928598",
    "longitude": "-90.07160195600596",
    "latitude": "30.013345056758563",
    "geocoded_column": {
      "latitude": "30.013345056758563",
      "longitude": "-90.07160195600596"
    }
  },
  {
    "service_request": "2023-1032370",
    "request_type": "Property Maintenance",
    "request_reason": "Property Maintenance",
    "date_created": "2023-09-05T21:57:11.000",
    "date_modified": "2023-09-05T21:57:11.000",
    "request_status": "Pending",
    "responsible_agency": "Department of Code Enforcement",
    "status": "Pending",
    "rowid": "1032370",
    "longitude": "0.0",
    "latitude": "0.0",
    "geocoded_column": {
      "latitude": "0.0",
      "longitude": "0.0"
    }
  },
  {
    "service_request": "2023-1032369",
    "request_type": "Trash/Recycling",
    "request_reason": "Missed Trash Pick-Up",
    "date_created": "2023-09-05T21:56:17.000",
    "date_modified": "2023-09-05T21:56:18.000",
    "request_status": "Pending",
    "responsible_agency": "Department of Sanitation",
    "final_address": "4609 Tchoupitoulas St",
    "address_councildis": "B",
    "status": "Assigned to Contractor",
    "contractor": "Richards Disposal",
    "rowid": "1032369",
    "final_x": "3670343.81351",
    "final_y": "517417.617781",
    "longitude": "-90.10377547425627",
    "latitude": "29.917052696981123",
    "geocoded_column": {
      "latitude": "29.917052696981123",
      "longitude": "-90.10377547425627"
    }
  },
  {
    "service_request": "2023-1032368",
    "request_type": "Roads/Drainage",
    "request_reason": "Pothole",
    "date_created": "2023-09-05T21:41:43.000",
    "date_modified": "2023-09-05T21:41:43.000",
    "request_status": "Pending",
    "responsible_agency": "Department of Public Works",
    "final_address": "1401 Foucher St",
    "address_councildis": "B",
    "status": "Pending",
    "rowid": "1032368",
    "final_x": "3673950.68904",
    "final_y": "520582.149496",
    "longitude": "-90.09228244207547",
    "latitude": "29.925647229561278",
    "geocoded_column": {
      "latitude": "29.925647229561278",
      "longitude": "-90.09228244207547"
    }
  },
  {
    "service_request": "2023-1032367",
    "request_type": "Trash/Recycling",
    "request_reason": "Replace Recycling Cart",
    "date_created": "2023-09-05T21:35:16.000",
    "date_modified": "2023-09-05T21:35:16.000",
    "request_status": "Pending",
    "responsible_agency": "Department of Sanitation",
    "final_address": "3925 Tall Pines Dr",
    "address_councildis": "C",
    "status": "Pending",
    "rowid": "1032367",
    "final_x": "3704698.85143",
    "final_y": "512971.343665",
    "longitude": "-89.99550111085217",
    "latitude": "29.903768596455386",
    "geocoded_column": {
      "latitude": "29.903768596455386",
      "longitude": "-89.99550111085217"
    }
  },
  {
    "service_request": "2023-1032365",
    "request_type": "Roads/Drainage",
    "request_reason": "Road Shoulder Repair",
    "date_created": "2023-09-05T21:28:11.000",
    "date_modified": "2023-09-05T21:28:11.000",
    "request_status": "Pending",
    "responsible_agency": "Department of Public Works",
    "final_address": "3900 BLK Pitt St",
    "address_councildis": "B",
    "status": "Pending",
    "rowid": "1032365",
    "final_x": "3672519.83603",
    "final_y": "520734.901231",
    "longitude": "-90.09679401515201",
    "latitude": "29.926109783282126",
    "geocoded_column": {
      "latitude": "29.926109783282126",
      "longitude": "-90.09679401515201"
    }
  },
  {
    "service_request": "2023-1032366",
    "request_type": "Property Maintenance",
    "request_reason": "Property Maintenance",
    "date_created": "2023-09-05T21:28:11.000",
    "date_modified": "2023-09-05T21:28:11.000",
    "request_status": "Pending",
    "responsible_agency": "Department of Code Enforcement",
    "final_address": "4691 Arthur Dr",
    "address_councildis": "E",
    "status": "Pending",
    "rowid": "1032366",
    "final_x": "3707795.4147",
    "final_y": "555157.185305",
    "longitude": "-89.9841607939076",
    "latitude": "30.019664502321678",
    "geocoded_column": {
      "latitude": "30.019664502321678",
      "longitude": "-89.9841607939076"
    }
  },
  {
    "service_request": "2023-1032364",
    "request_type": "Property Maintenance",
    "request_reason": "Property Maintenance",
    "date_created": "2023-09-05T21:19:53.000",
    "date_modified": "2023-09-05T21:19:53.000",
    "request_status": "Pending",
    "responsible_agency": "Department of Code Enforcement",
    "status": "Pending",
    "rowid": "1032364",
    "longitude": "0.0",
    "latitude": "0.0",
    "geocoded_column": {
      "latitude": "0.0",
      "longitude": "0.0"
    }
  },
  {
    "service_request": "2023-1032363",
    "request_type": "Traffic Signals/Signs/Striping/Streetlights",
    "request_reason": "Street Light Outage/Malfunction",
    "date_created": "2023-09-05T21:19:30.000",
    "date_modified": "2023-09-05T21:19:31.000",
    "request_status": "Pending",
    "responsible_agency": "Department of Public Works",
    "final_address": "113 Wilshire Pl",
    "address_councildis": "D",
    "status": "Assigned to Contractor",
    "contractor": "Legacy Professional Services",
    "rowid": "1032363",
    "final_x": "3677559.1501",
    "final_y": "544468.457935",
    "longitude": "-90.08006691399376",
    "latitude": "29.991218568050705",
    "geocoded_column": {
      "latitude": "29.991218568050705",
      "longitude": "-90.08006691399376"
    }
  },
  {
    "service_request": "2023-1032362",
    "request_type": "Abandoned Vehicles",
    "request_reason": "Abandoned/Junk Vehicles",
    "date_created": "2023-09-05T21:11:03.000",
    "date_modified": "2023-09-05T21:11:03.000",
    "request_status": "Pending",
    "responsible_agency": "Department of Public Works",
    "final_address": "3228 Somerset Dr",
    "address_councildis": "C",
    "status": "Pending",
    "rowid": "1032362",
    "final_x": "3702608.50986",
    "final_y": "519247.930551",
    "longitude": "-90.00186801011367",
    "latitude": "29.921094009790863",
    "geocoded_column": {
      "latitude": "29.921094009790863",
      "longitude": "-90.00186801011367"
    }
  },
  {
    "service_request": "2023-1032361",
    "request_type": "Trash/Recycling",
    "request_reason": "Replace Trash Cart",
    "date_created": "2023-09-05T21:09:58.000",
    "date_modified": "2023-09-05T21:09:58.000",
    "request_status": "Pending",
    "responsible_agency": "Department of Sanitation",
    "final_address": "4644 Crowder Blvd",
    "address_councildis": "E",
    "status": "Assigned to Contractor",
    "contractor": "Waste Pro",
    "rowid": "1032361",
    "final_x": "3706376.05284",
    "final_y": "555152.142105",
    "longitude": "-89.98864566007819",
    "latitude": "30.019696511743522",
    "geocoded_column": {
      "latitude": "30.019696511743522",
      "longitude": "-89.98864566007819"
    }
  },
  {
    "service_request": "2023-1032359",
    "request_type": "Roads/Drainage",
    "request_reason": "Debris in Roadway",
    "date_created": "2023-09-05T20:59:52.000",
    "date_modified": "2023-09-05T20:59:52.000",
    "request_status": "Pending",
    "responsible_agency": "Department of Public Works",
    "final_address": "6824 Louis Xiv St",
    "address_councildis": "A",
    "status": "Pending",
    "rowid": "1032359",
    "final_x": "3668493.68922",
    "final_y": "552928.129751",
    "longitude": "-90.10841705341161",
    "latitude": "30.014749248448318",
    "geocoded_column": {
      "latitude": "30.014749248448318",
      "longitude": "-90.10841705341161"
    }
  },
  {
    "service_request": "2023-1032358",
    "request_type": "Abandoned Vehicles",
    "request_reason": "Abandoned/Junk Vehicles",
    "date_created": "2023-09-05T20:52:40.000",
    "date_modified": "2023-09-05T20:52:40.000",
    "request_status": "Pending",
    "responsible_agency": "Department of Public Works",
    "final_address": "506 Warrington Dr",
    "address_councildis": "D",
    "status": "Pending",
    "rowid": "1032358",
    "final_x": "3681251.78216",
    "final_y": "548399.662738",
    "longitude": "-90.06826564502315",
    "latitude": "30.001916414135025",
    "geocoded_column": {
      "latitude": "30.001916414135025",
      "longitude": "-90.06826564502315"
    }
  },
  {
    "service_request": "2023-1032357",
    "request_type": "Trash/Recycling",
    "request_reason": "MIssed Recycling Pick-Up",
    "date_created": "2023-09-05T20:47:33.000",
    "date_modified": "2023-09-05T20:47:34.000",
    "request_status": "Pending",
    "responsible_agency": "Department of Sanitation",
    "final_address": "927 N Salcedo St",
    "address_councildis": "A",
    "status": "Assigned to Contractor",
    "contractor": "Richards Disposal",
    "rowid": "1032357",
    "final_x": "3676018.09601",
    "final_y": "538690.056969",
    "longitude": "-90.08513358695406",
    "latitude": "29.975376218180724",
    "geocoded_column": {
      "latitude": "29.975376218180724",
      "longitude": "-90.08513358695406"
    }
  },
  {
    "service_request": "2023-1032356",
    "request_type": "Trash/Recycling",
    "request_reason": "Missed Trash Pick-Up",
    "date_created": "2023-09-05T20:46:47.000",
    "date_modified": "2023-09-05T20:46:48.000",
    "request_status": "Pending",
    "responsible_agency": "Department of Sanitation",
    "final_address": "927 N Salcedo St",
    "address_councildis": "A",
    "status": "Assigned to Contractor",
    "contractor": "Richards Disposal",
    "rowid": "1032356",
    "final_x": "3676018.09601",
    "final_y": "538690.056969",
    "longitude": "-90.08513358695406",
    "latitude": "29.975376218180724",
    "geocoded_column": {
      "latitude": "29.975376218180724",
      "longitude": "-90.08513358695406"
    }
  },
  {
    "service_request": "2023-1032355",
    "request_type": "Trash/Recycling",
    "request_reason": "Request a Large Item Pick Up",
    "date_created": "2023-09-05T20:42:24.000",
    "date_modified": "2023-09-05T20:42:25.000",
    "request_status": "Pending",
    "responsible_agency": "Department of Sanitation",
    "final_address": "317 Homer St",
    "address_councildis": "C",
    "status": "Assigned to Contractor",
    "contractor": "Richards Disposal",
    "rowid": "1032355",
    "final_x": "3686314.83881",
    "final_y": "528240.193152",
    "longitude": "-90.05298254903028",
    "latitude": "29.9463302652577",
    "geocoded_column": {
      "latitude": "29.9463302652577",
      "longitude": "-90.05298254903028"
    }
  },
  {
    "service_request": "2023-1032352",
    "request_type": "Traffic Signals/Signs/Striping/Streetlights",
    "request_reason": "Street Light Outage/Malfunction",
    "date_created": "2023-09-05T20:39:53.000",
    "date_modified": "2023-09-05T20:39:54.000",
    "request_status": "Pending",
    "responsible_agency": "Department of Public Works",
    "final_address": "6829 Louis Xiv St",
    "address_councildis": "A",
    "status": "Assigned to Contractor",
    "contractor": "Legacy Professional Services",
    "rowid": "1032352",
    "final_x": "3668689.55866",
    "final_y": "552960.938903",
    "longitude": "-90.1077970901516",
    "latitude": "30.01483370320753",
    "geocoded_column": {
      "latitude": "30.01483370320753",
      "longitude": "-90.1077970901516"
    }
  },
  {
    "service_request": "2023-1032351",
    "request_type": "Trash/Recycling",
    "request_reason": "Order Trash Cart",
    "date_created": "2023-09-05T20:39:51.000",
    "date_modified": "2023-09-05T20:39:52.000",
    "request_status": "Pending",
    "responsible_agency": "Department of Sanitation",
    "final_address": "5228 Magazine St",
    "address_councildis": "B",
    "status": "Assigned to Contractor",
    "contractor": "Richards Disposal",
    "rowid": "1032351",
    "final_x": "3667770.75188",
    "final_y": "518579.302519",
    "longitude": "-90.11185808726934",
    "latitude": "29.920322634337545",
    "geocoded_column": {
      "latitude": "29.920322634337545",
      "longitude": "-90.11185808726934"
    }
  },
  {
    "service_request": "2023-1032350",
    "request_type": "Trash/Recycling",
    "request_reason": "Missed Trash Pick-Up",
    "date_created": "2023-09-05T20:29:28.000",
    "date_modified": "2023-09-05T20:29:29.000",
    "request_status": "Pending",
    "responsible_agency": "Department of Sanitation",
    "final_address": "931 Allen Toussaint Blvd",
    "address_councildis": "D",
    "status": "Assigned to Contractor",
    "contractor": "IV Waste",
    "rowid": "1032350",
    "final_x": "3670903.71559",
    "final_y": "554651.53916",
    "longitude": "-90.1007439440958",
    "latitude": "30.01941695120388",
    "geocoded_column": {
      "latitude": "30.01941695120388",
      "longitude": "-90.1007439440958"
    }
  },
  {
    "service_request": "2023-1032349",
    "request_type": "Trash/Recycling",
    "request_reason": "Request a Large Item Pick Up",
    "date_created": "2023-09-05T20:27:04.000",
    "date_modified": "2023-09-05T20:27:05.000",
    "request_status": "Pending",
    "responsible_agency": "Department of Sanitation",
    "final_address": "8216 Spruce St, New Orleans, Louisiana, 70118",
    "address_councildis": "A",
    "status": "Assigned to Contractor",
    "contractor": "Richards Disposal",
    "rowid": "1032349",
    "final_x": "3663451.81856",
    "final_y": "530761.966722",
    "longitude": "-90.12508548778717",
    "latitude": "29.95394698226027",
    "geocoded_column": {
      "latitude": "29.95394698226027",
      "longitude": "-90.12508548778717"
    }
  },
  {
    "service_request": "2023-1032348",
    "request_type": "Traffic Signals/Signs/Striping/Streetlights",
    "request_reason": "Street Light Outage/Malfunction",
    "date_created": "2023-09-05T20:22:22.000",
    "date_modified": "2023-09-05T20:22:23.000",
    "request_status": "Pending",
    "responsible_agency": "Department of Public Works",
    "final_address": "6354 Pratt Dr",
    "address_councildis": "D",
    "status": "Assigned to Contractor",
    "contractor": "Legacy Professional Services",
    "rowid": "1032348",
    "final_x": "3679258.26127",
    "final_y": "557353.115547",
    "longitude": "-90.07425259270359",
    "latitude": "30.026595542918724",
    "geocoded_column": {
      "latitude": "30.026595542918724",
      "longitude": "-90.07425259270359"
    }
  },
  {
    "service_request": "2023-1032347",
    "request_type": "Trash/Recycling",
    "request_reason": "Illegal Dumping",
    "date_created": "2023-09-05T20:03:17.000",
    "date_modified": "2023-09-05T20:03:17.000",
    "request_status": "Pending",
    "responsible_agency": "Department of Sanitation",
    "status": "Pending",
    "rowid": "1032347",
    "longitude": "0.0",
    "latitude": "0.0",
    "geocoded_column": {
      "latitude": "0.0",
      "longitude": "0.0"
    }
  },
  {
    "service_request": "2023-1032346",
    "request_type": "Traffic Signals/Signs/Striping/Streetlights",
    "request_reason": "Street Light Outage/Malfunction",
    "date_created": "2023-09-05T19:49:35.000",
    "date_modified": "2023-09-05T19:49:36.000",
    "request_status": "Pending",
    "responsible_agency": "Department of Public Works",
    "final_address": "1525 Dufossat St",
    "address_councildis": "B",
    "status": "Assigned to Contractor",
    "contractor": "Legacy Professional Services",
    "rowid": "1032346",
    "final_x": "3668161.69364",
    "final_y": "520678.110521",
    "longitude": "-90.11055336688219",
    "latitude": "29.926082227758133",
    "geocoded_column": {
      "latitude": "29.926082227758133",
      "longitude": "-90.11055336688219"
    }
  },
  {
    "service_request": "2023-1032345",
    "request_type": "Trash/Recycling",
    "request_reason": "Missed Trash Pick-Up",
    "date_created": "2023-09-05T19:48:28.000",
    "date_modified": "2023-09-05T19:48:29.000",
    "request_status": "Pending",
    "responsible_agency": "Department of Sanitation",
    "final_address": "1525 Dufossat St",
    "address_councildis": "B",
    "status": "Assigned to Contractor",
    "contractor": "Richards Disposal",
    "rowid": "1032345",
    "final_x": "3668161.69364",
    "final_y": "520678.110521",
    "longitude": "-90.11055336688219",
    "latitude": "29.926082227758133",
    "geocoded_column": {
      "latitude": "29.926082227758133",
      "longitude": "-90.11055336688219"
    }
  },
  {
    "service_request": "2023-1032344",
    "request_type": "Trash/Recycling",
    "request_reason": "Request a Large Item Pick Up",
    "date_created": "2023-09-05T19:41:51.000",
    "date_modified": "2023-09-05T19:41:52.000",
    "request_status": "Pending",
    "responsible_agency": "Department of Sanitation",
    "final_address": "3513 S Tonti St",
    "address_councildis": "B",
    "status": "Assigned to Contractor",
    "contractor": "Richards Disposal",
    "rowid": "1032344",
    "final_x": "3671082.03751",
    "final_y": "528306.87072",
    "longitude": "-90.10107568740045",
    "latitude": "29.946972836542376",
    "geocoded_column": {
      "latitude": "29.946972836542376",
      "longitude": "-90.10107568740045"
    }
  },
  {
    "service_request": "2023-1032343",
    "request_type": "Roads/Drainage",
    "request_reason": "Pothole",
    "date_created": "2023-09-05T19:37:26.000",
    "date_modified": "2023-09-05T19:37:27.000",
    "request_status": "Pending",
    "responsible_agency": "Department of Public Works",
    "final_address": "2400 BLK Washington Ave",
    "address_councildis": "B",
    "status": "Pending",
    "rowid": "1032343",
    "final_x": "3674215.22109",
    "final_y": "525105.09131",
    "longitude": "-90.09129263118658",
    "latitude": "29.938075972281105",
    "geocoded_column": {
      "latitude": "29.938075972281105",
      "longitude": "-90.09129263118658"
    }
  },
  {
    "service_request": "2023-1032342",
    "request_type": "Roads/Drainage",
    "request_reason": "Pothole",
    "date_created": "2023-09-05T19:35:12.000",
    "date_modified": "2023-09-05T19:35:12.000",
    "request_status": "Pending",
    "responsible_agency": "Department of Public Works",
    "final_address": "5011 Good Dr",
    "address_councildis": "E",
    "status": "Pending",
    "rowid": "1032342",
    "final_x": "3714745.87525",
    "final_y": "557886.054107",
    "longitude": "-89.96209668454567",
    "latitude": "30.026940954578897",
    "geocoded_column": {
      "latitude": "30.026940954578897",
      "longitude": "-89.96209668454567"
    }
  },
  {
    "service_request": "2023-1032341",
    "request_type": "Trash/Recycling",
    "request_reason": "Request a Large Item Pick Up",
    "date_created": "2023-09-05T19:25:36.000",
    "date_modified": "2023-09-05T19:25:36.000",
    "request_status": "Pending",
    "responsible_agency": "Department of Sanitation",
    "final_address": "2642 Mercedes Blvd",
    "address_councildis": "C",
    "status": "Assigned to Contractor",
    "contractor": "Richards Disposal",
    "rowid": "1032341",
    "final_x": "3698084.51299",
    "final_y": "521370.394681",
    "longitude": "-90.0160711374577",
    "latitude": "29.927073832685206",
    "geocoded_column": {
      "latitude": "29.927073832685206",
      "longitude": "-90.0160711374577"
    }
  },
  {
    "service_request": "2023-1032340",
    "request_type": "Trash/Recycling",
    "request_reason": "Request a Large Item Pick Up",
    "date_created": "2023-09-05T19:23:32.000",
    "date_modified": "2023-09-05T19:23:33.000",
    "request_status": "Pending",
    "responsible_agency": "Department of Sanitation",
    "final_address": "5542 Chatham Dr",
    "address_councildis": "D",
    "status": "Assigned to Contractor",
    "contractor": "IV Waste",
    "rowid": "1032340",
    "final_x": "3679641.27439",
    "final_y": "552916.108375",
    "longitude": "-90.07319650292024",
    "latitude": "30.014383811412316",
    "geocoded_column": {
      "latitude": "30.014383811412316",
      "longitude": "-90.07319650292024"
    }
  },
  {
    "service_request": "2023-1032339",
    "request_type": "Parks & Parkways",
    "request_reason": "Request Tree Service (Right of Way/Public Property)",
    "date_created": "2023-09-05T19:21:36.000",
    "date_modified": "2023-09-05T19:22:55.000",
    "request_status": "Pending",
    "responsible_agency": "Department of Parks & Parkway",
    "final_address": "ARABELLA ST & PERRIER ST",
    "address_councildis": "A",
    "status": "Pending",
    "rowid": "1032339",
    "final_x": "3666123.1",
    "final_y": "520273.48",
    "longitude": "-90.1170021986557",
    "latitude": "29.925029282666067",
    "geocoded_column": {
      "latitude": "29.925029282666067",
      "longitude": "-90.1170021986557"
    }
  },
  {
    "service_request": "2023-1032338",
    "request_type": "Trash/Recycling",
    "request_reason": "Request a Large Item Pick Up",
    "date_created": "2023-09-05T19:21:31.000",
    "date_modified": "2023-09-05T19:21:32.000",
    "request_status": "Pending",
    "responsible_agency": "Department of Sanitation",
    "final_address": "17 Curtis Dr",
    "address_councildis": "E",
    "status": "Assigned to Contractor",
    "contractor": "Waste Pro",
    "rowid": "1032338",
    "final_x": "3698136.62045",
    "final_y": "560621.04003",
    "longitude": "-90.01448052556228",
    "latitude": "30.034997181978593",
    "geocoded_column": {
      "latitude": "30.034997181978593",
      "longitude": "-90.01448052556228"
    }
  },
  {
    "service_request": "2023-1032337",
    "request_type": "Trash/Recycling",
    "request_reason": "Repair Trash Cart",
    "date_created": "2023-09-05T19:17:37.000",
    "date_modified": "2023-09-05T19:17:38.000",
    "request_status": "Pending",
    "responsible_agency": "Department of Sanitation",
    "final_address": "2905 Ursulines Ave",
    "address_councildis": "A",
    "status": "Assigned to Contractor",
    "contractor": "Richards Disposal",
    "rowid": "1032337",
    "final_x": "3676776.66741",
    "final_y": "538891.819658",
    "longitude": "-90.08273085780044",
    "latitude": "29.9759082531758",
    "geocoded_column": {
      "latitude": "29.9759082531758",
      "longitude": "-90.08273085780044"
    }
  },
  {
    "service_request": "2023-1032336",
    "request_type": "Trash/Recycling",
    "request_reason": "Return Recycling Cart",
    "date_created": "2023-09-05T19:13:18.000",
    "date_modified": "2023-09-05T19:13:18.000",
    "request_status": "Pending",
    "responsible_agency": "Department of Sanitation",
    "final_address": "336 Audubon Blvd",
    "address_councildis": "A",
    "status": "Pending",
    "rowid": "1032336",
    "final_x": "3667237.95969",
    "final_y": "530219.904961",
    "longitude": "-90.11314858696848",
    "latitude": "29.952346169917096",
    "geocoded_column": {
      "latitude": "29.952346169917096",
      "longitude": "-90.11314858696848"
    }
  },
  {
    "service_request": "2023-1032335",
    "request_type": "Trash/Recycling",
    "request_reason": "Replace Trash Cart",
    "date_created": "2023-09-05T19:05:58.000",
    "date_modified": "2023-09-05T19:05:59.000",
    "request_status": "Pending",
    "responsible_agency": "Department of Sanitation",
    "final_address": "4406 St Peter St",
    "address_councildis": "A",
    "status": "Assigned to Contractor",
    "contractor": "Richards Disposal",
    "rowid": "1032335",
    "final_x": "3671181.40244",
    "final_y": "540936.622795",
    "longitude": "-90.10033285354919",
    "latitude": "29.981697497534817",
    "geocoded_column": {
      "latitude": "29.981697497534817",
      "longitude": "-90.10033285354919"
    }
  },
  {
    "service_request": "2023-1032334",
    "request_type": "Trash/Recycling",
    "request_reason": "Replace Trash Cart",
    "date_created": "2023-09-05T19:02:12.000",
    "date_modified": "2023-09-05T19:02:13.000",
    "request_status": "Pending",
    "responsible_agency": "Department of Sanitation",
    "final_address": "5121 Willowbrook Dr",
    "address_councildis": "E",
    "status": "Assigned to Contractor",
    "contractor": "Waste Pro",
    "rowid": "1032334",
    "final_x": "3728038.45529",
    "final_y": "563598.031329",
    "longitude": "-89.91987144457936",
    "latitude": "30.04220244128455",
    "geocoded_column": {
      "latitude": "30.04220244128455",
      "longitude": "-89.91987144457936"
    }
  },
  {
    "service_request": "2023-1032333",
    "request_type": "Trash/Recycling",
    "request_reason": "Order Trash Cart",
    "date_created": "2023-09-05T18:57:51.000",
    "date_modified": "2023-09-05T18:57:52.000",
    "request_status": "Pending",
    "responsible_agency": "Department of Sanitation",
    "final_address": "7925 Edgelake Ct",
    "address_councildis": "E",
    "status": "Assigned to Contractor",
    "contractor": "Waste Pro",
    "rowid": "1032333",
    "final_x": "3703049.62641",
    "final_y": "562463.011807",
    "longitude": "-89.99888697853729",
    "latitude": "30.039905480898767",
    "geocoded_column": {
      "latitude": "30.039905480898767",
      "longitude": "-89.99888697853729"
    }
  },
  {
    "service_request": "2023-1032332",
    "request_type": "Trash/Recycling",
    "request_reason": "Repair Trash Cart",
    "date_created": "2023-09-05T18:41:24.000",
    "date_modified": "2023-09-05T18:41:25.000",
    "request_status": "Pending",
    "responsible_agency": "Department of Sanitation",
    "final_address": "617 Soniat St",
    "address_councildis": "B",
    "status": "Assigned to Contractor",
    "contractor": "Richards Disposal",
    "rowid": "1032332",
    "final_x": "3668400.8843",
    "final_y": "517702.662966",
    "longitude": "-90.10989859587028",
    "latitude": "29.917893666281575",
    "geocoded_column": {
      "latitude": "29.917893666281575",
      "longitude": "-90.10989859587028"
    }
  },
  {
    "service_request": "2023-1032331",
    "request_type": "Trash/Recycling",
    "request_reason": "Repair Trash Cart",
    "date_created": "2023-09-05T18:28:12.000",
    "date_modified": "2023-09-05T18:28:13.000",
    "request_status": "Pending",
    "responsible_agency": "Department of Sanitation",
    "final_address": "1112 Leboeuf St",
    "address_councildis": "C",
    "status": "Assigned to Contractor",
    "contractor": "Richards Disposal",
    "rowid": "1032331",
    "final_x": "3689792.62179",
    "final_y": "527343.931007",
    "longitude": "-90.04203389719703",
    "latitude": "29.94375853974137",
    "geocoded_column": {
      "latitude": "29.94375853974137",
      "longitude": "-90.04203389719703"
    }
  },
  {
    "service_request": "2023-1032330",
    "request_type": "Roads/Drainage",
    "request_reason": "Catch Basin - Clogged",
    "date_created": "2023-09-05T18:28:06.000",
    "date_modified": "2023-09-05T18:28:06.000",
    "request_status": "Pending",
    "responsible_agency": "Department of Public Works",
    "final_address": "617 Soniat St",
    "address_councildis": "B",
    "status": "Pending",
    "rowid": "1032330",
    "final_x": "3668400.8843",
    "final_y": "517702.662966",
    "longitude": "-90.10989859587028",
    "latitude": "29.917893666281575",
    "geocoded_column": {
      "latitude": "29.917893666281575",
      "longitude": "-90.10989859587028"
    }
  },
  {
    "service_request": "2023-1032329",
    "request_type": "Roads/Drainage",
    "request_reason": "Pothole",
    "date_created": "2023-09-05T18:24:25.000",
    "date_modified": "2023-09-05T18:24:25.000",
    "request_status": "Pending",
    "responsible_agency": "Department of Public Works",
    "final_address": "1479 Calhoun St",
    "address_councildis": "A",
    "status": "Pending",
    "rowid": "1032329",
    "final_x": "3664552.92551",
    "final_y": "522168.636794",
    "longitude": "-90.12189550376722",
    "latitude": "29.93028610452787",
    "geocoded_column": {
      "latitude": "29.93028610452787",
      "longitude": "-90.12189550376722"
    }
  },
  {
    "service_request": "2023-1032328",
    "request_type": "Trash/Recycling",
    "request_reason": "Missed Trash Pick-Up",
    "date_created": "2023-09-05T18:22:12.000",
    "date_modified": "2023-09-05T18:22:13.000",
    "request_status": "Pending",
    "responsible_agency": "Department of Sanitation",
    "final_address": "725 St James St",
    "address_councildis": "B",
    "status": "Assigned to Contractor",
    "contractor": "Richards Disposal",
    "rowid": "1032328",
    "final_x": "3681137.01122",
    "final_y": "522120.590458",
    "longitude": "-90.06954385976285",
    "latitude": "29.92966146145437",
    "geocoded_column": {
      "latitude": "29.92966146145437",
      "longitude": "-90.06954385976285"
    }
  },
  {
    "service_request": "2023-1032327",
    "request_type": "Trash/Recycling",
    "request_reason": "Order Recycling Cart",
    "date_created": "2023-09-05T18:18:46.000",
    "date_modified": "2023-09-05T18:18:46.000",
    "request_status": "Pending",
    "responsible_agency": "Department of Sanitation",
    "final_address": "1451 Richland Rd",
    "address_councildis": "C",
    "status": "Pending",
    "rowid": "1032327",
    "final_x": "3697876.33347",
    "final_y": "525761.840189",
    "longitude": "-90.0165689974203",
    "latitude": "29.93915537307998",
    "geocoded_column": {
      "latitude": "29.93915537307998",
      "longitude": "-90.0165689974203"
    }
  },
  {
    "service_request": "2023-1032325",
    "request_type": "Trash/Recycling",
    "request_reason": "Repair Trash Cart",
    "date_created": "2023-09-05T18:14:05.000",
    "date_modified": "2023-09-05T18:14:06.000",
    "request_status": "Pending",
    "responsible_agency": "Department of Sanitation",
    "final_address": "1624 Fern St",
    "address_councildis": "A",
    "status": "Assigned to Contractor",
    "contractor": "Richards Disposal",
    "rowid": "1032325",
    "final_x": "3663595.5769",
    "final_y": "529073.958272",
    "longitude": "-90.12468777761278",
    "latitude": "29.949301335228025",
    "geocoded_column": {
      "latitude": "29.949301335228025",
      "longitude": "-90.12468777761278"
    }
  },
  {
    "service_request": "2023-1032324",
    "request_type": "Trash/Recycling",
    "request_reason": "Replace Trash Cart",
    "date_created": "2023-09-05T18:13:35.000",
    "date_modified": "2023-09-05T18:13:35.000",
    "request_status": "Pending",
    "responsible_agency": "Department of Sanitation",
    "final_address": "1936 Robert St",
    "address_councildis": "B",
    "status": "Assigned to Contractor",
    "contractor": "Richards Disposal",
    "rowid": "1032324",
    "final_x": "3668708.51617",
    "final_y": "522810.551803",
    "longitude": "-90.10875526094252",
    "latitude": "29.931929704898003",
    "geocoded_column": {
      "latitude": "29.931929704898003",
      "longitude": "-90.10875526094252"
    }
  },
  {
    "service_request": "2023-1032323",
    "request_type": "Roads/Drainage",
    "request_reason": "Pothole",
    "date_created": "2023-09-05T18:05:20.000",
    "date_modified": "2023-09-05T18:05:20.000",
    "request_status": "Pending",
    "responsible_agency": "Department of Public Works",
    "final_address": "1423 General Pershing St",
    "address_councildis": "B",
    "status": "Pending",
    "rowid": "1032323",
    "final_x": "3671330.69185",
    "final_y": "520571.244024",
    "longitude": "-90.1005533659415",
    "latitude": "29.925695010510914",
    "geocoded_column": {
      "latitude": "29.925695010510914",
      "longitude": "-90.1005533659415"
    }
  },
  {
    "service_request": "2023-1032322",
    "request_type": "Trash/Recycling",
    "request_reason": "Missed Trash Pick-Up",
    "date_created": "2023-09-05T18:02:00.000",
    "date_modified": "2023-09-05T18:02:01.000",
    "request_status": "Pending",
    "responsible_agency": "Department of Sanitation",
    "final_address": "7900 Lafourche St",
    "address_councildis": "E",
    "status": "Assigned to Contractor",
    "contractor": "Waste Pro",
    "rowid": "1032322",
    "final_x": "3709624.07614",
    "final_y": "566390.268195",
    "longitude": "-89.9779630499595",
    "latitude": "30.050491693792274",
    "geocoded_column": {
      "latitude": "30.050491693792274",
      "longitude": "-89.9779630499595"
    }
  },
  {
    "service_request": "2023-1032321",
    "request_type": "Trash/Recycling",
    "request_reason": "Replace Trash Cart",
    "date_created": "2023-09-05T17:58:38.000",
    "date_modified": "2023-09-05T17:58:38.000",
    "request_status": "Pending",
    "responsible_agency": "Department of Sanitation",
    "final_address": "4816 Constance St, New Orleans, Louisiana, 70115",
    "address_councildis": "B",
    "status": "Assigned to Contractor",
    "contractor": "Richards Disposal",
    "rowid": "1032321",
    "final_x": "3669471.74817",
    "final_y": "518214.761014",
    "longitude": "-90.10650115049242",
    "latitude": "29.91927029155932",
    "geocoded_column": {
      "latitude": "29.91927029155932",
      "longitude": "-90.10650115049242"
    }
  },
  {
    "service_request": "2023-1032320",
    "request_type": "Trash/Recycling",
    "request_reason": "Missed Trash Pick-Up",
    "date_created": "2023-09-05T17:56:08.000",
    "date_modified": "2023-09-05T17:56:08.000",
    "request_status": "Pending",
    "responsible_agency": "Department of Sanitation",
    "final_address": "217 Helena St",
    "address_councildis": "A",
    "status": "Assigned to Contractor",
    "contractor": "Richards Disposal",
    "rowid": "1032320",
    "final_x": "3668519.50446",
    "final_y": "541050.340556",
    "longitude": "-90.1087365644901",
    "latitude": "29.982088674869217",
    "geocoded_column": {
      "latitude": "29.982088674869217",
      "longitude": "-90.1087365644901"
    }
  },
  {
    "service_request": "2023-1032319",
    "request_type": "Trash/Recycling",
    "request_reason": "Missed Trash Pick-Up",
    "date_created": "2023-09-05T17:54:23.000",
    "date_modified": "2023-09-05T17:54:24.000",
    "request_status": "Pending",
    "responsible_agency": "Department of Sanitation",
    "final_address": "5426 N Villere St",
    "address_councildis": "E",
    "status": "Assigned to Contractor",
    "contractor": "Waste Pro",
    "rowid": "1032319",
    "final_x": "3697679.48266",
    "final_y": "534993.622214",
    "longitude": "-90.0168556142978",
    "latitude": "29.964545747128682",
    "geocoded_column": {
      "latitude": "29.964545747128682",
      "longitude": "-90.0168556142978"
    }
  },
  {
    "service_request": "2023-1032318",
    "request_type": "Trash/Recycling",
    "request_reason": "Request a Large Item Pick Up",
    "date_created": "2023-09-05T17:50:48.000",
    "date_modified": "2023-09-05T17:50:49.000",
    "request_status": "Pending",
    "responsible_agency": "Department of Sanitation",
    "final_address": "2132 Lizardi St",
    "address_councildis": "E",
    "status": "Assigned to Contractor",
    "contractor": "Waste Pro",
    "rowid": "1032318",
    "final_x": "3697623.52394",
    "final_y": "538114.795657",
    "longitude": "-90.01691909002827",
    "latitude": "29.973129624283953",
    "geocoded_column": {
      "latitude": "29.973129624283953",
      "longitude": "-90.01691909002827"
    }
  },
  {
    "service_request": "2023-1032317",
    "request_type": "Traffic Signals/Signs/Striping/Streetlights",
    "request_reason": "Street Light Outage/Malfunction",
    "date_created": "2023-09-05T17:44:16.000",
    "date_modified": "2023-09-05T17:44:16.000",
    "request_status": "Pending",
    "responsible_agency": "Department of Public Works",
    "final_address": "9301 Lake Forest Blvd",
    "address_councildis": "E",
    "status": "Assigned to Contractor",
    "contractor": "Legacy Professional Services",
    "rowid": "1032317",
    "final_x": "3708380.86315",
    "final_y": "558701.173596",
    "longitude": "-89.98217894354795",
    "latitude": "30.0293901178376",
    "geocoded_column": {
      "latitude": "30.0293901178376",
      "longitude": "-89.98217894354795"
    }
  },
  {
    "service_request": "2023-1032316",
    "request_type": "Trash/Recycling",
    "request_reason": "Request a Large Item Pick Up",
    "date_created": "2023-09-05T17:40:52.000",
    "date_modified": "2023-09-05T17:40:53.000",
    "request_status": "Pending",
    "responsible_agency": "Department of Sanitation",
    "final_address": "4806 Haydel St",
    "address_councildis": "E",
    "status": "Assigned to Contractor",
    "contractor": "Waste Pro",
    "rowid": "1032316",
    "final_x": "3698928.8986",
    "final_y": "554741.001368",
    "longitude": "-90.0121910635279",
    "latitude": "30.01880423298523",
    "geocoded_column": {
      "latitude": "30.01880423298523",
      "longitude": "-90.0121910635279"
    }
  },
  {
    "service_request": "2023-1032314",
    "request_type": "Trash/Recycling",
    "request_reason": "Replace Trash Cart",
    "date_created": "2023-09-05T17:23:51.000",
    "date_modified": "2023-09-05T17:23:51.000",
    "request_status": "Pending",
    "responsible_agency": "Department of Sanitation",
    "final_address": "2433 Amelia St",
    "address_councildis": "B",
    "status": "Assigned to Contractor",
    "contractor": "Richards Disposal",
    "rowid": "1032314",
    "final_x": "3672424.29166",
    "final_y": "524214.0503",
    "longitude": "-90.09697711916495",
    "latitude": "29.93567915628734",
    "geocoded_column": {
      "latitude": "29.93567915628734",
      "longitude": "-90.09697711916495"
    }
  },
  {
    "service_request": "2023-1032313",
    "request_type": "Trash/Recycling",
    "request_reason": "MIssed Recycling Pick-Up",
    "date_created": "2023-09-05T17:17:23.000",
    "date_modified": "2023-09-05T17:17:24.000",
    "request_status": "Pending",
    "responsible_agency": "Department of Sanitation",
    "final_address": "1114 Lyons St",
    "address_councildis": "B",
    "status": "Assigned to Contractor",
    "contractor": "Richards Disposal",
    "rowid": "1032313",
    "final_x": "3669122.73076",
    "final_y": "519402.919991",
    "longitude": "-90.1075627048249",
    "latitude": "29.92254762370062",
    "geocoded_column": {
      "latitude": "29.92254762370062",
      "longitude": "-90.1075627048249"
    }
  },
  {
    "service_request": "2023-1032312",
    "request_type": "Trash/Recycling",
    "request_reason": "Missed Trash Pick-Up",
    "date_created": "2023-09-05T17:17:13.000",
    "date_modified": "2023-09-05T17:17:13.000",
    "request_status": "Pending",
    "responsible_agency": "Department of Sanitation",
    "final_address": "7716 Michigan St",
    "address_councildis": "E",
    "status": "Assigned to Contractor",
    "contractor": "Waste Pro",
    "rowid": "1032312",
    "final_x": "3711434.58264",
    "final_y": "566966.48298",
    "longitude": "-89.97221909972906",
    "latitude": "30.052017041274986",
    "geocoded_column": {
      "latitude": "30.052017041274986",
      "longitude": "-89.97221909972906"
    }
  },
  {
    "service_request": "2023-1032311",
    "request_type": "Trash/Recycling",
    "request_reason": "Request a Large Item Pick Up",
    "date_created": "2023-09-05T17:17:06.000",
    "date_modified": "2023-09-05T17:17:06.000",
    "request_status": "Pending",
    "responsible_agency": "Department of Sanitation",
    "final_address": "5104 Marigny St",
    "address_councildis": "D",
    "status": "Assigned to Contractor",
    "contractor": "IV Waste",
    "rowid": "1032311",
    "final_x": "3684288.67369",
    "final_y": "551485.038421",
    "longitude": "-90.05856334974636",
    "latitude": "30.010307538709817",
    "geocoded_column": {
      "latitude": "30.010307538709817",
      "longitude": "-90.05856334974636"
    }
  },
  {
    "service_request": "2023-1032310",
    "request_type": "Roads/Drainage",
    "request_reason": "Catch Basin - Clogged",
    "date_created": "2023-09-05T17:16:03.000",
    "date_modified": "2023-09-05T17:16:03.000",
    "request_status": "Pending",
    "responsible_agency": "Department of Public Works",
    "final_address": "433 S Lopez St",
    "address_councildis": "B",
    "status": "Pending",
    "rowid": "1032310",
    "final_x": "3672904.06721",
    "final_y": "535044.485318",
    "longitude": "-90.09509296815176",
    "latitude": "29.965445034210273",
    "geocoded_column": {
      "latitude": "29.965445034210273",
      "longitude": "-90.09509296815176"
    }
  },
  {
    "service_request": "2023-1032309",
    "request_type": "Abandoned Vehicles",
    "request_reason": "Abandoned/Junk Vehicles",
    "date_created": "2023-09-05T17:13:35.000",
    "date_modified": "2023-09-05T17:13:36.000",
    "request_status": "Pending",
    "responsible_agency": "Department of Public Works",
    "final_address": "8720 Stroelitz St",
    "address_councildis": "A",
    "status": "Pending",
    "rowid": "1032309",
    "final_x": "3666233.59207",
    "final_y": "536454.044807",
    "longitude": "-90.11611082177843",
    "latitude": "29.96951737595733",
    "geocoded_column": {
      "latitude": "29.96951737595733",
      "longitude": "-90.11611082177843"
    }
  },
  {
    "service_request": "2023-1032308",
    "request_type": "Parks & Parkways",
    "request_reason": "Request Tree Service (Right of Way/Public Property)",
    "date_created": "2023-09-05T17:07:42.000",
    "date_modified": "2023-09-05T17:07:42.000",
    "request_status": "Pending",
    "responsible_agency": "Department of Parks & Parkway",
    "final_address": "327 N St Patrick St",
    "address_councildis": "A",
    "status": "Pending",
    "rowid": "1032308",
    "final_x": "3669717.89332",
    "final_y": "540705.792651",
    "longitude": "-90.10496313093776",
    "latitude": "29.981106014330106",
    "geocoded_column": {
      "latitude": "29.981106014330106",
      "longitude": "-90.10496313093776"
    }
  },
  {
    "service_request": "2023-1032307",
    "request_type": "Trash/Recycling",
    "request_reason": "Missed Trash Pick-Up",
    "date_created": "2023-09-05T16:59:40.000",
    "date_modified": "2023-09-05T17:06:21.000",
    "request_status": "Pending",
    "responsible_agency": "Department of Sanitation",
    "final_address": "725 St Joseph St",
    "address_councildis": "B",
    "status": "Assigned to Contractor",
    "contractor": "Empire Services",
    "rowid": "1032307",
    "final_x": "3680124.36693",
    "final_y": "527650.698047",
    "longitude": "-90.0725485091546",
    "latitude": "29.944898098043357",
    "geocoded_column": {
      "latitude": "29.944898098043357",
      "longitude": "-90.0725485091546"
    }
  },
  {
    "service_request": "2023-1032305",
    "request_type": "Roads/Drainage",
    "request_reason": "Pothole",
    "date_created": "2023-09-05T16:57:07.000",
    "date_modified": "2023-09-05T17:06:19.000",
    "request_status": "Pending",
    "responsible_agency": "Department of Public Works",
    "final_address": "609 Jackson Ave",
    "address_councildis": "B",
    "status": "Pending",
    "rowid": "1032305",
    "final_x": "3679901.14056",
    "final_y": "520810.428217",
    "longitude": "-90.07349075794016",
    "latitude": "29.926096366929237",
    "geocoded_column": {
      "latitude": "29.926096366929237",
      "longitude": "-90.07349075794016"
    }
  },
  {
    "service_request": "2023-1032304",
    "request_type": "Roads/Drainage",
    "request_reason": "Pothole",
    "date_created": "2023-09-05T16:55:15.000",
    "date_modified": "2023-09-05T16:55:15.000",
    "request_status": "Pending",
    "responsible_agency": "Department of Public Works",
    "final_address": "1126 St Roch Ave",
    "address_councildis": "C",
    "status": "Pending",
    "rowid": "1032304",
    "final_x": "3686393.34185",
    "final_y": "536732.733959",
    "longitude": "-90.05243494397422",
    "latitude": "29.969679417281366",
    "geocoded_column": {
      "latitude": "29.969679417281366",
      "longitude": "-90.05243494397422"
    }
  },
  {
    "service_request": "2023-1032303",
    "request_type": "Roads/Drainage",
    "request_reason": "Street Subsidence (Sinking)",
    "date_created": "2023-09-05T16:53:15.000",
    "date_modified": "2023-09-05T17:06:13.000",
    "request_status": "Pending",
    "responsible_agency": "Department of Public Works",
    "final_address": "8620 Gervais St",
    "address_councildis": "E",
    "status": "Pending",
    "rowid": "1032303",
    "final_x": "3704029.3722",
    "final_y": "562731.296736",
    "longitude": "-89.99578080201496",
    "latitude": "30.04061174883874",
    "geocoded_column": {
      "latitude": "30.04061174883874",
      "longitude": "-89.99578080201496"
    }
  },
  {
    "service_request": "2023-1032302",
    "request_type": "Trash/Recycling",
    "request_reason": "Repair Recycling Cart",
    "date_created": "2023-09-05T16:50:50.000",
    "date_modified": "2023-09-05T17:05:11.000",
    "request_status": "Pending",
    "responsible_agency": "Department of Sanitation",
    "final_address": "2508 Audubon St",
    "address_councildis": "A",
    "status": "Pending",
    "rowid": "1032302",
    "final_x": "3667065.84839",
    "final_y": "530329.102978",
    "longitude": "-90.11368836722885",
    "latitude": "29.95265146727542",
    "geocoded_column": {
      "latitude": "29.95265146727542",
      "longitude": "-90.11368836722885"
    }
  },
  {
    "service_request": "2023-1032301",
    "request_type": "Roads/Drainage",
    "request_reason": "Street Subsidence (Sinking)",
    "date_created": "2023-09-05T16:49:33.000",
    "date_modified": "2023-09-05T16:49:33.000",
    "request_status": "Pending",
    "responsible_agency": "Department of Public Works",
    "final_address": "8620 Gervais St",
    "address_councildis": "E",
    "status": "Pending",
    "rowid": "1032301",
    "final_x": "3704029.3722",
    "final_y": "562731.296736",
    "longitude": "-89.99578080201496",
    "latitude": "30.04061174883874",
    "geocoded_column": {
      "latitude": "30.04061174883874",
      "longitude": "-89.99578080201496"
    }
  },
  {
    "service_request": "2023-1032300",
    "request_type": "Trash/Recycling",
    "request_reason": "Missed Trash Pick-Up",
    "date_created": "2023-09-05T16:49:20.000",
    "date_modified": "2023-09-05T16:49:46.000",
    "request_status": "Pending",
    "responsible_agency": "Department of Sanitation",
    "final_address": "7002 Yorktown Dr",
    "address_councildis": "E",
    "rowid": "1032300",
    "final_x": "3706202.81342",
    "final_y": "560354.916445",
    "longitude": "-89.98900016797683",
    "latitude": "30.03400770146764",
    "geocoded_column": {
      "latitude": "30.03400770146764",
      "longitude": "-89.98900016797683"
    }
  },
  {
    "service_request": "2023-1032299",
    "request_type": "Trash/Recycling",
    "request_reason": "Request a Large Item Pick Up",
    "date_created": "2023-09-05T16:49:18.000",
    "date_modified": "2023-09-05T17:02:52.000",
    "request_status": "Pending",
    "responsible_agency": "Department of Sanitation",
    "final_address": "7723 Hampson St",
    "address_councildis": "A",
    "status": "Assigned to Contractor",
    "contractor": "Richards Disposal",
    "rowid": "1032299",
    "final_x": "3661761.25645",
    "final_y": "526266.050494",
    "longitude": "-90.1305726339203",
    "latitude": "29.941633559925393",
    "geocoded_column": {
      "latitude": "29.941633559925393",
      "longitude": "-90.1305726339203"
    }
  },
  {
    "service_request": "2023-1032298",
    "request_type": "Trash/Recycling",
    "request_reason": "Request a Large Item Pick Up",
    "date_created": "2023-09-05T16:47:50.000",
    "date_modified": "2023-09-05T17:00:48.000",
    "request_status": "Pending",
    "responsible_agency": "Department of Sanitation",
    "final_address": "1118 Adams St",
    "address_councildis": "A",
    "status": "Assigned to Contractor",
    "contractor": "Richards Disposal",
    "rowid": "1032298",
    "final_x": "3662892.69197",
    "final_y": "527268.363583",
    "longitude": "-90.12696713026003",
    "latitude": "29.944356896325147",
    "geocoded_column": {
      "latitude": "29.944356896325147",
      "longitude": "-90.12696713026003"
    }
  },
  {
    "service_request": "2023-1032297",
    "request_type": "Roads/Drainage",
    "request_reason": "Pothole",
    "date_created": "2023-09-05T16:46:55.000",
    "date_modified": "2023-09-05T16:46:55.000",
    "request_status": "Pending",
    "responsible_agency": "Department of Public Works",
    "final_address": "2600 Orleans Ave",
    "address_councildis": "D",
    "status": "Pending",
    "rowid": "1032297",
    "final_x": "3677151.41723",
    "final_y": "536659.096071",
    "longitude": "-90.08162432101442",
    "latitude": "29.96975777566272",
    "geocoded_column": {
      "latitude": "29.96975777566272",
      "longitude": "-90.08162432101442"
    }
  },
  {
    "service_request": "2023-1032296",
    "request_type": "Trash/Recycling",
    "request_reason": "Repair Trash Cart",
    "date_created": "2023-09-05T16:46:21.000",
    "date_modified": "2023-09-05T16:58:56.000",
    "request_status": "Pending",
    "responsible_agency": "Department of Sanitation",
    "final_address": "2508 Audubon St",
    "address_councildis": "A",
    "status": "Assigned to Contractor",
    "contractor": "Richards Disposal",
    "rowid": "1032296",
    "final_x": "3667065.84839",
    "final_y": "530329.102978",
    "longitude": "-90.11368836722885",
    "latitude": "29.95265146727542",
    "geocoded_column": {
      "latitude": "29.95265146727542",
      "longitude": "-90.11368836722885"
    }
  },
  {
    "service_request": "2023-1032295",
    "request_type": "Trash/Recycling",
    "request_reason": "Return Recycling Cart",
    "date_created": "2023-09-05T16:45:28.000",
    "date_modified": "2023-09-05T16:57:48.000",
    "request_status": "Pending",
    "responsible_agency": "Department of Sanitation",
    "final_address": "4806 Virgilian St",
    "address_councildis": "D",
    "status": "Pending",
    "rowid": "1032295",
    "final_x": "3697370.26122",
    "final_y": "554063.422744",
    "longitude": "-90.01714036751348",
    "latitude": "30.016990469369716",
    "geocoded_column": {
      "latitude": "30.016990469369716",
      "longitude": "-90.01714036751348"
    }
  },
  {
    "service_request": "2023-1032294",
    "request_type": "Trash/Recycling",
    "request_reason": "Order Recycling Cart",
    "date_created": "2023-09-05T16:42:11.000",
    "date_modified": "2023-09-05T16:53:06.000",
    "request_status": "Pending",
    "responsible_agency": "Department of Sanitation",
    "final_address": "7629 Marquis St",
    "address_councildis": "E",
    "status": "Pending",
    "rowid": "1032294",
    "final_x": "3711330.13874",
    "final_y": "566216.910499",
    "longitude": "-89.97257734717289",
    "latitude": "30.049959431798037",
    "geocoded_column": {
      "latitude": "30.049959431798037",
      "longitude": "-89.97257734717289"
    }
  },
  {
    "service_request": "2023-1032293",
    "request_type": "Traffic Signals/Signs/Striping/Streetlights",
    "request_reason": "Street Light Outage/Malfunction",
    "date_created": "2023-09-05T16:42:08.000",
    "date_modified": "2023-09-05T16:53:02.000",
    "request_status": "Pending",
    "responsible_agency": "Department of Public Works",
    "final_address": "2129 General Meyer Ave",
    "address_councildis": "C",
    "status": "Assigned to Contractor",
    "contractor": "Legacy Professional Services",
    "rowid": "1032293",
    "final_x": "3692092.196",
    "final_y": "527703.021503",
    "longitude": "-90.0347607039534",
    "latitude": "29.94467445745477",
    "geocoded_column": {
      "latitude": "29.94467445745477",
      "longitude": "-90.0347607039534"
    }
  },
  {
    "service_request": "2023-1032292",
    "request_type": "Trash/Recycling",
    "request_reason": "MIssed Recycling Pick-Up",
    "date_created": "2023-09-05T16:39:00.000",
    "date_modified": "2023-09-05T16:53:11.000",
    "request_status": "Pending",
    "responsible_agency": "Department of Sanitation",
    "final_address": "10920 Zenith St",
    "address_councildis": "E",
    "status": "Assigned to Contractor",
    "contractor": "Waste Pro",
    "rowid": "1032292",
    "final_x": "3710575.90904",
    "final_y": "565329.583778",
    "longitude": "-89.97499441196027",
    "latitude": "30.04754424812881",
    "geocoded_column": {
      "latitude": "30.04754424812881",
      "longitude": "-89.97499441196027"
    }
  },
  {
    "service_request": "2023-1032291",
    "request_type": "Trash/Recycling",
    "request_reason": "Request a Large Item Pick Up",
    "date_created": "2023-09-05T16:35:34.000",
    "date_modified": "2023-09-05T16:44:19.000",
    "request_status": "Pending",
    "responsible_agency": "Department of Sanitation",
    "final_address": "7527 Michigan St",
    "address_councildis": "E",
    "status": "Assigned to Contractor",
    "contractor": "Waste Pro",
    "rowid": "1032291",
    "final_x": "3712173.33054",
    "final_y": "566011.345443",
    "longitude": "-89.96992008699283",
    "latitude": "30.049366651269946",
    "geocoded_column": {
      "latitude": "30.049366651269946",
      "longitude": "-89.96992008699283"
    }
  },
  {
    "service_request": "2023-1032289",
    "request_type": "Roads/Drainage",
    "request_reason": "Pothole",
    "date_created": "2023-09-05T16:29:04.000",
    "date_modified": "2023-09-05T16:29:04.000",
    "request_status": "Pending",
    "responsible_agency": "Department of Public Works",
    "final_address": "1100 BLK Allen Toussaint Blvd",
    "address_councildis": "D",
    "status": "Pending",
    "rowid": "1032289",
    "final_x": "3676248.45783",
    "final_y": "555228.447402",
    "longitude": "-90.08383646333428",
    "latitude": "30.02084407035367",
    "geocoded_column": {
      "latitude": "30.02084407035367",
      "longitude": "-90.08383646333428"
    }
  },
  {
    "service_request": "2023-1032288",
    "request_type": "Roads/Drainage",
    "request_reason": "Pothole",
    "date_created": "2023-09-05T16:27:21.000",
    "date_modified": "2023-09-05T22:00:35.000",
    "case_close_date": "2023-09-05T17:00:35.000",
    "request_status": "Closed",
    "responsible_agency": "Department of Public Works",
    "final_address": "1061 Allen Toussaint Blvd",
    "address_councildis": "D",
    "status": "Pending",
    "contractor_action": "Completed",
    "rowid": "1032288",
    "final_x": "3673738.70004",
    "final_y": "554466.567064",
    "longitude": "-90.09179266438682",
    "latitude": "30.018824186216307",
    "geocoded_column": {
      "latitude": "30.018824186216307",
      "longitude": "-90.09179266438682"
    }
  },
  {
    "service_request": "2023-1032287",
    "request_type": "Roads/Drainage",
    "request_reason": "Pothole",
    "date_created": "2023-09-05T16:27:20.000",
    "date_modified": "2023-09-05T16:27:20.000",
    "request_status": "Pending",
    "responsible_agency": "Department of Public Works",
    "final_address": "SPRUCE ST & BURDETTE ST",
    "address_councildis": "A",
    "status": "Pending",
    "rowid": "1032287",
    "final_x": "3664691.0",
    "final_y": "529690.78",
    "longitude": "-90.12120842324022",
    "latitude": "29.950965578665176",
    "geocoded_column": {
      "latitude": "29.950965578665176",
      "longitude": "-90.12120842324022"
    }
  },
  {
    "service_request": "2023-1032286",
    "request_type": "Trash/Recycling",
    "request_reason": "Request a Large Item Pick Up",
    "date_created": "2023-09-05T16:24:47.000",
    "date_modified": "2023-09-05T16:29:57.000",
    "request_status": "Pending",
    "responsible_agency": "Department of Sanitation",
    "final_address": "4616 Lafon Dr",
    "address_councildis": "E",
    "status": "Assigned to Contractor",
    "contractor": "Waste Pro",
    "rowid": "1032286",
    "final_x": "3701141.85271",
    "final_y": "553490.648279",
    "longitude": "-90.00524475354818",
    "latitude": "30.01529589565715",
    "geocoded_column": {
      "latitude": "30.01529589565715",
      "longitude": "-90.00524475354818"
    }
  },
  {
    "service_request": "2023-1032285",
    "request_type": "Trash/Recycling",
    "request_reason": "Replace Trash Cart",
    "date_created": "2023-09-05T16:23:53.000",
    "date_modified": "2023-09-05T16:28:29.000",
    "request_status": "Pending",
    "responsible_agency": "Department of Sanitation",
    "final_address": "800 St Mary St",
    "address_councildis": "B",
    "status": "Assigned to Contractor",
    "contractor": "Richards Disposal",
    "rowid": "1032285",
    "final_x": "3680439.91656",
    "final_y": "522008.367546",
    "longitude": "-90.07174836371446",
    "latitude": "29.929374007796202",
    "geocoded_column": {
      "latitude": "29.929374007796202",
      "longitude": "-90.07174836371446"
    }
  },
  {
    "service_request": "2023-1032284",
    "request_type": "Roads/Drainage",
    "request_reason": "Pothole",
    "date_created": "2023-09-05T16:22:12.000",
    "date_modified": "2023-09-05T16:22:12.000",
    "request_status": "Pending",
    "responsible_agency": "Department of Public Works",
    "final_address": "6500 BLK Argonne Blvd",
    "address_councildis": "A",
    "status": "Pending",
    "rowid": "1032284",
    "final_x": "3670517.56674",
    "final_y": "550874.952828",
    "longitude": "-90.10209226894497",
    "latitude": "30.009044091494292",
    "geocoded_column": {
      "latitude": "30.009044091494292",
      "longitude": "-90.10209226894497"
    }
  },
  {
    "service_request": "2023-1032283",
    "request_type": "Property Maintenance",
    "request_reason": "Property Maintenance",
    "date_created": "2023-09-05T16:21:08.000",
    "date_modified": "2023-09-05T16:23:51.000",
    "request_status": "Pending",
    "responsible_agency": "Department of Code Enforcement",
    "final_address": "1413 Ptolemy St",
    "address_councildis": "C",
    "status": "Pending",
    "rowid": "1032283",
    "final_x": "3689831.51318",
    "final_y": "525951.143421",
    "longitude": "-90.0419606661286",
    "latitude": "29.939927643585673",
    "geocoded_column": {
      "latitude": "29.939927643585673",
      "longitude": "-90.0419606661286"
    }
  },
  {
    "service_request": "2023-1032282",
    "request_type": "Roads/Drainage",
    "request_reason": "Pothole",
    "date_created": "2023-09-05T16:21:01.000",
    "date_modified": "2023-09-05T16:21:01.000",
    "request_status": "Pending",
    "responsible_agency": "Department of Public Works",
    "final_address": "1315 Peniston St",
    "address_councildis": "B",
    "status": "Pending",
    "rowid": "1032282",
    "final_x": "3673101.31451",
    "final_y": "520423.11276",
    "longitude": "-90.09496908964098",
    "latitude": "29.925235197927364",
    "geocoded_column": {
      "latitude": "29.925235197927364",
      "longitude": "-90.09496908964098"
    }
  },
  {
    "service_request": "2023-1032281",
    "request_type": "Abandoned Vehicles",
    "request_reason": "Abandoned/Junk Vehicles",
    "date_created": "2023-09-05T16:20:51.000",
    "date_modified": "2023-09-05T16:20:51.000",
    "request_status": "Pending",
    "responsible_agency": "Department of Public Works",
    "final_address": "6700 Virgilian St",
    "address_councildis": "D",
    "status": "Pending",
    "rowid": "1032281",
    "final_x": "3697014.42",
    "final_y": "555985.640857",
    "longitude": "-90.01819496505628",
    "latitude": "30.0222870755002",
    "geocoded_column": {
      "latitude": "30.0222870755002",
      "longitude": "-90.01819496505628"
    }
  },
  {
    "service_request": "2023-1032280",
    "request_type": "Trash/Recycling",
    "request_reason": "Missed Trash Pick-Up",
    "date_created": "2023-09-05T16:17:56.000",
    "date_modified": "2023-09-05T16:19:24.000",
    "request_status": "Pending",
    "responsible_agency": "Department of Sanitation",
    "final_address": "5024 Papania Dr",
    "address_councildis": "E",
    "status": "Assigned to Contractor",
    "contractor": "Waste Pro",
    "rowid": "1032280",
    "final_x": "3715368.39333",
    "final_y": "558235.26358",
    "longitude": "-89.96011638655844",
    "latitude": "30.0278806428792",
    "geocoded_column": {
      "latitude": "30.0278806428792",
      "longitude": "-89.96011638655844"
    }
  },
  {
    "service_request": "2023-1032279",
    "request_type": "Traffic Signals/Signs/Striping/Streetlights",
    "request_reason": "Street Light Outage/Malfunction",
    "date_created": "2023-09-05T16:15:43.000",
    "date_modified": "2023-09-05T16:15:56.000",
    "request_status": "Pending",
    "responsible_agency": "Department of Public Works",
    "final_address": "13049 Cherbourg St",
    "address_councildis": "E",
    "status": "Assigned to Contractor",
    "contractor": "Legacy Professional Services",
    "rowid": "1032279",
    "final_x": "3724121.02425",
    "final_y": "561095.608478",
    "longitude": "-89.93234855600697",
    "latitude": "30.035454098333595",
    "geocoded_column": {
      "latitude": "30.035454098333595",
      "longitude": "-89.93234855600697"
    }
  },
  {
    "service_request": "2023-1032278",
    "request_type": "Property Maintenance",
    "request_reason": "Property Maintenance",
    "date_created": "2023-09-05T16:14:20.000",
    "date_modified": "2023-09-05T16:14:20.000",
    "request_status": "Pending",
    "responsible_agency": "Department of Code Enforcement",
    "final_address": "1527 N Roman St",
    "address_councildis": "D",
    "status": "Pending",
    "rowid": "1032278",
    "final_x": "3681272.41327",
    "final_y": "537831.454985",
    "longitude": "-90.06856898092649",
    "latitude": "29.972856931956223",
    "geocoded_column": {
      "latitude": "29.972856931956223",
      "longitude": "-90.06856898092649"
    }
  },
  {
    "service_request": "2023-1032277",
    "request_type": "Trash/Recycling",
    "request_reason": "Missed Trash Pick-Up",
    "date_created": "2023-09-05T16:09:41.000",
    "date_modified": "2023-09-05T16:09:41.000",
    "request_status": "Pending",
    "responsible_agency": "Department of Sanitation",
    "final_address": "426 S Clark St",
    "address_councildis": "B",
    "status": "Assigned to Contractor",
    "contractor": "Richards Disposal",
    "rowid": "1032277",
    "final_x": "3672013.55668",
    "final_y": "535810.143943",
    "longitude": "-90.09787909598866",
    "latitude": "29.967576769050133",
    "geocoded_column": {
      "latitude": "29.967576769050133",
      "longitude": "-90.09787909598866"
    }
  },
  {
    "service_request": "2023-1032276",
    "request_type": "Trash/Recycling",
    "request_reason": "Missed Trash Pick-Up",
    "date_created": "2023-09-05T16:06:55.000",
    "date_modified": "2023-09-05T16:06:56.000",
    "request_status": "Pending",
    "responsible_agency": "Department of Sanitation",
    "final_address": "1838 France St",
    "address_councildis": "D",
    "status": "Assigned to Contractor",
    "contractor": "IV Waste",
    "rowid": "1032276",
    "final_x": "3693081.55427",
    "final_y": "538098.019145",
    "longitude": "-90.03126407017844",
    "latitude": "29.97322619277009",
    "geocoded_column": {
      "latitude": "29.97322619277009",
      "longitude": "-90.03126407017844"
    }
  },
  {
    "service_request": "2023-1032275",
    "request_type": "Trash/Recycling",
    "request_reason": "Request a Large Item Pick Up",
    "date_created": "2023-09-05T16:03:11.000",
    "date_modified": "2023-09-05T16:03:12.000",
    "request_status": "Pending",
    "responsible_agency": "Department of Sanitation",
    "final_address": "2331 Upperline St",
    "address_councildis": "B",
    "status": "Assigned to Contractor",
    "contractor": "Richards Disposal",
    "rowid": "1032275",
    "final_x": "3669194.64801",
    "final_y": "523462.649083",
    "longitude": "-90.10719856086108",
    "latitude": "29.933708468915857",
    "geocoded_column": {
      "latitude": "29.933708468915857",
      "longitude": "-90.10719856086108"
    }
  },
  {
    "service_request": "2023-1032274",
    "request_type": "Trash/Recycling",
    "request_reason": "MIssed Recycling Pick-Up",
    "date_created": "2023-09-05T16:02:36.000",
    "date_modified": "2023-09-05T16:02:37.000",
    "request_status": "Pending",
    "responsible_agency": "Department of Sanitation",
    "final_address": "1240 Camp St",
    "address_councildis": "B",
    "status": "Assigned to Contractor",
    "contractor": "Richards Disposal",
    "rowid": "1032274",
    "final_x": "3680198.09986",
    "final_y": "525358.634365",
    "longitude": "-90.07239534849856",
    "latitude": "29.93859345473388",
    "geocoded_column": {
      "latitude": "29.93859345473388",
      "longitude": "-90.07239534849856"
    }
  },
  {
    "service_request": "2023-1032273",
    "request_type": "Roads/Drainage",
    "request_reason": "Pothole",
    "date_created": "2023-09-05T16:01:58.000",
    "date_modified": "2023-09-05T16:01:58.000",
    "request_status": "Pending",
    "responsible_agency": "Department of Public Works",
    "final_address": "1421 Constantinople St",
    "address_councildis": "B",
    "status": "Pending",
    "rowid": "1032273",
    "final_x": "3672433.24257",
    "final_y": "520667.657465",
    "longitude": "-90.09706965638372",
    "latitude": "29.925927453713577",
    "geocoded_column": {
      "latitude": "29.925927453713577",
      "longitude": "-90.09706965638372"
    }
  },
  {
    "service_request": "2023-1032272",
    "request_type": "Property Maintenance",
    "request_reason": "Property Maintenance",
    "date_created": "2023-09-05T15:57:14.000",
    "date_modified": "2023-09-05T15:57:14.000",
    "request_status": "Pending",
    "responsible_agency": "Department of Code Enforcement",
    "final_address": "13761 N Lemans St",
    "address_councildis": "E",
    "status": "Pending",
    "rowid": "1032272",
    "final_x": "3726935.61465",
    "final_y": "563622.535329",
    "longitude": "-89.92335584010155",
    "latitude": "30.04230717722948",
    "geocoded_column": {
      "latitude": "30.04230717722948",
      "longitude": "-89.92335584010155"
    }
  },
  {
    "service_request": "2023-1032271",
    "request_type": "Property Maintenance",
    "request_reason": "Property Maintenance",
    "date_created": "2023-09-05T15:55:25.000",
    "date_modified": "2023-09-05T15:55:25.000",
    "request_status": "Pending",
    "responsible_agency": "Department of Code Enforcement",
    "final_address": "13761 N Lemans St",
    "address_councildis": "E",
    "status": "Pending",
    "rowid": "1032271",
    "final_x": "3726935.61465",
    "final_y": "563622.535329",
    "longitude": "-89.92335584010155",
    "latitude": "30.04230717722948",
    "geocoded_column": {
      "latitude": "30.04230717722948",
      "longitude": "-89.92335584010155"
    }
  },
  {
    "service_request": "2023-1032270",
    "request_type": "Traffic Signals/Signs/Striping/Streetlights",
    "request_reason": "Street Light Outage/Malfunction",
    "date_created": "2023-09-05T15:51:48.000",
    "date_modified": "2023-09-05T15:51:49.000",
    "request_status": "Pending",
    "responsible_agency": "Department of Public Works",
    "final_address": "200 BLK Olivier St",
    "address_councildis": "C",
    "status": "Assigned to Contractor",
    "contractor": "Legacy Professional Services",
    "rowid": "1032270",
    "final_x": "3687219.3122",
    "final_y": "530982.988675",
    "longitude": "-90.05002982838893",
    "latitude": "29.953844194895602",
    "geocoded_column": {
      "latitude": "29.953844194895602",
      "longitude": "-90.05002982838893"
    }
  },
  {
    "service_request": "2023-1032269",
    "request_type": "Parks & Parkways",
    "request_reason": "Request Tree Service (Right of Way/Public Property)",
    "date_created": "2023-09-05T15:49:57.000",
    "date_modified": "2023-09-05T15:49:57.000",
    "request_status": "Pending",
    "responsible_agency": "Department of Parks & Parkway",
    "final_address": "PATTERSON ST & BAUMAN ST",
    "address_councildis": "C",
    "status": "Pending",
    "rowid": "1032269",
    "final_x": "3686946.5",
    "final_y": "531411.98",
    "longitude": "-90.05087609397619",
    "latitude": "29.955032172294356",
    "geocoded_column": {
      "latitude": "29.955032172294356",
      "longitude": "-90.05087609397619"
    }
  },
  {
    "service_request": "2023-1032268",
    "request_type": "Trash/Recycling",
    "request_reason": "Illegal Dumping",
    "date_created": "2023-09-05T15:48:03.000",
    "date_modified": "2023-09-05T15:48:03.000",
    "request_status": "Pending",
    "responsible_agency": "Department of Sanitation",
    "final_address": "2707 Orleans Ave",
    "address_councildis": "A",
    "status": "Pending",
    "rowid": "1032268",
    "final_x": "3676747.53512",
    "final_y": "537213.051272",
    "longitude": "-90.0828807269015",
    "latitude": "29.97129308883862",
    "geocoded_column": {
      "latitude": "29.97129308883862",
      "longitude": "-90.0828807269015"
    }
  },
  {
    "service_request": "2023-1032267",
    "request_type": "Traffic Signals/Signs/Striping/Streetlights",
    "request_reason": "Request for Traffic Calming due to Speeding",
    "date_created": "2023-09-05T15:47:28.000",
    "date_modified": "2023-09-05T15:47:28.000",
    "request_status": "Pending",
    "responsible_agency": "Department of Public Works",
    "final_address": "716 N Claiborne Ave",
    "address_councildis": "C",
    "status": "Pending",
    "rowid": "1032267",
    "final_x": "3679970.34715",
    "final_y": "534692.662022",
    "longitude": "-90.0727902035217",
    "latitude": "29.964265781503546",
    "geocoded_column": {
      "latitude": "29.964265781503546",
      "longitude": "-90.0727902035217"
    }
  },
  {
    "service_request": "2023-1032266",
    "request_type": "Abandoned Vehicles",
    "request_reason": "Abandoned/Junk Vehicles",
    "date_created": "2023-09-05T15:44:14.000",
    "date_modified": "2023-09-05T15:44:15.000",
    "request_status": "Pending",
    "responsible_agency": "Department of Public Works",
    "final_address": "1913 N Dorgenois St",
    "address_councildis": "D",
    "status": "Pending",
    "rowid": "1032266",
    "final_x": "3681300.64572",
    "final_y": "541232.105548",
    "longitude": "-90.06836125246392",
    "latitude": "29.982206682156068",
    "geocoded_column": {
      "latitude": "29.982206682156068",
      "longitude": "-90.06836125246392"
    }
  },
  {
    "service_request": "2023-1032265",
    "request_type": "Trash/Recycling",
    "request_reason": "Request a Large Item Pick Up",
    "date_created": "2023-09-05T15:42:46.000",
    "date_modified": "2023-09-05T15:42:47.000",
    "request_status": "Pending",
    "responsible_agency": "Department of Sanitation",
    "final_address": "6861 Argonne Blvd",
    "address_councildis": "A",
    "status": "Assigned to Contractor",
    "contractor": "IV Waste",
    "rowid": "1032265",
    "final_x": "3670754.65313",
    "final_y": "552982.938263",
    "longitude": "-90.10127162196488",
    "latitude": "30.014833299927723",
    "geocoded_column": {
      "latitude": "30.014833299927723",
      "longitude": "-90.10127162196488"
    }
  },
  {
    "service_request": "2023-1032264",
    "request_type": "Trash/Recycling",
    "request_reason": "Return Trash Cart",
    "date_created": "2023-09-05T15:42:18.000",
    "date_modified": "2023-09-05T15:42:18.000",
    "request_status": "Pending",
    "responsible_agency": "Department of Sanitation",
    "final_address": "2135 Louisa St",
    "address_councildis": "D",
    "status": "Assigned to Contractor",
    "contractor": "IV Waste",
    "rowid": "1032264",
    "final_x": "3690604.46851",
    "final_y": "539891.656458",
    "longitude": "-90.03902319105475",
    "latitude": "29.97823522443364",
    "geocoded_column": {
      "latitude": "29.97823522443364",
      "longitude": "-90.03902319105475"
    }
  },
  {
    "service_request": "2023-1032263",
    "request_type": "Trash/Recycling",
    "request_reason": "Repair Trash Cart",
    "date_created": "2023-09-05T15:41:44.000",
    "date_modified": "2023-09-05T15:41:45.000",
    "request_status": "Pending",
    "responsible_agency": "Department of Sanitation",
    "final_address": "2135 Louisa St",
    "address_councildis": "D",
    "status": "Assigned to Contractor",
    "contractor": "IV Waste",
    "rowid": "1032263",
    "final_x": "3690604.46851",
    "final_y": "539891.656458",
    "longitude": "-90.03902319105475",
    "latitude": "29.97823522443364",
    "geocoded_column": {
      "latitude": "29.97823522443364",
      "longitude": "-90.03902319105475"
    }
  },
  {
    "service_request": "2023-1032262",
    "request_type": "Abandoned Vehicles",
    "request_reason": "Abandoned/Junk Vehicles",
    "date_created": "2023-09-05T15:39:59.000",
    "date_modified": "2023-09-05T15:39:59.000",
    "request_status": "Pending",
    "responsible_agency": "Department of Public Works",
    "final_address": "818 Sixth St",
    "address_councildis": "B",
    "status": "Pending",
    "rowid": "1032262",
    "final_x": "3677093.64949",
    "final_y": "519734.75948",
    "longitude": "-90.08239026896912",
    "latitude": "29.923223205223845",
    "geocoded_column": {
      "latitude": "29.923223205223845",
      "longitude": "-90.08239026896912"
    }
  },
  {
    "service_request": "2023-1032261",
    "request_type": "Trash/Recycling",
    "request_reason": "Request a Large Item Pick Up",
    "date_created": "2023-09-05T15:38:22.000",
    "date_modified": "2023-09-05T15:38:23.000",
    "request_status": "Pending",
    "responsible_agency": "Department of Sanitation",
    "final_address": "6861 Argonne Blvd",
    "address_councildis": "A",
    "status": "Assigned to Contractor",
    "contractor": "IV Waste",
    "rowid": "1032261",
    "final_x": "3670754.65313",
    "final_y": "552982.938263",
    "longitude": "-90.10127162196488",
    "latitude": "30.014833299927723",
    "geocoded_column": {
      "latitude": "30.014833299927723",
      "longitude": "-90.10127162196488"
    }
  },
  {
    "service_request": "2023-1032260",
    "request_type": "Trash/Recycling",
    "request_reason": "MIssed Recycling Pick-Up",
    "date_created": "2023-09-05T15:37:24.000",
    "date_modified": "2023-09-05T15:37:25.000",
    "request_status": "Pending",
    "responsible_agency": "Department of Sanitation",
    "final_address": "8510 Scottsdale Dr",
    "address_councildis": "E",
    "status": "Assigned to Contractor",
    "contractor": "Waste Pro",
    "rowid": "1032260",
    "final_x": "3704438.24785",
    "final_y": "561489.143647",
    "longitude": "-89.99453449481085",
    "latitude": "30.03718318706802",
    "geocoded_column": {
      "latitude": "30.03718318706802",
      "longitude": "-89.99453449481085"
    }
  },
  {
    "service_request": "2023-1032259",
    "request_type": "Trash/Recycling",
    "request_reason": "Missed Trash Pick-Up",
    "date_created": "2023-09-05T15:35:52.000",
    "date_modified": "2023-09-05T15:35:52.000",
    "request_status": "Pending",
    "responsible_agency": "Department of Sanitation",
    "final_address": "3434 Robert St",
    "address_councildis": "B",
    "status": "Assigned to Contractor",
    "contractor": "Richards Disposal",
    "rowid": "1032259",
    "final_x": "3668892.3115",
    "final_y": "527584.359039",
    "longitude": "-90.10801387920444",
    "latitude": "29.94505073382072",
    "geocoded_column": {
      "latitude": "29.94505073382072",
      "longitude": "-90.10801387920444"
    }
  },
  {
    "service_request": "2023-1032258",
    "request_type": "Roads/Drainage",
    "request_reason": "Pothole",
    "date_created": "2023-09-05T15:35:25.000",
    "date_modified": "2023-09-05T15:35:25.000",
    "request_status": "Pending",
    "responsible_agency": "Department of Public Works",
    "final_address": "4216 Chestnut St",
    "address_councildis": "B",
    "status": "Pending",
    "rowid": "1032258",
    "final_x": "3671574.31393",
    "final_y": "519539.203703",
    "longitude": "-90.09981939416457",
    "latitude": "29.922850019854593",
    "geocoded_column": {
      "latitude": "29.922850019854593",
      "longitude": "-90.09981939416457"
    }
  },
  {
    "service_request": "2023-1032257",
    "request_type": "Roads/Drainage",
    "request_reason": "Catch Basin - Clogged",
    "date_created": "2023-09-05T15:35:06.000",
    "date_modified": "2023-09-05T15:35:06.000",
    "request_status": "Pending",
    "responsible_agency": "Department of Public Works",
    "final_address": "2325 Baronne St",
    "address_councildis": "B",
    "status": "Pending",
    "rowid": "1032257",
    "final_x": "3676558.69979",
    "final_y": "523880.558652",
    "longitude": "-90.08393620834569",
    "latitude": "29.93463885292028",
    "geocoded_column": {
      "latitude": "29.93463885292028",
      "longitude": "-90.08393620834569"
    }
  },
  {
    "service_request": "2023-1032256",
    "request_type": "Utility Poles",
    "request_reason": "Utility Pole Leaning",
    "date_created": "2023-09-05T15:34:36.000",
    "date_modified": "2023-09-05T15:34:41.000",
    "request_status": "Pending",
    "responsible_agency": "Utility Company Collective",
    "final_address": "FRANCE ST & N DORGENOIS ST & ALVAR ST OVERPASS",
    "address_councildis": "D",
    "status": "Pending",
    "rowid": "1032256",
    "final_x": "3693694.4",
    "final_y": "540433.88",
    "longitude": "-90.02924462948002",
    "latitude": "29.979629811792094",
    "geocoded_column": {
      "latitude": "29.979629811792094",
      "longitude": "-90.02924462948002"
    }
  },
  {
    "service_request": "2023-1032255",
    "request_type": "Trash/Recycling",
    "request_reason": "Request a Large Item Pick Up",
    "date_created": "2023-09-05T15:33:41.000",
    "date_modified": "2023-09-05T15:33:42.000",
    "request_status": "Pending",
    "responsible_agency": "Department of Sanitation",
    "final_address": "1820 Urquhart St",
    "address_councildis": "C",
    "status": "Assigned to Contractor",
    "contractor": "IV Waste",
    "rowid": "1032255",
    "final_x": "3683646.75151",
    "final_y": "536832.958536",
    "longitude": "-90.06110539401739",
    "latitude": "29.97003913767136",
    "geocoded_column": {
      "latitude": "29.97003913767136",
      "longitude": "-90.06110539401739"
    }
  },
  {
    "service_request": "2023-1032254",
    "request_type": "Abandoned Vehicles",
    "request_reason": "Abandoned/Junk Vehicles",
    "date_created": "2023-09-05T15:30:14.000",
    "date_modified": "2023-09-05T15:30:14.000",
    "request_status": "Pending",
    "responsible_agency": "Department of Public Works",
    "final_address": "4600 Camp St",
    "address_councildis": "B",
    "status": "Pending",
    "rowid": "1032254",
    "final_x": "3670244.47271",
    "final_y": "519034.847479",
    "longitude": "-90.10403427206705",
    "latitude": "29.921502497590613",
    "geocoded_column": {
      "latitude": "29.921502497590613",
      "longitude": "-90.10403427206705"
    }
  },
  {
    "service_request": "2023-1032253",
    "request_type": "Roads/Drainage",
    "request_reason": "Street Subsidence (Sinking)",
    "date_created": "2023-09-05T15:29:54.000",
    "date_modified": "2023-09-05T15:29:56.000",
    "request_status": "Pending",
    "responsible_agency": "Department of Public Works",
    "final_address": "508 S Norman C Francis Prkwy",
    "address_councildis": "B",
    "status": "Pending",
    "rowid": "1032253",
    "final_x": "3672295.49716",
    "final_y": "535280.430854",
    "longitude": "-90.09700676934676",
    "latitude": "29.966111874252814",
    "geocoded_column": {
      "latitude": "29.966111874252814",
      "longitude": "-90.09700676934676"
    }
  },
  {
    "service_request": "2023-1032252",
    "request_type": "Trash/Recycling",
    "request_reason": "Order Recycling Cart",
    "date_created": "2023-09-05T15:27:37.000",
    "date_modified": "2023-09-05T15:27:37.000",
    "request_status": "Pending",
    "responsible_agency": "Department of Sanitation",
    "final_address": "9743 W Wheaton Cir",
    "address_councildis": "E",
    "status": "Pending",
    "rowid": "1032252",
    "final_x": "3708277.96868",
    "final_y": "562076.320543",
    "longitude": "-89.98237833952811",
    "latitude": "30.038673774607933",
    "geocoded_column": {
      "latitude": "30.038673774607933",
      "longitude": "-89.98237833952811"
    }
  },
  {
    "service_request": "2023-1032251",
    "request_type": "Trash/Recycling",
    "request_reason": "Order Trash Cart",
    "date_created": "2023-09-05T15:27:06.000",
    "date_modified": "2023-09-05T15:27:07.000",
    "request_status": "Pending",
    "responsible_agency": "Department of Sanitation",
    "final_address": "9743 W Wheaton Cir",
    "address_councildis": "E",
    "status": "Assigned to Contractor",
    "contractor": "Waste Pro",
    "rowid": "1032251",
    "final_x": "3708277.96868",
    "final_y": "562076.320543",
    "longitude": "-89.98237833952811",
    "latitude": "30.038673774607933",
    "geocoded_column": {
      "latitude": "30.038673774607933",
      "longitude": "-89.98237833952811"
    }
  },
  {
    "service_request": "2023-1032250",
    "request_type": "Trash/Recycling",
    "request_reason": "Request a Large Item Pick Up",
    "date_created": "2023-09-05T15:24:59.000",
    "date_modified": "2023-09-05T15:25:00.000",
    "request_status": "Pending",
    "responsible_agency": "Department of Sanitation",
    "final_address": "3518 Gibson St",
    "address_councildis": "D",
    "status": "Assigned to Contractor",
    "contractor": "IV Waste",
    "rowid": "1032250",
    "final_x": "3678886.53154",
    "final_y": "545267.698831",
    "longitude": "-90.07584631401862",
    "latitude": "29.993376212594185",
    "geocoded_column": {
      "latitude": "29.993376212594185",
      "longitude": "-90.07584631401862"
    }
  },
  {
    "service_request": "2023-1032249",
    "request_type": "Trash/Recycling",
    "request_reason": "Request a Large Item Pick Up",
    "date_created": "2023-09-05T15:24:16.000",
    "date_modified": "2023-09-05T15:24:17.000",
    "request_status": "Pending",
    "responsible_agency": "Department of Sanitation",
    "final_address": "2022 Baronne St",
    "address_councildis": "B",
    "status": "Assigned to Contractor",
    "contractor": "Richards Disposal",
    "rowid": "1032249",
    "final_x": "3677443.63451",
    "final_y": "524724.21734",
    "longitude": "-90.08111337871426",
    "latitude": "29.936932075767135",
    "geocoded_column": {
      "latitude": "29.936932075767135",
      "longitude": "-90.08111337871426"
    }
  },
  {
    "service_request": "2023-1032248",
    "request_type": "Trash/Recycling",
    "request_reason": "Repair Trash Cart",
    "date_created": "2023-09-05T15:21:29.000",
    "date_modified": "2023-09-05T15:21:29.000",
    "request_status": "Pending",
    "responsible_agency": "Department of Sanitation",
    "final_address": "2316 Marengo St",
    "address_councildis": "B",
    "status": "Assigned to Contractor",
    "contractor": "Richards Disposal",
    "rowid": "1032248",
    "final_x": "3671640.75521",
    "final_y": "523612.650747",
    "longitude": "-90.09947120431369",
    "latitude": "29.934048725248765",
    "geocoded_column": {
      "latitude": "29.934048725248765",
      "longitude": "-90.09947120431369"
    }
  },
  {
    "service_request": "2023-1032247",
    "request_type": "Roads/Drainage",
    "request_reason": "Damaged Sidewalk",
    "date_created": "2023-09-05T15:20:32.000",
    "date_modified": "2023-09-05T15:20:33.000",
    "request_status": "Pending",
    "responsible_agency": "Department of Public Works",
    "final_address": "1418 Magazine St",
    "address_councildis": "B",
    "status": "Pending",
    "rowid": "1032247",
    "final_x": "3680364.33461",
    "final_y": "524347.535356",
    "longitude": "-90.07190566963638",
    "latitude": "29.935808236306624",
    "geocoded_column": {
      "latitude": "29.935808236306624",
      "longitude": "-90.07190566963638"
    }
  },
  {
    "service_request": "2023-1032246",
    "request_type": "Roads/Drainage",
    "request_reason": "Pothole",
    "date_created": "2023-09-05T15:18:48.000",
    "date_modified": "2023-09-05T15:18:48.000",
    "request_status": "Pending",
    "responsible_agency": "Department of Public Works",
    "final_address": "1312 Milan St",
    "address_councildis": "B",
    "status": "Pending",
    "rowid": "1032246",
    "final_x": "3671625.82823",
    "final_y": "520286.919608",
    "longitude": "-90.09963137110304",
    "latitude": "29.92490447494246",
    "geocoded_column": {
      "latitude": "29.92490447494246",
      "longitude": "-90.09963137110304"
    }
  },
  {
    "service_request": "2023-1032245",
    "request_type": "Trash/Recycling",
    "request_reason": "Request a Large Item Pick Up",
    "date_created": "2023-09-05T15:16:34.000",
    "date_modified": "2023-09-05T15:16:35.000",
    "request_status": "Pending",
    "responsible_agency": "Department of Sanitation",
    "final_address": "2519 Jasmine St",
    "address_councildis": "D",
    "status": "Assigned to Contractor",
    "contractor": "IV Waste",
    "rowid": "1032245",
    "final_x": "3686417.36962",
    "final_y": "548089.36501",
    "longitude": "-90.05195798718219",
    "latitude": "30.000905381915338",
    "geocoded_column": {
      "latitude": "30.000905381915338",
      "longitude": "-90.05195798718219"
    }
  },
  {
    "service_request": "2023-1032244",
    "request_type": "Mayor's Request",
    "request_reason": "Entergy Bill Payment Assistance",
    "date_created": "2023-09-05T15:13:19.000",
    "date_modified": "2023-09-05T15:24:55.000",
    "request_status": "Pending",
    "responsible_agency": "Executive Office of the Mayor",
    "final_address": "New Orleans,LA",
    "rowid": "1032244",
    "longitude": "0.0",
    "latitude": "0.0",
    "geocoded_column": {
      "latitude": "0.0",
      "longitude": "0.0"
    }
  },
  {
    "service_request": "2023-1032243",
    "request_type": "Trash/Recycling",
    "request_reason": "Replace Trash Cart",
    "date_created": "2023-09-05T15:12:31.000",
    "date_modified": "2023-09-05T15:12:32.000",
    "request_status": "Pending",
    "responsible_agency": "Department of Sanitation",
    "final_address": "2800 Banks St",
    "address_councildis": "B",
    "status": "Assigned to Contractor",
    "contractor": "Richards Disposal",
    "rowid": "1032243",
    "final_x": "3674083.11752",
    "final_y": "534477.686021",
    "longitude": "-90.09138897541445",
    "latitude": "29.963851439977457",
    "geocoded_column": {
      "latitude": "29.963851439977457",
      "longitude": "-90.09138897541445"
    }
  },
  {
    "service_request": "2023-1032241",
    "request_type": "Trash/Recycling",
    "request_reason": "Replace Trash Cart",
    "date_created": "2023-09-05T15:10:26.000",
    "date_modified": "2023-09-05T16:58:17.000",
    "case_close_date": "2023-09-05T11:58:17.000",
    "request_status": "Closed",
    "responsible_agency": "Department of Sanitation",
    "final_address": "2800 Banks St",
    "address_councildis": "B",
    "status": "Duplicate Request",
    "contractor": "Richards Disposal",
    "rowid": "1032241",
    "final_x": "3674083.11752",
    "final_y": "534477.686021",
    "longitude": "-90.09138897541445",
    "latitude": "29.963851439977457",
    "geocoded_column": {
      "latitude": "29.963851439977457",
      "longitude": "-90.09138897541445"
    }
  },
  {
    "service_request": "2023-1032240",
    "request_type": "Trash/Recycling",
    "request_reason": "Repair Recycling Cart",
    "date_created": "2023-09-05T15:08:32.000",
    "date_modified": "2023-09-05T15:08:32.000",
    "request_status": "Pending",
    "responsible_agency": "Department of Sanitation",
    "final_address": "5928 Milne Blvd",
    "address_councildis": "A",
    "status": "Pending",
    "rowid": "1032240",
    "final_x": "3666925.78266",
    "final_y": "547345.574033",
    "longitude": "-90.1135586601324",
    "latitude": "29.999445156828873",
    "geocoded_column": {
      "latitude": "29.999445156828873",
      "longitude": "-90.1135586601324"
    }
  },