[
  {
    "service_request": "2023-1025386",
    "request_type": "Traffic Signals/Signs/Striping/Streetlights",
    "request_reason": "Street Light Outage/Malfunction",
    "date_created": "2023-08-11T02:01:51.000",
    "date_modified": "2023-08-11T02:03:55.000",
    "request_status": "Pending",
    "responsible_agency": "Department of Public Works",
    "final_address": "3701 Tall Pines Dr",
    "address_councildis": "C",
    "status": "Assigned to Contractor",
    "contractor": "Legacy Professional Services",
    "rowid": "1025386",
    "final_x": "3703621.76407",
    "final_y": "513491.010034",
    "longitude": "-89.99888127677633",
    "latitude": "29.905232037320832",
    "geocoded_column": {
      "latitude": "29.905232037320832",
      "longitude": "-89.99888127677633"
    }
  },
  {
    "service_request": "2023-1025385",
    "request_type": "Traffic Signals/Signs/Striping/Streetlights",
    "request_reason": "Street Light Outage/Malfunction",
    "date_created": "2023-08-11T01:40:33.000",
    "date_modified": "2023-08-11T01:40:33.000",
    "request_status": "Pending",
    "responsible_agency": "Department of Public Works",
    "final_address": "81 Egret St",
    "address_councildis": "D",
    "status": "Assigned to Contractor",
    "contractor": "Legacy Professional Services",
    "rowid": "1025385",
    "final_x": "3673652.91816",
    "final_y": "555602.656473",
    "longitude": "-90.0920248179272",
    "latitude": "30.021950579402514",
    "geocoded_column": {
      "latitude": "30.021950579402514",
      "longitude": "-90.0920248179272"
    }
  },
  {
    "service_request": "2023-1025384",
    "request_type": "Roads/Drainage",
    "request_reason": "Pothole",
    "date_created": "2023-08-11T01:09:30.000",
    "date_modified": "2023-08-11T01:09:30.000",
    "request_status": "Pending",
    "responsible_agency": "Department of Public Works",
    "final_address": "1582 Henry Clay Ave",
    "address_councildis": "A",
    "status": "Pending",
    "rowid": "1025384",
    "final_x": "3664965.95636",
    "final_y": "522812.780283",
    "longitude": "-90.1205701026709",
    "latitude": "29.932045281635194",
    "geocoded_column": {
      "latitude": "29.932045281635194",
      "longitude": "-90.1205701026709"
    }
  },
  {
    "service_request": "2023-1025383",
    "request_type": "Traffic Signals/Signs/Striping/Streetlights",
    "request_reason": "Traffic Sign Missing/Damaged",
    "date_created": "2023-08-10T23:01:25.000",
    "date_modified": "2023-08-10T23:01:25.000",
    "request_status": "Pending",
    "responsible_agency": "Department of Public Works",
    "final_address": "BELLAIRE DR & 30TH ST",
    "address_councildis": "A",
    "status": "Pending",
    "rowid": "1025383",
    "final_x": "3664449.6",
    "final_y": "550571.08",
    "longitude": "-90.12127324894273",
    "latitude": "30.008386433646056",
    "geocoded_column": {
      "latitude": "30.008386433646056",
      "longitude": "-90.12127324894273"
    }
  },
  {
    "service_request": "2023-1025382",
    "request_type": "Roads/Drainage",
    "request_reason": "Road Shoulder Repair",
    "date_created": "2023-08-10T22:17:47.000",
    "date_modified": "2023-08-10T22:17:47.000",
    "request_status": "Pending",
    "responsible_agency": "Department of Public Works",
    "final_address": "3600 BLK Coliseum St",
    "address_councildis": "B",
    "status": "Pending",
    "rowid": "1025382",
    "final_x": "3673679.77859",
    "final_y": "520234.645014",
    "longitude": "-90.09314949821882",
    "latitude": "29.924699769259288",
    "geocoded_column": {
      "latitude": "29.924699769259288",
      "longitude": "-90.09314949821882"
    }
  },
  {
    "service_request": "2023-1025381",
    "request_type": "Traffic Signals/Signs/Striping/Streetlights",
    "request_reason": "Street Light Outage/Malfunction",
    "date_created": "2023-08-10T22:14:05.000",
    "date_modified": "2023-08-10T22:14:06.000",
    "request_status": "Pending",
    "responsible_agency": "Department of Public Works",
    "final_address": "7041 Canal Blvd",
    "address_councildis": "A",
    "status": "Assigned to Contractor",
    "contractor": "Legacy Professional Services",
    "rowid": "1025381",
    "final_x": "3669359.03956",
    "final_y": "554425.410072",
    "longitude": "-90.10563227070358",
    "latitude": "30.018840774620386",
    "geocoded_column": {
      "latitude": "30.018840774620386",
      "longitude": "-90.10563227070358"
    }
  },
  {
    "service_request": "2023-1025380",
    "request_type": "Trash/Recycling",
    "request_reason": "Missed Trash Pick-Up",
    "date_created": "2023-08-10T22:12:22.000",
    "date_modified": "2023-08-10T22:12:22.000",
    "request_status": "Pending",
    "responsible_agency": "Department of Sanitation",
    "final_address": "2532 Winthrop St",
    "address_councildis": "E",
    "status": "Assigned to Contractor",
    "contractor": "Waste Pro",
    "rowid": "1025380",
    "final_x": "3700754.43722",
    "final_y": "538936.837002",
    "longitude": "-90.00700106126702",
    "latitude": "29.9752906635259",
    "geocoded_column": {
      "latitude": "29.9752906635259",
      "longitude": "-90.00700106126702"
    }
  },
  {
    "service_request": "2023-1025379",
    "request_type": "Traffic Signals/Signs/Striping/Streetlights",
    "request_reason": "Street Light Outage/Malfunction",
    "date_created": "2023-08-10T22:12:01.000",
    "date_modified": "2023-08-10T22:12:02.000",
    "request_status": "Pending",
    "responsible_agency": "Department of Public Works",
    "final_address": "7041 Canal Blvd",
    "address_councildis": "A",
    "status": "Assigned to Contractor",
    "contractor": "Legacy Professional Services",
    "rowid": "1025379",
    "final_x": "3669359.03956",
    "final_y": "554425.410072",
    "longitude": "-90.10563227070358",
    "latitude": "30.018840774620386",
    "geocoded_column": {
      "latitude": "30.018840774620386",
      "longitude": "-90.10563227070358"
    }
  },
  {
    "service_request": "2023-1025378",
    "request_type": "Trash/Recycling",
    "request_reason": "Missed Trash Pick-Up",
    "date_created": "2023-08-10T22:11:27.000",
    "date_modified": "2023-08-10T22:11:27.000",
    "request_status": "Pending",
    "responsible_agency": "Department of Sanitation",
    "final_address": "2532 Winthrop St",
    "address_councildis": "E",
    "status": "Assigned to Contractor",
    "contractor": "Waste Pro",
    "rowid": "1025378",
    "final_x": "3700754.43722",
    "final_y": "538936.837002",
    "longitude": "-90.00700106126702",
    "latitude": "29.9752906635259",
    "geocoded_column": {
      "latitude": "29.9752906635259",
      "longitude": "-90.00700106126702"
    }
  },
  {
    "service_request": "2023-1025377",
    "request_type": "Traffic Signals/Signs/Striping/Streetlights",
    "request_reason": "Street Light Outage/Malfunction",
    "date_created": "2023-08-10T22:10:43.000",
    "date_modified": "2023-08-10T22:10:43.000",
    "request_status": "Pending",
    "responsible_agency": "Department of Public Works",
    "final_address": "7041 Canal Blvd",
    "address_councildis": "A",
    "status": "Assigned to Contractor",
    "contractor": "Legacy Professional Services",
    "rowid": "1025377",
    "final_x": "3669359.03956",
    "final_y": "554425.410072",
    "longitude": "-90.10563227070358",
    "latitude": "30.018840774620386",
    "geocoded_column": {
      "latitude": "30.018840774620386",
      "longitude": "-90.10563227070358"
    }
  },
  {
    "service_request": "2023-1025376",
    "request_type": "Traffic Signals/Signs/Striping/Streetlights",
    "request_reason": "Street Light Outage/Malfunction",
    "date_created": "2023-08-10T22:09:13.000",
    "date_modified": "2023-08-10T22:09:14.000",
    "request_status": "Pending",
    "responsible_agency": "Department of Public Works",
    "final_address": "7041 Canal Blvd",
    "address_councildis": "A",
    "status": "Assigned to Contractor",
    "contractor": "Legacy Professional Services",
    "rowid": "1025376",
    "final_x": "3669359.03956",
    "final_y": "554425.410072",
    "longitude": "-90.10563227070358",
    "latitude": "30.018840774620386",
    "geocoded_column": {
      "latitude": "30.018840774620386",
      "longitude": "-90.10563227070358"
    }
  },
  {
    "service_request": "2023-1025375",
    "request_type": "Traffic Signals/Signs/Striping/Streetlights",
    "request_reason": "Street Light Outage/Malfunction",
    "date_created": "2023-08-10T22:08:01.000",
    "date_modified": "2023-08-10T22:08:02.000",
    "request_status": "Pending",
    "responsible_agency": "Department of Public Works",
    "final_address": "7041 Canal Blvd",
    "address_councildis": "A",
    "status": "Assigned to Contractor",
    "contractor": "Legacy Professional Services",
    "rowid": "1025375",
    "final_x": "3669359.03956",
    "final_y": "554425.410072",
    "longitude": "-90.10563227070358",
    "latitude": "30.018840774620386",
    "geocoded_column": {
      "latitude": "30.018840774620386",
      "longitude": "-90.10563227070358"
    }
  },
  {
    "service_request": "2023-1025374",
    "request_type": "Traffic Signals/Signs/Striping/Streetlights",
    "request_reason": "Street Light Outage/Malfunction",
    "date_created": "2023-08-10T22:06:55.000",
    "date_modified": "2023-08-10T22:06:56.000",
    "request_status": "Pending",
    "responsible_agency": "Department of Public Works",
    "final_address": "7041 Canal Blvd",
    "address_councildis": "A",
    "status": "Assigned to Contractor",
    "contractor": "Legacy Professional Services",
    "rowid": "1025374",
    "final_x": "3669359.03956",
    "final_y": "554425.410072",
    "longitude": "-90.10563227070358",
    "latitude": "30.018840774620386",
    "geocoded_column": {
      "latitude": "30.018840774620386",
      "longitude": "-90.10563227070358"
    }
  },
  {
    "service_request": "2023-1025373",
    "request_type": "Traffic Signals/Signs/Striping/Streetlights",
    "request_reason": "Street Light Outage/Malfunction",
    "date_created": "2023-08-10T22:05:18.000",
    "date_modified": "2023-08-10T22:05:19.000",
    "request_status": "Pending",
    "responsible_agency": "Department of Public Works",
    "final_address": "7041 Canal Blvd",
    "address_councildis": "A",
    "status": "Assigned to Contractor",
    "contractor": "Legacy Professional Services",
    "rowid": "1025373",
    "final_x": "3669359.03956",
    "final_y": "554425.410072",
    "longitude": "-90.10563227070358",
    "latitude": "30.018840774620386",
    "geocoded_column": {
      "latitude": "30.018840774620386",
      "longitude": "-90.10563227070358"
    }
  },
  {
    "service_request": "2023-1025372",
    "request_type": "EMS",
    "request_reason": "EMS Lost & Found",
    "date_created": "2023-08-10T22:02:23.000",
    "date_modified": "2023-08-10T22:02:23.000",
    "request_status": "Pending",
    "responsible_agency": "Emergency Medical Services",
    "status": "Pending",
    "rowid": "1025372",
    "longitude": "0.0",
    "latitude": "0.0",
    "geocoded_column": {
      "latitude": "0.0",
      "longitude": "0.0"
    }
  },
  {
    "service_request": "2023-1025371",
    "request_type": "Roads/Drainage",
    "request_reason": "Road Shoulder Repair",
    "date_created": "2023-08-10T21:55:16.000",
    "date_modified": "2023-08-10T21:55:16.000",
    "request_status": "Pending",
    "responsible_agency": "Department of Public Works",
    "final_address": "4000 BLK Coliseum St",
    "address_councildis": "B",
    "status": "Pending",
    "rowid": "1025371",
    "final_x": "3672238.14072",
    "final_y": "519950.432656",
    "longitude": "-90.09770995128646",
    "latitude": "29.923961101655525",
    "geocoded_column": {
      "latitude": "29.923961101655525",
      "longitude": "-90.09770995128646"
    }
  },
  {
    "service_request": "2023-1025370",
    "request_type": "Traffic Signals/Signs/Striping/Streetlights",
    "request_reason": "Street Light Outage/Malfunction",
    "date_created": "2023-08-10T21:40:43.000",
    "date_modified": "2023-08-10T21:40:44.000",
    "request_status": "Pending",
    "responsible_agency": "Department of Public Works",
    "final_address": "E RENAISSANCE CT & ASHLAND DR",
    "address_councildis": "E",
    "status": "Assigned to Contractor",
    "contractor": "Legacy Professional Services",
    "rowid": "1025370",
    "final_x": "3717497.6",
    "final_y": "567478.18",
    "longitude": "-89.95303649012004",
    "latitude": "30.05322457350963",
    "geocoded_column": {
      "latitude": "30.05322457350963",
      "longitude": "-89.95303649012004"
    }
  },
  {
    "service_request": "2023-1025369",
    "request_type": "Traffic Signals/Signs/Striping/Streetlights",
    "request_reason": "Street Light Outage/Malfunction",
    "date_created": "2023-08-10T21:39:42.000",
    "date_modified": "2023-08-10T21:39:42.000",
    "request_status": "Pending",
    "responsible_agency": "Department of Public Works",
    "final_address": "E RENAISSANCE CT & ASHLAND DR",
    "address_councildis": "E",
    "status": "Assigned to Contractor",
    "contractor": "Legacy Professional Services",
    "rowid": "1025369",
    "final_x": "3717497.6",
    "final_y": "567478.18",
    "longitude": "-89.95303649012004",
    "latitude": "30.05322457350963",
    "geocoded_column": {
      "latitude": "30.05322457350963",
      "longitude": "-89.95303649012004"
    }
  },
  {
    "service_request": "2023-1025367",
    "request_type": "Trash/Recycling",
    "request_reason": "Return Trash Cart",
    "date_created": "2023-08-10T21:35:48.000",
    "date_modified": "2023-08-10T21:35:48.000",
    "request_status": "Pending",
    "responsible_agency": "Department of Sanitation",
    "final_address": "1227 Amelia St",
    "address_councildis": "B",
    "status": "Assigned to Contractor",
    "contractor": "Richards Disposal",
    "rowid": "1025367",
    "final_x": "3673545.49006",
    "final_y": "519757.413752",
    "longitude": "-90.09358970211662",
    "latitude": "29.92339153225277",
    "geocoded_column": {
      "latitude": "29.92339153225277",
      "longitude": "-90.09358970211662"
    }
  },
  {
    "service_request": "2023-1025366",
    "request_type": "Trash/Recycling",
    "request_reason": "Repair Trash Cart",
    "date_created": "2023-08-10T21:32:28.000",
    "date_modified": "2023-08-10T21:32:29.000",
    "request_status": "Pending",
    "responsible_agency": "Department of Sanitation",
    "final_address": "5916 Patton St",
    "address_councildis": "A",
    "status": "Assigned to Contractor",
    "contractor": "Richards Disposal",
    "rowid": "1025366",
    "final_x": "3664917.15751",
    "final_y": "518406.111286",
    "longitude": "-90.12087135895239",
    "latitude": "29.919929748158108",
    "geocoded_column": {
      "latitude": "29.919929748158108",
      "longitude": "-90.12087135895239"
    }
  },
  {
    "service_request": "2023-1025365",
    "request_type": "Trash/Recycling",
    "request_reason": "Repair Trash Cart",
    "date_created": "2023-08-10T21:27:05.000",
    "date_modified": "2023-08-10T21:27:06.000",
    "request_status": "Pending",
    "responsible_agency": "Department of Sanitation",
    "final_address": "5916 Patton St",
    "address_councildis": "A",
    "status": "Assigned to Contractor",
    "contractor": "Richards Disposal",
    "rowid": "1025365",
    "final_x": "3664917.15751",
    "final_y": "518406.111286",
    "longitude": "-90.12087135895239",
    "latitude": "29.919929748158108",
    "geocoded_column": {
      "latitude": "29.919929748158108",
      "longitude": "-90.12087135895239"
    }
  },
  {
    "service_request": "2023-1025364",
    "request_type": "Traffic Signals/Signs/Striping/Streetlights",
    "request_reason": "Street Light Outage/Malfunction",
    "date_created": "2023-08-10T21:03:18.000",
    "date_modified": "2023-08-10T21:03:19.000",
    "request_status": "Pending",
    "responsible_agency": "Department of Public Works",
    "final_address": "GOVERNOR NICHOLLS ST & DECATUR ST",
    "address_councildis": "C",
    "status": "Assigned to Contractor",
    "contractor": "Legacy Professional Services",
    "rowid": "1025364",
    "final_x": "3684267.0",
    "final_y": "533438.08",
    "longitude": "-90.05926580168779",
    "latitude": "29.96068544327152",
    "geocoded_column": {
      "latitude": "29.96068544327152",
      "longitude": "-90.05926580168779"
    }
  },
  {
    "service_request": "2023-1025363",
    "request_type": "Roads/Drainage",
    "request_reason": "Catch Basin - Clogged",
    "date_created": "2023-08-10T20:56:25.000",
    "date_modified": "2023-08-10T20:56:26.000",
    "request_status": "Pending",
    "responsible_agency": "Department of Public Works",
    "final_address": "1536 Poland Ave",
    "address_councildis": "D",
    "status": "Pending",
    "rowid": "1025363",
    "final_x": "3693413.59529",
    "final_y": "536784.111944",
    "longitude": "-90.03026261222614",
    "latitude": "29.96960303597014",
    "geocoded_column": {
      "latitude": "29.96960303597014",
      "longitude": "-90.03026261222614"
    }
  },
  {
    "service_request": "2023-1025362",
    "request_type": "Property Maintenance",
    "request_reason": "Property Maintenance",
    "date_created": "2023-08-10T20:54:29.000",
    "date_modified": "2023-08-10T20:54:29.000",
    "request_status": "Pending",
    "responsible_agency": "Department of Code Enforcement",
    "final_address": "513 Conti St",
    "address_councildis": "C",
    "status": "Pending",
    "rowid": "1025362",
    "final_x": "3682411.25941",
    "final_y": "531220.673794",
    "longitude": "-90.06520335563444",
    "latitude": "29.954644937930244",
    "geocoded_column": {
      "latitude": "29.954644937930244",
      "longitude": "-90.06520335563444"
    }
  },
  {
    "service_request": "2023-1025361",
    "request_type": "Traffic Signals/Signs/Striping/Streetlights",
    "request_reason": "Street Light Outage/Malfunction",
    "date_created": "2023-08-10T20:50:20.000",
    "date_modified": "2023-08-10T20:50:21.000",
    "request_status": "Pending",
    "responsible_agency": "Department of Public Works",
    "final_address": "4957 Lafaye St",
    "address_councildis": "D",
    "status": "Assigned to Contractor",
    "contractor": "Legacy Professional Services",
    "rowid": "1025361",
    "final_x": "3687412.90447",
    "final_y": "551452.620757",
    "longitude": "-90.04869390563329",
    "latitude": "30.01012246093587",
    "geocoded_column": {
      "latitude": "30.01012246093587",
      "longitude": "-90.04869390563329"
    }
  },
  {
    "service_request": "2023-1025360",
    "request_type": "Traffic Signals/Signs/Striping/Streetlights",
    "request_reason": "Street Light Outage/Malfunction",
    "date_created": "2023-08-10T20:49:57.000",
    "date_modified": "2023-08-10T20:49:57.000",
    "request_status": "Pending",
    "responsible_agency": "Department of Public Works",
    "final_address": "4957 Lafaye St",
    "address_councildis": "D",
    "status": "Assigned to Contractor",
    "contractor": "Legacy Professional Services",
    "rowid": "1025360",
    "final_x": "3687412.90447",
    "final_y": "551452.620757",
    "longitude": "-90.04869390563329",
    "latitude": "30.01012246093587",
    "geocoded_column": {
      "latitude": "30.01012246093587",
      "longitude": "-90.04869390563329"
    }
  },
  {
    "service_request": "2023-1025359",
    "request_type": "Property Maintenance",
    "request_reason": "Property Maintenance",
    "date_created": "2023-08-10T20:33:33.000",
    "date_modified": "2023-08-10T20:33:33.000",
    "request_status": "Pending",
    "responsible_agency": "Department of Code Enforcement",
    "status": "Pending",
    "rowid": "1025359",
    "longitude": "0.0",
    "latitude": "0.0",
    "geocoded_column": {
      "latitude": "0.0",
      "longitude": "0.0"
    }
  },
  {
    "service_request": "2023-1025358",
    "request_type": "Property Maintenance",
    "request_reason": "Property Maintenance",
    "date_created": "2023-08-10T20:30:27.000",
    "date_modified": "2023-08-10T20:30:27.000",
    "request_status": "Pending",
    "responsible_agency": "Department of Code Enforcement",
    "status": "Pending",
    "rowid": "1025358",
    "longitude": "0.0",
    "latitude": "0.0",
    "geocoded_column": {
      "latitude": "0.0",
      "longitude": "0.0"
    }
  },
  {
    "service_request": "2023-1025357",
    "request_type": "Abandoned Vehicles",
    "request_reason": "Abandoned/Junk Vehicles",
    "date_created": "2023-08-10T20:24:00.000",
    "date_modified": "2023-08-10T20:24:00.000",
    "request_status": "Pending",
    "responsible_agency": "Department of Public Works",
    "status": "Pending",
    "rowid": "1025357",
    "longitude": "0.0",
    "latitude": "0.0",
    "geocoded_column": {
      "latitude": "0.0",
      "longitude": "0.0"
    }
  },
  {
    "service_request": "2023-1025356",
    "request_type": "Roads/Drainage",
    "request_reason": "Pothole",
    "date_created": "2023-08-10T20:20:00.000",
    "date_modified": "2023-08-10T20:20:00.000",
    "request_status": "Pending",
    "responsible_agency": "Department of Public Works",
    "final_address": "4800 Bundy Rd",
    "address_councildis": "E",
    "status": "Pending",
    "rowid": "1025356",
    "final_x": "3709233.68811",
    "final_y": "556121.882394",
    "longitude": "-89.97958035322632",
    "latitude": "30.022270399744436",
    "geocoded_column": {
      "latitude": "30.022270399744436",
      "longitude": "-89.97958035322632"
    }
  },
  {
    "service_request": "2023-1025355",
    "request_type": "Trash/Recycling",
    "request_reason": "Missed Trash Pick-Up",
    "date_created": "2023-08-10T20:19:59.000",
    "date_modified": "2023-08-10T20:19:59.000",
    "request_status": "Pending",
    "responsible_agency": "Department of Sanitation",
    "final_address": "12970 Mcraven Ct",
    "address_councildis": "E",
    "status": "Assigned to Contractor",
    "contractor": "Waste Pro",
    "rowid": "1025355",
    "final_x": "3716665.64383",
    "final_y": "568346.707429",
    "longitude": "-89.95563304541685",
    "latitude": "30.05564019618337",
    "geocoded_column": {
      "latitude": "30.05564019618337",
      "longitude": "-89.95563304541685"
    }
  },
  {
    "service_request": "2023-1025354",
    "request_type": "Trash/Recycling",
    "request_reason": "Order Recycling Cart",
    "date_created": "2023-08-10T20:18:08.000",
    "date_modified": "2023-08-10T20:18:08.000",
    "request_status": "Pending",
    "responsible_agency": "Department of Sanitation",
    "final_address": "1118 Lowerline St",
    "address_councildis": "A",
    "status": "Pending",
    "rowid": "1025354",
    "final_x": "3663523.22304",
    "final_y": "526655.212286",
    "longitude": "-90.12499676798485",
    "latitude": "29.94265265797091",
    "geocoded_column": {
      "latitude": "29.94265265797091",
      "longitude": "-90.12499676798485"
    }
  },
  {
    "service_request": "2023-1025353",
    "request_type": "Traffic Signals/Signs/Striping/Streetlights",
    "request_reason": "Street Light Outage/Malfunction",
    "date_created": "2023-08-10T20:14:44.000",
    "date_modified": "2023-08-10T20:14:45.000",
    "request_status": "Pending",
    "responsible_agency": "Department of Public Works",
    "final_address": "5833 Constance St, New Orleans, Louisiana, 70115",
    "address_councildis": "A",
    "status": "Assigned to Contractor",
    "contractor": "Legacy Professional Services",
    "rowid": "1025353",
    "final_x": "3665286.20525",
    "final_y": "518739.123319",
    "longitude": "-90.11969531588204",
    "latitude": "29.92083468427049",
    "geocoded_column": {
      "latitude": "29.92083468427049",
      "longitude": "-90.11969531588204"
    }
  },
  {
    "service_request": "2023-1025352",
    "request_type": "Property Maintenance",
    "request_reason": "Property Maintenance",
    "date_created": "2023-08-10T20:14:22.000",
    "date_modified": "2023-08-10T20:14:22.000",
    "request_status": "Pending",
    "responsible_agency": "Department of Code Enforcement",
    "final_address": "4691 Arthur Dr",
    "address_councildis": "E",
    "status": "Pending",
    "rowid": "1025352",
    "final_x": "3707795.4147",
    "final_y": "555157.185305",
    "longitude": "-89.9841607939076",
    "latitude": "30.019664502321678",
    "geocoded_column": {
      "latitude": "30.019664502321678",
      "longitude": "-89.9841607939076"
    }
  },
  {
    "service_request": "2023-1025351",
    "request_type": "Trash/Recycling",
    "request_reason": "Request a Large Item Pick Up",
    "date_created": "2023-08-10T20:09:52.000",
    "date_modified": "2023-08-10T20:09:53.000",
    "request_status": "Pending",
    "responsible_agency": "Department of Sanitation",
    "final_address": "6635 Coventry St",
    "address_councildis": "E",
    "status": "Assigned to Contractor",
    "contractor": "Waste Pro",
    "rowid": "1025351",
    "final_x": "3697730.2929",
    "final_y": "559373.122973",
    "longitude": "-90.01580992205524",
    "latitude": "30.03157874409579",
    "geocoded_column": {
      "latitude": "30.03157874409579",
      "longitude": "-90.01580992205524"
    }
  },
  {
    "service_request": "2023-1025350",
    "request_type": "Property Maintenance",
    "request_reason": "Property Maintenance",
    "date_created": "2023-08-10T19:52:57.000",
    "date_modified": "2023-08-10T19:52:57.000",
    "request_status": "Pending",
    "responsible_agency": "Department of Code Enforcement",
    "final_address": "4824 Banks St",
    "address_councildis": "A",
    "status": "Pending",
    "rowid": "1025350",
    "final_x": "3667891.54189",
    "final_y": "539181.623434",
    "longitude": "-90.11078295393767",
    "latitude": "29.976968771827917",
    "geocoded_column": {
      "latitude": "29.976968771827917",
      "longitude": "-90.11078295393767"
    }
  },
  {
    "service_request": "2023-1025349",
    "request_type": "Abandoned Vehicles",
    "request_reason": "Abandoned/Junk Vehicles",
    "date_created": "2023-08-10T19:49:43.000",
    "date_modified": "2023-08-10T19:49:43.000",
    "request_status": "Pending",
    "responsible_agency": "Department of Public Works",
    "final_address": "4826 Banks St",
    "address_councildis": "A",
    "status": "Pending",
    "rowid": "1025349",
    "final_x": "3667878.71098",
    "final_y": "539190.012106",
    "longitude": "-90.11082319551872",
    "latitude": "29.976992214273746",
    "geocoded_column": {
      "latitude": "29.976992214273746",
      "longitude": "-90.11082319551872"
    }
  },
  {
    "service_request": "2023-1025348",
    "request_type": "Roads/Drainage",
    "request_reason": "Street Flooding / Drainage",
    "date_created": "2023-08-10T19:43:21.000",
    "date_modified": "2023-08-10T19:43:21.000",
    "request_status": "Pending",
    "responsible_agency": "Department of Public Works",
    "final_address": "4824 Banks St",
    "address_councildis": "A",
    "status": "Pending",
    "rowid": "1025348",
    "final_x": "3667891.54189",
    "final_y": "539181.623434",
    "longitude": "-90.11078295393767",
    "latitude": "29.976968771827917",
    "geocoded_column": {
      "latitude": "29.976968771827917",
      "longitude": "-90.11078295393767"
    }
  },
  {
    "service_request": "2023-1025347",
    "request_type": "Abandoned Vehicles",
    "request_reason": "Abandoned/Junk Vehicles",
    "date_created": "2023-08-10T19:35:15.000",
    "date_modified": "2023-08-10T19:35:15.000",
    "request_status": "Pending",
    "responsible_agency": "Department of Public Works",
    "final_address": "7744 St Charles Ave",
    "address_councildis": "A",
    "status": "Pending",
    "rowid": "1025347",
    "final_x": "3661392.67366",
    "final_y": "525997.454014",
    "longitude": "-90.13174522285735",
    "latitude": "29.940905637962846",
    "geocoded_column": {
      "latitude": "29.940905637962846",
      "longitude": "-90.13174522285735"
    }
  },
  {
    "service_request": "2023-1025346",
    "request_type": "Abandoned Vehicles",
    "request_reason": "Abandoned/Junk Vehicles",
    "date_created": "2023-08-10T19:33:37.000",
    "date_modified": "2023-08-10T19:33:37.000",
    "request_status": "Pending",
    "responsible_agency": "Department of Public Works",
    "final_address": "7744 St Charles Ave",
    "address_councildis": "A",
    "status": "Pending",
    "rowid": "1025346",
    "final_x": "3661392.67366",
    "final_y": "525997.454014",
    "longitude": "-90.13174522285735",
    "latitude": "29.940905637962846",
    "geocoded_column": {
      "latitude": "29.940905637962846",
      "longitude": "-90.13174522285735"
    }
  },
  {
    "service_request": "2023-1025345",
    "request_type": "Trash/Recycling",
    "request_reason": "Replace Trash Cart",
    "date_created": "2023-08-10T19:30:52.000",
    "date_modified": "2023-08-10T19:30:53.000",
    "request_status": "Pending",
    "responsible_agency": "Department of Sanitation",
    "final_address": "3220 Nashville Ave",
    "address_councildis": "A",
    "status": "Assigned to Contractor",
    "contractor": "Richards Disposal",
    "rowid": "1025345",
    "final_x": "3667832.14298",
    "final_y": "527623.510655",
    "longitude": "-90.11135985236737",
    "latitude": "29.945189518648068",
    "geocoded_column": {
      "latitude": "29.945189518648068",
      "longitude": "-90.11135985236737"
    }
  },
  {
    "service_request": "2023-1025342",
    "request_type": "Trash/Recycling",
    "request_reason": "Request a Large Item Pick Up",
    "date_created": "2023-08-10T19:08:54.000",
    "date_modified": "2023-08-10T19:08:54.000",
    "request_status": "Pending",
    "responsible_agency": "Department of Sanitation",
    "final_address": "7201 Spring Lake Dr",
    "address_councildis": "E",
    "status": "Assigned to Contractor",
    "contractor": "Waste Pro",
    "rowid": "1025342",
    "final_x": "3700169.42397",
    "final_y": "558994.22774",
    "longitude": "-90.00811604595594",
    "latitude": "30.030459587327485",
    "geocoded_column": {
      "latitude": "30.030459587327485",
      "longitude": "-90.00811604595594"
    }
  },
  {
    "service_request": "2023-1025341",
    "request_type": "Trash/Recycling",
    "request_reason": "Request a Large Item Pick Up",
    "date_created": "2023-08-10T18:59:13.000",
    "date_modified": "2023-08-10T18:59:14.000",
    "request_status": "Pending",
    "responsible_agency": "Department of Sanitation",
    "final_address": "7101 Parkside Ct",
    "address_councildis": "E",
    "status": "Assigned to Contractor",
    "contractor": "Waste Pro",
    "rowid": "1025341",
    "final_x": "3704693.77105",
    "final_y": "559940.548893",
    "longitude": "-89.99378420229756",
    "latitude": "30.03291694735075",
    "geocoded_column": {
      "latitude": "30.03291694735075",
      "longitude": "-89.99378420229756"
    }
  },
  {
    "service_request": "2023-1025340",
    "request_type": "Parks & Parkways",
    "request_reason": "Request Grass Cutting Service (City Owned Property)",
    "date_created": "2023-08-10T18:49:51.000",
    "date_modified": "2023-08-10T18:49:51.000",
    "request_status": "Pending",
    "responsible_agency": "Department of Parks & Parkway",
    "final_address": "2501 Elysian Fields Ave",
    "address_councildis": "D",
    "status": "Pending",
    "rowid": "1025340",
    "final_x": "3684712.22882",
    "final_y": "541736.654412",
    "longitude": "-90.05756809244224",
    "latitude": "29.98349001297375",
    "geocoded_column": {
      "latitude": "29.98349001297375",
      "longitude": "-90.05756809244224"
    }
  },
  {
    "service_request": "2023-1025339",
    "request_type": "Trash/Recycling",
    "request_reason": "Missed Trash Pick-Up",
    "date_created": "2023-08-10T18:47:11.000",
    "date_modified": "2023-08-10T18:47:12.000",
    "request_status": "Pending",
    "responsible_agency": "Department of Sanitation",
    "final_address": "5226 Perrier St",
    "address_councildis": "B",
    "status": "Assigned to Contractor",
    "contractor": "Richards Disposal",
    "rowid": "1025339",
    "final_x": "3667835.01114",
    "final_y": "519875.429048",
    "longitude": "-90.11161162846935",
    "latitude": "29.923884689625854",
    "geocoded_column": {
      "latitude": "29.923884689625854",
      "longitude": "-90.11161162846935"
    }
  },
  {
    "service_request": "2023-1025338",
    "request_type": "Parks & Parkways",
    "request_reason": "Request Tree Service (Right of Way/Public Property)",
    "date_created": "2023-08-10T18:32:33.000",
    "date_modified": "2023-08-10T18:32:33.000",
    "request_status": "Pending",
    "responsible_agency": "Department of Parks & Parkway",
    "final_address": "5300 BLK Tullis Dr",
    "address_councildis": "C",
    "status": "Pending",
    "rowid": "1025338",
    "final_x": "3703967.23606",
    "final_y": "511857.018725",
    "longitude": "-89.99785106263508",
    "latitude": "29.900728048314523",
    "geocoded_column": {
      "latitude": "29.900728048314523",
      "longitude": "-89.99785106263508"
    }
  },
  {
    "service_request": "2023-1025337",
    "request_type": "Traffic Signals/Signs/Striping/Streetlights",
    "request_reason": "Street Light Outage/Malfunction",
    "date_created": "2023-08-10T18:26:59.000",
    "date_modified": "2023-08-10T18:26:59.000",
    "request_status": "Pending",
    "responsible_agency": "Department of Public Works",
    "final_address": "1747 Oriole St",
    "address_councildis": "D",
    "status": "Assigned to Contractor",
    "contractor": "Legacy Professional Services",
    "rowid": "1025337",
    "final_x": "3678688.10824",
    "final_y": "558400.610588",
    "longitude": "-90.07601789465278",
    "latitude": "30.02949298422807",
    "geocoded_column": {
      "latitude": "30.02949298422807",
      "longitude": "-90.07601789465278"
    }
  },
  {
    "service_request": "2023-1025336",
    "request_type": "Health Related Request",
    "request_reason": "Noise Ordinance Complaint",
    "date_created": "2023-08-10T18:12:24.000",
    "date_modified": "2023-08-10T18:12:24.000",
    "request_status": "Pending",
    "responsible_agency": "Health Department",
    "final_address": "1730 Clio St",
    "address_councildis": "B",
    "status": "Pending",
    "rowid": "1025336",
    "final_x": "3679086.15368",
    "final_y": "526729.273022",
    "longitude": "-90.07585839129796",
    "latitude": "29.942395855971167",
    "geocoded_column": {
      "latitude": "29.942395855971167",
      "longitude": "-90.07585839129796"
    }
  },
  {
    "service_request": "2023-1025334",
    "request_type": "Abandoned Vehicles",
    "request_reason": "Abandoned/Junk Vehicles",
    "date_created": "2023-08-10T17:47:36.000",
    "date_modified": "2023-08-10T17:47:36.000",
    "request_status": "Pending",
    "responsible_agency": "Department of Public Works",
    "final_address": "3024 Ursulines Ave",
    "address_councildis": "A",
    "status": "Pending",
    "rowid": "1025334",
    "final_x": "3676300.8644",
    "final_y": "539082.899082",
    "longitude": "-90.08422700234851",
    "latitude": "29.97644792659096",
    "geocoded_column": {
      "latitude": "29.97644792659096",
      "longitude": "-90.08422700234851"
    }
  },
  {
    "service_request": "2023-1025333",
    "request_type": "Trash/Recycling",
    "request_reason": "Order Recycling Cart",
    "date_created": "2023-08-10T17:36:28.000",
    "date_modified": "2023-08-10T17:36:28.000",
    "request_status": "Pending",
    "responsible_agency": "Department of Sanitation",
    "final_address": "2231 Cambronne St, New Orleans, Louisiana, 70118",
    "address_councildis": "A",
    "status": "Pending",
    "rowid": "1025333",
    "final_x": "3663762.65619",
    "final_y": "531887.279875",
    "longitude": "-90.12406648551185",
    "latitude": "29.957032212026235",
    "geocoded_column": {
      "latitude": "29.957032212026235",
      "longitude": "-90.12406648551185"
    }
  },
  {
    "service_request": "2023-1025332",
    "request_type": "Trash/Recycling",
    "request_reason": "Repair Trash Cart",
    "date_created": "2023-08-10T17:36:09.000",
    "date_modified": "2023-08-10T17:36:09.000",
    "request_status": "Pending",
    "responsible_agency": "Department of Sanitation",
    "final_address": "5101 Western St",
    "address_councildis": "D",
    "status": "Assigned to Contractor",
    "contractor": "IV Waste",
    "rowid": "1025332",
    "final_x": "3684092.83951",
    "final_y": "551406.554261",
    "longitude": "-90.05918481973809",
    "latitude": "30.01009772496564",
    "geocoded_column": {
      "latitude": "30.01009772496564",
      "longitude": "-90.05918481973809"
    }
  },
  {
    "service_request": "2023-1025331",
    "request_type": "Trash/Recycling",
    "request_reason": "Order Trash Cart",
    "date_created": "2023-08-10T17:35:05.000",
    "date_modified": "2023-08-10T17:35:06.000",
    "request_status": "Pending",
    "responsible_agency": "Department of Sanitation",
    "final_address": "2231 Cambronne St, New Orleans, Louisiana, 70118",
    "address_councildis": "A",
    "status": "Assigned to Contractor",
    "contractor": "Richards Disposal",
    "rowid": "1025331",
    "final_x": "3663762.65619",
    "final_y": "531887.279875",
    "longitude": "-90.12406648551185",
    "latitude": "29.957032212026235",
    "geocoded_column": {
      "latitude": "29.957032212026235",
      "longitude": "-90.12406648551185"
    }
  },
  {
    "service_request": "2023-1025330",
    "request_type": "Trash/Recycling",
    "request_reason": "Replace Trash Cart",
    "date_created": "2023-08-10T17:22:09.000",
    "date_modified": "2023-08-10T17:22:10.000",
    "request_status": "Pending",
    "responsible_agency": "Department of Sanitation",
    "final_address": "3319 Dryades St",
    "address_councildis": "B",
    "status": "Assigned to Contractor",
    "contractor": "Richards Disposal",
    "rowid": "1025330",
    "final_x": "3673959.9476",
    "final_y": "522673.212794",
    "longitude": "-90.0921817164354",
    "latitude": "29.93139670288893",
    "geocoded_column": {
      "latitude": "29.93139670288893",
      "longitude": "-90.0921817164354"
    }
  },
  {
    "service_request": "2023-1025329",
    "request_type": "Traffic Signals/Signs/Striping/Streetlights",
    "request_reason": "Traffic Signal Malfunctioning/Damaged",
    "date_created": "2023-08-10T17:19:33.000",
    "date_modified": "2023-08-10T17:19:34.000",
    "request_status": "Pending",
    "responsible_agency": "Department of Public Works",
    "final_address": "SANDALWOOD ST & HAMMOND ST",
    "address_councildis": "E",
    "status": "Pending",
    "rowid": "1025329",
    "final_x": "3712212.8",
    "final_y": "556340.88",
    "longitude": "-89.9701589578486",
    "latitude": "30.02277544274229",
    "geocoded_column": {
      "latitude": "30.02277544274229",
      "longitude": "-89.9701589578486"
    }
  },
  {
    "service_request": "2023-1025328",
    "request_type": "Traffic Signals/Signs/Striping/Streetlights",
    "request_reason": "Traffic Sign Missing/Damaged",
    "date_created": "2023-08-10T17:17:52.000",
    "date_modified": "2023-08-10T17:17:53.000",
    "request_status": "Pending",
    "responsible_agency": "Department of Public Works",
    "final_address": "LURLINE ST & HAMMOND ST",
    "address_councildis": "E",
    "status": "Pending",
    "rowid": "1025328",
    "final_x": "3711952.5",
    "final_y": "556319.08",
    "longitude": "-89.97098225650771",
    "latitude": "30.02272401355742",
    "geocoded_column": {
      "latitude": "30.02272401355742",
      "longitude": "-89.97098225650771"
    }
  },
  {
    "service_request": "2023-1025327",
    "request_type": "Trash/Recycling",
    "request_reason": "Request a Large Item Pick Up",
    "date_created": "2023-08-10T17:17:12.000",
    "date_modified": "2023-08-10T17:17:12.000",
    "request_status": "Pending",
    "responsible_agency": "Department of Sanitation",
    "final_address": "363 Opal St",
    "address_councildis": "D",
    "status": "Assigned to Contractor",
    "contractor": "IV Waste",
    "rowid": "1025327",
    "final_x": "3667823.45805",
    "final_y": "555214.678233",
    "longitude": "-90.11045756567736",
    "latitude": "30.02105613248447",
    "geocoded_column": {
      "latitude": "30.02105613248447",
      "longitude": "-90.11045756567736"
    }
  },
  {
    "service_request": "2023-1025326",
    "request_type": "Trash/Recycling",
    "request_reason": "Order Recycling Cart",
    "date_created": "2023-08-10T17:10:50.000",
    "date_modified": "2023-08-10T17:10:50.000",
    "request_status": "Pending",
    "responsible_agency": "Department of Sanitation",
    "final_address": "1812 Valence St",
    "address_councildis": "B",
    "status": "Pending",
    "rowid": "1025326",
    "final_x": "3669578.27988",
    "final_y": "521596.414649",
    "longitude": "-90.10605055418628",
    "latitude": "29.92856562834871",
    "geocoded_column": {
      "latitude": "29.92856562834871",
      "longitude": "-90.10605055418628"
    }
  },
  {
    "service_request": "2023-1025325",
    "request_type": "Trash/Recycling",
    "request_reason": "Missed Trash Pick-Up",
    "date_created": "2023-08-10T17:10:33.000",
    "date_modified": "2023-08-10T17:39:12.000",
    "case_close_date": "2023-08-10T12:39:12.000",
    "request_status": "Closed",
    "responsible_agency": "Department of Sanitation",
    "final_address": "9917 Morrison Rd",
    "address_councildis": "E",
    "status": "Duplicate Request",
    "contractor": "Waste Pro",
    "contractor_action": "duplicate",
    "rowid": "1025325",
    "final_x": "3708569.41617",
    "final_y": "563632.721633",
    "longitude": "-89.98139926094761",
    "latitude": "30.042943806265036",
    "geocoded_column": {
      "latitude": "30.042943806265036",
      "longitude": "-89.98139926094761"
    }
  },
  {
    "service_request": "2023-1025324",
    "request_type": "Trash/Recycling",
    "request_reason": "Missed Trash Pick-Up",
    "date_created": "2023-08-10T17:09:33.000",
    "date_modified": "2023-08-10T17:09:34.000",
    "request_status": "Pending",
    "responsible_agency": "Department of Sanitation",
    "final_address": "9917 Morrison Rd",
    "address_councildis": "E",
    "status": "Assigned to Contractor",
    "contractor": "Waste Pro",
    "rowid": "1025324",
    "final_x": "3708569.41617",
    "final_y": "563632.721633",
    "longitude": "-89.98139926094761",
    "latitude": "30.042943806265036",
    "geocoded_column": {
      "latitude": "30.042943806265036",
      "longitude": "-89.98139926094761"
    }
  },
  {
    "service_request": "2023-1025323",
    "request_type": "Safety & Permits",
    "request_reason": "Licenses & Permits",
    "date_created": "2023-08-10T17:00:12.000",
    "date_modified": "2023-08-10T17:00:12.000",
    "request_status": "Pending",
    "responsible_agency": "Safety and Permits",
    "final_address": "2301 Magazine St",
    "address_councildis": "B",
    "status": "Pending",
    "rowid": "1025323",
    "final_x": "3678487.91016",
    "final_y": "521851.003578",
    "longitude": "-90.07791592815494",
    "latitude": "29.929000259503336",
    "geocoded_column": {
      "latitude": "29.929000259503336",
      "longitude": "-90.07791592815494"
    }
  },
  {
    "service_request": "2023-1025322",
    "request_type": "Tax and Revenue",
    "request_reason": "Pay Property Tax",
    "date_created": "2023-08-10T17:00:11.000",
    "date_modified": "2023-08-10T17:00:12.000",
    "request_status": "Pending",
    "responsible_agency": "Bureau of Treasury",
    "final_address": "3504 Desaix Blvd",
    "address_councildis": "A",
    "status": "Pending",
    "rowid": "1025322",
    "final_x": "3676257.33678",
    "final_y": "543563.967438",
    "longitude": "-90.08421019340845",
    "latitude": "29.988770621340887",
    "geocoded_column": {
      "latitude": "29.988770621340887",
      "longitude": "-90.08421019340845"
    }
  },
  {
    "service_request": "2023-1025321",
    "request_type": "Roads/Drainage",
    "request_reason": "Pothole",
    "date_created": "2023-08-10T16:57:27.000",
    "date_modified": "2023-08-10T16:57:27.000",
    "request_status": "Pending",
    "responsible_agency": "Department of Public Works",
    "final_address": " & BALDWIN ST",
    "address_councildis": "D",
    "status": "Pending",
    "rowid": "1025321",
    "final_x": "3687880.8",
    "final_y": "560035.64",
    "longitude": "-90.04691121641319",
    "latitude": "30.03370814054373",
    "geocoded_column": {
      "latitude": "30.03370814054373",
      "longitude": "-90.04691121641319"
    }
  },
  {
    "service_request": "2023-1025320",
    "request_type": "Roads/Drainage",
    "request_reason": "Catch Basin - Broken/Damage",
    "date_created": "2023-08-10T16:57:15.000",
    "date_modified": "2023-08-10T16:57:15.000",
    "request_status": "Pending",
    "responsible_agency": "Department of Public Works",
    "final_address": "4536 Laine Ave",
    "address_councildis": "E",
    "status": "Pending",
    "rowid": "1025320",
    "final_x": "3705791.07959",
    "final_y": "554094.76636",
    "longitude": "-89.9905331209725",
    "latitude": "30.016807999254837",
    "geocoded_column": {
      "latitude": "30.016807999254837",
      "longitude": "-89.9905331209725"
    }
  },
  {
    "service_request": "2023-1025319",
    "request_type": "Trash/Recycling",
    "request_reason": "Request a Large Item Pick Up",
    "date_created": "2023-08-10T16:54:14.000",
    "date_modified": "2023-08-10T16:54:14.000",
    "request_status": "Pending",
    "responsible_agency": "Department of Sanitation",
    "final_address": "6003 N Roman St",
    "address_councildis": "E",
    "status": "Assigned to Contractor",
    "contractor": "Waste Pro",
    "rowid": "1025319",
    "final_x": "3700239.48797",
    "final_y": "535939.335943",
    "longitude": "-90.00873683516284",
    "latitude": "29.96706499807896",
    "geocoded_column": {
      "latitude": "29.96706499807896",
      "longitude": "-90.00873683516284"
    }
  },
  {
    "service_request": "2023-1025318",
    "request_type": "Trash/Recycling",
    "request_reason": "Request a Large Item Pick Up",
    "date_created": "2023-08-10T16:52:56.000",
    "date_modified": "2023-08-10T16:52:57.000",
    "request_status": "Pending",
    "responsible_agency": "Department of Sanitation",
    "final_address": "3657 Piedmont Dr",
    "address_councildis": "D",
    "status": "Assigned to Contractor",
    "contractor": "IV Waste",
    "rowid": "1025318",
    "final_x": "3686016.97398",
    "final_y": "546233.707408",
    "longitude": "-90.05328835293862",
    "latitude": "29.995815297330473",
    "geocoded_column": {
      "latitude": "29.995815297330473",
      "longitude": "-90.05328835293862"
    }
  },
  {
    "service_request": "2023-1025316",
    "request_type": "Trash/Recycling",
    "request_reason": "Request a Large Item Pick Up",
    "date_created": "2023-08-10T16:51:47.000",
    "date_modified": "2023-08-10T16:51:48.000",
    "request_status": "Pending",
    "responsible_agency": "Department of Sanitation",
    "status": "Assigned to Contractor",
    "rowid": "1025316",
    "longitude": "0.0",
    "latitude": "0.0",
    "geocoded_column": {
      "latitude": "0.0",
      "longitude": "0.0"
    }
  },
  {
    "service_request": "2023-1025313",
    "request_type": "Parks & Parkways",
    "request_reason": "Request Tree Service (Right of Way/Public Property)",
    "date_created": "2023-08-10T16:51:26.000",
    "date_modified": "2023-08-10T16:52:22.000",
    "request_status": "Pending",
    "responsible_agency": "Department of Parks & Parkway",
    "final_address": "7220 Chadbourne Dr",
    "address_councildis": "E",
    "status": "Pending",
    "rowid": "1025313",
    "final_x": "3700951.81495",
    "final_y": "557373.310747",
    "longitude": "-90.00570304392102",
    "latitude": "30.02597778727682",
    "geocoded_column": {
      "latitude": "30.02597778727682",
      "longitude": "-90.00570304392102"
    }
  },
  {
    "service_request": "2023-1025312",
    "request_type": "Trash/Recycling",
    "request_reason": "Request a Large Item Pick Up",
    "date_created": "2023-08-10T16:48:14.000",
    "date_modified": "2023-08-10T16:48:14.000",
    "request_status": "Pending",
    "responsible_agency": "Department of Sanitation",
    "final_address": "4017 Hamilton St",
    "address_councildis": "A",
    "status": "Assigned to Contractor",
    "contractor": "Richards Disposal",
    "rowid": "1025312",
    "final_x": "3666176.72858",
    "final_y": "538183.876745",
    "longitude": "-90.11623237507303",
    "latitude": "29.97427549876059",
    "geocoded_column": {
      "latitude": "29.97427549876059",
      "longitude": "-90.11623237507303"
    }
  },
  {
    "service_request": "2023-1025311",
    "request_type": "Trash/Recycling",
    "request_reason": "Illegal Dumping",
    "date_created": "2023-08-10T16:47:43.000",
    "date_modified": "2023-08-10T16:47:43.000",
    "request_status": "Pending",
    "responsible_agency": "Department of Sanitation",
    "final_address": "2506 Tricou St",
    "address_councildis": "E",
    "status": "Pending",
    "rowid": "1025311",
    "final_x": "3702169.28093",
    "final_y": "538173.750217",
    "longitude": "-90.00256062981535",
    "latitude": "29.97314734564872",
    "geocoded_column": {
      "latitude": "29.97314734564872",
      "longitude": "-90.00256062981535"
    }
  },
  {
    "service_request": "2023-1025310",
    "request_type": "Trash/Recycling",
    "request_reason": "MIssed Recycling Pick-Up",
    "date_created": "2023-08-10T16:41:50.000",
    "date_modified": "2023-08-10T16:41:51.000",
    "request_status": "Pending",
    "responsible_agency": "Department of Sanitation",
    "final_address": "7615 Mercier St, New Orleans, Louisiana, 70128",
    "address_councildis": "E",
    "status": "Assigned to Contractor",
    "contractor": "Waste Pro",
    "rowid": "1025310",
    "final_x": "3711474.87736",
    "final_y": "566516.730979",
    "longitude": "-89.97210862892638",
    "latitude": "30.05077908960563",
    "geocoded_column": {
      "latitude": "30.05077908960563",
      "longitude": "-89.97210862892638"
    }
  },
  {
    "service_request": "2023-1025309",
    "request_type": "Trash/Recycling",
    "request_reason": "Request a Large Item Pick Up",
    "date_created": "2023-08-10T16:41:21.000",
    "date_modified": "2023-08-10T16:41:21.000",
    "request_status": "Pending",
    "responsible_agency": "Department of Sanitation",
    "final_address": "4611 Nighthart St",
    "address_councildis": "E",
    "status": "Assigned to Contractor",
    "contractor": "Waste Pro",
    "rowid": "1025309",
    "final_x": "3716251.56818",
    "final_y": "556490.76617",
    "longitude": "-89.9573918414705",
    "latitude": "30.023054837525773",
    "geocoded_column": {
      "latitude": "30.023054837525773",
      "longitude": "-89.9573918414705"
    }
  },
  {
    "service_request": "2023-1025308",
    "request_type": "Trash/Recycling",
    "request_reason": "Repair Trash Cart",
    "date_created": "2023-08-10T16:39:47.000",
    "date_modified": "2023-08-10T16:39:47.000",
    "request_status": "Pending",
    "responsible_agency": "Department of Sanitation",
    "final_address": "610 N Derbigny St",
    "address_councildis": "D",
    "status": "Assigned to Contractor",
    "contractor": "Richards Disposal",
    "rowid": "1025308",
    "final_x": "3679429.3309",
    "final_y": "534707.362374",
    "longitude": "-90.07449817804343",
    "latitude": "29.964322556625895",
    "geocoded_column": {
      "latitude": "29.964322556625895",
      "longitude": "-90.07449817804343"
    }
  },
  {
    "service_request": "2023-1025307",
    "request_type": "Trash/Recycling",
    "request_reason": "Replace Trash Cart",
    "date_created": "2023-08-10T16:39:04.000",
    "date_modified": "2023-08-10T16:39:04.000",
    "request_status": "Pending",
    "responsible_agency": "Department of Sanitation",
    "final_address": "4509 Skyview Dr",
    "address_councildis": "D",
    "status": "Assigned to Contractor",
    "contractor": "Waste Pro",
    "rowid": "1025307",
    "final_x": "3696867.50058",
    "final_y": "552956.879255",
    "longitude": "-90.01876898503177",
    "latitude": "30.013963761336868",
    "geocoded_column": {
      "latitude": "30.013963761336868",
      "longitude": "-90.01876898503177"
    }
  },
  {
    "service_request": "2023-1025306",
    "request_type": "Roads/Drainage",
    "request_reason": "Damaged Sidewalk",
    "date_created": "2023-08-10T16:38:56.000",
    "date_modified": "2023-08-10T16:38:57.000",
    "request_status": "Pending",
    "responsible_agency": "Department of Public Works",
    "final_address": "4313 Duplessis St",
    "address_councildis": "D",
    "status": "Pending",
    "rowid": "1025306",
    "final_x": "3678389.81077",
    "final_y": "548188.56245",
    "longitude": "-90.07731423810922",
    "latitude": "30.001422535148034",
    "geocoded_column": {
      "latitude": "30.001422535148034",
      "longitude": "-90.07731423810922"
    }
  },
  {
    "service_request": "2023-1025305",
    "request_type": "Trash/Recycling",
    "request_reason": "Missed Trash Pick-Up",
    "date_created": "2023-08-10T16:36:47.000",
    "date_modified": "2023-08-10T16:36:48.000",
    "request_status": "Pending",
    "responsible_agency": "Department of Sanitation",
    "final_address": "6501 Virgilian St",
    "address_councildis": "D",
    "status": "Assigned to Contractor",
    "contractor": "Waste Pro",
    "rowid": "1025305",
    "final_x": "3697481.96087",
    "final_y": "555145.764313",
    "longitude": "-90.01674815145309",
    "latitude": "30.019962970551507",
    "geocoded_column": {
      "latitude": "30.019962970551507",
      "longitude": "-90.01674815145309"
    }
  },
  {
    "service_request": "2023-1025303",
    "request_type": "Trash/Recycling",
    "request_reason": "Return Recycling Cart",
    "date_created": "2023-08-10T16:25:40.000",
    "date_modified": "2023-08-10T16:25:40.000",
    "request_status": "Pending",
    "responsible_agency": "Department of Sanitation",
    "final_address": "4111 General Meyer Ave",
    "address_councildis": "C",
    "status": "Pending",
    "rowid": "1025303",
    "final_x": "3699218.49162",
    "final_y": "524514.33446",
    "longitude": "-90.01237706972869",
    "latitude": "29.935682687623235",
    "geocoded_column": {
      "latitude": "29.935682687623235",
      "longitude": "-90.01237706972869"
    }
  },
  {
    "service_request": "2023-1025302",
    "request_type": "Trash/Recycling",
    "request_reason": "Order Recycling Cart",
    "date_created": "2023-08-10T16:21:11.000",
    "date_modified": "2023-08-10T16:21:12.000",
    "request_status": "Pending",
    "responsible_agency": "Department of Sanitation",
    "final_address": "2233 Ursulines Ave",
    "address_councildis": "D",
    "status": "Pending",
    "rowid": "1025302",
    "final_x": "3679082.21109",
    "final_y": "537089.900808",
    "longitude": "-90.075511762806",
    "latitude": "29.970884204310412",
    "geocoded_column": {
      "latitude": "29.970884204310412",
      "longitude": "-90.075511762806"
    }
  },
  {
    "service_request": "2023-1025301",
    "request_type": "Property Maintenance",
    "request_reason": "Property Maintenance",
    "date_created": "2023-08-10T16:20:59.000",
    "date_modified": "2023-08-10T16:23:01.000",
    "request_status": "Pending",
    "responsible_agency": "Department of Code Enforcement",
    "final_address": "8121 Freret St",
    "address_councildis": "A",
    "status": "Pending",
    "rowid": "1025301",
    "final_x": "3661353.5001",
    "final_y": "528039.147391",
    "longitude": "-90.13180130844552",
    "latitude": "29.946520774584897",
    "geocoded_column": {
      "latitude": "29.946520774584897",
      "longitude": "-90.13180130844552"
    }
  },
  {
    "service_request": "2023-1025300",
    "request_type": "Property Maintenance",
    "request_reason": "Property Maintenance",
    "date_created": "2023-08-10T16:20:21.000",
    "date_modified": "2023-08-10T16:20:21.000",
    "request_status": "Pending",
    "responsible_agency": "Department of Code Enforcement",
    "final_address": "8121 Freret St",
    "address_councildis": "A",
    "status": "Pending",
    "rowid": "1025300",
    "final_x": "3661353.5001",
    "final_y": "528039.147391",
    "longitude": "-90.13180130844552",
    "latitude": "29.946520774584897",
    "geocoded_column": {
      "latitude": "29.946520774584897",
      "longitude": "-90.13180130844552"
    }
  },
  {
    "service_request": "2023-1025299",
    "request_type": "Trash/Recycling",
    "request_reason": "MIssed Recycling Pick-Up",
    "date_created": "2023-08-10T16:20:17.000",
    "date_modified": "2023-08-10T16:20:18.000",
    "request_status": "Pending",
    "responsible_agency": "Department of Sanitation",
    "final_address": "2233 Ursulines Ave",
    "address_councildis": "D",
    "status": "Assigned to Contractor",
    "contractor": "Richards Disposal",
    "rowid": "1025299",
    "final_x": "3679082.21109",
    "final_y": "537089.900808",
    "longitude": "-90.075511762806",
    "latitude": "29.970884204310412",
    "geocoded_column": {
      "latitude": "29.970884204310412",
      "longitude": "-90.075511762806"
    }
  },
  {
    "service_request": "2023-1025297",
    "request_type": "Trash/Recycling",
    "request_reason": "Order Trash Cart",
    "date_created": "2023-08-10T16:17:09.000",
    "date_modified": "2023-08-10T16:17:09.000",
    "request_status": "Pending",
    "responsible_agency": "Department of Sanitation",
    "final_address": "14051 Curran Rd",
    "address_councildis": "E",
    "status": "Assigned to Contractor",
    "contractor": "Waste Pro",
    "rowid": "1025297",
    "final_x": "3718663.63839",
    "final_y": "572429.968233",
    "longitude": "-89.94916193158265",
    "latitude": "30.06680125617934",
    "geocoded_column": {
      "latitude": "30.06680125617934",
      "longitude": "-89.94916193158265"
    }
  },
  {
    "service_request": "2023-1025296",
    "request_type": "Roads/Drainage",
    "request_reason": "Damaged Sidewalk",
    "date_created": "2023-08-10T16:17:02.000",
    "date_modified": "2023-08-10T16:17:02.000",
    "request_status": "Pending",
    "responsible_agency": "Department of Public Works",
    "final_address": "4304 Duplessis St",
    "address_councildis": "D",
    "status": "Pending",
    "rowid": "1025296",
    "final_x": "3678222.10114",
    "final_y": "548079.458322",
    "longitude": "-90.07784782522702",
    "latitude": "30.001127591268595",
    "geocoded_column": {
      "latitude": "30.001127591268595",
      "longitude": "-90.07784782522702"
    }
  },
  {
    "service_request": "2023-1025295",
    "request_type": "Trash/Recycling",
    "request_reason": "Request a Large Item Pick Up",
    "date_created": "2023-08-10T16:16:35.000",
    "date_modified": "2023-08-10T16:16:35.000",
    "request_status": "Pending",
    "responsible_agency": "Department of Sanitation",
    "final_address": "14051 Curran Rd",
    "address_councildis": "E",
    "status": "Assigned to Contractor",
    "contractor": "Waste Pro",
    "rowid": "1025295",
    "final_x": "3718663.63839",
    "final_y": "572429.968233",
    "longitude": "-89.94916193158265",
    "latitude": "30.06680125617934",
    "geocoded_column": {
      "latitude": "30.06680125617934",
      "longitude": "-89.94916193158265"
    }
  },
  {
    "service_request": "2023-1025294",
    "request_type": "Trash/Recycling",
    "request_reason": "Missed Trash Pick-Up",
    "date_created": "2023-08-10T16:15:05.000",
    "date_modified": "2023-08-10T16:15:06.000",
    "request_status": "Pending",
    "responsible_agency": "Department of Sanitation",
    "final_address": "14051 Curran Rd",
    "address_councildis": "E",
    "status": "Assigned to Contractor",
    "contractor": "Waste Pro",
    "rowid": "1025294",
    "final_x": "3718663.63839",
    "final_y": "572429.968233",
    "longitude": "-89.94916193158265",
    "latitude": "30.06680125617934",
    "geocoded_column": {
      "latitude": "30.06680125617934",
      "longitude": "-89.94916193158265"
    }
  },
  {
    "service_request": "2023-1025293",
    "request_type": "Trash/Recycling",
    "request_reason": "Missed Trash Pick-Up",
    "date_created": "2023-08-10T16:12:12.000",
    "date_modified": "2023-08-10T16:12:13.000",
    "request_status": "Pending",
    "responsible_agency": "Department of Sanitation",
    "final_address": "Jackson Ave, New Orleans, Louisiana, 70125",
    "address_councildis": "B",
    "status": "Assigned to Contractor",
    "contractor": "Richards Disposal",
    "rowid": "1025293",
    "final_x": "3677498.05851",
    "final_y": "523936.191356",
    "longitude": "-90.08096875043478",
    "latitude": "29.934763627559978",
    "geocoded_column": {
      "latitude": "29.934763627559978",
      "longitude": "-90.08096875043478"
    }
  },
  {
    "service_request": "2023-1025291",
    "request_type": "Parks & Parkways",
    "request_reason": "Request Tree Service (Right of Way/Public Property)",
    "date_created": "2023-08-10T16:11:45.000",
    "date_modified": "2023-08-10T16:11:45.000",
    "request_status": "Pending",
    "responsible_agency": "Department of Parks & Parkway",
    "final_address": "4114 Laurel St",
    "address_councildis": "B",
    "status": "Pending",
    "rowid": "1025291",
    "final_x": "3672100.60641",
    "final_y": "518105.929654",
    "longitude": "-90.09820686020907",
    "latitude": "29.91889338368294",
    "geocoded_column": {
      "latitude": "29.91889338368294",
      "longitude": "-90.09820686020907"
    }
  },
  {
    "service_request": "2023-1025289",
    "request_type": "Parks & Parkways",
    "request_reason": "Request Tree Service (Right of Way/Public Property)",
    "date_created": "2023-08-10T16:07:24.000",
    "date_modified": "2023-08-10T16:07:24.000",
    "request_status": "Pending",
    "responsible_agency": "Department of Parks & Parkway",
    "final_address": "4114 Laurel St",
    "address_councildis": "B",
    "status": "Pending",
    "rowid": "1025289",
    "final_x": "3672100.60641",
    "final_y": "518105.929654",
    "longitude": "-90.09820686020907",
    "latitude": "29.91889338368294",
    "geocoded_column": {
      "latitude": "29.91889338368294",
      "longitude": "-90.09820686020907"
    }
  },
  {
    "service_request": "2023-1025287",
    "request_type": "Parks & Parkways",
    "request_reason": "Request Tree Service (Right of Way/Public Property)",
    "date_created": "2023-08-10T15:57:27.000",
    "date_modified": "2023-08-10T15:57:27.000",
    "request_status": "Pending",
    "responsible_agency": "Department of Parks & Parkway",
    "final_address": "4114 Laurel St",
    "address_councildis": "B",
    "status": "Pending",
    "rowid": "1025287",
    "final_x": "3672100.60641",
    "final_y": "518105.929654",
    "longitude": "-90.09820686020907",
    "latitude": "29.91889338368294",
    "geocoded_column": {
      "latitude": "29.91889338368294",
      "longitude": "-90.09820686020907"
    }
  },
  {
    "service_request": "2023-1025286",
    "request_type": "Trash/Recycling",
    "request_reason": "Order Trash Cart",
    "date_created": "2023-08-10T15:54:21.000",
    "date_modified": "2023-08-10T15:54:22.000",
    "request_status": "Pending",
    "responsible_agency": "Department of Sanitation",
    "final_address": "1715 Benton St",
    "address_councildis": "E",
    "status": "Assigned to Contractor",
    "contractor": "Waste Pro",
    "rowid": "1025286",
    "final_x": "3699780.78596",
    "final_y": "535871.250631",
    "longitude": "-90.01018789245502",
    "latitude": "29.966892360302044",
    "geocoded_column": {
      "latitude": "29.966892360302044",
      "longitude": "-90.01018789245502"
    }
  },
  {
    "service_request": "2023-1025285",
    "request_type": "Roads/Drainage",
    "request_reason": "Man hole cover issue",
    "date_created": "2023-08-10T15:53:24.000",
    "date_modified": "2023-08-10T15:53:24.000",
    "request_status": "Pending",
    "responsible_agency": "Department of Public Works",
    "final_address": "GENERAL DE GAULLE DR & WESTBEND PKWY",
    "address_councildis": "C",
    "status": "Pending",
    "rowid": "1025285",
    "final_x": "3696463.6",
    "final_y": "520687.78",
    "longitude": "-90.02121258781013",
    "latitude": "29.92524801305741",
    "geocoded_column": {
      "latitude": "29.92524801305741",
      "longitude": "-90.02121258781013"
    }
  },
  {
    "service_request": "2023-1025284",
    "request_type": "Trash/Recycling",
    "request_reason": "Order Recycling Cart",
    "date_created": "2023-08-10T15:53:23.000",
    "date_modified": "2023-08-10T15:53:23.000",
    "request_status": "Pending",
    "responsible_agency": "Department of Sanitation",
    "final_address": "1715 Benton St",
    "address_councildis": "E",
    "status": "Pending",
    "rowid": "1025284",
    "final_x": "3699780.78596",
    "final_y": "535871.250631",
    "longitude": "-90.01018789245502",
    "latitude": "29.966892360302044",
    "geocoded_column": {
      "latitude": "29.966892360302044",
      "longitude": "-90.01018789245502"
    }
  },
  {
    "service_request": "2023-1025283",
    "request_type": "Trash/Recycling",
    "request_reason": "Replace Trash Cart",
    "date_created": "2023-08-10T15:52:00.000",
    "date_modified": "2023-08-10T15:52:00.000",
    "request_status": "Pending",
    "responsible_agency": "Department of Sanitation",
    "final_address": "827 Saint Charles Ave, New Orleans, Louisiana, 70130",
    "status": "Assigned to Contractor",
    "rowid": "1025283",
    "longitude": "0.0",
    "latitude": "0.0",
    "geocoded_column": {
      "latitude": "0.0",
      "longitude": "0.0"
    }
  },
  {
    "service_request": "2023-1025282",
    "request_type": "Trash/Recycling",
    "request_reason": "Missed Trash Pick-Up",
    "date_created": "2023-08-10T15:47:18.000",
    "date_modified": "2023-08-10T15:47:18.000",
    "request_status": "Pending",
    "responsible_agency": "Department of Sanitation",
    "final_address": "5012 Touro St",
    "address_councildis": "D",
    "status": "Assigned to Contractor",
    "contractor": "IV Waste",
    "rowid": "1025282",
    "final_x": "3682970.3204",
    "final_y": "551185.788245",
    "longitude": "-90.06273900141544",
    "latitude": "30.009524972090436",
    "geocoded_column": {
      "latitude": "30.009524972090436",
      "longitude": "-90.06273900141544"
    }
  },
  {
    "service_request": "2023-1025281",
    "request_type": "Trash/Recycling",
    "request_reason": "Replace Trash Cart",
    "date_created": "2023-08-10T15:46:13.000",
    "date_modified": "2023-08-10T15:49:29.000",
    "request_status": "Pending",
    "responsible_agency": "Department of Sanitation",
    "final_address": "1114 Crete St",
    "address_councildis": "A",
    "status": "Assigned to Contractor",
    "contractor": "Richards Disposal",
    "rowid": "1025281",
    "final_x": "3677700.60859",
    "final_y": "538821.533961",
    "longitude": "-90.0798152144879",
    "latitude": "29.975687231380913",
    "geocoded_column": {
      "latitude": "29.975687231380913",
      "longitude": "-90.0798152144879"
    }
  },
  {
    "service_request": "2023-1025280",
    "request_type": "Parks & Parkways",
    "request_reason": "Request Tree Service (Right of Way/Public Property)",
    "date_created": "2023-08-10T15:45:09.000",
    "date_modified": "2023-08-10T15:45:09.000",
    "request_status": "Pending",
    "responsible_agency": "Department of Parks & Parkway",
    "final_address": "3904 Louisiana Avenue Prkwy",
    "address_councildis": "B",
    "status": "Pending",
    "rowid": "1025280",
    "final_x": "3671130.59956",
    "final_y": "529084.515584",
    "longitude": "-90.10089594990632",
    "latitude": "29.949109669006113",
    "geocoded_column": {
      "latitude": "29.949109669006113",
      "longitude": "-90.10089594990632"
    }
  },
  {
    "service_request": "2023-1025279",
    "request_type": "Trash/Recycling",
    "request_reason": "Missed Trash Pick-Up",
    "date_created": "2023-08-10T15:37:36.000",
    "date_modified": "2023-08-10T16:01:36.000",
    "case_close_date": "2023-08-10T11:01:36.000",
    "request_status": "Closed",
    "responsible_agency": "Department of Sanitation",
    "final_address": "7860 Tulsa St",
    "address_councildis": "E",
    "status": "Invalid Request",
    "contractor": "Waste Pro",
    "contractor_action": "Invalid Pick-Up",
    "rowid": "1025279",
    "final_x": "3704330.45098",
    "final_y": "553459.666775",
    "longitude": "-89.99517149373516",
    "latitude": "30.015108703422385",
    "geocoded_column": {
      "latitude": "30.015108703422385",
      "longitude": "-89.99517149373516"
    }
  },
  {
    "service_request": "2023-1025278",
    "request_type": "Trash/Recycling",
    "request_reason": "Request a Large Item Pick Up",
    "date_created": "2023-08-10T15:36:06.000",
    "date_modified": "2023-08-10T15:36:07.000",
    "request_status": "Pending",
    "responsible_agency": "Department of Sanitation",
    "final_address": "6300 BLK Mandeville St",
    "address_councildis": "D",
    "status": "Assigned to Contractor",
    "contractor": "IV Waste",
    "rowid": "1025278",
    "final_x": "3684164.15099",
    "final_y": "556416.650406",
    "longitude": "-90.05878345348872",
    "latitude": "30.023871472681115",
    "geocoded_column": {
      "latitude": "30.023871472681115",
      "longitude": "-90.05878345348872"
    }
  },
  {
    "service_request": "2023-1025277",
    "request_type": "Trash/Recycling",
    "request_reason": "Repair Trash Cart",
    "date_created": "2023-08-10T15:33:08.000",
    "date_modified": "2023-08-10T15:33:09.000",
    "request_status": "Pending",
    "responsible_agency": "Department of Sanitation",
    "final_address": "6323 Mandeville St",
    "address_councildis": "D",
    "status": "Assigned to Contractor",
    "contractor": "IV Waste",
    "rowid": "1025277",
    "final_x": "3684211.62729",
    "final_y": "556376.035034",
    "longitude": "-90.05863486556282",
    "latitude": "30.023758343271112",
    "geocoded_column": {
      "latitude": "30.023758343271112",
      "longitude": "-90.05863486556282"
    }
  },
  {
    "service_request": "2023-1025276",
    "request_type": "Trash/Recycling",
    "request_reason": "Repair Recycling Cart",
    "date_created": "2023-08-10T15:31:19.000",
    "date_modified": "2023-08-10T15:31:20.000",
    "request_status": "Pending",
    "responsible_agency": "Department of Sanitation",
    "final_address": "3756 Mimosa Ct",
    "address_councildis": "C",
    "status": "Pending",
    "rowid": "1025276",
    "final_x": "3703788.70967",
    "final_y": "513320.337394",
    "longitude": "-89.99836066769463",
    "latitude": "29.904757398451217",
    "geocoded_column": {
      "latitude": "29.904757398451217",
      "longitude": "-89.99836066769463"
    }
  },
  {
    "service_request": "2023-1025275",
    "request_type": "Parks & Parkways",
    "request_reason": "Request Tree Service (Right of Way/Public Property)",
    "date_created": "2023-08-10T15:30:21.000",
    "date_modified": "2023-08-10T15:30:22.000",
    "request_status": "Pending",
    "responsible_agency": "Department of Parks & Parkway",
    "final_address": "3700 Tall Pines Dr",
    "address_councildis": "C",
    "status": "Pending",
    "rowid": "1025275",
    "final_x": "3703847.64535",
    "final_y": "513640.437618",
    "longitude": "-89.99816289433447",
    "latitude": "29.905635677053926",
    "geocoded_column": {
      "latitude": "29.905635677053926",
      "longitude": "-89.99816289433447"
    }
  },
  {
    "service_request": "2023-1025274",
    "request_type": "Trash/Recycling",
    "request_reason": "Repair Trash Cart",
    "date_created": "2023-08-10T15:29:02.000",
    "date_modified": "2023-08-10T15:29:02.000",
    "request_status": "Pending",
    "responsible_agency": "Department of Sanitation",
    "final_address": "4914 Marigny St",
    "address_councildis": "D",
    "status": "Assigned to Contractor",
    "contractor": "IV Waste",
    "rowid": "1025274",
    "final_x": "3684325.94197",
    "final_y": "550889.921621",
    "longitude": "-90.05846652459319",
    "latitude": "30.008670043661358",
    "geocoded_column": {
      "latitude": "30.008670043661358",
      "longitude": "-90.05846652459319"
    }
  },
  {
    "service_request": "2023-1025273",
    "request_type": "Trash/Recycling",
    "request_reason": "Request a Large Item Pick Up",
    "date_created": "2023-08-10T15:28:41.000",
    "date_modified": "2023-08-10T15:28:41.000",
    "request_status": "Pending",
    "responsible_agency": "Department of Sanitation",
    "final_address": "3030 Grand-Route St John St",
    "address_councildis": "A",
    "status": "Assigned to Contractor",
    "contractor": "IV Waste",
    "rowid": "1025273",
    "final_x": "3676912.10126",
    "final_y": "540258.290251",
    "longitude": "-90.0822559979746",
    "latitude": "29.979661512087944",
    "geocoded_column": {
      "latitude": "29.979661512087944",
      "longitude": "-90.0822559979746"
    }
  },
  {
    "service_request": "2023-1025272",
    "request_type": "Trash/Recycling",
    "request_reason": "Missed Trash Pick-Up",
    "date_created": "2023-08-10T15:25:20.000",
    "date_modified": "2023-08-10T16:09:58.000",
    "case_close_date": "2023-08-10T11:09:58.000",
    "request_status": "Closed",
    "responsible_agency": "Department of Sanitation",
    "final_address": "2532 Winthrop St",
    "address_councildis": "E",
    "status": "Invalid Request",
    "contractor": "Waste Pro",
    "contractor_action": "Invalid Pick-Up",
    "rowid": "1025272",
    "final_x": "3700754.43722",
    "final_y": "538936.837002",
    "longitude": "-90.00700106126702",
    "latitude": "29.9752906635259",
    "geocoded_column": {
      "latitude": "29.9752906635259",
      "longitude": "-90.00700106126702"
    }
  },
  {
    "service_request": "2023-1025271",
    "request_type": "Trash/Recycling",
    "request_reason": "Replace Trash Cart",
    "date_created": "2023-08-10T15:22:23.000",
    "date_modified": "2023-08-10T15:22:24.000",
    "request_status": "Pending",
    "responsible_agency": "Department of Sanitation",
    "final_address": "8020 Spruce St",
    "address_councildis": "A",
    "status": "Assigned to Contractor",
    "contractor": "Richards Disposal",
    "rowid": "1025271",
    "final_x": "3664045.05312",
    "final_y": "530219.073729",
    "longitude": "-90.12323039107248",
    "latitude": "29.952436988646106",
    "geocoded_column": {
      "latitude": "29.952436988646106",
      "longitude": "-90.12323039107248"
    }
  },
  {
    "service_request": "2023-1025270",
    "request_type": "Trash/Recycling",
    "request_reason": "Request a Large Item Pick Up",
    "date_created": "2023-08-10T15:18:03.000",
    "date_modified": "2023-08-10T15:18:03.000",
    "request_status": "Pending",
    "responsible_agency": "Department of Sanitation",
    "final_address": "9300 Old Gentilly Rd",
    "address_councildis": "E",
    "status": "Assigned to Contractor",
    "contractor": "Waste Pro",
    "rowid": "1025270",
    "final_x": "3710091.88523",
    "final_y": "552534.677014",
    "longitude": "-89.97700285581125",
    "latitude": "30.012379074212465",
    "geocoded_column": {
      "latitude": "30.012379074212465",
      "longitude": "-89.97700285581125"
    }
  },
  {
    "service_request": "2023-1025269",
    "request_type": "Trash/Recycling",
    "request_reason": "Missed Trash Pick-Up",
    "date_created": "2023-08-10T15:17:48.000",
    "date_modified": "2023-08-10T15:17:48.000",
    "request_status": "Pending",
    "responsible_agency": "Department of Sanitation",
    "final_address": "9300 Old Gentilly Rd",
    "address_councildis": "E",
    "status": "Assigned to Contractor",
    "contractor": "Waste Pro",
    "rowid": "1025269",
    "final_x": "3710091.88523",
    "final_y": "552534.677014",
    "longitude": "-89.97700285581125",
    "latitude": "30.012379074212465",
    "geocoded_column": {
      "latitude": "30.012379074212465",
      "longitude": "-89.97700285581125"
    }
  },
  {
    "service_request": "2023-1025268",
    "request_type": "Trash/Recycling",
    "request_reason": "Replace Trash Cart",
    "date_created": "2023-08-10T15:10:15.000",
    "date_modified": "2023-08-10T15:10:15.000",
    "request_status": "Pending",
    "responsible_agency": "Department of Sanitation",
    "final_address": "2051 St Nick Dr",
    "address_councildis": "C",
    "status": "Assigned to Contractor",
    "contractor": "Richards Disposal",
    "rowid": "1025268",
    "final_x": "3699921.87645",
    "final_y": "523499.935227",
    "longitude": "-90.01019346877771",
    "latitude": "29.93287112637031",
    "geocoded_column": {
      "latitude": "29.93287112637031",
      "longitude": "-90.01019346877771"
    }
  },
  {
    "service_request": "2023-1025267",
    "request_type": "Trash/Recycling",
    "request_reason": "Request a Large Item Pick Up",
    "date_created": "2023-08-10T15:07:47.000",
    "date_modified": "2023-08-10T15:07:48.000",
    "request_status": "Pending",
    "responsible_agency": "Department of Sanitation",
    "final_address": "4126 St Peter St",
    "address_councildis": "A",
    "status": "Assigned to Contractor",
    "contractor": "Richards Disposal",
    "rowid": "1025267",
    "final_x": "3672328.19643",
    "final_y": "540062.503819",
    "longitude": "-90.09674052805214",
    "latitude": "29.97925998739931",
    "geocoded_column": {
      "latitude": "29.97925998739931",
      "longitude": "-90.09674052805214"
    }
  },
  {
    "service_request": "2023-1025266",
    "request_type": "Trash/Recycling",
    "request_reason": "Missed Trash Pick-Up",
    "date_created": "2023-08-10T15:04:39.000",
    "date_modified": "2023-08-10T15:50:26.000",
    "case_close_date": "2023-08-10T10:50:26.000",
    "request_status": "Closed",
    "responsible_agency": "Department of Sanitation",
    "final_address": "6108 Todd Pl",
    "address_councildis": "E",
    "status": "Invalid Request",
    "contractor": "Waste Pro",
    "contractor_action": "Invalid Pick-Up",
    "rowid": "1025266",
    "final_x": "3699388.99236",
    "final_y": "532664.049604",
    "longitude": "-90.01154200500004",
    "latitude": "29.958086136878514",
    "geocoded_column": {
      "latitude": "29.958086136878514",
      "longitude": "-90.01154200500004"
    }
  },
  {
    "service_request": "2023-1025265",
    "request_type": "Abandoned Vehicles",
    "request_reason": "Abandoned/Junk Vehicles",
    "date_created": "2023-08-10T15:03:25.000",
    "date_modified": "2023-08-10T15:03:25.000",
    "request_status": "Pending",
    "responsible_agency": "Department of Public Works",
    "final_address": "4836 Banks St",
    "address_councildis": "A",
    "status": "Pending",
    "rowid": "1025265",
    "final_x": "3667808.96538",
    "final_y": "539238.315082",
    "longitude": "-90.11104184785589",
    "latitude": "29.977127077115583",
    "geocoded_column": {
      "latitude": "29.977127077115583",
      "longitude": "-90.11104184785589"
    }
  },
  {
    "service_request": "2023-1025263",
    "request_type": "Trash/Recycling",
    "request_reason": "MIssed Recycling Pick-Up",
    "date_created": "2023-08-10T14:59:00.000",
    "date_modified": "2023-08-10T14:59:00.000",
    "request_status": "Pending",
    "responsible_agency": "Department of Sanitation",
    "final_address": "5409 Marais St",
    "address_councildis": "E",
    "status": "Assigned to Contractor",
    "contractor": "Waste Pro",
    "rowid": "1025263",
    "final_x": "3697357.51043",
    "final_y": "534339.625605",
    "longitude": "-90.0178960826685",
    "latitude": "29.962757656718836",
    "geocoded_column": {
      "latitude": "29.962757656718836",
      "longitude": "-90.0178960826685"
    }
  },
  {
    "service_request": "2023-1025262",
    "request_type": "Trash/Recycling",
    "request_reason": "Repair Trash Cart",
    "date_created": "2023-08-10T14:50:47.000",
    "date_modified": "2023-08-10T14:50:48.000",
    "request_status": "Pending",
    "responsible_agency": "Department of Sanitation",
    "final_address": "3520 Dickens Dr",
    "address_councildis": "C",
    "status": "Assigned to Contractor",
    "contractor": "Richards Disposal",
    "rowid": "1025262",
    "final_x": "3708312.82219",
    "final_y": "517840.206582",
    "longitude": "-89.98391454712706",
    "latitude": "29.917039768429305",
    "geocoded_column": {
      "latitude": "29.917039768429305",
      "longitude": "-89.98391454712706"
    }
  },
  {
    "service_request": "2023-1025261",
    "request_type": "Trash/Recycling",
    "request_reason": "Request a Large Item Pick Up",
    "date_created": "2023-08-10T14:49:27.000",
    "date_modified": "2023-08-10T14:49:28.000",
    "request_status": "Pending",
    "responsible_agency": "Department of Sanitation",
    "final_address": "2130 Cadiz St",
    "address_councildis": "B",
    "status": "Assigned to Contractor",
    "contractor": "Richards Disposal",
    "rowid": "1025261",
    "final_x": "3669861.75393",
    "final_y": "522823.514683",
    "longitude": "-90.10511416227455",
    "latitude": "29.931931408997904",
    "geocoded_column": {
      "latitude": "29.931931408997904",
      "longitude": "-90.10511416227455"
    }
  },
  {
    "service_request": "2023-1025260",
    "request_type": "Trash/Recycling",
    "request_reason": "MIssed Recycling Pick-Up",
    "date_created": "2023-08-10T14:48:38.000",
    "date_modified": "2023-08-10T14:48:39.000",
    "request_status": "Pending",
    "responsible_agency": "Department of Sanitation",
    "final_address": "5800 E Louis Prima Dr",
    "address_councildis": "E",
    "status": "Assigned to Contractor",
    "contractor": "Waste Pro",
    "rowid": "1025260",
    "final_x": "3715794.79378",
    "final_y": "562579.495392",
    "longitude": "-89.95860431021212",
    "latitude": "30.03981147758777",
    "geocoded_column": {
      "latitude": "30.03981147758777",
      "longitude": "-89.95860431021212"
    }
  },
  {
    "service_request": "2023-1025259",
    "request_type": "Trash/Recycling",
    "request_reason": "Request a Large Item Pick Up",
    "date_created": "2023-08-10T14:45:17.000",
    "date_modified": "2023-08-10T14:45:18.000",
    "request_status": "Pending",
    "responsible_agency": "Department of Sanitation",
    "final_address": "5524 S Johnson St",
    "address_councildis": "A",
    "status": "Assigned to Contractor",
    "contractor": "Richards Disposal",
    "rowid": "1025259",
    "final_x": "3668010.16986",
    "final_y": "527041.575934",
    "longitude": "-90.11081736677356",
    "latitude": "29.94358416498361",
    "geocoded_column": {
      "latitude": "29.94358416498361",
      "longitude": "-90.11081736677356"
    }
  },
  {
    "service_request": "2023-1025258",
    "request_type": "Abandoned Vehicles",
    "request_reason": "Abandoned/Junk Vehicles",
    "date_created": "2023-08-10T14:39:54.000",
    "date_modified": "2023-08-10T14:39:54.000",
    "request_status": "Pending",
    "responsible_agency": "Department of Public Works",
    "final_address": "13120 Linden St",
    "address_councildis": "E",
    "status": "Pending",
    "rowid": "1025258",
    "final_x": "3716219.934",
    "final_y": "570502.390055",
    "longitude": "-89.95695998841956",
    "latitude": "30.061582159722185",
    "geocoded_column": {
      "latitude": "30.061582159722185",
      "longitude": "-89.95695998841956"
    }
  },
  {
    "service_request": "2023-1025257",
    "request_type": "Trash/Recycling",
    "request_reason": "Request a Large Item Pick Up",
    "date_created": "2023-08-10T14:38:44.000",
    "date_modified": "2023-08-10T14:38:44.000",
    "request_status": "Pending",
    "responsible_agency": "Department of Sanitation",
    "final_address": "13050 Calais St",
    "address_councildis": "E",
    "status": "Assigned to Contractor",
    "contractor": "Waste Pro",
    "rowid": "1025257",
    "final_x": "3724217.60691",
    "final_y": "560424.78371",
    "longitude": "-89.9320692672849",
    "latitude": "30.03360635772393",
    "geocoded_column": {
      "latitude": "30.03360635772393",
      "longitude": "-89.9320692672849"
    }
  },
  {
    "service_request": "2023-1025256",
    "request_type": "Traffic Signals/Signs/Striping/Streetlights",
    "request_reason": "Street Light Outage/Malfunction",
    "date_created": "2023-08-10T14:38:16.000",
    "date_modified": "2023-08-10T14:38:17.000",
    "request_status": "Pending",
    "responsible_agency": "Department of Public Works",
    "final_address": "2824 Calhoun St",
    "address_councildis": "A",
    "status": "Assigned to Contractor",
    "contractor": "Legacy Professional Services",
    "rowid": "1025256",
    "final_x": "3666618.59533",
    "final_y": "527138.943231",
    "longitude": "-90.11520768200867",
    "latitude": "29.943892644482503",
    "geocoded_column": {
      "latitude": "29.943892644482503",
      "longitude": "-90.11520768200867"
    }
  },
  {
    "service_request": "2023-1025255",
    "request_type": "Trash/Recycling",
    "request_reason": "Request a Large Item Pick Up",
    "date_created": "2023-08-10T14:36:15.000",
    "date_modified": "2023-08-10T14:36:15.000",
    "request_status": "Pending",
    "responsible_agency": "Department of Sanitation",
    "final_address": "2916 Palmer Ave",
    "address_councildis": "A",
    "status": "Assigned to Contractor",
    "contractor": "Richards Disposal",
    "rowid": "1025255",
    "final_x": "3667001.05709",
    "final_y": "527291.372223",
    "longitude": "-90.11399502020268",
    "latitude": "29.944300589590146",
    "geocoded_column": {
      "latitude": "29.944300589590146",
      "longitude": "-90.11399502020268"
    }
  },
  {
    "service_request": "2023-1025254",
    "request_type": "Trash/Recycling",
    "request_reason": "Repair Trash Cart",
    "date_created": "2023-08-10T14:34:09.000",
    "date_modified": "2023-08-10T14:35:01.000",
    "request_status": "Pending",
    "responsible_agency": "Department of Sanitation",
    "final_address": "3328 St Anthony Ave",
    "address_councildis": "D",
    "status": "Assigned to Contractor",
    "contractor": "IV Waste",
    "rowid": "1025254",
    "final_x": "3682732.93775",
    "final_y": "544860.459663",
    "longitude": "-90.06371040298717",
    "latitude": "29.99213982096269",
    "geocoded_column": {
      "latitude": "29.99213982096269",
      "longitude": "-90.06371040298717"
    }
  },
  {
    "service_request": "2023-1025253",
    "request_type": "Trash/Recycling",
    "request_reason": "Replace Trash Cart",
    "date_created": "2023-08-10T14:33:04.000",
    "date_modified": "2023-08-10T14:33:46.000",
    "request_status": "Pending",
    "responsible_agency": "Department of Sanitation",
    "final_address": "3313 Constance St",
    "address_councildis": "B",
    "status": "Assigned to Contractor",
    "contractor": "Richards Disposal",
    "rowid": "1025253",
    "final_x": "3675421.13845",
    "final_y": "519444.948151",
    "longitude": "-90.08767970041416",
    "latitude": "29.922476418384566",
    "geocoded_column": {
      "latitude": "29.922476418384566",
      "longitude": "-90.08767970041416"
    }
  },
  {
    "service_request": "2023-1025252",
    "request_type": "Trash/Recycling",
    "request_reason": "Replace Trash Cart",
    "date_created": "2023-08-10T14:30:20.000",
    "date_modified": "2023-08-10T14:37:38.000",
    "case_close_date": "2023-08-10T09:37:38.000",
    "request_status": "Closed",
    "responsible_agency": "Department of Sanitation",
    "final_address": "3329 St Anthony Ave, New Orleans, Louisiana, 70122",
    "status": "Duplicate Request",
    "rowid": "1025252",
    "longitude": "0.0",
    "latitude": "0.0",
    "geocoded_column": {
      "latitude": "0.0",
      "longitude": "0.0"
    }
  },
  {
    "service_request": "2023-1025251",
    "request_type": "Trash/Recycling",
    "request_reason": "Illegal Dumping",
    "date_created": "2023-08-10T14:29:02.000",
    "date_modified": "2023-08-10T14:29:02.000",
    "request_status": "Pending",
    "responsible_agency": "Department of Sanitation",
    "final_address": "2433 Perdido St",
    "address_councildis": "B",
    "status": "Pending",
    "rowid": "1025251",
    "final_x": "3674713.86132",
    "final_y": "532512.661636",
    "longitude": "-90.08946450654314",
    "latitude": "29.958429469420867",
    "geocoded_column": {
      "latitude": "29.958429469420867",
      "longitude": "-90.08946450654314"
    }
  },
  {
    "service_request": "2023-1025250",
    "request_type": "Trash/Recycling",
    "request_reason": "Request a Large Item Pick Up",
    "date_created": "2023-08-10T14:28:04.000",
    "date_modified": "2023-08-10T14:28:05.000",
    "request_status": "Pending",
    "responsible_agency": "Department of Sanitation",
    "final_address": "5752 Bancroft Dr",
    "address_councildis": "D",
    "status": "Assigned to Contractor",
    "contractor": "IV Waste",
    "rowid": "1025250",
    "final_x": "3676488.8788",
    "final_y": "553678.681879",
    "longitude": "-90.08313023050204",
    "latitude": "30.016575563425246",
    "geocoded_column": {
      "latitude": "30.016575563425246",
      "longitude": "-90.08313023050204"
    }
  },
  {
    "service_request": "2023-1025249",
    "request_type": "Traffic Signals/Signs/Striping/Streetlights",
    "request_reason": "Disabled Parking Sign ",
    "date_created": "2023-08-10T14:28:00.000",
    "date_modified": "2023-08-10T14:28:00.000",
    "request_status": "Pending",
    "responsible_agency": "Department of Public Works",
    "final_address": "1815 Dumaine St",
    "address_councildis": "D",
    "status": "Pending",
    "rowid": "1025249",
    "final_x": "3679827.44815",
    "final_y": "535532.284422",
    "longitude": "-90.0732123076612",
    "latitude": "29.96657877813849",
    "geocoded_column": {
      "latitude": "29.96657877813849",
      "longitude": "-90.0732123076612"
    }
  },
  {
    "service_request": "2023-1025248",
    "request_type": "Trash/Recycling",
    "request_reason": "Missed Trash Pick-Up",
    "date_created": "2023-08-10T14:26:09.000",
    "date_modified": "2023-08-10T14:26:10.000",
    "request_status": "Pending",
    "responsible_agency": "Department of Sanitation",
    "final_address": "5600 BLK N dOrgenois St",
    "address_councildis": "E",
    "status": "Assigned to Contractor",
    "contractor": "Waste Pro",
    "rowid": "1025248",
    "final_x": "3699618.60991",
    "final_y": "538964.273237",
    "longitude": "-90.01058728343203",
    "latitude": "29.975402205130973",
    "geocoded_column": {
      "latitude": "29.975402205130973",
      "longitude": "-90.01058728343203"
    }
  },
  {
    "service_request": "2023-1025247",
    "request_type": "Parks & Parkways",
    "request_reason": "Request Tree Service (Right of Way/Public Property)",
    "date_created": "2023-08-10T14:24:09.000",
    "date_modified": "2023-08-10T14:24:09.000",
    "request_status": "Pending",
    "responsible_agency": "Department of Parks & Parkway",
    "final_address": "1618 St Philip St.",
    "address_councildis": "C",
    "status": "Pending",
    "rowid": "1025247",
    "final_x": "3680595.69167",
    "final_y": "535326.366342",
    "longitude": "-90.07079336801608",
    "latitude": "29.965989320699425",
    "geocoded_column": {
      "latitude": "29.965989320699425",
      "longitude": "-90.07079336801608"
    }
  },
  {
    "service_request": "2023-1025246",
    "request_type": "Traffic Signals/Signs/Striping/Streetlights",
    "request_reason": "Street Light Outage/Malfunction",
    "date_created": "2023-08-10T14:23:45.000",
    "date_modified": "2023-08-10T14:23:45.000",
    "request_status": "Pending",
    "responsible_agency": "Department of Public Works",
    "final_address": "7239 Benson Ct",
    "address_councildis": "E",
    "status": "Assigned to Contractor",
    "contractor": "Legacy Professional Services",
    "rowid": "1025246",
    "final_x": "3705079.47166",
    "final_y": "561116.207774",
    "longitude": "-89.99252188956794",
    "latitude": "30.036137144193226",
    "geocoded_column": {
      "latitude": "30.036137144193226",
      "longitude": "-89.99252188956794"
    }
  },
  {
    "service_request": "2023-1025245",
    "request_type": "Property Maintenance",
    "request_reason": "Property Maintenance",
    "date_created": "2023-08-10T14:22:10.000",
    "date_modified": "2023-08-10T14:22:10.000",
    "request_status": "Pending",
    "responsible_agency": "Department of Code Enforcement",
    "final_address": "1300 BLK France St",
    "address_councildis": "D",
    "status": "Pending",
    "rowid": "1025245",
    "final_x": "3692617.38638",
    "final_y": "536079.496198",
    "longitude": "-90.03280235478304",
    "latitude": "29.96769046492652",
    "geocoded_column": {
      "latitude": "29.96769046492652",
      "longitude": "-90.03280235478304"
    }
  },
  {
    "service_request": "2023-1025244",
    "request_type": "Trash/Recycling",
    "request_reason": "Return Recycling Cart",
    "date_created": "2023-08-10T14:20:11.000",
    "date_modified": "2023-08-10T14:20:11.000",
    "request_status": "Pending",
    "responsible_agency": "Department of Sanitation",
    "final_address": "3425 Hyman Pl",
    "address_councildis": "C",
    "status": "Pending",
    "rowid": "1025244",
    "final_x": "3700893.11671",
    "final_y": "518537.562039",
    "longitude": "-90.0073086500879",
    "latitude": "29.919195437101397",
    "geocoded_column": {
      "latitude": "29.919195437101397",
      "longitude": "-90.0073086500879"
    }
  },
  {
    "service_request": "2023-1025243",
    "request_type": "Trash/Recycling",
    "request_reason": "Missed Trash Pick-Up",
    "date_created": "2023-08-10T14:19:00.000",
    "date_modified": "2023-08-10T14:19:01.000",
    "request_status": "Pending",
    "responsible_agency": "Department of Sanitation",
    "final_address": "2472 N Prieur St",
    "address_councildis": "D",
    "status": "Assigned to Contractor",
    "contractor": "IV Waste",
    "rowid": "1025243",
    "final_x": "3686900.33666",
    "final_y": "539390.065034",
    "longitude": "-90.0507398766136",
    "latitude": "29.976970552582365",
    "geocoded_column": {
      "latitude": "29.976970552582365",
      "longitude": "-90.0507398766136"
    }
  },
  {
    "service_request": "2023-1025242",
    "request_type": "Trash/Recycling",
    "request_reason": "Repair Recycling Cart",
    "date_created": "2023-08-10T14:17:50.000",
    "date_modified": "2023-08-10T14:17:50.000",
    "request_status": "Pending",
    "responsible_agency": "Department of Sanitation",
    "final_address": "1119 Terpsichore St",
    "address_councildis": "B",
    "status": "Pending",
    "rowid": "1025242",
    "final_x": "3680211.43522",
    "final_y": "524604.05702",
    "longitude": "-90.07237946346018",
    "latitude": "29.93651821348339",
    "geocoded_column": {
      "latitude": "29.93651821348339",
      "longitude": "-90.07237946346018"
    }
  },
  {
    "service_request": "2023-1025241",
    "request_type": "Trash/Recycling",
    "request_reason": "Repair Recycling Cart",
    "date_created": "2023-08-10T14:17:15.000",
    "date_modified": "2023-08-10T14:17:15.000",
    "request_status": "Pending",
    "responsible_agency": "Department of Sanitation",
    "final_address": "1121 Terpsichore St",
    "address_councildis": "B",
    "status": "Pending",
    "rowid": "1025241",
    "final_x": "3680201.12482",
    "final_y": "524606.869564",
    "longitude": "-90.07241191608",
    "latitude": "29.936526259027833",
    "geocoded_column": {
      "latitude": "29.936526259027833",
      "longitude": "-90.07241191608"
    }
  },
  {
    "service_request": "2023-1025240",
    "request_type": "Trash/Recycling",
    "request_reason": "MIssed Recycling Pick-Up",
    "date_created": "2023-08-10T14:16:57.000",
    "date_modified": "2023-08-10T15:57:52.000",
    "case_close_date": "2023-08-10T10:57:52.000",
    "request_status": "Closed",
    "responsible_agency": "Department of Sanitation",
    "final_address": "2015 Allen St",
    "address_councildis": "D",
    "status": "Invalid Request",
    "contractor": "IV Waste",
    "contractor_action": "Invalid Pick-Up",
    "rowid": "1025240",
    "final_x": "3682533.58492",
    "final_y": "539570.218634",
    "longitude": "-90.06452515958121",
    "latitude": "29.977599590206577",
    "geocoded_column": {
      "latitude": "29.977599590206577",
      "longitude": "-90.06452515958121"
    }
  },
  {
    "service_request": "2023-1025239",
    "request_type": "Trash/Recycling",
    "request_reason": "Repair Trash Cart",
    "date_created": "2023-08-10T14:16:47.000",
    "date_modified": "2023-08-10T14:16:47.000",
    "request_status": "Pending",
    "responsible_agency": "Department of Sanitation",
    "final_address": "1121 Terpsichore St",
    "address_councildis": "B",
    "status": "Assigned to Contractor",
    "contractor": "Richards Disposal",
    "rowid": "1025239",
    "final_x": "3680201.12482",
    "final_y": "524606.869564",
    "longitude": "-90.07241191608",
    "latitude": "29.936526259027833",
    "geocoded_column": {
      "latitude": "29.936526259027833",
      "longitude": "-90.07241191608"
    }
  },
  {
    "service_request": "2023-1025238",
    "request_type": "Abandoned Vehicles",
    "request_reason": "Abandoned/Junk Vehicles",
    "date_created": "2023-08-10T14:16:18.000",
    "date_modified": "2023-08-10T14:18:33.000",
    "request_status": "Pending",
    "responsible_agency": "Department of Public Works",
    "final_address": "ARTS ST & N JOHNSON ST",
    "address_councildis": "D",
    "status": "Pending",
    "rowid": "1025238",
    "final_x": "3686944.3",
    "final_y": "539793.48",
    "longitude": "-90.05058676322125",
    "latitude": "29.978078448425286",
    "geocoded_column": {
      "latitude": "29.978078448425286",
      "longitude": "-90.05058676322125"
    }
  },
  {
    "service_request": "2023-1025237",
    "request_type": "Trash/Recycling",
    "request_reason": "Repair Trash Cart",
    "date_created": "2023-08-10T14:16:02.000",
    "date_modified": "2023-08-10T14:16:03.000",
    "request_status": "Pending",
    "responsible_agency": "Department of Sanitation",
    "final_address": "1119 Terpsichore St",
    "address_councildis": "B",
    "status": "Assigned to Contractor",
    "contractor": "Richards Disposal",
    "rowid": "1025237",
    "final_x": "3680211.43522",
    "final_y": "524604.05702",
    "longitude": "-90.07237946346018",
    "latitude": "29.93651821348339",
    "geocoded_column": {
      "latitude": "29.93651821348339",
      "longitude": "-90.07237946346018"
    }
  },
  {
    "service_request": "2023-1025236",
    "request_type": "Parks & Parkways",
    "request_reason": "Request Tree Service (Right of Way/Public Property)",
    "date_created": "2023-08-10T14:14:21.000",
    "date_modified": "2023-08-10T15:00:55.000",
    "case_close_date": "2023-08-10T10:00:55.000",
    "request_status": "Closed",
    "responsible_agency": "Department of Parks & Parkway",
    "final_address": "2 Westpark Ct",
    "address_councildis": "C",
    "status": "Resolved",
    "rowid": "1025236",
    "final_x": "3696112.57674",
    "final_y": "521718.718714",
    "longitude": "-90.02228341563978",
    "latitude": "29.92809379111836",
    "geocoded_column": {
      "latitude": "29.92809379111836",
      "longitude": "-90.02228341563978"
    }
  },