[
  {
    "service_request": "2025-1222145",
    "request_type": "Trash/Recycling",
    "request_reason": "Repair Trash Cart",
    "date_created": "2025-08-27T22:29:31.000",
    "date_modified": "2025-08-27T22:29:38.000",
    "request_status": "Pending",
    "responsible_agency": "Department of Sanitation",
    "final_address": "2103 Marengo St",
    "address_councildis": "B",
    "status": "Assigned to Contractor",
    "contractor": "IV Waste",
    "rowid": "1222145",
    "final_x": "3671824.79131",
    "final_y": "522806.601659",
    "longitude": "-90.09891762190038",
    "latitude": "29.93182689992753",
    "geocoded_column": {
      "latitude": "29.93182689992753",
      "longitude": "-90.09891762190038"
    }
  },
  {
    "service_request": "2025-1222144",
    "request_type": "Property Maintenance",
    "request_reason": "Property Maintenance",
    "date_created": "2025-08-27T22:14:12.000",
    "date_modified": "2025-08-27T22:14:14.000",
    "request_status": "Pending",
    "responsible_agency": "Department of Code Enforcement",
    "final_address": "3933 Toulouse St",
    "address_councildis": "A",
    "status": "Pending",
    "rowid": "1222144",
    "final_x": "3672652.40091",
    "final_y": "539461.298954",
    "longitude": "-90.09573707015643",
    "latitude": "29.977597254358088",
    "geocoded_column": {
      "latitude": "29.977597254358088",
      "longitude": "-90.09573707015643"
    }
  },
  {
    "service_request": "2025-1222143",
    "request_type": "Streetlights",
    "request_reason": "Streetlight Outage/Malfunction",
    "date_created": "2025-08-27T22:09:44.000",
    "date_modified": "2025-08-27T22:09:46.000",
    "request_status": "Pending",
    "responsible_agency": "Department of Public Works",
    "final_address": "6201 Berkley Dr",
    "address_councildis": "C",
    "status": "Pending",
    "contractor": "Legacy Professional Services",
    "rowid": "1222143",
    "final_x": "3707025.10321",
    "final_y": "518035.768886",
    "longitude": "-89.98797185070612",
    "latitude": "29.917619132934384",
    "geocoded_column": {
      "latitude": "29.917619132934384",
      "longitude": "-89.98797185070612"
    }
  },
  {
    "service_request": "2025-1222142",
    "request_type": "Street and Traffic Signs",
    "request_reason": "Street Name Sign Damaged or Missing",
    "date_created": "2025-08-27T22:06:50.000",
    "date_modified": "2025-08-27T22:06:53.000",
    "request_status": "Pending",
    "responsible_agency": "Department of Public Works",
    "final_address": "1643 S Norman C Francis Prkwy",
    "address_councildis": "B",
    "status": "Pending",
    "rowid": "1222142",
    "final_x": "3669269.23252",
    "final_y": "531015.587394",
    "longitude": "-90.1067078468871",
    "latitude": "29.954474402047378",
    "geocoded_column": {
      "latitude": "29.954474402047378",
      "longitude": "-90.1067078468871"
    }
  },
  {
    "service_request": "2025-1222141",
    "request_type": "Streetlights",
    "request_reason": "Streetlight Outage/Malfunction",
    "date_created": "2025-08-27T21:49:59.000",
    "date_modified": "2025-08-27T21:50:29.000",
    "request_status": "Pending",
    "responsible_agency": "Department of Public Works",
    "final_address": "1028 Valmont St",
    "address_councildis": "B",
    "status": "Pending",
    "contractor": "Legacy Professional Services",
    "rowid": "1222141",
    "final_x": "3667474.92365",
    "final_y": "519266.824055",
    "longitude": "-90.11276876335945",
    "latitude": "29.922221769978776",
    "geocoded_column": {
      "latitude": "29.922221769978776",
      "longitude": "-90.11276876335945"
    }
  },
  {
    "service_request": "2025-1222140",
    "request_type": "Trash/Recycling",
    "request_reason": "Request a Large Item Pick Up",
    "date_created": "2025-08-27T21:37:37.000",
    "date_modified": "2025-08-27T21:37:39.000",
    "request_status": "Pending",
    "responsible_agency": "Department of Sanitation",
    "final_address": "5543 Cherlyn Dr",
    "address_councildis": "A",
    "status": "Assigned to Contractor",
    "contractor": "IV Waste",
    "rowid": "1222140",
    "final_x": "3665271.58612",
    "final_y": "544727.440335",
    "longitude": "-90.11887200109466",
    "latitude": "29.992294500122178",
    "geocoded_column": {
      "latitude": "29.992294500122178",
      "longitude": "-90.11887200109466"
    }
  },
  {
    "service_request": "2025-1222139",
    "request_type": "Streetlights",
    "request_reason": "Streetlight Outage/Malfunction",
    "date_created": "2025-08-27T21:29:51.000",
    "date_modified": "2025-08-27T21:29:52.000",
    "request_status": "Pending",
    "responsible_agency": "Department of Public Works",
    "final_address": "1028 Valmont St",
    "address_councildis": "B",
    "status": "Pending",
    "contractor": "Legacy Professional Services",
    "rowid": "1222139",
    "final_x": "3667474.92365",
    "final_y": "519266.824055",
    "longitude": "-90.11276876335945",
    "latitude": "29.922221769978776",
    "geocoded_column": {
      "latitude": "29.922221769978776",
      "longitude": "-90.11276876335945"
    }
  },
  {
    "service_request": "2025-1222138",
    "request_type": "Abandoned Vehicles",
    "request_reason": "Abandoned/Junk Vehicles",
    "date_created": "2025-08-27T21:25:33.000",
    "date_modified": "2025-08-27T21:25:35.000",
    "request_status": "Pending",
    "responsible_agency": "Department of Public Works",
    "final_address": "1500 BLK S Rampart St",
    "address_councildis": "B",
    "status": "Pending",
    "rowid": "1222138",
    "final_x": "3677660.50324",
    "final_y": "526300.964246",
    "longitude": "-90.08037428011413",
    "latitude": "29.941261091309265",
    "geocoded_column": {
      "latitude": "29.941261091309265",
      "longitude": "-90.08037428011413"
    }
  },
  {
    "service_request": "2025-1222137",
    "request_type": "Trash/Recycling",
    "request_reason": "Missed Trash Pick-Up",
    "date_created": "2025-08-27T20:36:53.000",
    "date_modified": "2025-08-27T20:36:54.000",
    "request_status": "Pending",
    "responsible_agency": "Department of Sanitation",
    "final_address": "1334 Harrison Ave",
    "address_councildis": "D",
    "status": "Assigned to Contractor",
    "contractor": "IV Waste",
    "rowid": "1222137",
    "final_x": "3677564.20699",
    "final_y": "547528.803474",
    "longitude": "-90.07994519781218",
    "latitude": "29.999633289637494",
    "geocoded_column": {
      "latitude": "29.999633289637494",
      "longitude": "-90.07994519781218"
    }
  },
  {
    "service_request": "2025-1222136",
    "request_type": "Streetlights",
    "request_reason": "Streetlight Outage/Malfunction",
    "date_created": "2025-08-27T20:15:55.000",
    "date_modified": "2025-08-27T20:16:00.000",
    "request_status": "Pending",
    "responsible_agency": "Department of Public Works",
    "final_address": "2021 Chestnut St",
    "address_councildis": "B",
    "status": "Pending",
    "contractor": "Legacy Professional Services",
    "rowid": "1222136",
    "final_x": "3678874.11592",
    "final_y": "523055.073083",
    "longitude": "-90.07665506618164",
    "latitude": "29.93229941557592",
    "geocoded_column": {
      "latitude": "29.93229941557592",
      "longitude": "-90.07665506618164"
    }
  },
  {
    "service_request": "2025-1222135",
    "request_type": "Trash/Recycling",
    "request_reason": "Replace Trash Cart",
    "date_created": "2025-08-27T20:01:17.000",
    "date_modified": "2025-08-27T20:01:19.000",
    "request_status": "Pending",
    "responsible_agency": "Department of Sanitation",
    "final_address": "236 S Murat St Apt 1A",
    "address_councildis": "A",
    "status": "Assigned to Contractor",
    "contractor": "IV Waste",
    "rowid": "1222135",
    "final_x": "3669289.49306",
    "final_y": "538776.559945",
    "longitude": "-90.10638146324337",
    "latitude": "29.975813897551514",
    "geocoded_column": {
      "latitude": "29.975813897551514",
      "longitude": "-90.10638146324337"
    }
  },
  {
    "service_request": "2025-1222134",
    "request_type": "Streetlights",
    "request_reason": "Streetlight Outage/Malfunction",
    "date_created": "2025-08-27T19:29:31.000",
    "date_modified": "2025-08-27T19:29:33.000",
    "request_status": "Pending",
    "responsible_agency": "Department of Public Works",
    "final_address": "3212 Royal St",
    "address_councildis": "C",
    "status": "Pending",
    "contractor": "Legacy Professional Services",
    "rowid": "1222134",
    "final_x": "3689307.77737",
    "final_y": "534301.198085",
    "longitude": "-90.04331737843266",
    "latitude": "29.96290363995088",
    "geocoded_column": {
      "latitude": "29.96290363995088",
      "longitude": "-90.04331737843266"
    }
  },
  {
    "service_request": "2025-1222133",
    "request_type": "Trash/Recycling",
    "request_reason": "MIssed Recycling Pick-Up",
    "date_created": "2025-08-27T19:25:39.000",
    "date_modified": "2025-08-27T19:25:41.000",
    "request_status": "Pending",
    "responsible_agency": "Department of Sanitation",
    "final_address": "5865 Louisville St",
    "address_councildis": "A",
    "status": "Assigned to Contractor",
    "contractor": "IV Waste",
    "rowid": "1222133",
    "final_x": "3667721.14164",
    "final_y": "546494.416209",
    "longitude": "-90.11107476934127",
    "latitude": "29.997081461706887",
    "geocoded_column": {
      "latitude": "29.997081461706887",
      "longitude": "-90.11107476934127"
    }
  },
  {
    "service_request": "2025-1222132",
    "request_type": "Streetlights",
    "request_reason": "Streetlight Outage/Malfunction",
    "date_created": "2025-08-27T19:25:19.000",
    "date_modified": "2025-08-27T19:25:21.000",
    "request_status": "Pending",
    "responsible_agency": "Department of Public Works",
    "final_address": "5525 West End Blvd",
    "address_councildis": "A",
    "status": "Pending",
    "contractor": "Legacy Professional Services",
    "rowid": "1222132",
    "final_x": "3666358.27969",
    "final_y": "544406.834447",
    "longitude": "-90.11545009927322",
    "latitude": "29.991381228808578",
    "geocoded_column": {
      "latitude": "29.991381228808578",
      "longitude": "-90.11545009927322"
    }
  },
  {
    "service_request": "2025-1222131",
    "request_type": "Trash/Recycling",
    "request_reason": "Repair Trash Cart",
    "date_created": "2025-08-27T19:23:40.000",
    "date_modified": "2025-08-27T19:23:42.000",
    "request_status": "Pending",
    "responsible_agency": "Department of Sanitation",
    "final_address": "4518 Constance St",
    "address_councildis": "B",
    "status": "Assigned to Contractor",
    "contractor": "IV Waste",
    "rowid": "1222131",
    "final_x": "3670533.29799",
    "final_y": "518315.96223",
    "longitude": "-90.10314693649488",
    "latitude": "29.91951726777341",
    "geocoded_column": {
      "latitude": "29.91951726777341",
      "longitude": "-90.10314693649488"
    }
  },
  {
    "service_request": "2025-1222130",
    "request_type": "Abandoned Vehicles",
    "request_reason": "Abandoned/Junk Vehicles",
    "date_created": "2025-08-27T19:23:20.000",
    "date_modified": "2025-08-27T19:23:22.000",
    "request_status": "Pending",
    "responsible_agency": "Department of Public Works",
    "final_address": "1544 Leda St",
    "address_councildis": "A",
    "status": "Pending",
    "rowid": "1222130",
    "final_x": "3675752.87406",
    "final_y": "541801.742412",
    "longitude": "-90.08586423827006",
    "latitude": "29.98394022479719",
    "geocoded_column": {
      "latitude": "29.98394022479719",
      "longitude": "-90.08586423827006"
    }
  },
  {
    "service_request": "2025-1222129",
    "request_type": "General Services",
    "request_reason": "General Service Request",
    "date_created": "2025-08-27T19:09:14.000",
    "date_modified": "2025-08-27T19:09:16.000",
    "request_status": "Pending",
    "responsible_agency": "Orleans Parish Communication District",
    "final_address": "2317 Laurel St",
    "address_councildis": "B",
    "status": "Pending",
    "rowid": "1222129",
    "final_x": "3678828.81006",
    "final_y": "521175.493113",
    "longitude": "-90.07686315800636",
    "latitude": "29.927132551949505",
    "geocoded_column": {
      "latitude": "29.927132551949505",
      "longitude": "-90.07686315800636"
    }
  },
  {
    "service_request": "2025-1222128",
    "request_type": "Abandoned Vehicles",
    "request_reason": "Abandoned/Junk Vehicles",
    "date_created": "2025-08-27T18:47:41.000",
    "date_modified": "2025-08-27T18:47:43.000",
    "request_status": "Pending",
    "responsible_agency": "Department of Public Works",
    "final_address": "2114 Jena St",
    "address_councildis": "B",
    "status": "Pending",
    "rowid": "1222128",
    "final_x": "3670218.66311",
    "final_y": "522737.17721",
    "longitude": "-90.10399035883766",
    "latitude": "29.931683484438384",
    "geocoded_column": {
      "latitude": "29.931683484438384",
      "longitude": "-90.10399035883766"
    }
  },
  {
    "service_request": "2025-1222127",
    "request_type": "Roads and Streets",
    "request_reason": "Debris in Driving Lanes",
    "date_created": "2025-08-27T18:38:38.000",
    "date_modified": "2025-08-27T18:38:40.000",
    "request_status": "Pending",
    "responsible_agency": "Department of Public Works",
    "final_address": "2900 BLK Laurel St",
    "address_councildis": "B",
    "status": "Pending",
    "rowid": "1222127",
    "final_x": "3676902.26657",
    "final_y": "519846.606748",
    "longitude": "-90.08299053978018",
    "latitude": "29.92353649275888",
    "geocoded_column": {
      "latitude": "29.92353649275888",
      "longitude": "-90.08299053978018"
    }
  },
  {
    "service_request": "2025-1222126",
    "request_type": "Trash/Recycling",
    "request_reason": "Order Recycling Cart",
    "date_created": "2025-08-27T18:35:50.000",
    "date_modified": "2025-08-27T18:35:52.000",
    "request_status": "Pending",
    "responsible_agency": "Department of Sanitation",
    "final_address": "5520 Camp St",
    "address_councildis": "A",
    "status": "Pending",
    "rowid": "1222126",
    "final_x": "3666321.82676",
    "final_y": "519183.864887",
    "longitude": "-90.11641140959063",
    "latitude": "29.922027382123286",
    "geocoded_column": {
      "latitude": "29.922027382123286",
      "longitude": "-90.11641140959063"
    }
  },
  {
    "service_request": "2025-1222125",
    "request_type": "Trash/Recycling",
    "request_reason": "Replace Trash Cart",
    "date_created": "2025-08-27T18:04:08.000",
    "date_modified": "2025-08-27T18:04:10.000",
    "request_status": "Pending",
    "responsible_agency": "Department of Sanitation",
    "final_address": "1800 Valence St",
    "address_councildis": "B",
    "status": "Assigned to Contractor",
    "contractor": "IV Waste",
    "rowid": "1222125",
    "final_x": "3669605.88884",
    "final_y": "521522.542521",
    "longitude": "-90.10596589621221",
    "latitude": "29.928361690434993",
    "geocoded_column": {
      "latitude": "29.928361690434993",
      "longitude": "-90.10596589621221"
    }
  },
  {
    "service_request": "2025-1222124",
    "request_type": "Trash/Recycling",
    "request_reason": "Request a Large Item Pick Up",
    "date_created": "2025-08-27T18:01:27.000",
    "date_modified": "2025-08-27T18:01:28.000",
    "request_status": "Pending",
    "responsible_agency": "Department of Sanitation",
    "final_address": "7913 Sandy Cove Dr",
    "address_councildis": "E",
    "status": "Assigned to Contractor",
    "contractor": "Waste Pro",
    "rowid": "1222124",
    "final_x": "3714997.90232",
    "final_y": "570267.201831",
    "longitude": "-89.96083169185646",
    "latitude": "30.060975794049114",
    "geocoded_column": {
      "latitude": "30.060975794049114",
      "longitude": "-89.96083169185646"
    }
  },
  {
    "service_request": "2025-1222123",
    "request_type": "Trash/Recycling",
    "request_reason": "Request a Large Item Pick Up",
    "date_created": "2025-08-27T17:50:58.000",
    "date_modified": "2025-08-27T17:50:59.000",
    "request_status": "Pending",
    "responsible_agency": "Department of Sanitation",
    "final_address": "6633 Coveview Ct",
    "address_councildis": "E",
    "status": "Assigned to Contractor",
    "contractor": "Waste Pro",
    "rowid": "1222123",
    "final_x": "3699202.53079",
    "final_y": "555845.048089",
    "longitude": "-90.01128624020171",
    "latitude": "30.021831263200536",
    "geocoded_column": {
      "latitude": "30.021831263200536",
      "longitude": "-90.01128624020171"
    }
  },
  {
    "service_request": "2025-1222122",
    "request_type": "Trash/Recycling",
    "request_reason": "Request a Large Item Pick Up",
    "date_created": "2025-08-27T17:38:59.000",
    "date_modified": "2025-08-27T17:39:01.000",
    "request_status": "Pending",
    "responsible_agency": "Department of Sanitation",
    "final_address": "3236 Sabine St",
    "address_councildis": "C",
    "status": "Assigned to Contractor",
    "contractor": "Richards Disposal",
    "rowid": "1222122",
    "final_x": "3695079.22742",
    "final_y": "517872.247158",
    "longitude": "-90.02568402005211",
    "latitude": "29.917549766596093",
    "geocoded_column": {
      "latitude": "29.917549766596093",
      "longitude": "-90.02568402005211"
    }
  },
  {
    "service_request": "2025-1222121",
    "request_type": "Traffic Signals",
    "request_reason": "Traffic Signal Malfunctioning or Damaged",
    "date_created": "2025-08-27T17:37:45.000",
    "date_modified": "2025-08-27T17:37:46.000",
    "request_status": "Pending",
    "responsible_agency": "Department of Public Works",
    "final_address": "706 Milan St",
    "address_councildis": "B",
    "status": "Pending",
    "rowid": "1222121",
    "final_x": "3671830.30676",
    "final_y": "518188.885878",
    "longitude": "-90.09905723752988",
    "latitude": "29.919129495693518",
    "geocoded_column": {
      "latitude": "29.919129495693518",
      "longitude": "-90.09905723752988"
    }
  },
  {
    "service_request": "2025-1222120",
    "request_type": "Trash/Recycling",
    "request_reason": "Request a Large Item Pick Up",
    "date_created": "2025-08-27T17:34:55.000",
    "date_modified": "2025-08-27T17:34:58.000",
    "request_status": "Pending",
    "responsible_agency": "Department of Sanitation",
    "final_address": "2301 Magazine St",
    "address_councildis": "B",
    "status": "Assigned to Contractor",
    "contractor": "IV Waste",
    "rowid": "1222120",
    "final_x": "3678487.91016",
    "final_y": "521851.003578",
    "longitude": "-90.07791592815494",
    "latitude": "29.929000259503336",
    "geocoded_column": {
      "latitude": "29.929000259503336",
      "longitude": "-90.07791592815494"
    }
  },
  {
    "service_request": "2025-1222119",
    "request_type": "Trash/Recycling",
    "request_reason": "Damaged Caused By Contractor",
    "date_created": "2025-08-27T17:27:45.000",
    "date_modified": "2025-08-27T17:27:46.000",
    "request_status": "Pending",
    "responsible_agency": "Department of Sanitation",
    "final_address": "3132 State Street Dr",
    "address_councildis": "A",
    "status": "Assigned to Contractor",
    "contractor": "IV Waste",
    "rowid": "1222119",
    "final_x": "3667435.16237",
    "final_y": "527810.886655",
    "longitude": "-90.11260694643987",
    "latitude": "29.94571637694569",
    "geocoded_column": {
      "latitude": "29.94571637694569",
      "longitude": "-90.11260694643987"
    }
  },
  {
    "service_request": "2025-1222118",
    "request_type": "Parks & Parkways",
    "request_reason": "Request Tree Service (Right of Way/Public Property)",
    "date_created": "2025-08-27T17:26:59.000",
    "date_modified": "2025-08-27T17:27:02.000",
    "request_status": "Pending",
    "responsible_agency": "Department of Parks & Parkway",
    "final_address": "2801 Hyman Pl",
    "address_councildis": "C",
    "status": "Pending",
    "rowid": "1222118",
    "final_x": "3700966.74967",
    "final_y": "520868.590841",
    "longitude": "-90.00699106059336",
    "latitude": "29.925602622272454",
    "geocoded_column": {
      "latitude": "29.925602622272454",
      "longitude": "-90.00699106059336"
    }
  },
  {
    "service_request": "2025-1222117",
    "request_type": "Trash/Recycling",
    "request_reason": "Missed Trash Pick-Up",
    "date_created": "2025-08-27T17:21:25.000",
    "date_modified": "2025-08-27T17:21:27.000",
    "request_status": "Pending",
    "responsible_agency": "Department of Sanitation",
    "final_address": "4952 Bullard Ave",
    "address_councildis": "E",
    "status": "Assigned to Contractor",
    "contractor": "Waste Pro",
    "rowid": "1222117",
    "final_x": "3719129.31653",
    "final_y": "558412.465244",
    "longitude": "-89.9482255075975",
    "latitude": "30.028243408223343",
    "geocoded_column": {
      "latitude": "30.028243408223343",
      "longitude": "-89.9482255075975"
    }
  },
  {
    "service_request": "2025-1222116",
    "request_type": "Drainage",
    "request_reason": "Catch Basin Not Draining",
    "date_created": "2025-08-27T17:10:18.000",
    "date_modified": "2025-08-27T17:10:20.000",
    "request_status": "Pending",
    "responsible_agency": "Sewerage & Water Board",
    "final_address": "1000 BLK S Norman C Francis Pkwy",
    "address_councildis": "B",
    "status": "Pending",
    "rowid": "1222116",
    "final_x": "3670344.76328",
    "final_y": "532929.695083",
    "longitude": "-90.10324684999787",
    "latitude": "29.959705863267587",
    "geocoded_column": {
      "latitude": "29.959705863267587",
      "longitude": "-90.10324684999787"
    }
  },
  {
    "service_request": "2025-1222115",
    "request_type": "Trash/Recycling",
    "request_reason": "Order Trash Cart",
    "date_created": "2025-08-27T16:58:30.000",
    "date_modified": "2025-08-27T16:58:32.000",
    "request_status": "Pending",
    "responsible_agency": "Department of Sanitation",
    "final_address": "2319 Lizardi St",
    "address_councildis": "E",
    "status": "Assigned to Contractor",
    "contractor": "Waste Pro",
    "rowid": "1222115",
    "final_x": "3697911.91613",
    "final_y": "538751.492681",
    "longitude": "-90.0159851778168",
    "latitude": "29.97487119829208",
    "geocoded_column": {
      "latitude": "29.97487119829208",
      "longitude": "-90.0159851778168"
    }
  },
  {
    "service_request": "2025-1222114",
    "request_type": "Property Maintenance",
    "request_reason": "Property Maintenance",
    "date_created": "2025-08-27T16:55:36.000",
    "date_modified": "2025-08-27T16:55:39.000",
    "request_status": "Pending",
    "responsible_agency": "Department of Code Enforcement",
    "final_address": "2913 Audubon St",
    "address_councildis": "B",
    "status": "Pending",
    "rowid": "1222114",
    "final_x": "3667813.65044",
    "final_y": "531456.826435",
    "longitude": "-90.11128916032003",
    "latitude": "29.955730429981507",
    "geocoded_column": {
      "latitude": "29.955730429981507",
      "longitude": "-90.11128916032003"
    }
  },
  {
    "service_request": "2025-1222113",
    "request_type": "Trash/Recycling",
    "request_reason": "Request a Large Item Pick Up",
    "date_created": "2025-08-27T16:53:00.000",
    "date_modified": "2025-08-27T16:53:02.000",
    "request_status": "Pending",
    "responsible_agency": "Department of Sanitation",
    "final_address": "1539 N Robertson St",
    "address_councildis": "C",
    "status": "Assigned to Contractor",
    "contractor": "IV Waste",
    "rowid": "1222113",
    "final_x": "3682201.44552",
    "final_y": "537223.610632",
    "longitude": "-90.0656561619192",
    "latitude": "29.971157341202883",
    "geocoded_column": {
      "latitude": "29.971157341202883",
      "longitude": "-90.0656561619192"
    }
  },
  {
    "service_request": "2025-1222112",
    "request_type": "Property Maintenance",
    "request_reason": "Property Maintenance",
    "date_created": "2025-08-27T16:52:09.000",
    "date_modified": "2025-08-27T16:52:10.000",
    "request_status": "Pending",
    "responsible_agency": "Department of Code Enforcement",
    "final_address": "2908 Audubon St",
    "address_councildis": "B",
    "status": "Pending",
    "rowid": "1222112",
    "final_x": "3667752.01959",
    "final_y": "531487.873731",
    "longitude": "-90.11148272407517",
    "latitude": "29.955817607065786",
    "geocoded_column": {
      "latitude": "29.955817607065786",
      "longitude": "-90.11148272407517"
    }
  },
  {
    "service_request": "2025-1222111",
    "request_type": "Property Maintenance",
    "request_reason": "Property Maintenance",
    "date_created": "2025-08-27T16:51:38.000",
    "date_modified": "2025-08-27T16:51:39.000",
    "request_status": "Pending",
    "responsible_agency": "Department of Code Enforcement",
    "final_address": "3900 BLK Pine St",
    "address_councildis": "B",
    "status": "Pending",
    "rowid": "1222111",
    "final_x": "3669471.81391",
    "final_y": "534771.948945",
    "longitude": "-90.1059411194281",
    "latitude": "29.964797189257588",
    "geocoded_column": {
      "latitude": "29.964797189257588",
      "longitude": "-90.1059411194281"
    }
  },
  {
    "service_request": "2025-1222110",
    "request_type": "Trash/Recycling",
    "request_reason": "Request a Large Item Pick Up",
    "date_created": "2025-08-27T16:50:36.000",
    "date_modified": "2025-08-27T16:50:37.000",
    "request_status": "Pending",
    "responsible_agency": "Department of Sanitation",
    "final_address": "1420 Dearmas St",
    "address_councildis": "C",
    "status": "Assigned to Contractor",
    "contractor": "Richards Disposal",
    "rowid": "1222110",
    "final_x": "3689914.60112",
    "final_y": "527133.411839",
    "longitude": "-90.04165626955538",
    "latitude": "29.94317590358946",
    "geocoded_column": {
      "latitude": "29.94317590358946",
      "longitude": "-90.04165626955538"
    }
  },
  {
    "service_request": "2025-1222109",
    "request_type": "Trash/Recycling",
    "request_reason": "Repair Trash Cart",
    "date_created": "2025-08-27T16:47:37.000",
    "date_modified": "2025-08-27T16:47:39.000",
    "request_status": "Pending",
    "responsible_agency": "Department of Sanitation",
    "final_address": "613 Jefferson Ave",
    "address_councildis": "B",
    "status": "Assigned to Contractor",
    "contractor": "IV Waste",
    "rowid": "1222109",
    "final_x": "3666595.36481",
    "final_y": "517678.179574",
    "longitude": "-90.11559847159887",
    "latitude": "29.91787922909839",
    "geocoded_column": {
      "latitude": "29.91787922909839",
      "longitude": "-90.11559847159887"
    }
  },
  {
    "service_request": "2025-1222108",
    "request_type": "Trash/Recycling",
    "request_reason": "Repair Trash Cart",
    "date_created": "2025-08-27T16:45:01.000",
    "date_modified": "2025-08-27T16:45:02.000",
    "request_status": "Pending",
    "responsible_agency": "Department of Sanitation",
    "final_address": "4549 Camelot Dr",
    "address_councildis": "E",
    "status": "Assigned to Contractor",
    "contractor": "Waste Pro",
    "rowid": "1222108",
    "final_x": "3708562.19179",
    "final_y": "554456.480536",
    "longitude": "-89.98176416744379",
    "latitude": "30.017712989241385",
    "geocoded_column": {
      "latitude": "30.017712989241385",
      "longitude": "-89.98176416744379"
    }
  },
  {
    "service_request": "2025-1222107",
    "request_type": "Trash/Recycling",
    "request_reason": "Request a Large Item Pick Up",
    "date_created": "2025-08-27T16:40:54.000",
    "date_modified": "2025-08-27T16:40:56.000",
    "request_status": "Pending",
    "responsible_agency": "Department of Sanitation",
    "final_address": "2117 Valence St",
    "address_councildis": "B",
    "status": "Assigned to Contractor",
    "contractor": "IV Waste",
    "rowid": "1222107",
    "final_x": "3669595.47828",
    "final_y": "522694.79865",
    "longitude": "-90.10595912138966",
    "latitude": "29.931585326561624",
    "geocoded_column": {
      "latitude": "29.931585326561624",
      "longitude": "-90.10595912138966"
    }
  },
  {
    "service_request": "2025-1222106",
    "request_type": "Abandoned Vehicles",
    "request_reason": "Abandoned/Junk Vehicles",
    "date_created": "2025-08-27T16:40:29.000",
    "date_modified": "2025-08-27T16:40:32.000",
    "request_status": "Pending",
    "responsible_agency": "Department of Public Works",
    "final_address": "4616 Francis Dr",
    "address_councildis": "D",
    "status": "Pending",
    "rowid": "1222106",
    "final_x": "3698263.28503",
    "final_y": "553647.501335",
    "longitude": "-90.01433392517356",
    "latitude": "30.01581860715811",
    "geocoded_column": {
      "latitude": "30.01581860715811",
      "longitude": "-90.01433392517356"
    }
  },
  {
    "service_request": "2025-1222105",
    "request_type": "Trash/Recycling",
    "request_reason": "Repair Recycling Cart",
    "date_created": "2025-08-27T16:37:41.000",
    "date_modified": "2025-08-27T16:37:44.000",
    "request_status": "Pending",
    "responsible_agency": "Department of Sanitation",
    "final_address": "3741 Red Cypress Dr",
    "address_councildis": "C",
    "status": "Pending",
    "rowid": "1222105",
    "final_x": "3703357.52004",
    "final_y": "512168.190769",
    "longitude": "-89.99976382660886",
    "latitude": "29.9016031920279",
    "geocoded_column": {
      "latitude": "29.9016031920279",
      "longitude": "-89.99976382660886"
    }
  },
  {
    "service_request": "2025-1222104",
    "request_type": "Parks & Parkways",
    "request_reason": "Request Grass Cutting Service (City Owned Property)",
    "date_created": "2025-08-27T16:36:02.000",
    "date_modified": "2025-08-27T16:36:03.000",
    "request_status": "Pending",
    "responsible_agency": "Department of Parks & Parkway",
    "final_address": "I 10 W ONRAMP & OLD GENTILLY RD",
    "address_councildis": "E",
    "status": "Pending",
    "rowid": "1222104",
    "final_x": "3696643.9",
    "final_y": "550536.88",
    "longitude": "-90.01956311036561",
    "latitude": "30.007316721108932",
    "geocoded_column": {
      "latitude": "30.007316721108932",
      "longitude": "-90.01956311036561"
    }
  },
  {
    "service_request": "2025-1222103",
    "request_type": "Trash/Recycling",
    "request_reason": "Request a Large Item Pick Up",
    "date_created": "2025-08-27T16:34:59.000",
    "date_modified": "2025-08-27T16:35:02.000",
    "request_status": "Pending",
    "responsible_agency": "Department of Sanitation",
    "final_address": "6940 Neptune Ct",
    "address_councildis": "E",
    "status": "Assigned to Contractor",
    "contractor": "Waste Pro",
    "rowid": "1222103",
    "final_x": "3702056.04458",
    "final_y": "558386.828636",
    "longitude": "-90.0021766396089",
    "latitude": "30.028729344342132",
    "geocoded_column": {
      "latitude": "30.028729344342132",
      "longitude": "-90.0021766396089"
    }
  },
  {
    "service_request": "2025-1222102",
    "request_type": "Safety & Permits",
    "request_reason": "Licenses & Permits",
    "date_created": "2025-08-27T16:30:58.000",
    "date_modified": "2025-08-27T16:31:00.000",
    "request_status": "Pending",
    "responsible_agency": "Safety and Permits",
    "final_address": "5163 St Anthony Ave",
    "address_councildis": "D",
    "status": "Pending",
    "rowid": "1222102",
    "final_x": "3682330.31784",
    "final_y": "551857.60559",
    "longitude": "-90.0647374928952",
    "latitude": "30.011391724716745",
    "geocoded_column": {
      "latitude": "30.011391724716745",
      "longitude": "-90.0647374928952"
    }
  },
  {
    "service_request": "2025-1222101",
    "request_type": "Street and Traffic Signs",
    "request_reason": "Additional Signage Request",
    "date_created": "2025-08-27T16:29:37.000",
    "date_modified": "2025-08-27T16:29:43.000",
    "request_status": "Pending",
    "responsible_agency": "Department of Public Works",
    "final_address": "3559 Fairmont Dr",
    "address_councildis": "D",
    "status": "Pending",
    "rowid": "1222101",
    "final_x": "3685666.70889",
    "final_y": "545588.244176",
    "longitude": "-90.05441756645277",
    "latitude": "29.99405125916581",
    "geocoded_column": {
      "latitude": "29.99405125916581",
      "longitude": "-90.05441756645277"
    }
  },
  {
    "service_request": "2025-1222100",
    "request_type": "Property Maintenance",
    "request_reason": "Property Maintenance",
    "date_created": "2025-08-27T16:29:29.000",
    "date_modified": "2025-08-27T16:30:17.000",
    "request_status": "Pending",
    "responsible_agency": "Department of Code Enforcement",
    "final_address": "2624 N Derbigny St",
    "address_councildis": "D",
    "status": "Pending",
    "rowid": "1222100",
    "final_x": "3687843.61027",
    "final_y": "538634.809161",
    "longitude": "-90.04778748667871",
    "latitude": "29.974864799165026",
    "geocoded_column": {
      "latitude": "29.974864799165026",
      "longitude": "-90.04778748667871"
    }
  },
  {
    "service_request": "2025-1222099",
    "request_type": "Trash/Recycling",
    "request_reason": "Replace Recycling Cart",
    "date_created": "2025-08-27T16:27:58.000",
    "date_modified": "2025-08-27T16:28:00.000",
    "request_status": "Pending",
    "responsible_agency": "Department of Sanitation",
    "final_address": "1920 Dauphine St",
    "address_councildis": "C",
    "status": "Pending",
    "rowid": "1222099",
    "final_x": "3684151.30057",
    "final_y": "535120.786374",
    "longitude": "-90.05957208860337",
    "latitude": "29.965315843443463",
    "geocoded_column": {
      "latitude": "29.965315843443463",
      "longitude": "-90.05957208860337"
    }
  },
  {
    "service_request": "2025-1222098",
    "request_type": "Property Maintenance",
    "request_reason": "Property Maintenance",
    "date_created": "2025-08-27T16:26:48.000",
    "date_modified": "2025-08-27T16:26:49.000",
    "request_status": "Pending",
    "responsible_agency": "Department of Code Enforcement",
    "final_address": "2630 N Derbigny St",
    "address_councildis": "D",
    "status": "Pending",
    "rowid": "1222098",
    "final_x": "3687949.49155",
    "final_y": "538617.969929",
    "longitude": "-90.04745368453806",
    "latitude": "29.97481523044817",
    "geocoded_column": {
      "latitude": "29.97481523044817",
      "longitude": "-90.04745368453806"
    }
  },
  {
    "service_request": "2025-1222097",
    "request_type": "Trash/Recycling",
    "request_reason": "Request a Large Item Pick Up",
    "date_created": "2025-08-27T16:25:26.000",
    "date_modified": "2025-08-27T16:25:35.000",
    "request_status": "Pending",
    "responsible_agency": "Department of Sanitation",
    "final_address": "9000 Lake Forest Blvd",
    "address_councildis": "E",
    "status": "Assigned to Contractor",
    "contractor": "Waste Pro",
    "rowid": "1222097",
    "final_x": "3707449.97246",
    "final_y": "558311.370716",
    "longitude": "-89.98513500619254",
    "latitude": "30.02834846217099",
    "geocoded_column": {
      "latitude": "30.02834846217099",
      "longitude": "-89.98513500619254"
    }
  },
  {
    "service_request": "2025-1222096",
    "request_type": "Trash/Recycling",
    "request_reason": "Request a Large Item Pick Up",
    "date_created": "2025-08-27T16:25:01.000",
    "date_modified": "2025-08-27T16:25:03.000",
    "request_status": "Pending",
    "responsible_agency": "Department of Sanitation",
    "final_address": "532 First St",
    "address_councildis": "B",
    "status": "Assigned to Contractor",
    "contractor": "IV Waste",
    "rowid": "1222096",
    "final_x": "3679109.51695",
    "final_y": "519859.009912",
    "longitude": "-90.07602263939813",
    "latitude": "29.92350418547291",
    "geocoded_column": {
      "latitude": "29.92350418547291",
      "longitude": "-90.07602263939813"
    }
  },
  {
    "service_request": "2025-1222095",
    "request_type": "Streetlights",
    "request_reason": "Streetlight Outage/Malfunction",
    "date_created": "2025-08-27T16:23:58.000",
    "date_modified": "2025-08-27T16:24:00.000",
    "request_status": "Pending",
    "responsible_agency": "Department of Public Works",
    "final_address": "1008 N Broad St",
    "address_councildis": "D",
    "status": "Pending",
    "contractor": "Legacy Professional Services",
    "rowid": "1222095",
    "final_x": "3677507.31867",
    "final_y": "537891.319241",
    "longitude": "-90.08045780138832",
    "latitude": "29.97313527294787",
    "geocoded_column": {
      "latitude": "29.97313527294787",
      "longitude": "-90.08045780138832"
    }
  },
  {
    "service_request": "2025-1222094",
    "request_type": "Safety & Permits",
    "request_reason": "Licenses & Permits",
    "date_created": "2025-08-27T16:21:09.000",
    "date_modified": "2025-08-27T16:21:10.000",
    "request_status": "Pending",
    "responsible_agency": "Safety and Permits",
    "final_address": "5526 Mandeville St",
    "address_councildis": "D",
    "status": "Pending",
    "rowid": "1222094",
    "final_x": "3684365.07983",
    "final_y": "553310.922583",
    "longitude": "-90.05825776171615",
    "latitude": "30.01532571649185",
    "geocoded_column": {
      "latitude": "30.01532571649185",
      "longitude": "-90.05825776171615"
    }
  },
  {
    "service_request": "2025-1222093",
    "request_type": "Trash/Recycling",
    "request_reason": "Request a Large Item Pick Up",
    "date_created": "2025-08-27T16:19:10.000",
    "date_modified": "2025-08-27T16:19:13.000",
    "request_status": "Pending",
    "responsible_agency": "Department of Sanitation",
    "final_address": "3515 Annunciation St",
    "address_councildis": "B",
    "status": "Assigned to Contractor",
    "contractor": "IV Waste",
    "rowid": "1222093",
    "final_x": "3674672.57486",
    "final_y": "518357.40127",
    "longitude": "-90.09007986406098",
    "latitude": "29.919508368066086",
    "geocoded_column": {
      "latitude": "29.919508368066086",
      "longitude": "-90.09007986406098"
    }
  },
  {
    "service_request": "2025-1222092",
    "request_type": "Streetlights",
    "request_reason": "Streetlight Outage/Malfunction",
    "date_created": "2025-08-27T16:16:40.000",
    "date_modified": "2025-08-27T16:16:41.000",
    "request_status": "Pending",
    "responsible_agency": "Department of Public Works",
    "final_address": "2433 Oriole St",
    "address_councildis": "D",
    "status": "Pending",
    "contractor": "Legacy Professional Services",
    "rowid": "1222092",
    "final_x": "3684826.37269",
    "final_y": "558278.817884",
    "longitude": "-90.05662540463887",
    "latitude": "30.028971471425688",
    "geocoded_column": {
      "latitude": "30.028971471425688",
      "longitude": "-90.05662540463887"
    }
  },
  {
    "service_request": "2025-1222091",
    "request_type": "Trash/Recycling",
    "request_reason": "Repair Trash Cart",
    "date_created": "2025-08-27T16:13:02.000",
    "date_modified": "2025-08-27T16:13:04.000",
    "request_status": "Pending",
    "responsible_agency": "Department of Sanitation",
    "final_address": "3424 Coliseum St",
    "address_councildis": "B",
    "status": "Assigned to Contractor",
    "contractor": "IV Waste",
    "rowid": "1222091",
    "final_x": "3674442.37812",
    "final_y": "520398.220664",
    "longitude": "-90.09073662337337",
    "latitude": "29.925126832107438",
    "geocoded_column": {
      "latitude": "29.925126832107438",
      "longitude": "-90.09073662337337"
    }
  },
  {
    "service_request": "2025-1222090",
    "request_type": "Trash/Recycling",
    "request_reason": "Order Second Trash Cart",
    "date_created": "2025-08-27T16:12:02.000",
    "date_modified": "2025-08-27T16:12:32.000",
    "request_status": "Pending",
    "responsible_agency": "Department of Sanitation",
    "final_address": "3424 Coliseum St",
    "address_councildis": "B",
    "status": "Assigned to Contractor",
    "contractor": "IV Waste",
    "rowid": "1222090",
    "final_x": "3674442.37812",
    "final_y": "520398.220664",
    "longitude": "-90.09073662337337",
    "latitude": "29.925126832107438",
    "geocoded_column": {
      "latitude": "29.925126832107438",
      "longitude": "-90.09073662337337"
    }
  },
  {
    "service_request": "2025-1222089",
    "request_type": "Streetlights",
    "request_reason": "Streetlight Outage/Malfunction",
    "date_created": "2025-08-27T16:10:02.000",
    "date_modified": "2025-08-27T16:10:04.000",
    "request_status": "Pending",
    "responsible_agency": "Department of Public Works",
    "final_address": "2711 Ramsey Dr",
    "address_councildis": "C",
    "status": "Pending",
    "contractor": "Legacy Professional Services",
    "rowid": "1222089",
    "final_x": "3703061.59953",
    "final_y": "520862.031225",
    "longitude": "-90.00037854991376",
    "latitude": "29.925517744161077",
    "geocoded_column": {
      "latitude": "29.925517744161077",
      "longitude": "-90.00037854991376"
    }
  },
  {
    "service_request": "2025-1222088",
    "request_type": "Trash/Recycling",
    "request_reason": "Request a Large Item Pick Up",
    "date_created": "2025-08-27T16:08:43.000",
    "date_modified": "2025-08-27T16:08:45.000",
    "request_status": "Pending",
    "responsible_agency": "Department of Sanitation",
    "final_address": "1620 Killdeer St",
    "address_councildis": "D",
    "status": "Assigned to Contractor",
    "contractor": "IV Waste",
    "rowid": "1222088",
    "final_x": "3678683.97026",
    "final_y": "557146.446043",
    "longitude": "-90.07607445564093",
    "latitude": "30.026044616387207",
    "geocoded_column": {
      "latitude": "30.026044616387207",
      "longitude": "-90.07607445564093"
    }
  },
  {
    "service_request": "2025-1222087",
    "request_type": "Trash/Recycling",
    "request_reason": "Request a Large Item Pick Up",
    "date_created": "2025-08-27T16:08:00.000",
    "date_modified": "2025-08-27T16:08:02.000",
    "request_status": "Pending",
    "responsible_agency": "Department of Sanitation",
    "final_address": "SEGUIN ST & OPELOUSAS AVE",
    "address_councildis": "C",
    "status": "Assigned to Contractor",
    "contractor": "Richards Disposal",
    "rowid": "1222087",
    "final_x": "3686996.9",
    "final_y": "529128.28",
    "longitude": "-90.05079766324597",
    "latitude": "29.94875122793513",
    "geocoded_column": {
      "latitude": "29.94875122793513",
      "longitude": "-90.05079766324597"
    }
  },
  {
    "service_request": "2025-1222086",
    "request_type": "Trash/Recycling",
    "request_reason": "Repair Trash Cart",
    "date_created": "2025-08-27T16:07:52.000",
    "date_modified": "2025-08-27T16:07:55.000",
    "request_status": "Pending",
    "responsible_agency": "Department of Sanitation",
    "final_address": "920 Royal St",
    "address_councildis": "C",
    "status": "Assigned to Contractor",
    "contractor": "IV Waste",
    "rowid": "1222086",
    "final_x": "3683134.99772",
    "final_y": "533167.384708",
    "longitude": "-90.06284991674887",
    "latitude": "29.959975684767798",
    "geocoded_column": {
      "latitude": "29.959975684767798",
      "longitude": "-90.06284991674887"
    }
  },
  {
    "service_request": "2025-1222085",
    "request_type": "Drainage",
    "request_reason": "Catch Basin Frame and Cover Missing or Damaged",
    "date_created": "2025-08-27T16:03:41.000",
    "date_modified": "2025-08-27T16:03:43.000",
    "request_status": "Pending",
    "responsible_agency": "Sewerage & Water Board",
    "final_address": "511 Washington Ave",
    "address_councildis": "B",
    "status": "Pending",
    "rowid": "1222085",
    "final_x": "3678281.23035",
    "final_y": "519061.777271",
    "longitude": "-90.07866478861386",
    "latitude": "29.921337018994784",
    "geocoded_column": {
      "latitude": "29.921337018994784",
      "longitude": "-90.07866478861386"
    }
  },
  {
    "service_request": "2025-1222084",
    "request_type": "Trash/Recycling",
    "request_reason": "Request a Large Item Pick Up",
    "date_created": "2025-08-27T16:03:24.000",
    "date_modified": "2025-08-27T16:03:26.000",
    "request_status": "Pending",
    "responsible_agency": "Department of Sanitation",
    "final_address": "603 Fats Domino Ave",
    "address_councildis": "E",
    "status": "Assigned to Contractor",
    "contractor": "Waste Pro",
    "rowid": "1222084",
    "final_x": "3697601.45994",
    "final_y": "531965.147139",
    "longitude": "-90.01721185211875",
    "latitude": "29.956220979519568",
    "geocoded_column": {
      "latitude": "29.956220979519568",
      "longitude": "-90.01721185211875"
    }
  },
  {
    "service_request": "2025-1222083",
    "request_type": "Trash/Recycling",
    "request_reason": "Request a Large Item Pick Up",
    "date_created": "2025-08-27T16:03:05.000",
    "date_modified": "2025-08-27T16:03:07.000",
    "request_status": "Pending",
    "responsible_agency": "Department of Sanitation",
    "final_address": "2122 Octavia St",
    "address_councildis": "A",
    "status": "Assigned to Contractor",
    "contractor": "IV Waste",
    "rowid": "1222083",
    "final_x": "3667432.71815",
    "final_y": "523587.738491",
    "longitude": "-90.11275669945873",
    "latitude": "29.93410414948882",
    "geocoded_column": {
      "latitude": "29.93410414948882",
      "longitude": "-90.11275669945873"
    }
  },
  {
    "service_request": "2025-1222082",
    "request_type": "Property Maintenance",
    "request_reason": "Property Maintenance",
    "date_created": "2025-08-27T16:02:47.000",
    "date_modified": "2025-08-27T16:02:48.000",
    "request_status": "Pending",
    "responsible_agency": "Department of Code Enforcement",
    "final_address": "1821 Hamilton St",
    "address_councildis": "A",
    "status": "Pending",
    "rowid": "1222082",
    "final_x": "3660918.48454",
    "final_y": "532421.759555",
    "longitude": "-90.13302986279992",
    "latitude": "29.95858408609916",
    "geocoded_column": {
      "latitude": "29.95858408609916",
      "longitude": "-90.13302986279992"
    }
  },
  {
    "service_request": "2025-1222081",
    "request_type": "Trash/Recycling",
    "request_reason": "Request a Large Item Pick Up",
    "date_created": "2025-08-27T15:59:05.000",
    "date_modified": "2025-08-27T15:59:19.000",
    "request_status": "Pending",
    "responsible_agency": "Department of Sanitation",
    "final_address": "23124 Chef Menteur Hwy",
    "address_councildis": "E",
    "status": "Assigned to Contractor",
    "contractor": "Waste Pro",
    "rowid": "1222081",
    "final_x": "3776207.79588",
    "final_y": "583497.666483",
    "longitude": "-89.76678292858394",
    "latitude": "30.09519517041419",
    "geocoded_column": {
      "latitude": "30.09519517041419",
      "longitude": "-89.76678292858394"
    }
  },
  {
    "service_request": "2025-1222080",
    "request_type": "Trash/Recycling",
    "request_reason": "Request a Large Item Pick Up",
    "date_created": "2025-08-27T15:57:43.000",
    "date_modified": "2025-08-27T15:57:45.000",
    "request_status": "Pending",
    "responsible_agency": "Department of Sanitation",
    "final_address": "2510 Upperline St",
    "address_councildis": "B",
    "status": "Assigned to Contractor",
    "contractor": "IV Waste",
    "rowid": "1222080",
    "final_x": "3669125.61754",
    "final_y": "524015.583804",
    "longitude": "-90.1073978112331",
    "latitude": "29.9352308928375",
    "geocoded_column": {
      "latitude": "29.9352308928375",
      "longitude": "-90.1073978112331"
    }
  },
  {
    "service_request": "2025-1222079",
    "request_type": "Trash/Recycling",
    "request_reason": "Illegal Dumping",
    "date_created": "2025-08-27T15:54:49.000",
    "date_modified": "2025-08-27T15:54:51.000",
    "request_status": "Pending",
    "responsible_agency": "Department of Sanitation",
    "final_address": "N TONTI ST & FRENCHMEN ST",
    "address_councildis": "D",
    "status": "Pending",
    "rowid": "1222079",
    "final_x": "3684235.5",
    "final_y": "540690.28",
    "longitude": "-90.05911060345451",
    "latitude": "29.980627437615333",
    "geocoded_column": {
      "latitude": "29.980627437615333",
      "longitude": "-90.05911060345451"
    }
  },
  {
    "service_request": "2025-1222078",
    "request_type": "Safety & Permits",
    "request_reason": "Licenses & Permits",
    "date_created": "2025-08-27T15:51:16.000",
    "date_modified": "2025-08-27T15:51:17.000",
    "request_status": "Pending",
    "responsible_agency": "Safety and Permits",
    "final_address": "1614 Poland Ave",
    "address_councildis": "D",
    "status": "Pending",
    "rowid": "1222078",
    "final_x": "3693472.00272",
    "final_y": "537011.422024",
    "longitude": "-90.03006999244515",
    "latitude": "29.97022623152186",
    "geocoded_column": {
      "latitude": "29.97022623152186",
      "longitude": "-90.03006999244515"
    }
  },
  {
    "service_request": "2025-1222077",
    "request_type": "Trash/Recycling",
    "request_reason": "Request a Large Item Pick Up",
    "date_created": "2025-08-27T15:51:01.000",
    "date_modified": "2025-08-27T15:51:03.000",
    "request_status": "Pending",
    "responsible_agency": "Department of Sanitation",
    "final_address": "825 Gordon St",
    "address_councildis": "E",
    "status": "Assigned to Contractor",
    "contractor": "Waste Pro",
    "rowid": "1222077",
    "final_x": "3698844.8088",
    "final_y": "532591.830596",
    "longitude": "-90.01326300209053",
    "latitude": "29.957904809880123",
    "geocoded_column": {
      "latitude": "29.957904809880123",
      "longitude": "-90.01326300209053"
    }
  },
  {
    "service_request": "2025-1222076",
    "request_type": "Streetlights",
    "request_reason": "Streetlight Outage/Malfunction",
    "date_created": "2025-08-27T15:50:31.000",
    "date_modified": "2025-08-27T15:50:32.000",
    "request_status": "Pending",
    "responsible_agency": "Department of Public Works",
    "final_address": "6522 Marshal Foch St",
    "address_councildis": "A",
    "status": "Pending",
    "contractor": "Legacy Professional Services",
    "rowid": "1222076",
    "final_x": "3670063.49377",
    "final_y": "550793.702805",
    "longitude": "-90.10352959662768",
    "latitude": "30.008834090597144",
    "geocoded_column": {
      "latitude": "30.008834090597144",
      "longitude": "-90.10352959662768"
    }
  },
  {
    "service_request": "2025-1222075",
    "request_type": "Trash/Recycling",
    "request_reason": "Request a Large Item Pick Up",
    "date_created": "2025-08-27T15:50:13.000",
    "date_modified": "2025-08-27T15:50:14.000",
    "request_status": "Pending",
    "responsible_agency": "Department of Sanitation",
    "final_address": "4810 N Rampart St",
    "address_councildis": "E",
    "status": "Assigned to Contractor",
    "contractor": "Waste Pro",
    "rowid": "1222075",
    "final_x": "3695047.76995",
    "final_y": "533994.010757",
    "longitude": "-90.02520236633715",
    "latitude": "29.961880045894663",
    "geocoded_column": {
      "latitude": "29.961880045894663",
      "longitude": "-90.02520236633715"
    }
  },
  {
    "service_request": "2025-1222074",
    "request_type": "Trash/Recycling",
    "request_reason": "Request a Large Item Pick Up",
    "date_created": "2025-08-27T15:49:51.000",
    "date_modified": "2025-08-27T15:49:52.000",
    "request_status": "Pending",
    "responsible_agency": "Department of Sanitation",
    "final_address": "6911 Dorchester St",
    "address_councildis": "E",
    "status": "Assigned to Contractor",
    "contractor": "Waste Pro",
    "rowid": "1222074",
    "final_x": "3698914.27594",
    "final_y": "559609.119069",
    "longitude": "-90.0120599010475",
    "latitude": "30.032190156298725",
    "geocoded_column": {
      "latitude": "30.032190156298725",
      "longitude": "-90.0120599010475"
    }
  },
  {
    "service_request": "2025-1222073",
    "request_type": "Property Maintenance",
    "request_reason": "Property Maintenance",
    "date_created": "2025-08-27T15:49:38.000",
    "date_modified": "2025-08-27T15:49:40.000",
    "request_status": "Pending",
    "responsible_agency": "Department of Code Enforcement",
    "final_address": "1829 Hamilton St",
    "address_councildis": "A",
    "status": "Pending",
    "rowid": "1222073",
    "final_x": "3660962.864",
    "final_y": "532470.239236",
    "longitude": "-90.13288811953664",
    "latitude": "29.95871611117304",
    "geocoded_column": {
      "latitude": "29.95871611117304",
      "longitude": "-90.13288811953664"
    }
  },
  {
    "service_request": "2025-1222072",
    "request_type": "Trash/Recycling",
    "request_reason": "Replace Trash Cart",
    "date_created": "2025-08-27T15:48:00.000",
    "date_modified": "2025-08-27T15:48:01.000",
    "request_status": "Pending",
    "responsible_agency": "Department of Sanitation",
    "final_address": "6522 Marshal Foch Street",
    "address_councildis": "A",
    "status": "Assigned to Contractor",
    "contractor": "IV Waste",
    "rowid": "1222072",
    "final_x": "3670063.49377",
    "final_y": "550793.702805",
    "longitude": "-90.10352959662768",
    "latitude": "30.008834090597144",
    "geocoded_column": {
      "latitude": "30.008834090597144",
      "longitude": "-90.10352959662768"
    }
  },
  {
    "service_request": "2025-1222071",
    "request_type": "Trash/Recycling",
    "request_reason": "Request a Large Item Pick Up",
    "date_created": "2025-08-27T15:47:40.000",
    "date_modified": "2025-08-27T15:47:42.000",
    "request_status": "Pending",
    "responsible_agency": "Department of Sanitation",
    "final_address": "2712 S Galvez St",
    "address_councildis": "B",
    "status": "Assigned to Contractor",
    "contractor": "IV Waste",
    "rowid": "1222071",
    "final_x": "3672433.14049",
    "final_y": "528195.848384",
    "longitude": "-90.09681352917316",
    "latitude": "29.94662753971199",
    "geocoded_column": {
      "latitude": "29.94662753971199",
      "longitude": "-90.09681352917316"
    }
  },
  {
    "service_request": "2025-1222070",
    "request_type": "Trash/Recycling",
    "request_reason": "Request a Large Item Pick Up",
    "date_created": "2025-08-27T15:41:51.000",
    "date_modified": "2025-08-27T15:41:52.000",
    "request_status": "Pending",
    "responsible_agency": "Department of Sanitation",
    "final_address": "4513 Rhodes Dr",
    "address_councildis": "E",
    "status": "Assigned to Contractor",
    "contractor": "Waste Pro",
    "rowid": "1222070",
    "final_x": "3702685.44663",
    "final_y": "553361.670103",
    "longitude": "-90.00037249361465",
    "latitude": "30.01489197075177",
    "geocoded_column": {
      "latitude": "30.01489197075177",
      "longitude": "-90.00037249361465"
    }
  },
  {
    "service_request": "2025-1222069",
    "request_type": "Abandoned Vehicles",
    "request_reason": "Abandoned/Junk Vehicles",
    "date_created": "2025-08-27T15:37:08.000",
    "date_modified": "2025-08-27T15:37:10.000",
    "request_status": "Pending",
    "responsible_agency": "Department of Public Works",
    "final_address": "4700 BLK Drexel Dr",
    "address_councildis": "B",
    "status": "Pending",
    "rowid": "1222069",
    "final_x": "3670191.20945",
    "final_y": "533643.43086",
    "longitude": "-90.10370755326461",
    "latitude": "29.961672931621543",
    "geocoded_column": {
      "latitude": "29.961672931621543",
      "longitude": "-90.10370755326461"
    }
  },
  {
    "service_request": "2025-1222068",
    "request_type": "Trash/Recycling",
    "request_reason": "Request a Large Item Pick Up",
    "date_created": "2025-08-27T15:36:47.000",
    "date_modified": "2025-08-27T15:36:49.000",
    "request_status": "Pending",
    "responsible_agency": "Department of Sanitation",
    "final_address": "2901 Ursulines Ave",
    "address_councildis": "A",
    "status": "Assigned to Contractor",
    "contractor": "IV Waste",
    "rowid": "1222068",
    "final_x": "3676827.44923",
    "final_y": "538882.582665",
    "longitude": "-90.08257079262258",
    "latitude": "29.975881330528857",
    "geocoded_column": {
      "latitude": "29.975881330528857",
      "longitude": "-90.08257079262258"
    }
  },
  {
    "service_request": "2025-1222067",
    "request_type": "Safety & Permits",
    "request_reason": "Zoning Enforcement",
    "date_created": "2025-08-27T15:31:10.000",
    "date_modified": "2025-08-27T15:31:12.000",
    "request_status": "Pending",
    "responsible_agency": "Safety and Permits",
    "final_address": "4240 Toulouse St",
    "address_councildis": "A",
    "status": "Pending",
    "rowid": "1222067",
    "final_x": "3671562.44539",
    "final_y": "540174.157131",
    "longitude": "-90.09915527723946",
    "latitude": "29.979589696937843",
    "geocoded_column": {
      "latitude": "29.979589696937843",
      "longitude": "-90.09915527723946"
    }
  },
  {
    "service_request": "2025-1222066",
    "request_type": "Trash/Recycling",
    "request_reason": "Repair Trash Cart",
    "date_created": "2025-08-27T15:30:29.000",
    "date_modified": "2025-08-27T15:30:31.000",
    "request_status": "Pending",
    "responsible_agency": "Department of Sanitation",
    "final_address": "3517 Silver Maple Ct",
    "address_councildis": "C",
    "status": "Assigned to Contractor",
    "contractor": "Richards Disposal",
    "rowid": "1222066",
    "final_x": "3703373.42263",
    "final_y": "512429.279473",
    "longitude": "-89.9997040492717",
    "latitude": "29.902320588652085",
    "geocoded_column": {
      "latitude": "29.902320588652085",
      "longitude": "-89.9997040492717"
    }
  },
  {
    "service_request": "2025-1222065",
    "request_type": "Trash/Recycling",
    "request_reason": "Request a Large Item Pick Up",
    "date_created": "2025-08-27T15:24:48.000",
    "date_modified": "2025-08-27T15:24:50.000",
    "request_status": "Pending",
    "responsible_agency": "Department of Sanitation",
    "final_address": "11350 S Parkwood Ct",
    "address_councildis": "E",
    "status": "Assigned to Contractor",
    "contractor": "Waste Pro",
    "rowid": "1222065",
    "final_x": "3717211.03564",
    "final_y": "559253.603036",
    "longitude": "-89.95425510385148",
    "latitude": "30.030619819795827",
    "geocoded_column": {
      "latitude": "30.030619819795827",
      "longitude": "-89.95425510385148"
    }
  },
  {
    "service_request": "2025-1222064",
    "request_type": "Trash/Recycling",
    "request_reason": "Request a Large Item Pick Up",
    "date_created": "2025-08-27T15:22:02.000",
    "date_modified": "2025-08-27T15:22:04.000",
    "request_status": "Pending",
    "responsible_agency": "Department of Sanitation",
    "final_address": "7700 Scottwood Dr",
    "address_councildis": "E",
    "status": "Assigned to Contractor",
    "contractor": "Waste Pro",
    "rowid": "1222064",
    "final_x": "3717042.31832",
    "final_y": "570994.599911",
    "longitude": "-89.95434173815485",
    "latitude": "30.06290834472691",
    "geocoded_column": {
      "latitude": "30.06290834472691",
      "longitude": "-89.95434173815485"
    }
  },
  {
    "service_request": "2025-1222063",
    "request_type": "Property Maintenance",
    "request_reason": "Property Maintenance",
    "date_created": "2025-08-27T15:20:31.000",
    "date_modified": "2025-08-27T15:20:33.000",
    "request_status": "Pending",
    "responsible_agency": "Department of Code Enforcement",
    "final_address": "1722 Elysian Fields Ave",
    "address_councildis": "D",
    "status": "Pending",
    "rowid": "1222063",
    "final_x": "3684717.6566",
    "final_y": "538702.917449",
    "longitude": "-90.057657627522",
    "latitude": "29.975148135475365",
    "geocoded_column": {
      "latitude": "29.975148135475365",
      "longitude": "-90.057657627522"
    }
  },
  {
    "service_request": "2025-1222062",
    "request_type": "Property Maintenance",
    "request_reason": "Property Maintenance",
    "date_created": "2025-08-27T15:19:12.000",
    "date_modified": "2025-08-27T15:19:13.000",
    "request_status": "Pending",
    "responsible_agency": "Department of Code Enforcement",
    "final_address": "7649 Marquis St",
    "address_councildis": "E",
    "status": "Pending",
    "rowid": "1222062",
    "final_x": "3711246.01406",
    "final_y": "566340.620451",
    "longitude": "-89.97283858913848",
    "latitude": "30.05030233075018",
    "geocoded_column": {
      "latitude": "30.05030233075018",
      "longitude": "-89.97283858913848"
    }
  },
  {
    "service_request": "2025-1222061",
    "request_type": "Trash/Recycling",
    "request_reason": "Request a Large Item Pick Up",
    "date_created": "2025-08-27T15:07:14.000",
    "date_modified": "2025-08-27T16:03:38.000",
    "request_status": "Pending",
    "responsible_agency": "Department of Sanitation",
    "final_address": "7900 Alabama St",
    "address_councildis": "D",
    "status": "Assigned to Contractor",
    "contractor": "Waste Pro",
    "rowid": "1222061",
    "final_x": "3694582.1455",
    "final_y": "559312.925853",
    "longitude": "-90.02576034594263",
    "latitude": "30.031512381283623",
    "geocoded_column": {
      "latitude": "30.031512381283623",
      "longitude": "-90.02576034594263"
    }
  },
  {
    "service_request": "2025-1222060",
    "request_type": "Trash/Recycling",
    "request_reason": "Request a Large Item Pick Up",
    "date_created": "2025-08-27T15:05:13.000",
    "date_modified": "2025-08-27T15:05:50.000",
    "request_status": "Pending",
    "responsible_agency": "Department of Sanitation",
    "final_address": "1453 N Roman St",
    "address_councildis": "D",
    "status": "Assigned to Contractor",
    "contractor": "IV Waste",
    "rowid": "1222060",
    "final_x": "3680973.37103",
    "final_y": "537443.926984",
    "longitude": "-90.0695269113069",
    "latitude": "29.971800436382203",
    "geocoded_column": {
      "latitude": "29.971800436382203",
      "longitude": "-90.0695269113069"
    }
  },
  {
    "service_request": "2025-1222059",
    "request_type": "Drainage",
    "request_reason": "Ditch and Culvert Maintenance",
    "date_created": "2025-08-27T15:05:11.000",
    "date_modified": "2025-08-27T15:05:13.000",
    "request_status": "Pending",
    "responsible_agency": "Department of Public Works",
    "final_address": "729 N Rendon St",
    "address_councildis": "A",
    "status": "Pending",
    "rowid": "1222059",
    "final_x": "3675073.25307",
    "final_y": "538451.552777",
    "longitude": "-90.08812584473613",
    "latitude": "29.974748680000506",
    "geocoded_column": {
      "latitude": "29.974748680000506",
      "longitude": "-90.08812584473613"
    }
  },
  {
    "service_request": "2025-1222058",
    "request_type": "Property Maintenance",
    "request_reason": "Property Maintenance",
    "date_created": "2025-08-27T15:02:56.000",
    "date_modified": "2025-08-27T15:02:58.000",
    "request_status": "Pending",
    "responsible_agency": "Department of Code Enforcement",
    "final_address": "1231 Annette St",
    "address_councildis": "C",
    "status": "Pending",
    "rowid": "1222058",
    "final_x": "3683156.05288",
    "final_y": "536414.499015",
    "longitude": "-90.06266972256252",
    "latitude": "29.968903490379518",
    "geocoded_column": {
      "latitude": "29.968903490379518",
      "longitude": "-90.06266972256252"
    }
  },
  {
    "service_request": "2025-1222057",
    "request_type": "General Services",
    "request_reason": "General Service Request",
    "date_created": "2025-08-27T15:00:24.000",
    "date_modified": "2025-08-27T15:09:07.000",
    "case_close_date": "2025-08-27T10:09:06.000",
    "request_status": "Closed",
    "responsible_agency": "Orleans Parish Communication District",
    "final_address": "6638 Lincoln Beach Blvd",
    "address_councildis": "E",
    "status": "Referred to Risk Management",
    "rowid": "1222057",
    "final_x": "3697193.28163",
    "final_y": "560702.890654",
    "longitude": "-90.01745863769476",
    "latitude": "30.03525206062447",
    "geocoded_column": {
      "latitude": "30.03525206062447",
      "longitude": "-90.01745863769476"
    }
  },
  {
    "service_request": "2025-1222056",
    "request_type": "Abandoned Vehicles",
    "request_reason": "Abandoned/Junk Vehicles",
    "date_created": "2025-08-27T14:57:30.000",
    "date_modified": "2025-08-27T14:57:31.000",
    "request_status": "Pending",
    "responsible_agency": "Department of Public Works",
    "final_address": "3114 Orleans Ave",
    "address_councildis": "A",
    "status": "Pending",
    "rowid": "1222056",
    "final_x": "3675160.78465",
    "final_y": "538154.806729",
    "longitude": "-90.08785958475377",
    "latitude": "29.973930113787738",
    "geocoded_column": {
      "latitude": "29.973930113787738",
      "longitude": "-90.08785958475377"
    }
  },
  {
    "service_request": "2025-1222055",
    "request_type": "Trash/Recycling",
    "request_reason": "Request a Large Item Pick Up",
    "date_created": "2025-08-27T14:55:55.000",
    "date_modified": "2025-08-27T14:55:56.000",
    "request_status": "Pending",
    "responsible_agency": "Department of Sanitation",
    "final_address": "4915 Pentland Dr",
    "address_councildis": "E",
    "status": "Assigned to Contractor",
    "contractor": "Waste Pro",
    "rowid": "1222055",
    "final_x": "3718767.45394",
    "final_y": "557986.088795",
    "longitude": "-89.94938523147081",
    "latitude": "30.027083066780854",
    "geocoded_column": {
      "latitude": "30.027083066780854",
      "longitude": "-89.94938523147081"
    }
  },
  {
    "service_request": "2025-1222054",
    "request_type": "Utility Poles",
    "request_reason": "Wires Sagging/Hanging Low",
    "date_created": "2025-08-27T14:53:33.000",
    "date_modified": "2025-08-27T14:53:36.000",
    "request_status": "Pending",
    "responsible_agency": "Utility Company Collective",
    "final_address": "6335 General Diaz St",
    "address_councildis": "A",
    "status": "Pending",
    "rowid": "1222054",
    "final_x": "3669763.90689",
    "final_y": "549512.705555",
    "longitude": "-90.10451949423422",
    "latitude": "30.005320634664823",
    "geocoded_column": {
      "latitude": "30.005320634664823",
      "longitude": "-90.10451949423422"
    }
  },
  {
    "service_request": "2025-1222053",
    "request_type": "Safety & Permits",
    "request_reason": "Zoning Enforcement",
    "date_created": "2025-08-27T14:53:18.000",
    "date_modified": "2025-08-27T15:12:24.000",
    "case_close_date": "2025-08-27T10:12:23.000",
    "request_status": "Closed",
    "responsible_agency": "Safety and Permits",
    "final_address": "4800 BLK Banks St",
    "address_councildis": "A",
    "status": "Resolved",
    "rowid": "1222053",
    "final_x": "3667930.69265",
    "final_y": "539203.766196",
    "longitude": "-90.11065855667945",
    "latitude": "29.977028508337188",
    "geocoded_column": {
      "latitude": "29.977028508337188",
      "longitude": "-90.11065855667945"
    }
  },
  {
    "service_request": "2025-1222052",
    "request_type": "Trash/Recycling",
    "request_reason": "Request a Large Item Pick Up",
    "date_created": "2025-08-27T14:50:21.000",
    "date_modified": "2025-08-27T14:50:23.000",
    "request_status": "Pending",
    "responsible_agency": "Department of Sanitation",
    "final_address": "1712 Alvar St",
    "address_councildis": "D",
    "status": "Assigned to Contractor",
    "contractor": "IV Waste",
    "rowid": "1222052",
    "final_x": "3692033.32022",
    "final_y": "537761.159176",
    "longitude": "-90.0345866493401",
    "latitude": "29.972332658339276",
    "geocoded_column": {
      "latitude": "29.972332658339276",
      "longitude": "-90.0345866493401"
    }
  },
  {
    "service_request": "2025-1222051",
    "request_type": "Parks & Parkways",
    "request_reason": "Request Grass Cutting Service (City Owned Property)",
    "date_created": "2025-08-27T14:48:47.000",
    "date_modified": "2025-08-27T15:08:41.000",
    "request_status": "Pending",
    "responsible_agency": "Department of Parks & Parkway",
    "final_address": "PARC BRITTANY BLVD & S CORONET CT",
    "address_councildis": "E",
    "status": "Pending",
    "rowid": "1222051",
    "final_x": "3702900.8",
    "final_y": "557278.08",
    "longitude": "-89.99954804963379",
    "latitude": "30.025653703559268",
    "geocoded_column": {
      "latitude": "30.025653703559268",
      "longitude": "-89.99954804963379"
    }
  },
  {
    "service_request": "2025-1222050",
    "request_type": "Trash/Recycling",
    "request_reason": "Request a Large Item Pick Up",
    "date_created": "2025-08-27T14:48:02.000",
    "date_modified": "2025-08-27T14:48:04.000",
    "request_status": "Pending",
    "responsible_agency": "Department of Sanitation",
    "final_address": "8319 Apple St",
    "address_councildis": "A",
    "status": "Assigned to Contractor",
    "contractor": "IV Waste",
    "rowid": "1222050",
    "final_x": "3664703.80839",
    "final_y": "532751.904132",
    "longitude": "-90.12106572226584",
    "latitude": "29.95938230198122",
    "geocoded_column": {
      "latitude": "29.95938230198122",
      "longitude": "-90.12106572226584"
    }
  },
  {
    "service_request": "2025-1222049",
    "request_type": "Streetlights",
    "request_reason": "Streetlight Outage/Malfunction",
    "date_created": "2025-08-27T14:45:33.000",
    "date_modified": "2025-08-27T14:45:34.000",
    "request_status": "Pending",
    "responsible_agency": "Department of Public Works",
    "final_address": "1221 S Tonti St",
    "address_councildis": "B",
    "status": "Pending",
    "contractor": "Legacy Professional Services",
    "rowid": "1222049",
    "final_x": "3673361.39988",
    "final_y": "530104.839873",
    "longitude": "-90.09381747431394",
    "latitude": "29.95184905981321",
    "geocoded_column": {
      "latitude": "29.95184905981321",
      "longitude": "-90.09381747431394"
    }
  },
  {
    "service_request": "2025-1222048",
    "request_type": "Trash/Recycling",
    "request_reason": "Illegal Dumping",
    "date_created": "2025-08-27T14:45:23.000",
    "date_modified": "2025-08-27T14:45:25.000",
    "request_status": "Pending",
    "responsible_agency": "Department of Sanitation",
    "final_address": "PARC BRITTANY BLVD & S CORONET CT",
    "address_councildis": "E",
    "status": "Pending",
    "rowid": "1222048",
    "final_x": "3702900.8",
    "final_y": "557278.08",
    "longitude": "-89.99954804963379",
    "latitude": "30.025653703559268",
    "geocoded_column": {
      "latitude": "30.025653703559268",
      "longitude": "-89.99954804963379"
    }
  },
  {
    "service_request": "2025-1222047",
    "request_type": "Property Maintenance",
    "request_reason": "Property Maintenance",
    "date_created": "2025-08-27T14:42:53.000",
    "date_modified": "2025-08-27T14:42:55.000",
    "request_status": "Pending",
    "responsible_agency": "Department of Code Enforcement",
    "final_address": "1932 Hermosa St",
    "status": "Pending",
    "rowid": "1222047",
    "final_x": "3687758.04047",
    "final_y": "524183.70886",
    "longitude": "-90.04856947380136",
    "latitude": "29.935131887221075",
    "geocoded_column": {
      "latitude": "29.935131887221075",
      "longitude": "-90.04856947380136"
    }
  },
  {
    "service_request": "2025-1222046",
    "request_type": "Parks & Parkways",
    "request_reason": "Request Tree Service (Right of Way/Public Property)",
    "date_created": "2025-08-27T14:38:28.000",
    "date_modified": "2025-08-27T14:48:05.000",
    "case_close_date": "2025-08-27T09:48:04.000",
    "request_status": "Closed",
    "responsible_agency": "Department of Parks & Parkway",
    "final_address": "LAKE FOREST BLVD & PARC BRITTANY BLVD & RICKERT DR",
    "address_councildis": "E",
    "status": "Question Answered.",
    "rowid": "1222046",
    "final_x": "3703033.4",
    "final_y": "556702.18",
    "longitude": "-89.9991502438828",
    "latitude": "30.02406595627854",
    "geocoded_column": {
      "latitude": "30.02406595627854",
      "longitude": "-89.9991502438828"
    }
  },
  {
    "service_request": "2025-1222045",
    "request_type": "Street and Traffic Signs",
    "request_reason": "Traffic or Parking Sign Damaged or Missing",
    "date_created": "2025-08-27T14:37:53.000",
    "date_modified": "2025-08-27T14:37:55.000",
    "request_status": "Pending",
    "responsible_agency": "Department of Public Works",
    "final_address": "2039 Evergreen Ave",
    "address_councildis": "C",
    "status": "Pending",
    "rowid": "1222045",
    "final_x": "3688089.70031",
    "final_y": "524267.307772",
    "longitude": "-90.04751946634568",
    "latitude": "29.935351526674243",
    "geocoded_column": {
      "latitude": "29.935351526674243",
      "longitude": "-90.04751946634568"
    }
  },
  {
    "service_request": "2025-1222044",
    "request_type": "Trash/Recycling",
    "request_reason": "Illegal Dumping",
    "date_created": "2025-08-27T14:37:00.000",
    "date_modified": "2025-08-27T15:07:27.000",
    "request_status": "Pending",
    "responsible_agency": "Department of Sanitation",
    "final_address": "201 Dearmas St Apt 1201",
    "address_councildis": "C",
    "status": "Pending",
    "rowid": "1222044",
    "final_x": "3686107.76118",
    "final_y": "526971.175806",
    "longitude": "-90.05368111056087",
    "latitude": "29.942847258264685",
    "geocoded_column": {
      "latitude": "29.942847258264685",
      "longitude": "-90.05368111056087"
    }
  },
  {
    "service_request": "2025-1222043",
    "request_type": "Trash/Recycling",
    "request_reason": "Request a Large Item Pick Up",
    "date_created": "2025-08-27T14:36:01.000",
    "date_modified": "2025-08-27T14:36:03.000",
    "request_status": "Pending",
    "responsible_agency": "Department of Sanitation",
    "final_address": "1618 Spain St",
    "address_councildis": "D",
    "status": "Assigned to Contractor",
    "contractor": "IV Waste",
    "rowid": "1222043",
    "final_x": "3685942.02332",
    "final_y": "538398.380681",
    "longitude": "-90.05380150501972",
    "latitude": "29.974273228726236",
    "geocoded_column": {
      "latitude": "29.974273228726236",
      "longitude": "-90.05380150501972"
    }
  },
  {
    "service_request": "2025-1222042",
    "request_type": "Trash/Recycling",
    "request_reason": "Return Recycling Cart",
    "date_created": "2025-08-27T14:31:19.000",
    "date_modified": "2025-08-27T14:31:21.000",
    "request_status": "Pending",
    "responsible_agency": "Department of Sanitation",
    "final_address": "1500 Holiday Pl",
    "address_councildis": "C",
    "status": "Pending",
    "rowid": "1222042",
    "final_x": "3699028.41776",
    "final_y": "525659.740605",
    "longitude": "-90.0129354624615",
    "latitude": "29.938838180578593",
    "geocoded_column": {
      "latitude": "29.938838180578593",
      "longitude": "-90.0129354624615"
    }
  },
  {
    "service_request": "2025-1222041",
    "request_type": "Mosquito, Termite & Rodent Control",
    "request_reason": "Non-Rodent Complaint (Possums & Snakes)",
    "date_created": "2025-08-27T14:30:57.000",
    "date_modified": "2025-08-27T14:30:59.000",
    "request_status": "Pending",
    "responsible_agency": "Mosquito, Termite & Rodent Control Board",
    "final_address": "1645 Port St",
    "address_councildis": "D",
    "status": "Pending",
    "rowid": "1222041",
    "final_x": "3688007.61353",
    "final_y": "538569.254089",
    "longitude": "-90.04727184806073",
    "latitude": "29.974679485442014",
    "geocoded_column": {
      "latitude": "29.974679485442014",
      "longitude": "-90.04727184806073"
    }
  },
  {
    "service_request": "2025-1222040",
    "request_type": "Property Maintenance",
    "request_reason": "Property Maintenance",
    "date_created": "2025-08-27T14:29:11.000",
    "date_modified": "2025-08-27T14:29:16.000",
    "request_status": "Pending",
    "responsible_agency": "Department of Code Enforcement",
    "final_address": "PLEASANT ST & TCHOUPITOULAS ST",
    "address_councildis": "B",
    "status": "Pending",
    "rowid": "1222040",
    "final_x": "3676463.5",
    "final_y": "518085.88",
    "longitude": "-90.08443614266109",
    "latitude": "29.918708219227508",
    "geocoded_column": {
      "latitude": "29.918708219227508",
      "longitude": "-90.08443614266109"
    }
  },
  {
    "service_request": "2025-1222039",
    "request_type": "Property Maintenance",
    "request_reason": "Property Maintenance",
    "date_created": "2025-08-27T14:28:09.000",
    "date_modified": "2025-08-27T14:28:11.000",
    "request_status": "Pending",
    "responsible_agency": "Department of Code Enforcement",
    "final_address": "PLEASANT ST & ST THOMAS ST",
    "address_councildis": "B",
    "status": "Pending",
    "rowid": "1222039",
    "final_x": "3676365.1",
    "final_y": "518293.58",
    "longitude": "-90.08473959628544",
    "latitude": "29.919282276139416",
    "geocoded_column": {
      "latitude": "29.919282276139416",
      "longitude": "-90.08473959628544"
    }
  },
  {
    "service_request": "2025-1222038",
    "request_type": "Trash/Recycling",
    "request_reason": "Request a Large Item Pick Up",
    "date_created": "2025-08-27T14:24:53.000",
    "date_modified": "2025-08-27T14:24:54.000",
    "request_status": "Pending",
    "responsible_agency": "Department of Sanitation",
    "final_address": "2030 Burgundy St",
    "address_councildis": "C",
    "status": "Assigned to Contractor",
    "contractor": "IV Waste",
    "rowid": "1222038",
    "final_x": "3684554.94524",
    "final_y": "535514.623814",
    "longitude": "-90.05828356108412",
    "latitude": "29.966386416183127",
    "geocoded_column": {
      "latitude": "29.966386416183127",
      "longitude": "-90.05828356108412"
    }
  },
  {
    "service_request": "2025-1222037",
    "request_type": "Roads and Streets",
    "request_reason": "Street Subsidence (Sinking)",
    "date_created": "2025-08-27T14:21:43.000",
    "date_modified": "2025-08-27T14:21:51.000",
    "request_status": "Pending",
    "responsible_agency": "Sewerage & Water Board",
    "final_address": "4126 Fiesta St",
    "address_councildis": "C",
    "status": "Pending",
    "rowid": "1222037",
    "final_x": "3699122.45341",
    "final_y": "522362.713082",
    "longitude": "-90.01275854704109",
    "latitude": "29.929769516471875",
    "geocoded_column": {
      "latitude": "29.929769516471875",
      "longitude": "-90.01275854704109"
    }
  },
  {
    "service_request": "2025-1222036",
    "request_type": "Trash/Recycling",
    "request_reason": "Replace Trash Cart",
    "date_created": "2025-08-27T14:13:50.000",
    "date_modified": "2025-08-27T14:13:52.000",
    "request_status": "Pending",
    "responsible_agency": "Department of Sanitation",
    "final_address": "1566 N Dorgenois St",
    "address_councildis": "D",
    "status": "Assigned to Contractor",
    "contractor": "IV Waste",
    "rowid": "1222036",
    "final_x": "3679501.02856",
    "final_y": "539664.464714",
    "longitude": "-90.07409972993683",
    "latitude": "29.977950719173315",
    "geocoded_column": {
      "latitude": "29.977950719173315",
      "longitude": "-90.07409972993683"
    }
  },
  {
    "service_request": "2025-1222035",
    "request_type": "Street and Traffic Signs",
    "request_reason": "Stop Sign Missing or Damaged",
    "date_created": "2025-08-27T14:06:15.000",
    "date_modified": "2025-08-27T14:06:17.000",
    "request_status": "Pending",
    "responsible_agency": "Department of Public Works",
    "final_address": "BURGUNDY ST & CHARBONNET ST",
    "address_councildis": "E",
    "status": "Pending",
    "rowid": "1222035",
    "final_x": "3698417.7",
    "final_y": "532821.28",
    "longitude": "-90.01460334385031",
    "latitude": "29.958549237221906",
    "geocoded_column": {
      "latitude": "29.958549237221906",
      "longitude": "-90.01460334385031"
    }
  },
  {
    "service_request": "2025-1222034",
    "request_type": "Trash/Recycling",
    "request_reason": "Repair Trash Cart",
    "date_created": "2025-08-27T14:06:10.000",
    "date_modified": "2025-08-27T14:06:13.000",
    "request_status": "Pending",
    "responsible_agency": "Department of Sanitation",
    "final_address": "1711 S White St",
    "address_councildis": "B",
    "status": "Assigned to Contractor",
    "contractor": "IV Waste",
    "rowid": "1222034",
    "final_x": "3670932.52379",
    "final_y": "529875.199297",
    "longitude": "-90.10149452430413",
    "latitude": "29.951289646156415",
    "geocoded_column": {
      "latitude": "29.951289646156415",
      "longitude": "-90.10149452430413"
    }
  },
  {
    "service_request": "2025-1222033",
    "request_type": "Trash/Recycling",
    "request_reason": "Replace Recycling Cart",
    "date_created": "2025-08-27T14:05:06.000",
    "date_modified": "2025-08-27T14:05:08.000",
    "request_status": "Pending",
    "responsible_agency": "Department of Sanitation",
    "final_address": "6858 Louisville St",
    "address_councildis": "A",
    "status": "Pending",
    "rowid": "1222033",
    "final_x": "3668177.37959",
    "final_y": "553209.441111",
    "longitude": "-90.10940694821345",
    "latitude": "30.015532049341836",
    "geocoded_column": {
      "latitude": "30.015532049341836",
      "longitude": "-90.10940694821345"
    }
  },
  {
    "service_request": "2025-1222032",
    "request_type": "Trash/Recycling",
    "request_reason": "Request a Large Item Pick Up",
    "date_created": "2025-08-27T14:01:05.000",
    "date_modified": "2025-08-27T14:01:06.000",
    "request_status": "Pending",
    "responsible_agency": "Department of Sanitation",
    "final_address": "919 Wagner St",
    "address_councildis": "C",
    "status": "Assigned to Contractor",
    "contractor": "Richards Disposal",
    "rowid": "1222032",
    "final_x": "3690454.41014",
    "final_y": "528039.466047",
    "longitude": "-90.03991967275114",
    "latitude": "29.945650499269842",
    "geocoded_column": {
      "latitude": "29.945650499269842",
      "longitude": "-90.03991967275114"
    }
  },
  {
    "service_request": "2025-1222031",
    "request_type": "Trash/Recycling",
    "request_reason": "Request a Large Item Pick Up",
    "date_created": "2025-08-27T14:00:15.000",
    "date_modified": "2025-08-27T14:00:17.000",
    "request_status": "Pending",
    "responsible_agency": "Department of Sanitation",
    "final_address": "726 City Park Ave",
    "address_councildis": "A",
    "status": "Assigned to Contractor",
    "contractor": "IV Waste",
    "rowid": "1222031",
    "final_x": "3670259.3595",
    "final_y": "541726.30254",
    "longitude": "-90.10321832930451",
    "latitude": "29.98389609717358",
    "geocoded_column": {
      "latitude": "29.98389609717358",
      "longitude": "-90.10321832930451"
    }
  },
  {
    "service_request": "2025-1222030",
    "request_type": "Safety & Permits",
    "request_reason": "Construction permit",
    "date_created": "2025-08-27T13:57:47.000",
    "date_modified": "2025-08-27T15:10:08.000",
    "case_close_date": "2025-08-27T10:10:08.000",
    "request_status": "Closed",
    "responsible_agency": "Safety and Permits",
    "final_address": "3419 River Oaks Dr",
    "address_councildis": "C",
    "status": "Resolved",
    "rowid": "1222030",
    "final_x": "3701354.91409",
    "final_y": "518538.333431",
    "longitude": "-90.00585097229646",
    "latitude": "29.919182855430797",
    "geocoded_column": {
      "latitude": "29.919182855430797",
      "longitude": "-90.00585097229646"
    }
  },
  {
    "service_request": "2025-1222029",
    "request_type": "Trash/Recycling",
    "request_reason": "Request a Large Item Pick Up",
    "date_created": "2025-08-27T13:57:40.000",
    "date_modified": "2025-08-27T13:57:42.000",
    "request_status": "Pending",
    "responsible_agency": "Department of Sanitation",
    "final_address": "7241 Lake Willow Dr",
    "address_councildis": "E",
    "status": "Assigned to Contractor",
    "contractor": "Waste Pro",
    "rowid": "1222029",
    "final_x": "3702387.20247",
    "final_y": "560127.804893",
    "longitude": "-90.00106623718467",
    "latitude": "30.033505770397586",
    "geocoded_column": {
      "latitude": "30.033505770397586",
      "longitude": "-90.00106623718467"
    }
  },
  {
    "service_request": "2025-1222028",
    "request_type": "Abandoned Vehicles",
    "request_reason": "Abandoned/Junk Vehicles",
    "date_created": "2025-08-27T13:55:26.000",
    "date_modified": "2025-08-27T13:56:38.000",
    "request_status": "Pending",
    "responsible_agency": "Department of Public Works",
    "final_address": "4200 BLK Palmyra St",
    "address_councildis": "A",
    "status": "Pending",
    "rowid": "1222028",
    "final_x": "3669957.96582",
    "final_y": "538206.071669",
    "longitude": "-90.10428955726775",
    "latitude": "29.97422554838659",
    "geocoded_column": {
      "latitude": "29.97422554838659",
      "longitude": "-90.10428955726775"
    }
  },
  {
    "service_request": "2025-1222027",
    "request_type": "Safety & Permits",
    "request_reason": "Zoning Enforcement",
    "date_created": "2025-08-27T13:54:22.000",
    "date_modified": "2025-08-27T15:07:22.000",
    "case_close_date": "2025-08-27T10:07:21.000",
    "request_status": "Closed",
    "responsible_agency": "Safety and Permits",
    "final_address": "4411 Werner Dr",
    "address_councildis": "E",
    "status": "Resolved",
    "rowid": "1222027",
    "final_x": "3705044.95063",
    "final_y": "553393.361367",
    "longitude": "-89.99291648153235",
    "latitude": "30.014903426068784",
    "geocoded_column": {
      "latitude": "30.014903426068784",
      "longitude": "-89.99291648153235"
    }
  },
  {
    "service_request": "2025-1222026",
    "request_type": "Trash/Recycling",
    "request_reason": "Illegal Dumping",
    "date_created": "2025-08-27T13:51:41.000",
    "date_modified": "2025-08-27T13:51:42.000",
    "request_status": "Pending",
    "responsible_agency": "Department of Sanitation",
    "final_address": "4987 Burgundy St",
    "address_councildis": "E",
    "status": "Pending",
    "rowid": "1222026",
    "final_x": "3695634.88675",
    "final_y": "533574.100229",
    "longitude": "-90.02336351315141",
    "latitude": "29.960706997063944",
    "geocoded_column": {
      "latitude": "29.960706997063944",
      "longitude": "-90.02336351315141"
    }
  },
  {
    "service_request": "2025-1222025",
    "request_type": "Trash/Recycling",
    "request_reason": "Request a Large Item Pick Up",
    "date_created": "2025-08-27T13:51:30.000",
    "date_modified": "2025-08-27T13:51:31.000",
    "request_status": "Pending",
    "responsible_agency": "Department of Sanitation",
    "final_address": "1526 Poland Ave",
    "address_councildis": "D",
    "status": "Assigned to Contractor",
    "contractor": "IV Waste",
    "rowid": "1222025",
    "final_x": "3693397.53033",
    "final_y": "536722.103495",
    "longitude": "-90.03031557343351",
    "latitude": "29.969433037060792",
    "geocoded_column": {
      "latitude": "29.969433037060792",
      "longitude": "-90.03031557343351"
    }
  },
  {
    "service_request": "2025-1222024",
    "request_type": "Abandoned Vehicles",
    "request_reason": "Abandoned/Junk Vehicles",
    "date_created": "2025-08-27T13:50:47.000",
    "date_modified": "2025-08-27T13:51:10.000",
    "request_status": "Pending",
    "responsible_agency": "Department of Public Works",
    "final_address": "1142 Hendee St",
    "address_councildis": "C",
    "status": "Pending",
    "rowid": "1222024",
    "final_x": "3690812.21622",
    "final_y": "527076.472958",
    "longitude": "-90.03882431519719",
    "latitude": "29.942991487910614",
    "geocoded_column": {
      "latitude": "29.942991487910614",
      "longitude": "-90.03882431519719"
    }
  },
  {
    "service_request": "2025-1222023",
    "request_type": "Abandoned Vehicles",
    "request_reason": "Abandoned/Junk Vehicles",
    "date_created": "2025-08-27T13:37:25.000",
    "date_modified": "2025-08-27T13:37:27.000",
    "request_status": "Pending",
    "responsible_agency": "Department of Public Works",
    "final_address": "2646 Dumaine St",
    "address_councildis": "D",
    "status": "Pending",
    "rowid": "1222023",
    "final_x": "3677256.6381",
    "final_y": "537391.382472",
    "longitude": "-90.08126675349394",
    "latitude": "29.971768152243445",
    "geocoded_column": {
      "latitude": "29.971768152243445",
      "longitude": "-90.08126675349394"
    }
  },
  {
    "service_request": "2025-1222022",
    "request_type": "Trash/Recycling",
    "request_reason": "Request a Large Item Pick Up",
    "date_created": "2025-08-27T13:37:00.000",
    "date_modified": "2025-08-27T13:37:03.000",
    "request_status": "Pending",
    "responsible_agency": "Department of Sanitation",
    "final_address": "4915 Pentland Dr",
    "address_councildis": "E",
    "status": "Assigned to Contractor",
    "contractor": "Waste Pro",
    "rowid": "1222022",
    "final_x": "3718767.45394",
    "final_y": "557986.088795",
    "longitude": "-89.94938523147081",
    "latitude": "30.027083066780854",
    "geocoded_column": {
      "latitude": "30.027083066780854",
      "longitude": "-89.94938523147081"
    }
  },
  {
    "service_request": "2025-1222021",
    "request_type": "Parks & Parkways",
    "request_reason": "Request Tree Service (Right of Way/Public Property)",
    "date_created": "2025-08-27T13:35:56.000",
    "date_modified": "2025-08-27T14:11:09.000",
    "request_status": "Pending",
    "responsible_agency": "Department of Parks & Parkway",
    "final_address": "1309 Congress St",
    "address_councildis": "D",
    "status": "Pending",
    "rowid": "1222021",
    "final_x": "3690954.30115",
    "final_y": "536390.696967",
    "longitude": "-90.03804329229368",
    "latitude": "29.968597955302187",
    "geocoded_column": {
      "latitude": "29.968597955302187",
      "longitude": "-90.03804329229368"
    }
  },
  {
    "service_request": "2025-1222020",
    "request_type": "Trash/Recycling",
    "request_reason": "Request a Large Item Pick Up",
    "date_created": "2025-08-27T13:35:35.000",
    "date_modified": "2025-08-27T13:35:37.000",
    "request_status": "Pending",
    "responsible_agency": "Department of Sanitation",
    "final_address": "512 Newton St",
    "address_councildis": "C",
    "status": "Assigned to Contractor",
    "contractor": "Richards Disposal",
    "rowid": "1222020",
    "final_x": "3687062.89174",
    "final_y": "528011.530943",
    "longitude": "-90.0506287718436",
    "latitude": "29.94567851723304",
    "geocoded_column": {
      "latitude": "29.94567851723304",
      "longitude": "-90.0506287718436"
    }
  },
  {
    "service_request": "2025-1222019",
    "request_type": "Trash/Recycling",
    "request_reason": "Repair Recycling Cart",
    "date_created": "2025-08-27T13:33:51.000",
    "date_modified": "2025-08-27T13:33:52.000",
    "request_status": "Pending",
    "responsible_agency": "Department of Sanitation",
    "final_address": "4314 S Johnson St",
    "address_councildis": "B",
    "status": "Pending",
    "rowid": "1222019",
    "final_x": "3670480.5771",
    "final_y": "527190.520447",
    "longitude": "-90.10301257162173",
    "latitude": "29.943921009167404",
    "geocoded_column": {
      "latitude": "29.943921009167404",
      "longitude": "-90.10301257162173"
    }
  },
  {
    "service_request": "2025-1222018",
    "request_type": "Trash/Recycling",
    "request_reason": "Missed Trash Pick-Up",
    "date_created": "2025-08-27T13:32:55.000",
    "date_modified": "2025-08-27T14:39:03.000",
    "case_close_date": "2025-08-27T09:39:02.000",
    "request_status": "Closed",
    "responsible_agency": "Department of Sanitation",
    "final_address": "3927 Hamburg St",
    "address_councildis": "D",
    "status": "Invalid Request",
    "contractor": "IV Waste",
    "contractor_action": "Invalid",
    "rowid": "1222018",
    "final_x": "3679210.48635",
    "final_y": "546825.330705",
    "longitude": "-90.0747689494396",
    "latitude": "29.997649370606215",
    "geocoded_column": {
      "latitude": "29.997649370606215",
      "longitude": "-90.0747689494396"
    }
  },
  {
    "service_request": "2025-1222017",
    "request_type": "Trash/Recycling",
    "request_reason": "Request a Large Item Pick Up",
    "date_created": "2025-08-27T13:27:51.000",
    "date_modified": "2025-08-27T13:27:52.000",
    "request_status": "Pending",
    "responsible_agency": "Department of Sanitation",
    "final_address": "7700 Scottwood Dr",
    "address_councildis": "E",
    "status": "Assigned to Contractor",
    "contractor": "Waste Pro",
    "rowid": "1222017",
    "final_x": "3717042.31832",
    "final_y": "570994.599911",
    "longitude": "-89.95434173815485",
    "latitude": "30.06290834472691",
    "geocoded_column": {
      "latitude": "30.06290834472691",
      "longitude": "-89.95434173815485"
    }
  },
  {
    "service_request": "2025-1222016",
    "request_type": "Trash/Recycling",
    "request_reason": "Request a Large Item Pick Up",
    "date_created": "2025-08-27T13:26:27.000",
    "date_modified": "2025-08-27T14:25:41.000",
    "request_status": "Pending",
    "responsible_agency": "Department of Sanitation",
    "final_address": "4419 Werner Dr",
    "address_councildis": "E",
    "status": "Assigned to Contractor",
    "contractor": "Waste Pro",
    "rowid": "1222016",
    "final_x": "3705040.06097",
    "final_y": "553442.974103",
    "longitude": "-89.99293009670554",
    "latitude": "30.015039999335567",
    "geocoded_column": {
      "latitude": "30.015039999335567",
      "longitude": "-89.99293009670554"
    }
  },
  {
    "service_request": "2025-1222015",
    "request_type": "Trash/Recycling",
    "request_reason": "Request a Large Item Pick Up",
    "date_created": "2025-08-27T13:24:41.000",
    "date_modified": "2025-08-27T13:24:43.000",
    "request_status": "Pending",
    "responsible_agency": "Department of Sanitation",
    "final_address": "516 Thayer St",
    "address_councildis": "C",
    "status": "Assigned to Contractor",
    "contractor": "Richards Disposal",
    "rowid": "1222015",
    "final_x": "3689576.19913",
    "final_y": "529682.759553",
    "longitude": "-90.04263402111904",
    "latitude": "29.950196221345085",
    "geocoded_column": {
      "latitude": "29.950196221345085",
      "longitude": "-90.04263402111904"
    }
  },
  {
    "service_request": "2025-1222014",
    "request_type": "Property Maintenance",
    "request_reason": "Property Maintenance",
    "date_created": "2025-08-27T13:23:43.000",
    "date_modified": "2025-08-27T13:23:44.000",
    "request_status": "Pending",
    "responsible_agency": "Department of Code Enforcement",
    "final_address": "13900 Lincoln Beach Blvd",
    "address_councildis": "E",
    "status": "Pending",
    "rowid": "1222014",
    "final_x": "3717393.92191",
    "final_y": "572843.408361",
    "longitude": "-89.95315992476364",
    "latitude": "30.06798015606697",
    "geocoded_column": {
      "latitude": "30.06798015606697",
      "longitude": "-89.95315992476364"
    }
  },
  {
    "service_request": "2025-1222013",
    "request_type": "Trash/Recycling",
    "request_reason": "Request a Large Item Pick Up",
    "date_created": "2025-08-27T13:20:39.000",
    "date_modified": "2025-08-27T13:20:42.000",
    "request_status": "Pending",
    "responsible_agency": "Department of Sanitation",
    "final_address": "11409 S St Andrews Cir",
    "address_councildis": "E",
    "status": "Assigned to Contractor",
    "contractor": "Waste Pro",
    "rowid": "1222013",
    "final_x": "3719394.09842",
    "final_y": "559463.820829",
    "longitude": "-89.94734863775516",
    "latitude": "30.03112540886941",
    "geocoded_column": {
      "latitude": "30.03112540886941",
      "longitude": "-89.94734863775516"
    }
  },
  {
    "service_request": "2025-1222012",
    "request_type": "Parks & Parkways",
    "request_reason": "Request Tree Service (Right of Way/Public Property)",
    "date_created": "2025-08-27T13:20:18.000",
    "date_modified": "2025-08-27T14:34:30.000",
    "case_close_date": "2025-08-27T09:24:12.000",
    "request_status": "Closed",
    "responsible_agency": "Department of Parks & Parkway",
    "final_address": "LAKE FOREST BLVD & PARC BRITTANY BLVD",
    "address_councildis": "E",
    "status": "Question Answered.",
    "rowid": "1222012",
    "final_x": "3703013.1",
    "final_y": "556785.28",
    "longitude": "-89.99921133030972",
    "latitude": "30.024295099116646",
    "geocoded_column": {
      "latitude": "30.024295099116646",
      "longitude": "-89.99921133030972"
    }
  },
  {
    "service_request": "2025-1222011",
    "request_type": "Trash/Recycling",
    "request_reason": "Repair Trash Cart",
    "date_created": "2025-08-27T13:19:27.000",
    "date_modified": "2025-08-27T13:19:29.000",
    "request_status": "Pending",
    "responsible_agency": "Department of Sanitation",
    "final_address": "4819 Good Dr",
    "address_councildis": "E",
    "status": "Assigned to Contractor",
    "contractor": "Waste Pro",
    "rowid": "1222011",
    "final_x": "3714830.37067",
    "final_y": "557091.874266",
    "longitude": "-89.96185972713324",
    "latitude": "30.02475449488811",
    "geocoded_column": {
      "latitude": "30.02475449488811",
      "longitude": "-89.96185972713324"
    }
  },
  {
    "service_request": "2025-1222010",
    "request_type": "Trash/Recycling",
    "request_reason": "Request a Large Item Pick Up",
    "date_created": "2025-08-27T13:17:31.000",
    "date_modified": "2025-08-27T13:17:33.000",
    "request_status": "Pending",
    "responsible_agency": "Department of Sanitation",
    "final_address": "19 Kristen Ct",
    "address_councildis": "E",
    "status": "Assigned to Contractor",
    "contractor": "Waste Pro",
    "rowid": "1222010",
    "final_x": "3713545.36959",
    "final_y": "567351.533092",
    "longitude": "-89.96553308665794",
    "latitude": "30.053006660578287",
    "geocoded_column": {
      "latitude": "30.053006660578287",
      "longitude": "-89.96553308665794"
    }
  },
  {
    "service_request": "2025-1222009",
    "request_type": "Property Maintenance",
    "request_reason": "Property Maintenance",
    "date_created": "2025-08-27T13:16:50.000",
    "date_modified": "2025-08-27T13:16:52.000",
    "request_status": "Pending",
    "responsible_agency": "Department of Code Enforcement",
    "final_address": "2341 Bartholomew St",
    "address_councildis": "D",
    "status": "Pending",
    "rowid": "1222009",
    "final_x": "3693055.2927",
    "final_y": "540145.703371",
    "longitude": "-90.03127352241188",
    "latitude": "29.978857414006953",
    "geocoded_column": {
      "latitude": "29.978857414006953",
      "longitude": "-90.03127352241188"
    }
  },
  {
    "service_request": "2025-1222008",
    "request_type": "Trash/Recycling",
    "request_reason": "Request a Large Item Pick Up",
    "date_created": "2025-08-27T13:16:13.000",
    "date_modified": "2025-08-27T13:16:16.000",
    "request_status": "Pending",
    "responsible_agency": "Department of Sanitation",
    "final_address": "5227 Chartres St",
    "address_councildis": "E",
    "status": "Assigned to Contractor",
    "contractor": "Waste Pro",
    "rowid": "1222008",
    "final_x": "3696188.66006",
    "final_y": "532303.996099",
    "longitude": "-90.02166072619168",
    "latitude": "29.957197239393192",
    "geocoded_column": {
      "latitude": "29.957197239393192",
      "longitude": "-90.02166072619168"
    }
  },