[
  {
    "service_request": "2026-1295839",
    "request_type": "Trash/Recycling",
    "request_reason": "Order Trash Cart",
    "date_created": "2026-06-30T23:43:20.000",
    "date_modified": "2026-06-30T23:43:22.000",
    "request_status": "Pending",
    "responsible_agency": "Department of Sanitation",
    "final_address": "801 Odeon St",
    "address_councildis": "C",
    "status": "Assigned to Contractor",
    "contractor": "Richards Disposal",
    "rowid": "1295839",
    "final_x": "3696023.1576",
    "final_y": "528447.344576",
    "longitude": "-90.02232266504737",
    "latitude": "29.94659800618174",
    "geocoded_column": {
      "latitude": "29.94659800618174",
      "longitude": "-90.02232266504737"
    }
  },
  {
    "service_request": "2026-1295838",
    "request_type": "Trash/Recycling",
    "request_reason": "Repair Recycling Cart",
    "date_created": "2026-06-30T23:32:25.000",
    "date_modified": "2026-06-30T23:32:28.000",
    "request_status": "Pending",
    "responsible_agency": "Department of Sanitation",
    "final_address": "4459 Woodland Dr Unit C",
    "address_councildis": "C",
    "status": "Pending",
    "rowid": "1295838",
    "final_x": "3705448.21099",
    "final_y": "513577.16741",
    "longitude": "-89.99311378520244",
    "latitude": "29.90541032632261",
    "geocoded_column": {
      "latitude": "29.90541032632261",
      "longitude": "-89.99311378520244"
    }
  },
  {
    "service_request": "2026-1295837",
    "request_type": "General Services",
    "request_reason": "General Service Request",
    "date_created": "2026-06-30T23:07:31.000",
    "date_modified": "2026-06-30T23:07:34.000",
    "request_status": "Pending",
    "responsible_agency": "Orleans Parish Communication District",
    "final_address": "2200 Upperline St",
    "address_councildis": "B",
    "status": "Pending",
    "rowid": "1295837",
    "final_x": "3669084.31879",
    "final_y": "522932.018043",
    "longitude": "-90.10756478611714",
    "latitude": "29.93225264941014",
    "geocoded_column": {
      "latitude": "29.93225264941014",
      "longitude": "-90.10756478611714"
    }
  },
  {
    "service_request": "2026-1295836",
    "request_type": "Property Maintenance",
    "request_reason": "Property Maintenance",
    "date_created": "2026-06-30T23:02:06.000",
    "date_modified": "2026-06-30T23:02:08.000",
    "request_status": "Pending",
    "responsible_agency": "Department of Code Enforcement",
    "final_address": "1318 St Anthony St",
    "address_councildis": "C",
    "status": "Pending",
    "rowid": "1295836",
    "final_x": "3683432.19209",
    "final_y": "536709.593415",
    "longitude": "-90.0617873166866",
    "latitude": "29.96970647494904",
    "geocoded_column": {
      "latitude": "29.96970647494904",
      "longitude": "-90.0617873166866"
    }
  },
  {
    "service_request": "2026-1295835",
    "request_type": "Property Maintenance",
    "request_reason": "Property Maintenance",
    "date_created": "2026-06-30T22:59:55.000",
    "date_modified": "2026-06-30T22:59:57.000",
    "request_status": "Pending",
    "responsible_agency": "Department of Code Enforcement",
    "final_address": "1312 St Anthony St",
    "address_councildis": "C",
    "status": "Pending",
    "rowid": "1295835",
    "final_x": "3683437.22524",
    "final_y": "536682.485127",
    "longitude": "-90.06177237160287",
    "latitude": "29.969631782964573",
    "geocoded_column": {
      "latitude": "29.969631782964573",
      "longitude": "-90.06177237160287"
    }
  },
  {
    "service_request": "2026-1295834",
    "request_type": "Trash/Recycling",
    "request_reason": "Request a Large Item Pick Up",
    "date_created": "2026-06-30T21:55:28.000",
    "date_modified": "2026-06-30T21:55:29.000",
    "request_status": "Pending",
    "responsible_agency": "Department of Sanitation",
    "final_address": "1300 N Miro St",
    "address_councildis": "C",
    "status": "Assigned to Contractor",
    "contractor": "IV Waste",
    "rowid": "1295834",
    "final_x": "3679481.76373",
    "final_y": "537674.059336",
    "longitude": "-90.07422965293097",
    "latitude": "29.972478373431592",
    "geocoded_column": {
      "latitude": "29.972478373431592",
      "longitude": "-90.07422965293097"
    }
  },
  {
    "service_request": "2026-1295833",
    "request_type": "Trash/Recycling",
    "request_reason": "Illegal Dumping",
    "date_created": "2026-06-30T21:54:08.000",
    "date_modified": "2026-06-30T21:54:10.000",
    "request_status": "Pending",
    "responsible_agency": "Department of Sanitation",
    "final_address": "1300 N Miro St",
    "address_councildis": "C",
    "status": "Pending",
    "rowid": "1295833",
    "final_x": "3679481.76373",
    "final_y": "537674.059336",
    "longitude": "-90.07422965293097",
    "latitude": "29.972478373431592",
    "geocoded_column": {
      "latitude": "29.972478373431592",
      "longitude": "-90.07422965293097"
    }
  },
  {
    "service_request": "2026-1295832",
    "request_type": "Trash/Recycling",
    "request_reason": "Order Second Trash Cart",
    "date_created": "2026-06-30T21:47:54.000",
    "date_modified": "2026-06-30T21:47:56.000",
    "request_status": "Pending",
    "responsible_agency": "Department of Sanitation",
    "final_address": "2031 General Taylor St",
    "address_councildis": "B",
    "status": "Assigned to Contractor",
    "contractor": "IV Waste",
    "rowid": "1295832",
    "final_x": "3672280.28308",
    "final_y": "522697.74457",
    "longitude": "-90.09748338741674",
    "latitude": "29.93151407748461",
    "geocoded_column": {
      "latitude": "29.93151407748461",
      "longitude": "-90.09748338741674"
    }
  },
  {
    "service_request": "2026-1295831",
    "request_type": "Trash/Recycling",
    "request_reason": "Change Size of Trash Cart",
    "date_created": "2026-06-30T21:45:54.000",
    "date_modified": "2026-06-30T21:45:56.000",
    "request_status": "Pending",
    "responsible_agency": "Department of Sanitation",
    "final_address": "8811 Gervais St",
    "address_councildis": "E",
    "status": "Assigned to Contractor",
    "contractor": "Waste Pro",
    "rowid": "1295831",
    "final_x": "3704574.16062",
    "final_y": "563124.135648",
    "longitude": "-89.9940445905811",
    "latitude": "30.041674403595447",
    "geocoded_column": {
      "latitude": "30.041674403595447",
      "longitude": "-89.9940445905811"
    }
  },
  {
    "service_request": "2026-1295830",
    "request_type": "Property Maintenance",
    "request_reason": "Property Maintenance",
    "date_created": "2026-06-30T21:43:22.000",
    "date_modified": "2026-06-30T21:43:25.000",
    "request_status": "Pending",
    "responsible_agency": "Department of Code Enforcement",
    "final_address": "7919 Means Ave",
    "address_councildis": "E",
    "status": "Pending",
    "rowid": "1295830",
    "final_x": "3707621.78769",
    "final_y": "565639.86813",
    "longitude": "-89.98431944650785",
    "latitude": "30.048493365502853",
    "geocoded_column": {
      "latitude": "30.048493365502853",
      "longitude": "-89.98431944650785"
    }
  },
  {
    "service_request": "2026-1295829",
    "request_type": "Abandoned Vehicles",
    "request_reason": "Abandoned/Junk Vehicles",
    "date_created": "2026-06-30T21:40:01.000",
    "date_modified": "2026-06-30T21:40:03.000",
    "request_status": "Pending",
    "responsible_agency": "Department of Public Works",
    "final_address": "4606 Shalimar Dr",
    "address_councildis": "D",
    "status": "Pending",
    "rowid": "1295829",
    "final_x": "3697152.61936",
    "final_y": "553501.915927",
    "longitude": "-90.01784838995668",
    "latitude": "30.015453409718443",
    "geocoded_column": {
      "latitude": "30.015453409718443",
      "longitude": "-90.01784838995668"
    }
  },
  {
    "service_request": "2026-1295828",
    "request_type": "Property Maintenance",
    "request_reason": "Property Maintenance",
    "date_created": "2026-06-30T21:35:11.000",
    "date_modified": "2026-06-30T21:35:13.000",
    "request_status": "Pending",
    "responsible_agency": "Department of Code Enforcement",
    "final_address": "4609 Shalimar Dr",
    "address_councildis": "D",
    "status": "Pending",
    "rowid": "1295828",
    "final_x": "3697310.17731",
    "final_y": "553513.208151",
    "longitude": "-90.01735017263164",
    "latitude": "30.015479484466784",
    "geocoded_column": {
      "latitude": "30.015479484466784",
      "longitude": "-90.01735017263164"
    }
  },
  {
    "service_request": "2026-1295827",
    "request_type": "Property Maintenance",
    "request_reason": "Property Maintenance",
    "date_created": "2026-06-30T21:30:36.000",
    "date_modified": "2026-06-30T21:30:40.000",
    "request_status": "Pending",
    "responsible_agency": "Department of Code Enforcement",
    "final_address": "8640 Chase St",
    "address_councildis": "E",
    "status": "Pending",
    "rowid": "1295827",
    "final_x": "3703847.54154",
    "final_y": "563490.678816",
    "longitude": "-89.99632744064843",
    "latitude": "30.04270558489277",
    "geocoded_column": {
      "latitude": "30.04270558489277",
      "longitude": "-89.99632744064843"
    }
  },
  {
    "service_request": "2026-1295826",
    "request_type": "Trash/Recycling",
    "request_reason": "Replace Trash Cart",
    "date_created": "2026-06-30T21:12:13.000",
    "date_modified": "2026-06-30T21:12:16.000",
    "request_status": "Pending",
    "responsible_agency": "Department of Sanitation",
    "final_address": "7320 Mayo Rd",
    "address_councildis": "E",
    "status": "Assigned to Contractor",
    "contractor": "Waste Pro",
    "rowid": "1295826",
    "final_x": "3700970.00426",
    "final_y": "559867.973149",
    "longitude": "-90.00555422402451",
    "latitude": "30.032836565395126",
    "geocoded_column": {
      "latitude": "30.032836565395126",
      "longitude": "-90.00555422402451"
    }
  },
  {
    "service_request": "2026-1295825",
    "request_type": "Abandoned Vehicles",
    "request_reason": "Abandoned/Junk Vehicles",
    "date_created": "2026-06-30T20:44:37.000",
    "date_modified": "2026-06-30T20:44:39.000",
    "request_status": "Pending",
    "responsible_agency": "Department of Public Works",
    "final_address": "47 Thrasher St",
    "address_councildis": "D",
    "status": "Pending",
    "rowid": "1295825",
    "final_x": "3672498.78619",
    "final_y": "556257.444378",
    "longitude": "-90.09564923886512",
    "latitude": "30.02378533880003",
    "geocoded_column": {
      "latitude": "30.02378533880003",
      "longitude": "-90.09564923886512"
    }
  },
  {
    "service_request": "2026-1295824",
    "request_type": "Roads and Streets",
    "request_reason": "Pothole",
    "date_created": "2026-06-30T20:38:30.000",
    "date_modified": "2026-06-30T20:38:32.000",
    "request_status": "Pending",
    "responsible_agency": "Department of Public Works",
    "final_address": "400 Thayer St",
    "address_councildis": "C",
    "status": "Pending",
    "rowid": "1295824",
    "final_x": "3689599.41718",
    "final_y": "530227.087937",
    "longitude": "-90.0425413498096",
    "latitude": "29.951692217900163",
    "geocoded_column": {
      "latitude": "29.951692217900163",
      "longitude": "-90.0425413498096"
    }
  },
  {
    "service_request": "2026-1295823",
    "request_type": "Streetlights",
    "request_reason": "Streetlight Outage/Malfunction",
    "date_created": "2026-06-30T20:35:21.000",
    "date_modified": "2026-06-30T20:35:23.000",
    "request_status": "Pending",
    "responsible_agency": "Department of Public Works",
    "final_address": "56 Thrasher St",
    "address_councildis": "D",
    "status": "Pending",
    "rowid": "1295823",
    "final_x": "3672607.84641",
    "final_y": "556641.659034",
    "longitude": "-90.09529151213926",
    "latitude": "30.024838551183393",
    "geocoded_column": {
      "latitude": "30.024838551183393",
      "longitude": "-90.09529151213926"
    }
  },
  {
    "service_request": "2026-1295822",
    "request_type": "Streetlights",
    "request_reason": "Streetlight Outage/Malfunction",
    "date_created": "2026-06-30T20:33:55.000",
    "date_modified": "2026-06-30T20:33:56.000",
    "request_status": "Pending",
    "responsible_agency": "Department of Public Works",
    "final_address": "56 Thrasher St",
    "address_councildis": "D",
    "status": "Pending",
    "rowid": "1295822",
    "final_x": "3672607.84641",
    "final_y": "556641.659034",
    "longitude": "-90.09529151213926",
    "latitude": "30.024838551183393",
    "geocoded_column": {
      "latitude": "30.024838551183393",
      "longitude": "-90.09529151213926"
    }
  },
  {
    "service_request": "2026-1295821",
    "request_type": "Streetlights",
    "request_reason": "Streetlight Outage/Malfunction",
    "date_created": "2026-06-30T20:32:41.000",
    "date_modified": "2026-06-30T20:32:44.000",
    "request_status": "Pending",
    "responsible_agency": "Department of Public Works",
    "final_address": "56 Thrasher St",
    "address_councildis": "D",
    "status": "Pending",
    "rowid": "1295821",
    "final_x": "3672607.84641",
    "final_y": "556641.659034",
    "longitude": "-90.09529151213926",
    "latitude": "30.024838551183393",
    "geocoded_column": {
      "latitude": "30.024838551183393",
      "longitude": "-90.09529151213926"
    }
  },
  {
    "service_request": "2026-1295820",
    "request_type": "Streetlights",
    "request_reason": "Streetlight Outage/Malfunction",
    "date_created": "2026-06-30T20:30:34.000",
    "date_modified": "2026-06-30T20:30:36.000",
    "request_status": "Pending",
    "responsible_agency": "Department of Public Works",
    "final_address": "56 Thrasher St",
    "address_councildis": "D",
    "status": "Pending",
    "rowid": "1295820",
    "final_x": "3672607.84641",
    "final_y": "556641.659034",
    "longitude": "-90.09529151213926",
    "latitude": "30.024838551183393",
    "geocoded_column": {
      "latitude": "30.024838551183393",
      "longitude": "-90.09529151213926"
    }
  },
  {
    "service_request": "2026-1295819",
    "request_type": "Streetlights",
    "request_reason": "Streetlight Outage/Malfunction",
    "date_created": "2026-06-30T20:27:06.000",
    "date_modified": "2026-06-30T20:27:08.000",
    "request_status": "Pending",
    "responsible_agency": "Department of Public Works",
    "final_address": "72 N Wren St",
    "address_councildis": "D",
    "status": "Pending",
    "rowid": "1295819",
    "final_x": "3672849.46632",
    "final_y": "556285.178842",
    "longitude": "-90.09454020947243",
    "latitude": "30.023851178619648",
    "geocoded_column": {
      "latitude": "30.023851178619648",
      "longitude": "-90.09454020947243"
    }
  },
  {
    "service_request": "2026-1295818",
    "request_type": "Abandoned Vehicles",
    "request_reason": "Abandoned/Junk Vehicles",
    "date_created": "2026-06-30T20:21:06.000",
    "date_modified": "2026-06-30T20:21:09.000",
    "request_status": "Pending",
    "responsible_agency": "Department of Public Works",
    "final_address": "824 Jena St",
    "address_councildis": "B",
    "status": "Pending",
    "rowid": "1295818",
    "final_x": "3670636.92507",
    "final_y": "518584.965559",
    "longitude": "-90.10281071795188",
    "latitude": "29.920253882087533",
    "geocoded_column": {
      "latitude": "29.920253882087533",
      "longitude": "-90.10281071795188"
    }
  },
  {
    "service_request": "2026-1295817",
    "request_type": "Trash/Recycling",
    "request_reason": "Illegal Dumping",
    "date_created": "2026-06-30T19:59:58.000",
    "date_modified": "2026-06-30T20:00:00.000",
    "request_status": "Pending",
    "responsible_agency": "Department of Sanitation",
    "final_address": "2023 Kerlerec St",
    "address_councildis": "D",
    "status": "Pending",
    "rowid": "1295817",
    "final_x": "3680232.38082",
    "final_y": "537917.407881",
    "longitude": "-90.07185061076915",
    "latitude": "29.973124797144013",
    "geocoded_column": {
      "latitude": "29.973124797144013",
      "longitude": "-90.07185061076915"
    }
  },
  {
    "service_request": "2026-1295816",
    "request_type": "Tree Service",
    "request_reason": "Dead or Dying Tree",
    "date_created": "2026-06-30T19:50:54.000",
    "date_modified": "2026-06-30T19:50:56.000",
    "request_status": "Pending",
    "responsible_agency": "Department of Parks & Parkways",
    "final_address": "822 Cadiz St",
    "address_councildis": "B",
    "status": "Pending",
    "rowid": "1295816",
    "final_x": "3670287.05601",
    "final_y": "518536.842103",
    "longitude": "-90.1039167212304",
    "latitude": "29.920131884443844",
    "geocoded_column": {
      "latitude": "29.920131884443844",
      "longitude": "-90.1039167212304"
    }
  },
  {
    "service_request": "2026-1295815",
    "request_type": "Trash/Recycling",
    "request_reason": "Repair Trash Cart",
    "date_created": "2026-06-30T19:49:40.000",
    "date_modified": "2026-06-30T19:49:43.000",
    "request_status": "Pending",
    "responsible_agency": "Department of Sanitation",
    "final_address": "2003 Audubon St",
    "address_councildis": "A",
    "status": "Assigned to Contractor",
    "contractor": "IV Waste",
    "rowid": "1295815",
    "final_x": "3666062.82061",
    "final_y": "528704.901504",
    "longitude": "-90.11690993406673",
    "latitude": "29.94821475851725",
    "geocoded_column": {
      "latitude": "29.94821475851725",
      "longitude": "-90.11690993406673"
    }
  },
  {
    "service_request": "2026-1295814",
    "request_type": "Trash/Recycling",
    "request_reason": "Replace Trash Cart",
    "date_created": "2026-06-30T19:36:43.000",
    "date_modified": "2026-06-30T19:36:45.000",
    "request_status": "Pending",
    "responsible_agency": "Department of Sanitation",
    "final_address": "4425 Eden St",
    "address_councildis": "B",
    "status": "Assigned to Contractor",
    "contractor": "IV Waste",
    "rowid": "1295814",
    "final_x": "3669818.55655",
    "final_y": "530771.776834",
    "longitude": "-90.10498154525129",
    "latitude": "29.953787822279065",
    "geocoded_column": {
      "latitude": "29.953787822279065",
      "longitude": "-90.10498154525129"
    }
  },
  {
    "service_request": "2026-1295813",
    "request_type": "General Services",
    "request_reason": "General Service Request",
    "date_created": "2026-06-30T19:34:46.000",
    "date_modified": "2026-06-30T19:34:49.000",
    "request_status": "Pending",
    "responsible_agency": "Orleans Parish Communication District",
    "final_address": "Palmetto St, New Orleans, Louisiana, 70118",
    "address_councildis": "A",
    "status": "Pending",
    "rowid": "1295813",
    "final_x": "3665867.49204",
    "final_y": "537442.427464",
    "longitude": "-90.11723387294734",
    "latitude": "29.972245788414828",
    "geocoded_column": {
      "latitude": "29.972245788414828",
      "longitude": "-90.11723387294734"
    }
  },
  {
    "service_request": "2026-1295812",
    "request_type": "Abandoned Vehicles",
    "request_reason": "Abandoned/Junk Vehicles",
    "date_created": "2026-06-30T19:18:10.000",
    "date_modified": "2026-06-30T19:18:12.000",
    "request_status": "Pending",
    "responsible_agency": "Department of Public Works",
    "final_address": "1370 St Anthony St",
    "address_councildis": "C",
    "status": "Pending",
    "rowid": "1295812",
    "final_x": "3683386.33628",
    "final_y": "537137.98292",
    "longitude": "-90.06191712166986",
    "latitude": "29.970885796804613",
    "geocoded_column": {
      "latitude": "29.970885796804613",
      "longitude": "-90.06191712166986"
    }
  },
  {
    "service_request": "2026-1295811",
    "request_type": "Homeless Related Request",
    "request_reason": "Homeless Encampment Complaint",
    "date_created": "2026-06-30T19:08:59.000",
    "date_modified": "2026-06-30T19:09:01.000",
    "request_status": "Pending",
    "responsible_agency": "Office Of Homeless Services And Strategy",
    "final_address": "2728 N Derbigny St",
    "address_councildis": "D",
    "status": "Pending",
    "rowid": "1295811",
    "final_x": "3688180.59087",
    "final_y": "538558.270025",
    "longitude": "-90.04672593391456",
    "latitude": "29.9746439436803",
    "geocoded_column": {
      "latitude": "29.9746439436803",
      "longitude": "-90.04672593391456"
    }
  },
  {
    "service_request": "2026-1295810",
    "request_type": "Trash/Recycling",
    "request_reason": "Replace Trash Cart",
    "date_created": "2026-06-30T18:53:38.000",
    "date_modified": "2026-06-30T18:53:41.000",
    "request_status": "Pending",
    "responsible_agency": "Department of Sanitation",
    "final_address": "207 S Solomon St",
    "address_councildis": "A",
    "status": "Assigned to Contractor",
    "contractor": "IV Waste",
    "rowid": "1295810",
    "final_x": "3670255.46926",
    "final_y": "538352.199689",
    "longitude": "-90.10334501568781",
    "latitude": "29.97461857348468",
    "geocoded_column": {
      "latitude": "29.97461857348468",
      "longitude": "-90.10334501568781"
    }
  },
  {
    "service_request": "2026-1295809",
    "request_type": "Trash/Recycling",
    "request_reason": "MIssed Recycling Pick-Up",
    "date_created": "2026-06-30T18:52:54.000",
    "date_modified": "2026-06-30T18:52:57.000",
    "request_status": "Pending",
    "responsible_agency": "Department of Sanitation",
    "final_address": "331 Virginia St",
    "address_councildis": "A",
    "status": "Assigned to Contractor",
    "contractor": "IV Waste",
    "rowid": "1295809",
    "final_x": "3668531.57582",
    "final_y": "541588.914444",
    "longitude": "-90.10868025639896",
    "latitude": "29.983569215642838",
    "geocoded_column": {
      "latitude": "29.983569215642838",
      "longitude": "-90.10868025639896"
    }
  },
  {
    "service_request": "2026-1295808",
    "request_type": "Property Maintenance",
    "request_reason": "Property Maintenance",
    "date_created": "2026-06-30T18:47:15.000",
    "date_modified": "2026-06-30T18:47:17.000",
    "request_status": "Pending",
    "responsible_agency": "Department of Code Enforcement",
    "final_address": "3821 Prytania St",
    "address_councildis": "B",
    "status": "Pending",
    "rowid": "1295808",
    "final_x": "3672835.41345",
    "final_y": "520555.933112",
    "longitude": "-90.09580392830863",
    "latitude": "29.9256083104082",
    "geocoded_column": {
      "latitude": "29.9256083104082",
      "longitude": "-90.09580392830863"
    }
  },
  {
    "service_request": "2026-1295807",
    "request_type": "Trash/Recycling",
    "request_reason": "Replace Recycling Cart",
    "date_created": "2026-06-30T18:41:26.000",
    "date_modified": "2026-06-30T18:41:29.000",
    "request_status": "Pending",
    "responsible_agency": "Department of Sanitation",
    "final_address": "34 Kings Canyon Dr",
    "address_councildis": "C",
    "status": "Pending",
    "rowid": "1295807",
    "final_x": "3700081.24624",
    "final_y": "515841.231732",
    "longitude": "-90.00996959104926",
    "latitude": "29.91180725562046",
    "geocoded_column": {
      "latitude": "29.91180725562046",
      "longitude": "-90.00996959104926"
    }
  },
  {
    "service_request": "2026-1295806",
    "request_type": "Trash/Recycling",
    "request_reason": "Request a Large Item Pick Up",
    "date_created": "2026-06-30T18:32:28.000",
    "date_modified": "2026-06-30T18:32:30.000",
    "request_status": "Pending",
    "responsible_agency": "Department of Sanitation",
    "final_address": "4827 Bright Dr",
    "address_councildis": "E",
    "status": "Assigned to Contractor",
    "contractor": "Waste Pro",
    "rowid": "1295806",
    "final_x": "3715866.06501",
    "final_y": "557251.269787",
    "longitude": "-89.9585811013429",
    "latitude": "30.02515864311863",
    "geocoded_column": {
      "latitude": "30.02515864311863",
      "longitude": "-89.9585811013429"
    }
  },
  {
    "service_request": "2026-1295805",
    "request_type": "Trash/Recycling",
    "request_reason": "Order Recycling Cart",
    "date_created": "2026-06-30T18:32:09.000",
    "date_modified": "2026-06-30T18:32:11.000",
    "request_status": "Pending",
    "responsible_agency": "Department of Sanitation",
    "final_address": "4944 Major Dr",
    "address_councildis": "E",
    "status": "Pending",
    "rowid": "1295805",
    "final_x": "3718059.98937",
    "final_y": "558150.835419",
    "longitude": "-89.95161444839229",
    "latitude": "30.02755952987314",
    "geocoded_column": {
      "latitude": "30.02755952987314",
      "longitude": "-89.95161444839229"
    }
  },
  {
    "service_request": "2026-1295804",
    "request_type": "Trash/Recycling",
    "request_reason": "Request a Large Item Pick Up",
    "date_created": "2026-06-30T18:30:30.000",
    "date_modified": "2026-06-30T18:30:32.000",
    "request_status": "Pending",
    "responsible_agency": "Department of Sanitation",
    "final_address": "3508 Robert St",
    "address_councildis": "B",
    "status": "Assigned to Contractor",
    "contractor": "IV Waste",
    "rowid": "1295804",
    "final_x": "3668905.15822",
    "final_y": "527716.553279",
    "longitude": "-90.10796885455333",
    "latitude": "29.945413847290684",
    "geocoded_column": {
      "latitude": "29.945413847290684",
      "longitude": "-90.10796885455333"
    }
  },
  {
    "service_request": "2026-1295803",
    "request_type": "Tree Service",
    "request_reason": "Tree Trim",
    "date_created": "2026-06-30T18:30:13.000",
    "date_modified": "2026-06-30T18:30:14.000",
    "request_status": "Pending",
    "responsible_agency": "Department of Parks & Parkways",
    "final_address": "5120 St Charles Ave",
    "address_councildis": "B",
    "status": "Pending",
    "rowid": "1295803",
    "final_x": "3668257.95028",
    "final_y": "520882.598329",
    "longitude": "-90.1102426213579",
    "latitude": "29.926641679511686",
    "geocoded_column": {
      "latitude": "29.926641679511686",
      "longitude": "-90.1102426213579"
    }
  },
  {
    "service_request": "2026-1295802",
    "request_type": "Trash/Recycling",
    "request_reason": "Order Recycling Cart",
    "date_created": "2026-06-30T18:27:35.000",
    "date_modified": "2026-06-30T18:27:36.000",
    "request_status": "Pending",
    "responsible_agency": "Department of Sanitation",
    "final_address": "1613 Mirabeau Ave",
    "address_councildis": "D",
    "status": "Pending",
    "rowid": "1295802",
    "final_x": "3679809.19029",
    "final_y": "550522.402516",
    "longitude": "-90.0727491747051",
    "latitude": "30.007796903994482",
    "geocoded_column": {
      "latitude": "30.007796903994482",
      "longitude": "-90.0727491747051"
    }
  },
  {
    "service_request": "2026-1295801",
    "request_type": "Trash/Recycling",
    "request_reason": "Order Recycling Cart",
    "date_created": "2026-06-30T18:26:40.000",
    "date_modified": "2026-06-30T18:26:42.000",
    "request_status": "Pending",
    "responsible_agency": "Department of Sanitation",
    "final_address": "4944 Major Dr",
    "address_councildis": "E",
    "status": "Pending",
    "rowid": "1295801",
    "final_x": "3718059.98937",
    "final_y": "558150.835419",
    "longitude": "-89.95161444839229",
    "latitude": "30.02755952987314",
    "geocoded_column": {
      "latitude": "30.02755952987314",
      "longitude": "-89.95161444839229"
    }
  },
  {
    "service_request": "2026-1295800",
    "request_type": "Trash/Recycling",
    "request_reason": "Order Second Trash Cart",
    "date_created": "2026-06-30T18:24:22.000",
    "date_modified": "2026-06-30T18:24:24.000",
    "request_status": "Pending",
    "responsible_agency": "Department of Sanitation",
    "final_address": "4944 Major Dr",
    "address_councildis": "E",
    "status": "Assigned to Contractor",
    "contractor": "Waste Pro",
    "rowid": "1295800",
    "final_x": "3718059.98937",
    "final_y": "558150.835419",
    "longitude": "-89.95161444839229",
    "latitude": "30.02755952987314",
    "geocoded_column": {
      "latitude": "30.02755952987314",
      "longitude": "-89.95161444839229"
    }
  },
  {
    "service_request": "2026-1295799",
    "request_type": "Homeless Related Request",
    "request_reason": "Homeless Encampment Complaint",
    "date_created": "2026-06-30T18:15:07.000",
    "date_modified": "2026-06-30T18:15:08.000",
    "request_status": "Pending",
    "responsible_agency": "Office Of Homeless Services And Strategy",
    "final_address": "5415 Elysian Fields Ave",
    "address_councildis": "D",
    "status": "Pending",
    "rowid": "1295799",
    "final_x": "3683790.34178",
    "final_y": "552851.270358",
    "longitude": "-90.0600898012921",
    "latitude": "30.014079413801042",
    "geocoded_column": {
      "latitude": "30.014079413801042",
      "longitude": "-90.0600898012921"
    }
  },
  {
    "service_request": "2026-1295798",
    "request_type": "Trash/Recycling",
    "request_reason": "Request a Large Item Pick Up",
    "date_created": "2026-06-30T18:13:39.000",
    "date_modified": "2026-06-30T18:13:41.000",
    "request_status": "Pending",
    "responsible_agency": "Department of Sanitation",
    "final_address": "4883 Coronado Dr",
    "address_councildis": "E",
    "status": "Assigned to Contractor",
    "contractor": "Waste Pro",
    "rowid": "1295798",
    "final_x": "3714120.53778",
    "final_y": "557213.228635",
    "longitude": "-89.96409807347757",
    "latitude": "30.0251115132943",
    "geocoded_column": {
      "latitude": "30.0251115132943",
      "longitude": "-89.96409807347757"
    }
  },
  {
    "service_request": "2026-1295797",
    "request_type": "Trash/Recycling",
    "request_reason": "Repair Recycling Cart",
    "date_created": "2026-06-30T17:54:04.000",
    "date_modified": "2026-06-30T17:54:07.000",
    "request_status": "Pending",
    "responsible_agency": "Department of Sanitation",
    "final_address": "6010 Memphis St",
    "address_councildis": "A",
    "status": "Pending",
    "rowid": "1295797",
    "final_x": "3669104.77108",
    "final_y": "547314.583313",
    "longitude": "-90.10667619514786",
    "latitude": "29.999295982678095",
    "geocoded_column": {
      "latitude": "29.999295982678095",
      "longitude": "-90.10667619514786"
    }
  },
  {
    "service_request": "2026-1295796",
    "request_type": "Trash/Recycling",
    "request_reason": "Request a Large Item Pick Up",
    "date_created": "2026-06-30T17:52:07.000",
    "date_modified": "2026-06-30T17:52:09.000",
    "request_status": "Pending",
    "responsible_agency": "Department of Sanitation",
    "final_address": "4820 Carondelet St",
    "address_councildis": "B",
    "status": "Assigned to Contractor",
    "contractor": "IV Waste",
    "rowid": "1295796",
    "final_x": "3669162.42068",
    "final_y": "520989.668793",
    "longitude": "-90.10738383026269",
    "latitude": "29.926909511532198",
    "geocoded_column": {
      "latitude": "29.926909511532198",
      "longitude": "-90.10738383026269"
    }
  },
  {
    "service_request": "2026-1295795",
    "request_type": "Trash/Recycling",
    "request_reason": "Repair Trash Cart",
    "date_created": "2026-06-30T17:51:44.000",
    "date_modified": "2026-06-30T17:51:46.000",
    "request_status": "Pending",
    "responsible_agency": "Department of Sanitation",
    "final_address": "6010 Memphis St",
    "address_councildis": "A",
    "status": "Assigned to Contractor",
    "contractor": "IV Waste",
    "rowid": "1295795",
    "final_x": "3669104.77108",
    "final_y": "547314.583313",
    "longitude": "-90.10667619514786",
    "latitude": "29.999295982678095",
    "geocoded_column": {
      "latitude": "29.999295982678095",
      "longitude": "-90.10667619514786"
    }
  },
  {
    "service_request": "2026-1295794",
    "request_type": "Property Maintenance",
    "request_reason": "Property Maintenance",
    "date_created": "2026-06-30T17:44:52.000",
    "date_modified": "2026-06-30T17:44:54.000",
    "request_status": "Pending",
    "responsible_agency": "Department of Code Enforcement",
    "final_address": "2300 Tulane Ave",
    "address_councildis": "B",
    "status": "Pending",
    "rowid": "1295794",
    "final_x": "3675746.66971",
    "final_y": "532898.071812",
    "longitude": "-90.0861899241004",
    "latitude": "29.959458349334557",
    "geocoded_column": {
      "latitude": "29.959458349334557",
      "longitude": "-90.0861899241004"
    }
  },
  {
    "service_request": "2026-1295793",
    "request_type": "Healthy Homes",
    "request_reason": "Healthy Homes",
    "date_created": "2026-06-30T17:39:45.000",
    "date_modified": "2026-06-30T17:39:47.000",
    "request_status": "Pending",
    "responsible_agency": "Department of Code Enforcement",
    "final_address": "9005 Forshey St",
    "address_councildis": "A",
    "status": "Pending",
    "rowid": "1295793",
    "final_x": "3664632.64052",
    "final_y": "536129.173447",
    "longitude": "-90.12117763605582",
    "latitude": "29.96867075307525",
    "geocoded_column": {
      "latitude": "29.96867075307525",
      "longitude": "-90.12117763605582"
    }
  },
  {
    "service_request": "2026-1295792",
    "request_type": "General Services",
    "request_reason": "General Service Request",
    "date_created": "2026-06-30T17:38:09.000",
    "date_modified": "2026-06-30T17:38:10.000",
    "request_status": "Pending",
    "responsible_agency": "Orleans Parish Communication District",
    "final_address": "826 Bartholomew St",
    "address_councildis": "C",
    "status": "Pending",
    "rowid": "1295792",
    "final_x": "3691539.63158",
    "final_y": "534384.192453",
    "longitude": "-90.03626652330912",
    "latitude": "29.963062566634203",
    "geocoded_column": {
      "latitude": "29.963062566634203",
      "longitude": "-90.03626652330912"
    }
  },
  {
    "service_request": "2026-1295791",
    "request_type": "Trash/Recycling",
    "request_reason": "Illegal Dumping",
    "date_created": "2026-06-30T17:37:48.000",
    "date_modified": "2026-06-30T17:37:53.000",
    "request_status": "Pending",
    "responsible_agency": "Department of Code Enforcement",
    "final_address": "ODEON ST & DIANA ST",
    "address_councildis": "C",
    "status": "Pending",
    "rowid": "1295791",
    "final_x": "3696042.1",
    "final_y": "527412.38",
    "longitude": "-90.02230024591815",
    "latitude": "29.94375161736268",
    "geocoded_column": {
      "latitude": "29.94375161736268",
      "longitude": "-90.02230024591815"
    }
  },
  {
    "service_request": "2026-1295790",
    "request_type": "Tree Service",
    "request_reason": "Street or Sidewalk Blocked",
    "date_created": "2026-06-30T17:36:28.000",
    "date_modified": "2026-06-30T17:36:31.000",
    "request_status": "Pending",
    "responsible_agency": "Department of Parks & Parkways",
    "final_address": "310 Nashville Ave",
    "address_councildis": "A",
    "status": "Pending",
    "rowid": "1295790",
    "final_x": "3665094.95079",
    "final_y": "517326.663221",
    "longitude": "-90.12034621912561",
    "latitude": "29.916956428606138",
    "geocoded_column": {
      "latitude": "29.916956428606138",
      "longitude": "-90.12034621912561"
    }
  },
  {
    "service_request": "2026-1295789",
    "request_type": "Trash/Recycling",
    "request_reason": "Request a Large Item Pick Up",
    "date_created": "2026-06-30T17:35:29.000",
    "date_modified": "2026-06-30T17:35:32.000",
    "request_status": "Pending",
    "responsible_agency": "Department of Sanitation",
    "final_address": "11231 N Forest Park Ct",
    "address_councildis": "E",
    "status": "Assigned to Contractor",
    "contractor": "Waste Pro",
    "rowid": "1295789",
    "final_x": "3716981.50316",
    "final_y": "558934.912732",
    "longitude": "-89.95499253613525",
    "latitude": "30.029751143233963",
    "geocoded_column": {
      "latitude": "30.029751143233963",
      "longitude": "-89.95499253613525"
    }
  },
  {
    "service_request": "2026-1295788",
    "request_type": "Abandoned Vehicles",
    "request_reason": "Abandoned/Junk Vehicles",
    "date_created": "2026-06-30T17:31:37.000",
    "date_modified": "2026-06-30T17:31:40.000",
    "request_status": "Pending",
    "responsible_agency": "Department of Public Works",
    "final_address": "277 Cherokee St",
    "address_councildis": "A",
    "status": "Pending",
    "rowid": "1295788",
    "final_x": "3661444.17165",
    "final_y": "524521.59206",
    "longitude": "-90.13163150094542",
    "latitude": "29.93684599963821",
    "geocoded_column": {
      "latitude": "29.93684599963821",
      "longitude": "-90.13163150094542"
    }
  },
  {
    "service_request": "2026-1295787",
    "request_type": "Property Maintenance",
    "request_reason": "Property Maintenance",
    "date_created": "2026-06-30T17:25:23.000",
    "date_modified": "2026-06-30T17:25:25.000",
    "request_status": "Pending",
    "responsible_agency": "Department of Code Enforcement",
    "final_address": "9005 Forshey St",
    "address_councildis": "A",
    "status": "Pending",
    "rowid": "1295787",
    "final_x": "3664632.64052",
    "final_y": "536129.173447",
    "longitude": "-90.12117763605582",
    "latitude": "29.96867075307525",
    "geocoded_column": {
      "latitude": "29.96867075307525",
      "longitude": "-90.12117763605582"
    }
  },
  {
    "service_request": "2026-1295786",
    "request_type": "Property Maintenance",
    "request_reason": "Property Maintenance",
    "date_created": "2026-06-30T17:21:36.000",
    "date_modified": "2026-06-30T17:21:37.000",
    "request_status": "Pending",
    "responsible_agency": "Department of Code Enforcement",
    "final_address": "9005 Forshey St",
    "address_councildis": "A",
    "status": "Pending",
    "rowid": "1295786",
    "final_x": "3664632.64052",
    "final_y": "536129.173447",
    "longitude": "-90.12117763605582",
    "latitude": "29.96867075307525",
    "geocoded_column": {
      "latitude": "29.96867075307525",
      "longitude": "-90.12117763605582"
    }
  },
  {
    "service_request": "2026-1295785",
    "request_type": "Property Maintenance",
    "request_reason": "Property Maintenance",
    "date_created": "2026-06-30T17:21:31.000",
    "date_modified": "2026-06-30T17:21:33.000",
    "request_status": "Pending",
    "responsible_agency": "Department of Code Enforcement",
    "final_address": "2900 BLK Life Center Dr",
    "address_councildis": "C",
    "status": "Pending",
    "rowid": "1295785",
    "final_x": "3694625.1117",
    "final_y": "522023.39078",
    "longitude": "-90.02696801778193",
    "latitude": "29.928978249287525",
    "geocoded_column": {
      "latitude": "29.928978249287525",
      "longitude": "-90.02696801778193"
    }
  },
  {
    "service_request": "2026-1295784",
    "request_type": "Trash/Recycling",
    "request_reason": "Order Trash Cart",
    "date_created": "2026-06-30T17:21:02.000",
    "date_modified": "2026-06-30T17:21:04.000",
    "request_status": "Pending",
    "responsible_agency": "Department of Sanitation",
    "final_address": "3417 Iberville St",
    "address_councildis": "B",
    "status": "Assigned to Contractor",
    "contractor": "IV Waste",
    "rowid": "1295784",
    "final_x": "3673283.82945",
    "final_y": "537269.6642",
    "longitude": "-90.09381767912201",
    "latitude": "29.97155223583142",
    "geocoded_column": {
      "latitude": "29.97155223583142",
      "longitude": "-90.09381767912201"
    }
  },
  {
    "service_request": "2026-1295783",
    "request_type": "Abandoned Vehicles",
    "request_reason": "Abandoned/Junk Vehicles",
    "date_created": "2026-06-30T17:16:27.000",
    "date_modified": "2026-06-30T17:16:34.000",
    "request_status": "Pending",
    "responsible_agency": "Department of Public Works",
    "final_address": "2100 BLK Brainard St",
    "address_councildis": "B",
    "status": "Pending",
    "rowid": "1295783",
    "final_x": "3677348.09376",
    "final_y": "524362.096733",
    "longitude": "-90.08142749664161",
    "latitude": "29.935939233650437",
    "geocoded_column": {
      "latitude": "29.935939233650437",
      "longitude": "-90.08142749664161"
    }
  },
  {
    "service_request": "2026-1295782",
    "request_type": "Trash/Recycling",
    "request_reason": "Request a Large Item Pick Up",
    "date_created": "2026-06-30T17:14:46.000",
    "date_modified": "2026-06-30T17:14:49.000",
    "request_status": "Pending",
    "responsible_agency": "Department of Sanitation",
    "final_address": "7180 Whitmore Pl",
    "address_councildis": "E",
    "status": "Assigned to Contractor",
    "contractor": "Waste Pro",
    "rowid": "1295782",
    "final_x": "3718528.97516",
    "final_y": "569855.007334",
    "longitude": "-89.94968591087053",
    "latitude": "30.05972566159047",
    "geocoded_column": {
      "latitude": "30.05972566159047",
      "longitude": "-89.94968591087053"
    }
  },
  {
    "service_request": "2026-1295781",
    "request_type": "Abandoned Vehicles",
    "request_reason": "Abandoned/Junk Vehicles",
    "date_created": "2026-06-30T17:13:09.000",
    "date_modified": "2026-06-30T17:13:11.000",
    "request_status": "Pending",
    "responsible_agency": "Department of Public Works",
    "final_address": "2100 BLK Brainard St",
    "address_councildis": "B",
    "status": "Pending",
    "rowid": "1295781",
    "final_x": "3677348.09376",
    "final_y": "524362.096733",
    "longitude": "-90.08142749664161",
    "latitude": "29.935939233650437",
    "geocoded_column": {
      "latitude": "29.935939233650437",
      "longitude": "-90.08142749664161"
    }
  },
  {
    "service_request": "2026-1295780",
    "request_type": "Streetlights",
    "request_reason": "Streetlight Outage/Malfunction",
    "date_created": "2026-06-30T17:11:08.000",
    "date_modified": "2026-06-30T17:11:10.000",
    "request_status": "Pending",
    "responsible_agency": "Department of Public Works",
    "final_address": "8209 Spruce St",
    "address_councildis": "A",
    "status": "Pending",
    "rowid": "1295780",
    "final_x": "3663549.44839",
    "final_y": "530783.191682",
    "longitude": "-90.12477650441186",
    "latitude": "29.95400251296115",
    "geocoded_column": {
      "latitude": "29.95400251296115",
      "longitude": "-90.12477650441186"
    }
  },
  {
    "service_request": "2026-1295779",
    "request_type": "Trash/Recycling",
    "request_reason": "Repair Recycling Cart",
    "date_created": "2026-06-30T17:02:45.000",
    "date_modified": "2026-06-30T17:02:49.000",
    "request_status": "Pending",
    "responsible_agency": "Department of Sanitation",
    "final_address": "816 Clouet St",
    "address_councildis": "C",
    "status": "Pending",
    "rowid": "1295779",
    "final_x": "3688724.82595",
    "final_y": "535032.577862",
    "longitude": "-90.04513229486741",
    "latitude": "29.96493271265402",
    "geocoded_column": {
      "latitude": "29.96493271265402",
      "longitude": "-90.04513229486741"
    }
  },
  {
    "service_request": "2026-1295778",
    "request_type": "Trash/Recycling",
    "request_reason": "Order Trash Cart",
    "date_created": "2026-06-30T17:02:35.000",
    "date_modified": "2026-06-30T17:02:37.000",
    "request_status": "Pending",
    "responsible_agency": "Department of Sanitation",
    "final_address": "2520 Joseph St",
    "address_councildis": "A",
    "status": "Assigned to Contractor",
    "contractor": "IV Waste",
    "rowid": "1295778",
    "final_x": "3667429.82445",
    "final_y": "525331.159421",
    "longitude": "-90.11270720332563",
    "latitude": "29.938898083224938",
    "geocoded_column": {
      "latitude": "29.938898083224938",
      "longitude": "-90.11270720332563"
    }
  },
  {
    "service_request": "2026-1295777",
    "request_type": "Abandoned Vehicles",
    "request_reason": "Abandoned/Junk Vehicles",
    "date_created": "2026-06-30T17:00:39.000",
    "date_modified": "2026-06-30T17:00:41.000",
    "request_status": "Pending",
    "responsible_agency": "Department of Public Works",
    "final_address": "1471 Constance St",
    "address_councildis": "B",
    "status": "Pending",
    "rowid": "1295777",
    "final_x": "3680550.63688",
    "final_y": "523855.632508",
    "longitude": "-90.07133461415953",
    "latitude": "29.93445002535894",
    "geocoded_column": {
      "latitude": "29.93445002535894",
      "longitude": "-90.07133461415953"
    }
  },
  {
    "service_request": "2026-1295776",
    "request_type": "Trash/Recycling",
    "request_reason": "Request a Large Item Pick Up",
    "date_created": "2026-06-30T16:56:57.000",
    "date_modified": "2026-06-30T17:47:00.000",
    "request_status": "Pending",
    "responsible_agency": "Department of Sanitation",
    "final_address": "3657 Piedmont Dr",
    "address_councildis": "D",
    "status": "Assigned to Contractor",
    "contractor": "IV Waste",
    "rowid": "1295776",
    "final_x": "3686016.97398",
    "final_y": "546233.707408",
    "longitude": "-90.05328835293862",
    "latitude": "29.995815297330473",
    "geocoded_column": {
      "latitude": "29.995815297330473",
      "longitude": "-90.05328835293862"
    }
  },
  {
    "service_request": "2026-1295775",
    "request_type": "Trash/Recycling",
    "request_reason": "Replace Trash Cart",
    "date_created": "2026-06-30T16:54:46.000",
    "date_modified": "2026-06-30T16:54:48.000",
    "request_status": "Pending",
    "responsible_agency": "Department of Sanitation",
    "final_address": "4300 BLK General De Gaulle Dr",
    "address_councildis": "C",
    "status": "Assigned to Contractor",
    "contractor": "Richards Disposal",
    "rowid": "1295775",
    "final_x": "3699691.68194",
    "final_y": "518472.856543",
    "longitude": "-90.01110330175138",
    "latitude": "29.919055694748458",
    "geocoded_column": {
      "latitude": "29.919055694748458",
      "longitude": "-90.01110330175138"
    }
  },
  {
    "service_request": "2026-1295774",
    "request_type": "Trash/Recycling",
    "request_reason": "Repair Trash Cart",
    "date_created": "2026-06-30T16:52:16.000",
    "date_modified": "2026-06-30T16:52:17.000",
    "request_status": "Pending",
    "responsible_agency": "Department of Sanitation",
    "final_address": "7823 S Claiborne Ave",
    "address_councildis": "A",
    "status": "Assigned to Contractor",
    "contractor": "IV Waste",
    "rowid": "1295774",
    "final_x": "3665606.56",
    "final_y": "530974.18701",
    "longitude": "-90.11827456245199",
    "latitude": "29.95446786792718",
    "geocoded_column": {
      "latitude": "29.95446786792718",
      "longitude": "-90.11827456245199"
    }
  },
  {
    "service_request": "2026-1295773",
    "request_type": "Trash/Recycling",
    "request_reason": "Repair Trash Cart",
    "date_created": "2026-06-30T16:50:39.000",
    "date_modified": "2026-06-30T16:50:42.000",
    "request_status": "Pending",
    "responsible_agency": "Department of Sanitation",
    "final_address": "7821 S Claiborne Ave",
    "address_councildis": "A",
    "status": "Assigned to Contractor",
    "contractor": "IV Waste",
    "rowid": "1295773",
    "final_x": "3665619.30484",
    "final_y": "530960.117954",
    "longitude": "-90.11823479018626",
    "latitude": "29.954428810988503",
    "geocoded_column": {
      "latitude": "29.954428810988503",
      "longitude": "-90.11823479018626"
    }
  },
  {
    "service_request": "2026-1295772",
    "request_type": "Trash/Recycling",
    "request_reason": "Request a Large Item Pick Up",
    "date_created": "2026-06-30T16:49:32.000",
    "date_modified": "2026-06-30T16:49:35.000",
    "request_status": "Pending",
    "responsible_agency": "Department of Sanitation",
    "final_address": "7042 Salem Dr",
    "address_councildis": "E",
    "status": "Assigned to Contractor",
    "contractor": "Waste Pro",
    "rowid": "1295772",
    "final_x": "3706594.14545",
    "final_y": "560854.39587",
    "longitude": "-89.98774498434871",
    "latitude": "30.035368443282756",
    "geocoded_column": {
      "latitude": "30.035368443282756",
      "longitude": "-89.98774498434871"
    }
  },
  {
    "service_request": "2026-1295771",
    "request_type": "Trash/Recycling",
    "request_reason": "Return Trash Cart",
    "date_created": "2026-06-30T16:49:20.000",
    "date_modified": "2026-06-30T16:49:22.000",
    "request_status": "Pending",
    "responsible_agency": "Department of Sanitation",
    "final_address": "2611 Chelsea Dr",
    "address_councildis": "C",
    "status": "Assigned to Contractor",
    "contractor": "Richards Disposal",
    "rowid": "1295771",
    "final_x": "3704169.61482",
    "final_y": "521513.776121",
    "longitude": "-89.99685691815226",
    "latitude": "29.927274327557303",
    "geocoded_column": {
      "latitude": "29.927274327557303",
      "longitude": "-89.99685691815226"
    }
  },
  {
    "service_request": "2026-1295770",
    "request_type": "Trash/Recycling",
    "request_reason": "Repair Trash Cart",
    "date_created": "2026-06-30T16:47:16.000",
    "date_modified": "2026-06-30T16:47:19.000",
    "request_status": "Pending",
    "responsible_agency": "Department of Sanitation",
    "final_address": "2036 Elizardi Blvd",
    "address_councildis": "C",
    "status": "Assigned to Contractor",
    "contractor": "Richards Disposal",
    "rowid": "1295770",
    "final_x": "3694711.14333",
    "final_y": "522952.060667",
    "longitude": "-90.02666300330873",
    "latitude": "29.931529077619082",
    "geocoded_column": {
      "latitude": "29.931529077619082",
      "longitude": "-90.02666300330873"
    }
  },
  {
    "service_request": "2026-1295769",
    "request_type": "Roads and Streets",
    "request_reason": "Push-up/Pavement Expansion",
    "date_created": "2026-06-30T16:46:49.000",
    "date_modified": "2026-06-30T16:46:51.000",
    "request_status": "Pending",
    "responsible_agency": "Department of Public Works",
    "final_address": "6055 General Diaz St",
    "address_councildis": "A",
    "status": "Pending",
    "rowid": "1295769",
    "final_x": "3669635.9778",
    "final_y": "547605.272082",
    "longitude": "-90.10498825014105",
    "latitude": "30.000079628709173",
    "geocoded_column": {
      "latitude": "30.000079628709173",
      "longitude": "-90.10498825014105"
    }
  },
  {
    "service_request": "2026-1295768",
    "request_type": "Homeless Related Request",
    "request_reason": "Homeless Encampment Complaint",
    "date_created": "2026-06-30T16:46:21.000",
    "date_modified": "2026-06-30T16:46:23.000",
    "request_status": "Pending",
    "responsible_agency": "Office Of Homeless Services And Strategy",
    "final_address": "ROBERT E LEE BLVD & FRANKLIN AVE",
    "address_councildis": "D",
    "status": "Pending",
    "rowid": "1295768",
    "final_x": "3686388.9",
    "final_y": "555942.38",
    "longitude": "-90.05177045719968",
    "latitude": "30.022499173615664",
    "geocoded_column": {
      "latitude": "30.022499173615664",
      "longitude": "-90.05177045719968"
    }
  },
  {
    "service_request": "2026-1295767",
    "request_type": "Trash/Recycling",
    "request_reason": "Request a Large Item Pick Up",
    "date_created": "2026-06-30T16:42:40.000",
    "date_modified": "2026-06-30T16:42:41.000",
    "request_status": "Pending",
    "responsible_agency": "Department of Sanitation",
    "final_address": "13221 Lemans St",
    "address_councildis": "E",
    "status": "Assigned to Contractor",
    "contractor": "Waste Pro",
    "rowid": "1295767",
    "final_x": "3724638.03136",
    "final_y": "562923.684384",
    "longitude": "-89.93064402878481",
    "latitude": "30.040463163294447",
    "geocoded_column": {
      "latitude": "30.040463163294447",
      "longitude": "-89.93064402878481"
    }
  },
  {
    "service_request": "2026-1295766",
    "request_type": "Trash/Recycling",
    "request_reason": "Request a Large Item Pick Up",
    "date_created": "2026-06-30T16:40:54.000",
    "date_modified": "2026-06-30T16:40:56.000",
    "request_status": "Pending",
    "responsible_agency": "Department of Sanitation",
    "final_address": "1016 Bordeaux St",
    "address_councildis": "B",
    "status": "Assigned to Contractor",
    "contractor": "IV Waste",
    "rowid": "1295766",
    "final_x": "3669483.77806",
    "final_y": "519153.703415",
    "longitude": "-90.10643144372524",
    "latitude": "29.921851731996213",
    "geocoded_column": {
      "latitude": "29.921851731996213",
      "longitude": "-90.10643144372524"
    }
  },
  {
    "service_request": "2026-1295765",
    "request_type": "Trash/Recycling",
    "request_reason": "Request a Large Item Pick Up",
    "date_created": "2026-06-30T16:38:27.000",
    "date_modified": "2026-06-30T16:38:30.000",
    "request_status": "Pending",
    "responsible_agency": "Department of Sanitation",
    "final_address": "4690 Gawain Dr",
    "address_councildis": "E",
    "status": "Assigned to Contractor",
    "contractor": "Waste Pro",
    "rowid": "1295765",
    "final_x": "3706933.23339",
    "final_y": "555080.037337",
    "longitude": "-89.98688784439226",
    "latitude": "30.01948026072019",
    "geocoded_column": {
      "latitude": "30.01948026072019",
      "longitude": "-89.98688784439226"
    }
  },
  {
    "service_request": "2026-1295764",
    "request_type": "Abandoned Vehicles",
    "request_reason": "Abandoned/Junk Vehicles",
    "date_created": "2026-06-30T16:38:25.000",
    "date_modified": "2026-06-30T16:38:27.000",
    "request_status": "Pending",
    "responsible_agency": "Department of Public Works",
    "final_address": "4300 BLK General Meyer Ave",
    "address_councildis": "C",
    "status": "Pending",
    "rowid": "1295764",
    "final_x": "3700023.58712",
    "final_y": "524241.5891",
    "longitude": "-90.00984533463767",
    "latitude": "29.93490718744231",
    "geocoded_column": {
      "latitude": "29.93490718744231",
      "longitude": "-90.00984533463767"
    }
  },
  {
    "service_request": "2026-1295763",
    "request_type": "Trash/Recycling",
    "request_reason": "Repair Recycling Cart",
    "date_created": "2026-06-30T16:36:45.000",
    "date_modified": "2026-06-30T16:36:46.000",
    "request_status": "Pending",
    "responsible_agency": "Department of Sanitation",
    "final_address": "869 Taft Pl",
    "address_councildis": "A",
    "status": "Pending",
    "rowid": "1295763",
    "final_x": "3673790.02708",
    "final_y": "539985.586571",
    "longitude": "-90.09212611782726",
    "latitude": "29.979005031456463",
    "geocoded_column": {
      "latitude": "29.979005031456463",
      "longitude": "-90.09212611782726"
    }
  },
  {
    "service_request": "2026-1295762",
    "request_type": "Property Maintenance",
    "request_reason": "Property Maintenance",
    "date_created": "2026-06-30T16:36:43.000",
    "date_modified": "2026-06-30T16:36:45.000",
    "request_status": "Pending",
    "responsible_agency": "Department of Code Enforcement",
    "final_address": "6051 Chatham Dr",
    "address_councildis": "D",
    "status": "Pending",
    "rowid": "1295762",
    "final_x": "3679644.15087",
    "final_y": "554852.007512",
    "longitude": "-90.07312014465323",
    "latitude": "30.01970674487939",
    "geocoded_column": {
      "latitude": "30.01970674487939",
      "longitude": "-90.07312014465323"
    }
  },
  {
    "service_request": "2026-1295761",
    "request_type": "Trash/Recycling",
    "request_reason": "Request a Large Item Pick Up",
    "date_created": "2026-06-30T16:36:41.000",
    "date_modified": "2026-06-30T16:36:44.000",
    "request_status": "Pending",
    "responsible_agency": "Department of Sanitation",
    "final_address": "6961 Salem Dr",
    "address_councildis": "E",
    "status": "Assigned to Contractor",
    "contractor": "Waste Pro",
    "rowid": "1295761",
    "final_x": "3706817.20503",
    "final_y": "560597.71747",
    "longitude": "-89.98704961483027",
    "latitude": "30.034655474476637",
    "geocoded_column": {
      "latitude": "30.034655474476637",
      "longitude": "-89.98704961483027"
    }
  },
  {
    "service_request": "2026-1295760",
    "request_type": "Trash/Recycling",
    "request_reason": "Request a Large Item Pick Up",
    "date_created": "2026-06-30T16:35:00.000",
    "date_modified": "2026-06-30T16:35:01.000",
    "request_status": "Pending",
    "responsible_agency": "Department of Sanitation",
    "final_address": "7072 E Tamaron Blvd",
    "address_councildis": "E",
    "status": "Assigned to Contractor",
    "contractor": "Waste Pro",
    "rowid": "1295760",
    "final_x": "3718729.58245",
    "final_y": "568605.228069",
    "longitude": "-89.94909953457669",
    "latitude": "30.056282625632136",
    "geocoded_column": {
      "latitude": "30.056282625632136",
      "longitude": "-89.94909953457669"
    }
  },
  {
    "service_request": "2026-1295759",
    "request_type": "Abandoned Vehicles",
    "request_reason": "Abandoned/Junk Vehicles",
    "date_created": "2026-06-30T16:33:19.000",
    "date_modified": "2026-06-30T16:33:21.000",
    "request_status": "Pending",
    "responsible_agency": "Department of Public Works",
    "final_address": "4300 BLK General Meyer Ave",
    "address_councildis": "C",
    "status": "Pending",
    "rowid": "1295759",
    "final_x": "3700023.58712",
    "final_y": "524241.5891",
    "longitude": "-90.00984533463767",
    "latitude": "29.93490718744231",
    "geocoded_column": {
      "latitude": "29.93490718744231",
      "longitude": "-90.00984533463767"
    }
  },
  {
    "service_request": "2026-1295758",
    "request_type": "Trash/Recycling",
    "request_reason": "Request a Large Item Pick Up",
    "date_created": "2026-06-30T16:31:49.000",
    "date_modified": "2026-06-30T16:31:51.000",
    "request_status": "Pending",
    "responsible_agency": "Department of Sanitation",
    "final_address": "11301 N Parkwood Ct",
    "address_councildis": "E",
    "status": "Assigned to Contractor",
    "contractor": "Waste Pro",
    "rowid": "1295758",
    "final_x": "3716721.29413",
    "final_y": "559448.085149",
    "longitude": "-89.95579528942235",
    "latitude": "30.031170765557768",
    "geocoded_column": {
      "latitude": "30.031170765557768",
      "longitude": "-89.95579528942235"
    }
  },
  {
    "service_request": "2026-1295757",
    "request_type": "Trash/Recycling",
    "request_reason": "Order Trash Cart",
    "date_created": "2026-06-30T16:27:18.000",
    "date_modified": "2026-06-30T17:09:26.000",
    "request_status": "Pending",
    "responsible_agency": "Department of Sanitation",
    "final_address": "722 Bartholomew St",
    "address_councildis": "C",
    "status": "Assigned to Contractor",
    "contractor": "IV Waste",
    "rowid": "1295757",
    "final_x": "3691443.96048",
    "final_y": "533995.439813",
    "longitude": "-90.03658253311343",
    "latitude": "29.961996610490626",
    "geocoded_column": {
      "latitude": "29.961996610490626",
      "longitude": "-90.03658253311343"
    }
  },
  {
    "service_request": "2026-1295756",
    "request_type": "Trash/Recycling",
    "request_reason": "Request a Large Item Pick Up",
    "date_created": "2026-06-30T16:26:05.000",
    "date_modified": "2026-06-30T16:26:07.000",
    "request_status": "Pending",
    "responsible_agency": "Department of Sanitation",
    "final_address": "5727 Marais St",
    "address_councildis": "E",
    "status": "Assigned to Contractor",
    "contractor": "Waste Pro",
    "rowid": "1295756",
    "final_x": "3698679.55408",
    "final_y": "534014.299653",
    "longitude": "-90.01373309752984",
    "latitude": "29.961821327997747",
    "geocoded_column": {
      "latitude": "29.961821327997747",
      "longitude": "-90.01373309752984"
    }
  },
  {
    "service_request": "2026-1295755",
    "request_type": "Trash/Recycling",
    "request_reason": "Order Second Trash Cart",
    "date_created": "2026-06-30T16:25:46.000",
    "date_modified": "2026-06-30T16:25:48.000",
    "request_status": "Pending",
    "responsible_agency": "Department of Sanitation",
    "final_address": "7505 Shorewood Blvd",
    "address_councildis": "E",
    "status": "Assigned to Contractor",
    "contractor": "Waste Pro",
    "rowid": "1295755",
    "final_x": "3720468.50489",
    "final_y": "572455.901929",
    "longitude": "-89.94345553020491",
    "latitude": "30.066812490517687",
    "geocoded_column": {
      "latitude": "30.066812490517687",
      "longitude": "-89.94345553020491"
    }
  },
  {
    "service_request": "2026-1295754",
    "request_type": "Trash/Recycling",
    "request_reason": "Order Trash Cart",
    "date_created": "2026-06-30T16:25:02.000",
    "date_modified": "2026-06-30T16:25:05.000",
    "request_status": "Pending",
    "responsible_agency": "Department of Sanitation",
    "final_address": "7505 Shorewood Blvd",
    "address_councildis": "E",
    "status": "Assigned to Contractor",
    "contractor": "Waste Pro",
    "rowid": "1295754",
    "final_x": "3720468.50489",
    "final_y": "572455.901929",
    "longitude": "-89.94345553020491",
    "latitude": "30.066812490517687",
    "geocoded_column": {
      "latitude": "30.066812490517687",
      "longitude": "-89.94345553020491"
    }
  },
  {
    "service_request": "2026-1295753",
    "request_type": "Trash/Recycling",
    "request_reason": "Return Recycling Cart",
    "date_created": "2026-06-30T16:24:01.000",
    "date_modified": "2026-06-30T16:24:02.000",
    "request_status": "Pending",
    "responsible_agency": "Department of Sanitation",
    "final_address": "6317 Mckenna St",
    "address_councildis": "A",
    "status": "Pending",
    "rowid": "1295753",
    "final_x": "3667581.36084",
    "final_y": "529534.490945",
    "longitude": "-90.1120873467376",
    "latitude": "29.95045144537158",
    "geocoded_column": {
      "latitude": "29.95045144537158",
      "longitude": "-90.1120873467376"
    }
  },
  {
    "service_request": "2026-1295752",
    "request_type": "Streetlights",
    "request_reason": "Streetlight Outage/Malfunction",
    "date_created": "2026-06-30T16:23:07.000",
    "date_modified": "2026-06-30T16:23:09.000",
    "request_status": "Pending",
    "responsible_agency": "Department of Public Works",
    "final_address": "8435 Beechwood Ct",
    "address_councildis": "E",
    "status": "Pending",
    "rowid": "1295752",
    "final_x": "3704283.58398",
    "final_y": "560734.398622",
    "longitude": "-89.9950511212978",
    "latitude": "30.035112902296873",
    "geocoded_column": {
      "latitude": "30.035112902296873",
      "longitude": "-89.9950511212978"
    }
  },
  {
    "service_request": "2026-1295751",
    "request_type": "Trash/Recycling",
    "request_reason": "Damaged Caused By Contractor",
    "date_created": "2026-06-30T16:21:43.000",
    "date_modified": "2026-06-30T16:21:45.000",
    "request_status": "Pending",
    "responsible_agency": "Department of Sanitation",
    "final_address": "1841 General Collins Ave",
    "address_councildis": "C",
    "status": "Assigned to Contractor",
    "contractor": "Richards Disposal",
    "rowid": "1295751",
    "final_x": "3698449.57751",
    "final_y": "523983.328316",
    "longitude": "-90.01482381728377",
    "latitude": "29.93424695571347",
    "geocoded_column": {
      "latitude": "29.93424695571347",
      "longitude": "-90.01482381728377"
    }
  },
  {
    "service_request": "2026-1295750",
    "request_type": "Trash/Recycling",
    "request_reason": "Request a Large Item Pick Up",
    "date_created": "2026-06-30T16:21:39.000",
    "date_modified": "2026-06-30T16:21:42.000",
    "request_status": "Pending",
    "responsible_agency": "Department of Sanitation",
    "final_address": "4975 Redwood St",
    "address_councildis": "E",
    "status": "Assigned to Contractor",
    "contractor": "Waste Pro",
    "rowid": "1295750",
    "final_x": "3712414.6492",
    "final_y": "557643.141659",
    "longitude": "-89.96947218977422",
    "latitude": "30.026349544272808",
    "geocoded_column": {
      "latitude": "30.026349544272808",
      "longitude": "-89.96947218977422"
    }
  },
  {
    "service_request": "2026-1295749",
    "request_type": "Trash/Recycling",
    "request_reason": "Return Trash Cart",
    "date_created": "2026-06-30T16:20:46.000",
    "date_modified": "2026-06-30T16:20:49.000",
    "request_status": "Pending",
    "responsible_agency": "Department of Sanitation",
    "final_address": "1841 General Collins Ave",
    "address_councildis": "C",
    "status": "Assigned to Contractor",
    "contractor": "Richards Disposal",
    "rowid": "1295749",
    "final_x": "3698449.57751",
    "final_y": "523983.328316",
    "longitude": "-90.01482381728377",
    "latitude": "29.93424695571347",
    "geocoded_column": {
      "latitude": "29.93424695571347",
      "longitude": "-90.01482381728377"
    }
  },
  {
    "service_request": "2026-1295748",
    "request_type": "Trash/Recycling",
    "request_reason": "Request a Large Item Pick Up",
    "date_created": "2026-06-30T16:19:23.000",
    "date_modified": "2026-06-30T17:46:42.000",
    "request_status": "Pending",
    "responsible_agency": "Department of Sanitation",
    "final_address": "7424 Hurst St",
    "address_councildis": "A",
    "status": "Assigned to Contractor",
    "contractor": "IV Waste",
    "rowid": "1295748",
    "final_x": "3661501.9863",
    "final_y": "523997.446076",
    "longitude": "-90.131466332936",
    "latitude": "29.93540309621076",
    "geocoded_column": {
      "latitude": "29.93540309621076",
      "longitude": "-90.131466332936"
    }
  },
  {
    "service_request": "2026-1295747",
    "request_type": "Roads and Streets",
    "request_reason": "Pothole",
    "date_created": "2026-06-30T16:18:43.000",
    "date_modified": "2026-06-30T16:18:45.000",
    "request_status": "Pending",
    "responsible_agency": "Department of Public Works",
    "final_address": "PACE BLVD & PTOLEMY ST",
    "address_councildis": "C",
    "status": "Pending",
    "rowid": "1295747",
    "final_x": "3694377.8",
    "final_y": "525762.08",
    "longitude": "-90.02761423749944",
    "latitude": "29.93926611649796",
    "geocoded_column": {
      "latitude": "29.93926611649796",
      "longitude": "-90.02761423749944"
    }
  },
  {
    "service_request": "2026-1295746",
    "request_type": "Abandoned Vehicles",
    "request_reason": "Abandoned/Junk Vehicles",
    "date_created": "2026-06-30T16:15:32.000",
    "date_modified": "2026-06-30T16:15:34.000",
    "request_status": "Pending",
    "responsible_agency": "Department of Public Works",
    "final_address": "2129 Soniat St",
    "address_councildis": "B",
    "status": "Pending",
    "rowid": "1295746",
    "final_x": "3668531.77434",
    "final_y": "523468.638139",
    "longitude": "-90.1092910250343",
    "latitude": "29.933744424361098",
    "geocoded_column": {
      "latitude": "29.933744424361098",
      "longitude": "-90.1092910250343"
    }
  },
  {
    "service_request": "2026-1295745",
    "request_type": "Trash/Recycling",
    "request_reason": "Replace Recycling Cart",
    "date_created": "2026-06-30T16:14:27.000",
    "date_modified": "2026-06-30T16:14:28.000",
    "request_status": "Pending",
    "responsible_agency": "Department of Sanitation",
    "final_address": "6634 Avenue A",
    "address_councildis": "A",
    "status": "Pending",
    "rowid": "1295745",
    "final_x": "3665986.62106",
    "final_y": "552292.96175",
    "longitude": "-90.11635952036103",
    "latitude": "30.01307621330631",
    "geocoded_column": {
      "latitude": "30.01307621330631",
      "longitude": "-90.11635952036103"
    }
  },
  {
    "service_request": "2026-1295744",
    "request_type": "Tree Service",
    "request_reason": "Tree Trim",
    "date_created": "2026-06-30T16:13:06.000",
    "date_modified": "2026-06-30T16:13:08.000",
    "request_status": "Pending",
    "responsible_agency": "Department of Parks & Parkways",
    "final_address": "5400 BLK Constance St",
    "address_councildis": "A",
    "status": "Pending",
    "rowid": "1295744",
    "final_x": "3666519.04094",
    "final_y": "518442.756865",
    "longitude": "-90.11581374177071",
    "latitude": "29.91998380719635",
    "geocoded_column": {
      "latitude": "29.91998380719635",
      "longitude": "-90.11581374177071"
    }
  },
  {
    "service_request": "2026-1295743",
    "request_type": "Trash/Recycling",
    "request_reason": "Repair Trash Cart",
    "date_created": "2026-06-30T16:11:42.000",
    "date_modified": "2026-06-30T16:11:43.000",
    "request_status": "Pending",
    "responsible_agency": "Department of Sanitation",
    "final_address": "11414 S St Andrews Cir",
    "address_councildis": "E",
    "status": "Assigned to Contractor",
    "contractor": "Waste Pro",
    "rowid": "1295743",
    "final_x": "3719621.64428",
    "final_y": "559403.849245",
    "longitude": "-89.9466318876631",
    "latitude": "30.03095294136438",
    "geocoded_column": {
      "latitude": "30.03095294136438",
      "longitude": "-89.9466318876631"
    }
  },
  {
    "service_request": "2026-1295742",
    "request_type": "Healthy Homes",
    "request_reason": "Healthy Homes",
    "date_created": "2026-06-30T16:09:50.000",
    "date_modified": "2026-06-30T16:09:51.000",
    "request_status": "Pending",
    "responsible_agency": "Department of Code Enforcement",
    "final_address": "5347 Royal St",
    "address_councildis": "E",
    "status": "Pending",
    "rowid": "1295742",
    "final_x": "3696718.73533",
    "final_y": "532543.065092",
    "longitude": "-90.01997826721907",
    "latitude": "29.957837899465613",
    "geocoded_column": {
      "latitude": "29.957837899465613",
      "longitude": "-90.01997826721907"
    }
  },
  {
    "service_request": "2026-1295741",
    "request_type": "Trash/Recycling",
    "request_reason": "Order Recycling Cart",
    "date_created": "2026-06-30T16:08:32.000",
    "date_modified": "2026-06-30T16:08:34.000",
    "request_status": "Pending",
    "responsible_agency": "Department of Sanitation",
    "final_address": "2322 Chippewa St",
    "address_councildis": "B",
    "status": "Pending",
    "rowid": "1295741",
    "final_x": "3679295.86543",
    "final_y": "520542.155576",
    "longitude": "-90.07541073287163",
    "latitude": "29.92537698975132",
    "geocoded_column": {
      "latitude": "29.92537698975132",
      "longitude": "-90.07541073287163"
    }
  },
  {
    "service_request": "2026-1295740",
    "request_type": "Trash/Recycling",
    "request_reason": "Request a Large Item Pick Up",
    "date_created": "2026-06-30T16:07:03.000",
    "date_modified": "2026-06-30T16:07:05.000",
    "request_status": "Pending",
    "responsible_agency": "Department of Sanitation",
    "final_address": "7824 Ebbtide Dr",
    "address_councildis": "E",
    "status": "Assigned to Contractor",
    "contractor": "Waste Pro",
    "rowid": "1295740",
    "final_x": "3701902.90353",
    "final_y": "562040.403615",
    "longitude": "-90.00252646777207",
    "latitude": "30.038780144527177",
    "geocoded_column": {
      "latitude": "30.038780144527177",
      "longitude": "-90.00252646777207"
    }
  },
  {
    "service_request": "2026-1295739",
    "request_type": "Abandoned Vehicles",
    "request_reason": "Abandoned/Junk Vehicles",
    "date_created": "2026-06-30T16:05:08.000",
    "date_modified": "2026-06-30T16:05:11.000",
    "request_status": "Pending",
    "responsible_agency": "Department of Public Works",
    "final_address": "2727 Marais St",
    "address_councildis": "C",
    "status": "Pending",
    "rowid": "1295739",
    "final_x": "3687739.10671",
    "final_y": "536717.494919",
    "longitude": "-90.04818544996911",
    "latitude": "29.969596081159636",
    "geocoded_column": {
      "latitude": "29.969596081159636",
      "longitude": "-90.04818544996911"
    }
  },
  {
    "service_request": "2026-1295738",
    "request_type": "Tree Service",
    "request_reason": "Dead or Dying Tree",
    "date_created": "2026-06-30T16:03:23.000",
    "date_modified": "2026-06-30T16:03:26.000",
    "request_status": "Pending",
    "responsible_agency": "Department of Parks & Parkways",
    "final_address": "1661 Octavia St",
    "address_councildis": "A",
    "status": "Pending",
    "rowid": "1295738",
    "final_x": "3667234.7225",
    "final_y": "522219.920954",
    "longitude": "-90.1134277393968",
    "latitude": "29.930348884994224",
    "geocoded_column": {
      "latitude": "29.930348884994224",
      "longitude": "-90.1134277393968"
    }
  },
  {
    "service_request": "2026-1295737",
    "request_type": "Trash/Recycling",
    "request_reason": "Replace Trash Cart",
    "date_created": "2026-06-30T16:02:45.000",
    "date_modified": "2026-06-30T16:02:48.000",
    "request_status": "Pending",
    "responsible_agency": "Department of Sanitation",
    "final_address": "6634 Avenue A",
    "address_councildis": "A",
    "status": "Assigned to Contractor",
    "contractor": "IV Waste",
    "rowid": "1295737",
    "final_x": "3665986.62106",
    "final_y": "552292.96175",
    "longitude": "-90.11635952036103",
    "latitude": "30.01307621330631",
    "geocoded_column": {
      "latitude": "30.01307621330631",
      "longitude": "-90.11635952036103"
    }
  },
  {
    "service_request": "2026-1295736",
    "request_type": "Trash/Recycling",
    "request_reason": "Request a Large Item Pick Up",
    "date_created": "2026-06-30T16:01:59.000",
    "date_modified": "2026-06-30T16:02:00.000",
    "request_status": "Pending",
    "responsible_agency": "Department of Sanitation",
    "final_address": "4790 Gawain Dr",
    "address_councildis": "E",
    "status": "Assigned to Contractor",
    "contractor": "Waste Pro",
    "rowid": "1295736",
    "final_x": "3706863.54526",
    "final_y": "555807.299289",
    "longitude": "-89.98708103558798",
    "latitude": "30.021482200585634",
    "geocoded_column": {
      "latitude": "30.021482200585634",
      "longitude": "-89.98708103558798"
    }
  },
  {
    "service_request": "2026-1295735",
    "request_type": "Trash/Recycling",
    "request_reason": "Order Recycling Cart",
    "date_created": "2026-06-30T16:01:25.000",
    "date_modified": "2026-06-30T16:01:28.000",
    "request_status": "Pending",
    "responsible_agency": "Department of Sanitation",
    "final_address": "9010 Palm St",
    "address_councildis": "A",
    "status": "Pending",
    "rowid": "1295735",
    "final_x": "3665266.19322",
    "final_y": "536878.657224",
    "longitude": "-90.11915175148452",
    "latitude": "29.97071314118995",
    "geocoded_column": {
      "latitude": "29.97071314118995",
      "longitude": "-90.11915175148452"
    }
  },
  {
    "service_request": "2026-1295734",
    "request_type": "Trash/Recycling",
    "request_reason": "Repair Trash Cart",
    "date_created": "2026-06-30T16:01:21.000",
    "date_modified": "2026-06-30T16:01:24.000",
    "request_status": "Pending",
    "responsible_agency": "Department of Sanitation",
    "final_address": "4745 Raymond Joseph Dr",
    "address_councildis": "E",
    "status": "Assigned to Contractor",
    "contractor": "Waste Pro",
    "rowid": "1295734",
    "final_x": "3703730.3978",
    "final_y": "555471.330457",
    "longitude": "-89.99699323780784",
    "latitude": "30.020659261405886",
    "geocoded_column": {
      "latitude": "30.020659261405886",
      "longitude": "-89.99699323780784"
    }
  },
  {
    "service_request": "2026-1295733",
    "request_type": "Trash/Recycling",
    "request_reason": "Request a Large Item Pick Up",
    "date_created": "2026-06-30T15:59:16.000",
    "date_modified": "2026-06-30T15:59:17.000",
    "request_status": "Pending",
    "responsible_agency": "Department of Sanitation",
    "final_address": "6623 Foch Rd",
    "address_councildis": "D",
    "status": "Assigned to Contractor",
    "contractor": "Waste Pro",
    "rowid": "1295733",
    "final_x": "3696980.26282",
    "final_y": "555705.460121",
    "longitude": "-90.01831305289907",
    "latitude": "30.021517762753394",
    "geocoded_column": {
      "latitude": "30.021517762753394",
      "longitude": "-90.01831305289907"
    }
  },
  {
    "service_request": "2026-1295732",
    "request_type": "Trash/Recycling",
    "request_reason": "Request a Large Item Pick Up",
    "date_created": "2026-06-30T15:56:59.000",
    "date_modified": "2026-06-30T15:57:01.000",
    "request_status": "Pending",
    "responsible_agency": "Department of Sanitation",
    "final_address": "7016 Queensway Dr",
    "address_councildis": "E",
    "status": "Assigned to Contractor",
    "contractor": "Waste Pro",
    "rowid": "1295732",
    "final_x": "3719232.28153",
    "final_y": "569316.449894",
    "longitude": "-89.94748341819445",
    "latitude": "30.05822148251955",
    "geocoded_column": {
      "latitude": "30.05822148251955",
      "longitude": "-89.94748341819445"
    }
  },
  {
    "service_request": "2026-1295731",
    "request_type": "Trash/Recycling",
    "request_reason": "Request a Large Item Pick Up",
    "date_created": "2026-06-30T15:55:21.000",
    "date_modified": "2026-06-30T15:55:23.000",
    "request_status": "Pending",
    "responsible_agency": "Department of Sanitation",
    "final_address": "5443 West End Blvd",
    "address_councildis": "A",
    "status": "Assigned to Contractor",
    "contractor": "IV Waste",
    "rowid": "1295731",
    "final_x": "3666310.34708",
    "final_y": "543739.643662",
    "longitude": "-90.11562390517419",
    "latitude": "29.989548082100164",
    "geocoded_column": {
      "latitude": "29.989548082100164",
      "longitude": "-90.11562390517419"
    }
  },
  {
    "service_request": "2026-1295730",
    "request_type": "Trash/Recycling",
    "request_reason": "Request a Large Item Pick Up",
    "date_created": "2026-06-30T15:55:17.000",
    "date_modified": "2026-06-30T15:55:19.000",
    "request_status": "Pending",
    "responsible_agency": "Department of Sanitation",
    "final_address": "7100 W Laverne St",
    "address_councildis": "D",
    "status": "Assigned to Contractor",
    "contractor": "Waste Pro",
    "rowid": "1295730",
    "final_x": "3695847.95318",
    "final_y": "556666.910618",
    "longitude": "-90.02185605690346",
    "latitude": "30.02419706979826",
    "geocoded_column": {
      "latitude": "30.02419706979826",
      "longitude": "-90.02185605690346"
    }
  },
  {
    "service_request": "2026-1295729",
    "request_type": "Trash/Recycling",
    "request_reason": "Order Recycling Cart",
    "date_created": "2026-06-30T15:54:30.000",
    "date_modified": "2026-06-30T15:54:34.000",
    "request_status": "Pending",
    "responsible_agency": "Department of Sanitation",
    "final_address": "5520 Loyola Ave",
    "address_councildis": "A",
    "status": "Pending",
    "rowid": "1295729",
    "final_x": "3667187.98151",
    "final_y": "523025.699259",
    "longitude": "-90.11354821521977",
    "latitude": "29.932565887026126",
    "geocoded_column": {
      "latitude": "29.932565887026126",
      "longitude": "-90.11354821521977"
    }
  },
  {
    "service_request": "2026-1295728",
    "request_type": "Trash/Recycling",
    "request_reason": "Order Recycling Cart",
    "date_created": "2026-06-30T15:52:51.000",
    "date_modified": "2026-06-30T15:52:53.000",
    "request_status": "Pending",
    "responsible_agency": "Department of Sanitation",
    "final_address": "5520 Loyola Ave",
    "address_councildis": "A",
    "status": "Pending",
    "rowid": "1295728",
    "final_x": "3667187.98151",
    "final_y": "523025.699259",
    "longitude": "-90.11354821521977",
    "latitude": "29.932565887026126",
    "geocoded_column": {
      "latitude": "29.932565887026126",
      "longitude": "-90.11354821521977"
    }
  },
  {
    "service_request": "2026-1295727",
    "request_type": "Trash/Recycling",
    "request_reason": "Request a Large Item Pick Up",
    "date_created": "2026-06-30T15:52:39.000",
    "date_modified": "2026-06-30T15:52:40.000",
    "request_status": "Pending",
    "responsible_agency": "Department of Sanitation",
    "final_address": "4209 Prytania St",
    "address_councildis": "B",
    "status": "Assigned to Contractor",
    "contractor": "IV Waste",
    "rowid": "1295727",
    "final_x": "3671542.19854",
    "final_y": "520454.048504",
    "longitude": "-90.09988968417052",
    "latitude": "29.925366501597154",
    "geocoded_column": {
      "latitude": "29.925366501597154",
      "longitude": "-90.09988968417052"
    }
  },
  {
    "service_request": "2026-1295726",
    "request_type": "Trash/Recycling",
    "request_reason": "Request a Large Item Pick Up",
    "date_created": "2026-06-30T15:51:32.000",
    "date_modified": "2026-06-30T17:46:15.000",
    "request_status": "Pending",
    "responsible_agency": "Department of Sanitation",
    "final_address": "1538 Lowerline St",
    "address_councildis": "A",
    "status": "Assigned to Contractor",
    "contractor": "IV Waste",
    "rowid": "1295726",
    "final_x": "3664415.22471",
    "final_y": "527980.081407",
    "longitude": "-90.12213628286203",
    "latitude": "29.946269727877535",
    "geocoded_column": {
      "latitude": "29.946269727877535",
      "longitude": "-90.12213628286203"
    }
  },
  {
    "service_request": "2026-1295725",
    "request_type": "Trash/Recycling",
    "request_reason": "Request a Large Item Pick Up",
    "date_created": "2026-06-30T15:44:36.000",
    "date_modified": "2026-06-30T17:45:35.000",
    "request_status": "Pending",
    "responsible_agency": "Department of Sanitation",
    "final_address": "7617 Oak St",
    "address_councildis": "A",
    "status": "Assigned to Contractor",
    "contractor": "IV Waste",
    "rowid": "1295725",
    "final_x": "3663217.64551",
    "final_y": "527288.093887",
    "longitude": "-90.12594049724188",
    "latitude": "29.944401737220215",
    "geocoded_column": {
      "latitude": "29.944401737220215",
      "longitude": "-90.12594049724188"
    }
  },
  {
    "service_request": "2026-1295724",
    "request_type": "Roads and Streets",
    "request_reason": "Pothole",
    "date_created": "2026-06-30T15:44:16.000",
    "date_modified": "2026-06-30T15:59:43.000",
    "request_status": "Pending",
    "responsible_agency": "Department of Public Works",
    "final_address": "DEANNE ST & BABYLON ST",
    "address_councildis": "D",
    "status": "Pending",
    "rowid": "1295724",
    "final_x": "3696609.9",
    "final_y": "554545.28",
    "longitude": "-90.01952532545444",
    "latitude": "30.018339388448638",
    "geocoded_column": {
      "latitude": "30.018339388448638",
      "longitude": "-90.01952532545444"
    }
  },
  {
    "service_request": "2026-1295723",
    "request_type": "Trash/Recycling",
    "request_reason": "Damaged Caused By Contractor",
    "date_created": "2026-06-30T15:43:01.000",
    "date_modified": "2026-06-30T15:43:02.000",
    "request_status": "Pending",
    "responsible_agency": "Department of Sanitation",
    "final_address": "3024 Dumaine St",
    "address_councildis": "A",
    "status": "Assigned to Contractor",
    "contractor": "IV Waste",
    "rowid": "1295723",
    "final_x": "3675929.63854",
    "final_y": "538356.117001",
    "longitude": "-90.08542444592237",
    "latitude": "29.974460646751794",
    "geocoded_column": {
      "latitude": "29.974460646751794",
      "longitude": "-90.08542444592237"
    }
  },
  {
    "service_request": "2026-1295722",
    "request_type": "Trash/Recycling",
    "request_reason": "Replace Recycling Cart",
    "date_created": "2026-06-30T15:41:44.000",
    "date_modified": "2026-06-30T15:41:46.000",
    "request_status": "Pending",
    "responsible_agency": "Department of Sanitation",
    "final_address": "1669 Southlawn Blvd",
    "address_councildis": "C",
    "status": "Pending",
    "rowid": "1295722",
    "final_x": "3695096.3583",
    "final_y": "524915.275644",
    "longitude": "-90.02537618632081",
    "latitude": "29.936915161586374",
    "geocoded_column": {
      "latitude": "29.936915161586374",
      "longitude": "-90.02537618632081"
    }
  },
  {
    "service_request": "2026-1295721",
    "request_type": "Trash/Recycling",
    "request_reason": "Request a Large Item Pick Up",
    "date_created": "2026-06-30T15:40:43.000",
    "date_modified": "2026-06-30T15:40:44.000",
    "request_status": "Pending",
    "responsible_agency": "Department of Sanitation",
    "final_address": "6611 Dwyer Rd",
    "address_councildis": "E",
    "status": "Assigned to Contractor",
    "contractor": "Waste Pro",
    "rowid": "1295721",
    "final_x": "3699120.39101",
    "final_y": "555568.978713",
    "longitude": "-90.01155584139642",
    "latitude": "30.021074783277033",
    "geocoded_column": {
      "latitude": "30.021074783277033",
      "longitude": "-90.01155584139642"
    }
  },
  {
    "service_request": "2026-1295720",
    "request_type": "Trash/Recycling",
    "request_reason": "Order Trash Cart",
    "date_created": "2026-06-30T15:40:27.000",
    "date_modified": "2026-06-30T16:01:06.000",
    "request_status": "Pending",
    "responsible_agency": "Department of Sanitation",
    "final_address": "9010 Palm St",
    "address_councildis": "A",
    "status": "Assigned to Contractor",
    "contractor": "IV Waste",
    "rowid": "1295720",
    "final_x": "3665266.19322",
    "final_y": "536878.657224",
    "longitude": "-90.11915175148452",
    "latitude": "29.97071314118995",
    "geocoded_column": {
      "latitude": "29.97071314118995",
      "longitude": "-90.11915175148452"
    }
  },
  {
    "service_request": "2026-1295719",
    "request_type": "Trash/Recycling",
    "request_reason": "Request a Large Item Pick Up",
    "date_created": "2026-06-30T15:39:40.000",
    "date_modified": "2026-06-30T15:39:42.000",
    "request_status": "Pending",
    "responsible_agency": "Department of Sanitation",
    "final_address": "6579 Dwyer Rd",
    "address_councildis": "E",
    "status": "Assigned to Contractor",
    "contractor": "Waste Pro",
    "rowid": "1295719",
    "final_x": "3699007.24452",
    "final_y": "555566.946201",
    "longitude": "-90.011913424066",
    "latitude": "30.021072782960957",
    "geocoded_column": {
      "latitude": "30.021072782960957",
      "longitude": "-90.011913424066"
    }
  },
  {
    "service_request": "2026-1295718",
    "request_type": "Trash/Recycling",
    "request_reason": "Damaged Caused By Contractor",
    "date_created": "2026-06-30T15:37:21.000",
    "date_modified": "2026-06-30T15:37:22.000",
    "request_status": "Pending",
    "responsible_agency": "Department of Sanitation",
    "final_address": "3026 Dumaine St",
    "address_councildis": "A",
    "status": "Assigned to Contractor",
    "contractor": "IV Waste",
    "rowid": "1295718",
    "final_x": "3675929.63854",
    "final_y": "538356.117001",
    "longitude": "-90.08542444592237",
    "latitude": "29.974460646751794",
    "geocoded_column": {
      "latitude": "29.974460646751794",
      "longitude": "-90.08542444592237"
    }
  },
  {
    "service_request": "2026-1295717",
    "request_type": "Trash/Recycling",
    "request_reason": "Repair Trash Cart",
    "date_created": "2026-06-30T15:34:18.000",
    "date_modified": "2026-06-30T15:34:20.000",
    "request_status": "Pending",
    "responsible_agency": "Department of Sanitation",
    "final_address": "5125 Bayouview Ct",
    "address_councildis": "E",
    "status": "Assigned to Contractor",
    "contractor": "Waste Pro",
    "rowid": "1295717",
    "final_x": "3699201.55319",
    "final_y": "556261.623642",
    "longitude": "-90.01127414217838",
    "latitude": "30.022976717950453",
    "geocoded_column": {
      "latitude": "30.022976717950453",
      "longitude": "-90.01127414217838"
    }
  },
  {
    "service_request": "2026-1295715",
    "request_type": "Abandoned Vehicles",
    "request_reason": "Abandoned/Junk Vehicles",
    "date_created": "2026-06-30T15:29:46.000",
    "date_modified": "2026-06-30T15:29:48.000",
    "request_status": "Pending",
    "responsible_agency": "Department of Public Works",
    "final_address": "10000 Old Gentilly Rd",
    "address_councildis": "E",
    "status": "Pending",
    "rowid": "1295715",
    "final_x": "3712564.5173",
    "final_y": "552954.736471",
    "longitude": "-89.96917500333826",
    "latitude": "30.01345336471205",
    "geocoded_column": {
      "latitude": "30.01345336471205",
      "longitude": "-89.96917500333826"
    }
  },
  {
    "service_request": "2026-1295713",
    "request_type": "Trash/Recycling",
    "request_reason": "Request a Large Item Pick Up",
    "date_created": "2026-06-30T15:27:39.000",
    "date_modified": "2026-06-30T17:44:40.000",
    "request_status": "Pending",
    "responsible_agency": "Department of Sanitation",
    "final_address": "7320 Zimple St",
    "address_councildis": "A",
    "status": "Assigned to Contractor",
    "contractor": "IV Waste",
    "rowid": "1295713",
    "final_x": "3663511.40179",
    "final_y": "526461.41715",
    "longitude": "-90.12504054266441",
    "latitude": "29.942120126017578",
    "geocoded_column": {
      "latitude": "29.942120126017578",
      "longitude": "-90.12504054266441"
    }
  },
  {
    "service_request": "2026-1295714",
    "request_type": "Trash/Recycling",
    "request_reason": "Request a Large Item Pick Up",
    "date_created": "2026-06-30T15:27:39.000",
    "date_modified": "2026-06-30T17:45:18.000",
    "case_close_date": "2026-06-30T12:45:17.000",
    "request_status": "Closed",
    "responsible_agency": "Department of Sanitation",
    "final_address": "7320 Zimple St",
    "address_councildis": "A",
    "status": "Duplicate Request",
    "contractor": "IV Waste",
    "contractor_action": "Duplicate",
    "rowid": "1295714",
    "final_x": "3663511.40179",
    "final_y": "526461.41715",
    "longitude": "-90.12504054266441",
    "latitude": "29.942120126017578",
    "geocoded_column": {
      "latitude": "29.942120126017578",
      "longitude": "-90.12504054266441"
    }
  },
  {
    "service_request": "2026-1295712",
    "request_type": "Drainage",
    "request_reason": "Catch Basin Not Draining",
    "date_created": "2026-06-30T15:27:14.000",
    "date_modified": "2026-06-30T15:41:26.000",
    "request_status": "Pending",
    "responsible_agency": "Sewerage & Water Board",
    "final_address": "104 Aurora Dr",
    "address_councildis": "C",
    "status": "Pending",
    "rowid": "1295712",
    "final_x": "3706929.12459",
    "final_y": "521124.989625",
    "longitude": "-89.98816032696344",
    "latitude": "29.926116511309093",
    "geocoded_column": {
      "latitude": "29.926116511309093",
      "longitude": "-89.98816032696344"
    }
  },
  {
    "service_request": "2026-1295711",
    "request_type": "Parks & Grass Service",
    "request_reason": "Request Grass Cutting Service (City Owned Property)",
    "date_created": "2026-06-30T15:26:35.000",
    "date_modified": "2026-06-30T15:27:48.000",
    "request_status": "Pending",
    "responsible_agency": "Department of Parks & Parkways",
    "final_address": "1300 BLK Lyons St",
    "address_councildis": "B",
    "status": "Pending",
    "rowid": "1295711",
    "final_x": "3669099.4764",
    "final_y": "520014.262581",
    "longitude": "-90.10761546680781",
    "latitude": "29.924229306030213",
    "geocoded_column": {
      "latitude": "29.924229306030213",
      "longitude": "-90.10761546680781"
    }
  },
  {
    "service_request": "2026-1295710",
    "request_type": "Trash/Recycling",
    "request_reason": "Request a Large Item Pick Up",
    "date_created": "2026-06-30T15:23:22.000",
    "date_modified": "2026-06-30T15:35:15.000",
    "request_status": "Pending",
    "responsible_agency": "Department of Sanitation",
    "final_address": "4131 Prytania St, New Orleans, Louisiana, 70115",
    "address_councildis": "B",
    "status": "Assigned to Contractor",
    "contractor": "IV Waste",
    "rowid": "1295710",
    "final_x": "3671738.58119",
    "final_y": "520533.351928",
    "longitude": "-90.0992670681384",
    "latitude": "29.92557874645882",
    "geocoded_column": {
      "latitude": "29.92557874645882",
      "longitude": "-90.0992670681384"
    }
  },
  {
    "service_request": "2026-1295709",
    "request_type": "Trash/Recycling",
    "request_reason": "Request a Large Item Pick Up",
    "date_created": "2026-06-30T15:22:55.000",
    "date_modified": "2026-06-30T15:22:58.000",
    "request_status": "Pending",
    "responsible_agency": "Department of Sanitation",
    "final_address": "7020 Salem Dr",
    "address_councildis": "E",
    "status": "Assigned to Contractor",
    "contractor": "Waste Pro",
    "rowid": "1295709",
    "final_x": "3706628.37195",
    "final_y": "560751.973342",
    "longitude": "-89.98764062499659",
    "latitude": "30.03508571648842",
    "geocoded_column": {
      "latitude": "30.03508571648842",
      "longitude": "-89.98764062499659"
    }
  },
  {
    "service_request": "2026-1295708",
    "request_type": "Roads and Streets",
    "request_reason": "Pothole",
    "date_created": "2026-06-30T15:19:11.000",
    "date_modified": "2026-06-30T15:19:14.000",
    "request_status": "Pending",
    "responsible_agency": "Department of Public Works",
    "final_address": "2000 BLK Calhoun St",
    "address_councildis": "A",
    "status": "Pending",
    "rowid": "1295708",
    "final_x": "3665561.27153",
    "final_y": "524585.360066",
    "longitude": "-90.11863142419219",
    "latitude": "29.936901973403486",
    "geocoded_column": {
      "latitude": "29.936901973403486",
      "longitude": "-90.11863142419219"
    }
  },
  {
    "service_request": "2026-1295707",
    "request_type": "Abandoned Vehicles",
    "request_reason": "Abandoned/Junk Vehicles",
    "date_created": "2026-06-30T15:14:05.000",
    "date_modified": "2026-06-30T15:15:47.000",
    "request_status": "Pending",
    "responsible_agency": "Department of Public Works",
    "final_address": "4014 Franklin Ave",
    "address_councildis": "D",
    "status": "Inspected",
    "rowid": "1295707",
    "final_x": "3686960.18588",
    "final_y": "547610.296594",
    "longitude": "-90.05026013936559",
    "latitude": "29.999571414909248",
    "geocoded_column": {
      "latitude": "29.999571414909248",
      "longitude": "-90.05026013936559"
    }
  },
  {
    "service_request": "2026-1295706",
    "request_type": "Abandoned Vehicles",
    "request_reason": "Abandoned/Junk Vehicles",
    "date_created": "2026-06-30T15:10:13.000",
    "date_modified": "2026-06-30T15:10:15.000",
    "request_status": "Pending",
    "responsible_agency": "Department of Public Works",
    "final_address": "4650 Redwood St",
    "address_councildis": "E",
    "status": "Pending",
    "rowid": "1295706",
    "final_x": "3712465.6924",
    "final_y": "555624.536345",
    "longitude": "-89.96938682754148",
    "latitude": "30.02079750449508",
    "geocoded_column": {
      "latitude": "30.02079750449508",
      "longitude": "-89.96938682754148"
    }
  },
  {
    "service_request": "2026-1295705",
    "request_type": "Trash/Recycling",
    "request_reason": "Request a Large Item Pick Up",
    "date_created": "2026-06-30T15:09:20.000",
    "date_modified": "2026-06-30T17:44:19.000",
    "request_status": "Pending",
    "responsible_agency": "Department of Sanitation",
    "final_address": "2658 Frankfort St",
    "address_councildis": "D",
    "status": "Assigned to Contractor",
    "contractor": "IV Waste",
    "rowid": "1295705",
    "final_x": "3686829.84431",
    "final_y": "557085.055066",
    "longitude": "-90.05033675403386",
    "latitude": "30.025627537338085",
    "geocoded_column": {
      "latitude": "30.025627537338085",
      "longitude": "-90.05033675403386"
    }
  },
  {
    "service_request": "2026-1295704",
    "request_type": "Trash/Recycling",
    "request_reason": "Request a Large Item Pick Up",
    "date_created": "2026-06-30T15:08:41.000",
    "date_modified": "2026-06-30T15:08:42.000",
    "request_status": "Pending",
    "responsible_agency": "Department of Sanitation",
    "final_address": "12960 Parlange Ct",
    "address_councildis": "E",
    "status": "Assigned to Contractor",
    "contractor": "Waste Pro",
    "rowid": "1295704",
    "final_x": "3717024.55308",
    "final_y": "567952.188453",
    "longitude": "-89.95451361987082",
    "latitude": "30.054543561358564",
    "geocoded_column": {
      "latitude": "30.054543561358564",
      "longitude": "-89.95451361987082"
    }
  },
  {
    "service_request": "2026-1295703",
    "request_type": "Trash/Recycling",
    "request_reason": "Request a Large Item Pick Up",
    "date_created": "2026-06-30T15:03:26.000",
    "date_modified": "2026-06-30T15:04:17.000",
    "request_status": "Pending",
    "responsible_agency": "Department of Sanitation",
    "final_address": "9101 River Rd",
    "address_councildis": "C",
    "status": "Assigned to Contractor",
    "contractor": "Richards Disposal",
    "rowid": "1295703",
    "final_x": "3718240.74156",
    "final_y": "518293.604598",
    "longitude": "-89.95256097058001",
    "latitude": "29.917961233063185",
    "geocoded_column": {
      "latitude": "29.917961233063185",
      "longitude": "-89.95256097058001"
    }
  },
  {
    "service_request": "2026-1295702",
    "request_type": "Trash/Recycling",
    "request_reason": "Request a Large Item Pick Up",
    "date_created": "2026-06-30T15:01:13.000",
    "date_modified": "2026-06-30T15:01:15.000",
    "request_status": "Pending",
    "responsible_agency": "Department of Sanitation",
    "final_address": "8718 Apricot St",
    "address_councildis": "A",
    "status": "Assigned to Contractor",
    "contractor": "IV Waste",
    "rowid": "1295702",
    "final_x": "3664127.60583",
    "final_y": "534117.285253",
    "longitude": "-90.12283969313455",
    "latitude": "29.963153403021398",
    "geocoded_column": {
      "latitude": "29.963153403021398",
      "longitude": "-90.12283969313455"
    }
  },
  {
    "service_request": "2026-1295701",
    "request_type": "Tree Service",
    "request_reason": "Tree Trim",
    "date_created": "2026-06-30T14:59:20.000",
    "date_modified": "2026-06-30T14:59:22.000",
    "request_status": "Pending",
    "responsible_agency": "Department of Parks & Parkways",
    "final_address": "4640 S Carrollton Ave",
    "address_councildis": "A",
    "status": "Pending",
    "rowid": "1295701",
    "final_x": "3670862.63694",
    "final_y": "537913.135817",
    "longitude": "-90.10144233464126",
    "latitude": "29.973393360986492",
    "geocoded_column": {
      "latitude": "29.973393360986492",
      "longitude": "-90.10144233464126"
    }
  },
  {
    "service_request": "2026-1295700",
    "request_type": "Utility Poles",
    "request_reason": "Utility Pole Leaning",
    "date_created": "2026-06-30T14:58:36.000",
    "date_modified": "2026-06-30T14:59:51.000",
    "request_status": "Pending",
    "responsible_agency": "Utility Company Collective",
    "final_address": "3112 Laurel St",
    "address_councildis": "B",
    "status": "Pending",
    "rowid": "1295700",
    "final_x": "3676430.90677",
    "final_y": "519489.751479",
    "longitude": "-90.0844907262408",
    "latitude": "29.922569390489524",
    "geocoded_column": {
      "latitude": "29.922569390489524",
      "longitude": "-90.0844907262408"
    }
  },