[
  {
    "service_request": "2022-882640",
    "request_type": "Traffic Signals/Signs/Striping/Streetlights",
    "request_reason": "Traffic Sign Missing/Damaged",
    "date_created": "2022-05-12T23:27:07.000",
    "date_modified": "2022-05-12T23:27:07.000",
    "request_status": "Pending",
    "responsible_agency": "Department of Public Works",
    "final_address": "11040 Roger Dr",
    "address_councildis": "E",
    "status": "Pending",
    "rowid": "882640",
    "final_x": "3712397.49253",
    "final_y": "563579.453024",
    "longitude": "-89.96930310364468",
    "latitude": "30.042672594059926",
    "geocoded_column": {
      "latitude": "30.042672594059926",
      "longitude": "-89.96930310364468"
    }
  },
  {
    "service_request": "2022-882639",
    "request_type": "Abandoned Vehicles",
    "request_reason": "Abandoned/Junk Vehicles",
    "date_created": "2022-05-12T23:17:16.000",
    "date_modified": "2022-05-12T23:17:16.000",
    "request_status": "Pending",
    "responsible_agency": "Department of Public Works",
    "final_address": "11600 Morrison Rd",
    "address_councildis": "E",
    "status": "Pending",
    "rowid": "882639",
    "final_x": "3712842.9731",
    "final_y": "566029.157283",
    "longitude": "-89.96780295767543",
    "latitude": "30.049393700817774",
    "geocoded_column": {
      "latitude": "30.049393700817774",
      "longitude": "-89.96780295767543"
    }
  },
  {
    "service_request": "2022-882638",
    "request_type": "Trash/Recycling",
    "request_reason": "Missed Trash Pick-Up",
    "date_created": "2022-05-12T23:13:02.000",
    "date_modified": "2022-05-12T23:13:02.000",
    "request_status": "Pending",
    "responsible_agency": "Department of Sanitation",
    "final_address": "920 Melpomene St",
    "address_councildis": "B",
    "status": "Assigned to Contractor",
    "contractor": "Richards Disposal",
    "rowid": "882638",
    "final_x": "3681047.05915",
    "final_y": "524699.109052",
    "longitude": "-90.0697380579231",
    "latitude": "29.936754263399134",
    "geocoded_column": {
      "latitude": "29.936754263399134",
      "longitude": "-90.0697380579231"
    }
  },
  {
    "service_request": "2022-882637",
    "request_type": "Abandoned Vehicles",
    "request_reason": "Abandoned/Junk Vehicles",
    "date_created": "2022-05-12T23:10:04.000",
    "date_modified": "2022-05-12T23:10:04.000",
    "request_status": "Pending",
    "responsible_agency": "Department of Public Works",
    "final_address": "17450 Paris Rd",
    "address_councildis": "E",
    "status": "Pending",
    "rowid": "882637",
    "final_x": "3721461.3271",
    "final_y": "571849.223656",
    "longitude": "-89.94034041131485",
    "latitude": "30.06511123108528",
    "geocoded_column": {
      "latitude": "30.06511123108528",
      "longitude": "-89.94034041131485"
    }
  },
  {
    "service_request": "2022-882636",
    "request_type": "Trash/Recycling",
    "request_reason": "Illegal Dumping",
    "date_created": "2022-05-12T23:04:26.000",
    "date_modified": "2022-05-12T23:04:26.000",
    "request_status": "Pending",
    "responsible_agency": "Department of Sanitation",
    "final_address": "17450 Paris Rd",
    "address_councildis": "E",
    "status": "Pending",
    "rowid": "882636",
    "final_x": "3721461.3271",
    "final_y": "571849.223656",
    "longitude": "-89.94034041131485",
    "latitude": "30.06511123108528",
    "geocoded_column": {
      "latitude": "30.06511123108528",
      "longitude": "-89.94034041131485"
    }
  },
  {
    "service_request": "2022-882635",
    "request_type": "Trash/Recycling",
    "request_reason": "Illegal Dumping",
    "date_created": "2022-05-12T23:02:58.000",
    "date_modified": "2022-05-12T23:02:58.000",
    "request_status": "Pending",
    "responsible_agency": "Department of Sanitation",
    "final_address": "17450 Paris Rd",
    "address_councildis": "E",
    "status": "Pending",
    "rowid": "882635",
    "final_x": "3721461.3271",
    "final_y": "571849.223656",
    "longitude": "-89.94034041131485",
    "latitude": "30.06511123108528",
    "geocoded_column": {
      "latitude": "30.06511123108528",
      "longitude": "-89.94034041131485"
    }
  },
  {
    "service_request": "2022-882634",
    "request_type": "Trash/Recycling",
    "request_reason": "Illegal Dumping",
    "date_created": "2022-05-12T23:01:30.000",
    "date_modified": "2022-05-12T23:01:30.000",
    "request_status": "Pending",
    "responsible_agency": "Department of Sanitation",
    "final_address": "17450 Paris Rd",
    "address_councildis": "E",
    "status": "Pending",
    "rowid": "882634",
    "final_x": "3721461.3271",
    "final_y": "571849.223656",
    "longitude": "-89.94034041131485",
    "latitude": "30.06511123108528",
    "geocoded_column": {
      "latitude": "30.06511123108528",
      "longitude": "-89.94034041131485"
    }
  },
  {
    "service_request": "2022-882633",
    "request_type": "Trash/Recycling",
    "request_reason": "Illegal Dumping",
    "date_created": "2022-05-12T22:58:59.000",
    "date_modified": "2022-05-12T22:58:59.000",
    "request_status": "Pending",
    "responsible_agency": "Department of Sanitation",
    "final_address": "17600 Paris Rd",
    "address_councildis": "E",
    "status": "Pending",
    "rowid": "882633",
    "final_x": "3721049.61516",
    "final_y": "574670.481579",
    "longitude": "-89.94153353534014",
    "latitude": "30.07288225329255",
    "geocoded_column": {
      "latitude": "30.07288225329255",
      "longitude": "-89.94153353534014"
    }
  },
  {
    "service_request": "2022-882632",
    "request_type": "Traffic Signals/Signs/Striping/Streetlights",
    "request_reason": "Street Light Outage/Malfunction",
    "date_created": "2022-05-12T22:49:25.000",
    "date_modified": "2022-05-12T22:49:26.000",
    "request_status": "Pending",
    "responsible_agency": "Department of Public Works",
    "final_address": "6219 Magazine St",
    "address_councildis": "A",
    "status": "Pending",
    "contractor": "Royal Engineering",
    "rowid": "882632",
    "final_x": "3663640.14336",
    "final_y": "519692.506744",
    "longitude": "-90.12485946692875",
    "latitude": "29.9235040279114",
    "geocoded_column": {
      "latitude": "29.9235040279114",
      "longitude": "-90.12485946692875"
    }
  },
  {
    "service_request": "2022-882631",
    "request_type": "Trash/Recycling",
    "request_reason": "Order Recycling Cart",
    "date_created": "2022-05-12T22:37:45.000",
    "date_modified": "2022-05-12T22:37:45.000",
    "request_status": "Pending",
    "responsible_agency": "Department of Sanitation",
    "final_address": "5701 Durham Dr",
    "address_councildis": "C",
    "status": "Pending",
    "rowid": "882631",
    "final_x": "3705063.67678",
    "final_y": "518769.900407",
    "longitude": "-89.99413584665177",
    "latitude": "29.919700918874952",
    "geocoded_column": {
      "latitude": "29.919700918874952",
      "longitude": "-89.99413584665177"
    }
  },
  {
    "service_request": "2022-882630",
    "request_type": "Health Related Questions",
    "request_reason": "Noise Ordinance Complaint",
    "date_created": "2022-05-12T22:26:53.000",
    "date_modified": "2022-05-12T22:26:53.000",
    "request_status": "Pending",
    "responsible_agency": "Health Department",
    "final_address": "718 Bourbon St, New Orleans, Louisiana, 70116",
    "address_councildis": "C",
    "status": "Pending",
    "rowid": "882630",
    "final_x": "3682364.17781",
    "final_y": "532746.008004",
    "longitude": "-90.06529872053143",
    "latitude": "29.95884052062511",
    "geocoded_column": {
      "latitude": "29.95884052062511",
      "longitude": "-90.06529872053143"
    }
  },
  {
    "service_request": "2022-882629",
    "request_type": "Abandoned Vehicles",
    "request_reason": "Abandoned/Junk Vehicles",
    "date_created": "2022-05-12T22:22:46.000",
    "date_modified": "2022-05-12T22:22:46.000",
    "request_status": "Pending",
    "responsible_agency": "Department of Public Works",
    "final_address": "824 Port St",
    "address_councildis": "C",
    "status": "Pending",
    "rowid": "882629",
    "final_x": "3687145.26409",
    "final_y": "535540.79911",
    "longitude": "-90.05010246833841",
    "latitude": "29.966378878434735",
    "geocoded_column": {
      "latitude": "29.966378878434735",
      "longitude": "-90.05010246833841"
    }
  },
  {
    "service_request": "2022-882628",
    "request_type": "Traffic Signals/Signs/Striping/Streetlights",
    "request_reason": "Street Light Outage/Malfunction",
    "date_created": "2022-05-12T22:22:37.000",
    "date_modified": "2022-05-12T22:22:38.000",
    "request_status": "Pending",
    "responsible_agency": "Department of Public Works",
    "final_address": "1812 Martin Luther King, Jr. Blvd",
    "address_councildis": "B",
    "status": "Pending",
    "contractor": "Royal Engineering",
    "rowid": "882628",
    "final_x": "3678290.36354",
    "final_y": "526061.671998",
    "longitude": "-90.07839396543066",
    "latitude": "29.940584163643585",
    "geocoded_column": {
      "latitude": "29.940584163643585",
      "longitude": "-90.07839396543066"
    }
  },
  {
    "service_request": "2022-882627",
    "request_type": "Traffic Signals/Signs/Striping/Streetlights",
    "request_reason": "Street Light Outage/Malfunction",
    "date_created": "2022-05-12T22:20:44.000",
    "date_modified": "2022-05-12T22:20:45.000",
    "request_status": "Pending",
    "responsible_agency": "Department of Public Works",
    "final_address": "7210 Salem Dr",
    "address_councildis": "E",
    "status": "Pending",
    "contractor": "Royal Engineering",
    "rowid": "882627",
    "final_x": "3706295.59537",
    "final_y": "561496.854559",
    "longitude": "-89.9886646194157",
    "latitude": "30.03714458806444",
    "geocoded_column": {
      "latitude": "30.03714458806444",
      "longitude": "-89.9886646194157"
    }
  },
  {
    "service_request": "2022-882626",
    "request_type": "Roads/Drainage",
    "request_reason": "Catch Basin - Broken/Damage",
    "date_created": "2022-05-12T22:12:14.000",
    "date_modified": "2022-05-12T22:12:14.000",
    "request_status": "Pending",
    "responsible_agency": "Department of Public Works",
    "final_address": "7500 Oak St",
    "address_councildis": "A",
    "status": "Pending",
    "rowid": "882626",
    "final_x": "3663490.46759",
    "final_y": "526942.982014",
    "longitude": "-90.12509060469823",
    "latitude": "29.943444882488304",
    "geocoded_column": {
      "latitude": "29.943444882488304",
      "longitude": "-90.12509060469823"
    }
  },
  {
    "service_request": "2022-882625",
    "request_type": "Roads/Drainage",
    "request_reason": "Catch Basin - Broken/Damage",
    "date_created": "2022-05-12T22:10:10.000",
    "date_modified": "2022-05-12T22:10:10.000",
    "request_status": "Pending",
    "responsible_agency": "Department of Public Works",
    "final_address": "7500 Oak St",
    "address_councildis": "A",
    "status": "Pending",
    "rowid": "882625",
    "final_x": "3663490.46759",
    "final_y": "526942.982014",
    "longitude": "-90.12509060469823",
    "latitude": "29.943444882488304",
    "geocoded_column": {
      "latitude": "29.943444882488304",
      "longitude": "-90.12509060469823"
    }
  },
  {
    "service_request": "2022-882624",
    "request_type": "Roads/Drainage",
    "request_reason": "Catch Basin - Clogged",
    "date_created": "2022-05-12T22:08:22.000",
    "date_modified": "2022-05-12T22:08:22.000",
    "request_status": "Pending",
    "responsible_agency": "Department of Public Works",
    "final_address": "1100 Broadway St",
    "address_councildis": "A",
    "status": "Pending",
    "rowid": "882624",
    "final_x": "3663972.47943",
    "final_y": "526289.583934",
    "longitude": "-90.12359054175064",
    "latitude": "29.941634262412165",
    "geocoded_column": {
      "latitude": "29.941634262412165",
      "longitude": "-90.12359054175064"
    }
  },
  {
    "service_request": "2022-882623",
    "request_type": "Roads/Drainage",
    "request_reason": "Catch Basin - Clogged",
    "date_created": "2022-05-12T22:04:33.000",
    "date_modified": "2022-05-12T22:04:33.000",
    "request_status": "Pending",
    "responsible_agency": "Department of Public Works",
    "final_address": "7500 Oak St",
    "address_councildis": "A",
    "status": "Pending",
    "rowid": "882623",
    "final_x": "3663490.46759",
    "final_y": "526942.982014",
    "longitude": "-90.12509060469823",
    "latitude": "29.943444882488304",
    "geocoded_column": {
      "latitude": "29.943444882488304",
      "longitude": "-90.12509060469823"
    }
  },
  {
    "service_request": "2022-882622",
    "request_type": "Trash/Recycling",
    "request_reason": "Replace Trash Cart",
    "date_created": "2022-05-12T21:42:53.000",
    "date_modified": "2022-05-12T21:42:54.000",
    "request_status": "Pending",
    "responsible_agency": "Department of Sanitation",
    "final_address": "534 S Cortez St",
    "address_councildis": "B",
    "status": "Assigned to Contractor",
    "contractor": "Richards Disposal",
    "rowid": "882622",
    "final_x": "3670965.53716",
    "final_y": "536032.051335",
    "longitude": "-90.10118123730503",
    "latitude": "29.96821796906751",
    "geocoded_column": {
      "latitude": "29.96821796906751",
      "longitude": "-90.10118123730503"
    }
  },
  {
    "service_request": "2022-882621",
    "request_type": "Abandoned Vehicles",
    "request_reason": "Vehicle Blocking Your Driveway",
    "date_created": "2022-05-12T21:24:23.000",
    "date_modified": "2022-05-12T21:24:23.000",
    "request_status": "Pending",
    "responsible_agency": "Department of Public Works",
    "final_address": "3138 Maurepas St",
    "address_councildis": "A",
    "status": "Pending",
    "rowid": "882621",
    "final_x": "3676289.42824",
    "final_y": "540718.469131",
    "longitude": "-90.08420680866847",
    "latitude": "29.980945524597498",
    "geocoded_column": {
      "latitude": "29.980945524597498",
      "longitude": "-90.08420680866847"
    }
  },
  {
    "service_request": "2022-882620",
    "request_type": "Trash/Recycling",
    "request_reason": "Illegal Dumping",
    "date_created": "2022-05-12T21:21:51.000",
    "date_modified": "2022-05-12T21:21:51.000",
    "request_status": "Pending",
    "responsible_agency": "Department of Sanitation",
    "final_address": "3111 Sullen Pl",
    "address_councildis": "C",
    "status": "Pending",
    "rowid": "882620",
    "final_x": "3707735.68836",
    "final_y": "519289.151735",
    "longitude": "-89.98568241996712",
    "latitude": "29.92104253899222",
    "geocoded_column": {
      "latitude": "29.92104253899222",
      "longitude": "-89.98568241996712"
    }
  },
  {
    "service_request": "2022-882618",
    "request_type": "Trash/Recycling",
    "request_reason": "Missed Trash Pick-Up",
    "date_created": "2022-05-12T21:19:02.000",
    "date_modified": "2022-05-12T21:19:03.000",
    "request_status": "Pending",
    "responsible_agency": "Department of Sanitation",
    "final_address": "7523 Zimple St",
    "address_councildis": "A",
    "status": "Assigned to Contractor",
    "contractor": "Richards Disposal",
    "rowid": "882618",
    "final_x": "3663182.41831",
    "final_y": "526841.03091",
    "longitude": "-90.12606659199297",
    "latitude": "29.94317347756813",
    "geocoded_column": {
      "latitude": "29.94317347756813",
      "longitude": "-90.12606659199297"
    }
  },
  {
    "service_request": "2022-882617",
    "request_type": "Roads/Drainage",
    "request_reason": "Catch Basin - Clogged",
    "date_created": "2022-05-12T21:17:17.000",
    "date_modified": "2022-05-12T21:17:18.000",
    "request_status": "Pending",
    "responsible_agency": "Department of Public Works",
    "final_address": "2300 New York St",
    "address_councildis": "D",
    "status": "Pending",
    "rowid": "882617",
    "final_x": "3684209.83765",
    "final_y": "556555.468314",
    "longitude": "-90.05863421312304",
    "latitude": "30.024251773216537",
    "geocoded_column": {
      "latitude": "30.024251773216537",
      "longitude": "-90.05863421312304"
    }
  },
  {
    "service_request": "2022-882616",
    "request_type": "Traffic Signals/Signs/Striping/Streetlights",
    "request_reason": "Traffic Sign Missing/Damaged",
    "date_created": "2022-05-12T21:14:38.000",
    "date_modified": "2022-05-12T21:14:38.000",
    "request_status": "Pending",
    "responsible_agency": "Department of Public Works",
    "final_address": "ESPLANADE AVE & N CLAIBORNE AVE",
    "address_councildis": "D",
    "status": "Pending",
    "rowid": "882616",
    "final_x": "3681231.3",
    "final_y": "536639.18",
    "longitude": "-90.06874038104324",
    "latitude": "29.969579834804723",
    "geocoded_column": {
      "latitude": "29.969579834804723",
      "longitude": "-90.06874038104324"
    }
  },
  {
    "service_request": "2022-882615",
    "request_type": "Traffic Signals/Signs/Striping/Streetlights",
    "request_reason": "Traffic Sign Missing/Damaged",
    "date_created": "2022-05-12T20:59:01.000",
    "date_modified": "2022-05-12T20:59:01.000",
    "request_status": "Pending",
    "responsible_agency": "Department of Public Works",
    "final_address": "2222 N Robertson St",
    "address_councildis": "C",
    "status": "Pending",
    "rowid": "882615",
    "final_x": "3685158.03458",
    "final_y": "537765.012168",
    "longitude": "-90.05629981406902",
    "latitude": "29.972555735318245",
    "geocoded_column": {
      "latitude": "29.972555735318245",
      "longitude": "-90.05629981406902"
    }
  },
  {
    "service_request": "2022-882614",
    "request_type": "Trash/Recycling",
    "request_reason": "Missed Trash Pick-Up",
    "date_created": "2022-05-12T20:58:14.000",
    "date_modified": "2022-05-12T20:58:15.000",
    "request_status": "Pending",
    "responsible_agency": "Department of Sanitation",
    "final_address": "3359 Huntlee Dr",
    "address_councildis": "C",
    "status": "Assigned to Contractor",
    "contractor": "Richards Disposal",
    "rowid": "882614",
    "final_x": "3701679.52183",
    "final_y": "518794.379127",
    "longitude": "-90.0048169874126",
    "latitude": "29.91987654868609",
    "geocoded_column": {
      "latitude": "29.91987654868609",
      "longitude": "-90.0048169874126"
    }
  },
  {
    "service_request": "2022-882613",
    "request_type": "Trash/Recycling",
    "request_reason": "Missed Trash Pick-Up",
    "date_created": "2022-05-12T20:51:35.000",
    "date_modified": "2022-05-12T20:51:36.000",
    "request_status": "Pending",
    "responsible_agency": "Department of Sanitation",
    "final_address": "2612 Clara St",
    "address_councildis": "B",
    "status": "Assigned to Contractor",
    "contractor": "Richards Disposal",
    "rowid": "882613",
    "final_x": "3674020.50888",
    "final_y": "526292.603518",
    "longitude": "-90.09186673625116",
    "latitude": "29.94134704461222",
    "geocoded_column": {
      "latitude": "29.94134704461222",
      "longitude": "-90.09186673625116"
    }
  },
  {
    "service_request": "2022-882612",
    "request_type": "Trash/Recycling",
    "request_reason": "Order Trash Cart",
    "date_created": "2022-05-12T20:47:58.000",
    "date_modified": "2022-05-12T20:47:58.000",
    "request_status": "Pending",
    "responsible_agency": "Department of Sanitation",
    "final_address": "5611 Charlotte Dr",
    "address_councildis": "D",
    "status": "Assigned to Contractor",
    "contractor": "Metro Disposal",
    "rowid": "882612",
    "final_x": "3680102.30159",
    "final_y": "553132.978391",
    "longitude": "-90.07173234164472",
    "latitude": "30.01496617632019",
    "geocoded_column": {
      "latitude": "30.01496617632019",
      "longitude": "-90.07173234164472"
    }
  },
  {
    "service_request": "2022-882611",
    "request_type": "Trash/Recycling",
    "request_reason": "Missed Trash Pick-Up",
    "date_created": "2022-05-12T20:42:16.000",
    "date_modified": "2022-05-12T20:42:17.000",
    "request_status": "Pending",
    "responsible_agency": "Department of Sanitation",
    "final_address": "2305 Carondelet St",
    "address_councildis": "B",
    "status": "Assigned to Contractor",
    "contractor": "Richards Disposal",
    "rowid": "882611",
    "final_x": "3676862.84078",
    "final_y": "523657.371771",
    "longitude": "-90.08298372922299",
    "latitude": "29.934016039860413",
    "geocoded_column": {
      "latitude": "29.934016039860413",
      "longitude": "-90.08298372922299"
    }
  },
  {
    "service_request": "2022-882610",
    "request_type": "Trash/Recycling",
    "request_reason": "Missed Trash Pick-Up",
    "date_created": "2022-05-12T20:31:14.000",
    "date_modified": "2022-05-12T20:31:15.000",
    "request_status": "Pending",
    "responsible_agency": "Department of Sanitation",
    "final_address": "1031 Sixth St",
    "address_councildis": "B",
    "status": "Assigned to Contractor",
    "contractor": "Richards Disposal",
    "rowid": "882610",
    "final_x": "3676713.55835",
    "final_y": "520468.180728",
    "longitude": "-90.0835648216669",
    "latitude": "29.9252512808144",
    "geocoded_column": {
      "latitude": "29.9252512808144",
      "longitude": "-90.0835648216669"
    }
  },
  {
    "service_request": "2022-882609",
    "request_type": "Trash/Recycling",
    "request_reason": "Missed Trash Pick-Up",
    "date_created": "2022-05-12T20:29:10.000",
    "date_modified": "2022-05-12T20:29:11.000",
    "request_status": "Pending",
    "responsible_agency": "Department of Sanitation",
    "final_address": "2824 Coliseum St",
    "address_councildis": "B",
    "status": "Assigned to Contractor",
    "contractor": "Richards Disposal",
    "rowid": "882609",
    "final_x": "3676320.94312",
    "final_y": "521526.593529",
    "longitude": "-90.08476777861476",
    "latitude": "29.92817334195852",
    "geocoded_column": {
      "latitude": "29.92817334195852",
      "longitude": "-90.08476777861476"
    }
  },
  {
    "service_request": "2022-882608",
    "request_type": "Trash/Recycling",
    "request_reason": "Missed Trash Pick-Up",
    "date_created": "2022-05-12T20:28:52.000",
    "date_modified": "2022-05-12T20:28:53.000",
    "request_status": "Pending",
    "responsible_agency": "Department of Sanitation",
    "final_address": "519 Philip St",
    "address_councildis": "B",
    "status": "Assigned to Contractor",
    "contractor": "Richards Disposal",
    "rowid": "882608",
    "final_x": "3679832.93039",
    "final_y": "520220.232952",
    "longitude": "-90.0737265581521",
    "latitude": "29.9244755846313",
    "geocoded_column": {
      "latitude": "29.9244755846313",
      "longitude": "-90.0737265581521"
    }
  },
  {
    "service_request": "2022-882607",
    "request_type": "Traffic Signals/Signs/Striping/Streetlights",
    "request_reason": "Street Light Outage/Malfunction",
    "date_created": "2022-05-12T20:25:32.000",
    "date_modified": "2022-05-12T20:25:33.000",
    "request_status": "Pending",
    "responsible_agency": "Department of Public Works",
    "final_address": "MORRISON RD & WRIGHT RD",
    "address_councildis": "E",
    "status": "Pending",
    "contractor": "Royal Engineering",
    "rowid": "882607",
    "final_x": "3711407.5",
    "final_y": "565075.08",
    "longitude": "-89.97237570338713",
    "latitude": "30.04681733326063",
    "geocoded_column": {
      "latitude": "30.04681733326063",
      "longitude": "-89.97237570338713"
    }
  },
  {
    "service_request": "2022-882606",
    "request_type": "Traffic Signals/Signs/Striping/Streetlights",
    "request_reason": "Street Light Outage/Malfunction",
    "date_created": "2022-05-12T20:25:07.000",
    "date_modified": "2022-05-12T20:25:08.000",
    "request_status": "Pending",
    "responsible_agency": "Department of Public Works",
    "final_address": "MORRISON RD & WRIGHT RD",
    "address_councildis": "E",
    "status": "Pending",
    "contractor": "Royal Engineering",
    "rowid": "882606",
    "final_x": "3711407.5",
    "final_y": "565075.08",
    "longitude": "-89.97237570338713",
    "latitude": "30.04681733326063",
    "geocoded_column": {
      "latitude": "30.04681733326063",
      "longitude": "-89.97237570338713"
    }
  },
  {
    "service_request": "2022-882605",
    "request_type": "Traffic Signals/Signs/Striping/Streetlights",
    "request_reason": "Street Light Outage/Malfunction",
    "date_created": "2022-05-12T20:24:33.000",
    "date_modified": "2022-05-12T20:24:33.000",
    "request_status": "Pending",
    "responsible_agency": "Department of Public Works",
    "final_address": "MORRISON RD & WRIGHT RD",
    "address_councildis": "E",
    "status": "Pending",
    "contractor": "Royal Engineering",
    "rowid": "882605",
    "final_x": "3711407.5",
    "final_y": "565075.08",
    "longitude": "-89.97237570338713",
    "latitude": "30.04681733326063",
    "geocoded_column": {
      "latitude": "30.04681733326063",
      "longitude": "-89.97237570338713"
    }
  },
  {
    "service_request": "2022-882604",
    "request_type": "Trash/Recycling",
    "request_reason": "Missed Trash Pick-Up",
    "date_created": "2022-05-12T20:23:52.000",
    "date_modified": "2022-05-12T20:23:53.000",
    "request_status": "Pending",
    "responsible_agency": "Department of Sanitation",
    "final_address": "7526 Freret St",
    "address_councildis": "A",
    "status": "Assigned to Contractor",
    "contractor": "Richards Disposal",
    "rowid": "882604",
    "final_x": "3662876.75085",
    "final_y": "526551.892286",
    "longitude": "-90.12704127572809",
    "latitude": "29.94238729048523",
    "geocoded_column": {
      "latitude": "29.94238729048523",
      "longitude": "-90.12704127572809"
    }
  },
  {
    "service_request": "2022-882603",
    "request_type": "Traffic Signals/Signs/Striping/Streetlights",
    "request_reason": "Street Light Outage/Malfunction",
    "date_created": "2022-05-12T20:22:59.000",
    "date_modified": "2022-05-12T20:23:00.000",
    "request_status": "Pending",
    "responsible_agency": "Department of Public Works",
    "final_address": "MORRISON RD & WRIGHT RD",
    "address_councildis": "E",
    "status": "Pending",
    "contractor": "Royal Engineering",
    "rowid": "882603",
    "final_x": "3711407.5",
    "final_y": "565075.08",
    "longitude": "-89.97237570338713",
    "latitude": "30.04681733326063",
    "geocoded_column": {
      "latitude": "30.04681733326063",
      "longitude": "-89.97237570338713"
    }
  },
  {
    "service_request": "2022-882602",
    "request_type": "Traffic Signals/Signs/Striping/Streetlights",
    "request_reason": "Street Light Outage/Malfunction",
    "date_created": "2022-05-12T20:22:47.000",
    "date_modified": "2022-05-12T20:22:48.000",
    "request_status": "Pending",
    "responsible_agency": "Department of Public Works",
    "final_address": "MORRISON RD & WRIGHT RD",
    "address_councildis": "E",
    "status": "Pending",
    "contractor": "Royal Engineering",
    "rowid": "882602",
    "final_x": "3711407.5",
    "final_y": "565075.08",
    "longitude": "-89.97237570338713",
    "latitude": "30.04681733326063",
    "geocoded_column": {
      "latitude": "30.04681733326063",
      "longitude": "-89.97237570338713"
    }
  },
  {
    "service_request": "2022-882601",
    "request_type": "Traffic Signals/Signs/Striping/Streetlights",
    "request_reason": "Street Light Outage/Malfunction",
    "date_created": "2022-05-12T20:21:41.000",
    "date_modified": "2022-05-12T20:21:42.000",
    "request_status": "Pending",
    "responsible_agency": "Department of Public Works",
    "final_address": "MORRISON RD & WRIGHT RD",
    "address_councildis": "E",
    "status": "Pending",
    "contractor": "Royal Engineering",
    "rowid": "882601",
    "final_x": "3711407.5",
    "final_y": "565075.08",
    "longitude": "-89.97237570338713",
    "latitude": "30.04681733326063",
    "geocoded_column": {
      "latitude": "30.04681733326063",
      "longitude": "-89.97237570338713"
    }
  },
  {
    "service_request": "2022-882600",
    "request_type": "Trash/Recycling",
    "request_reason": "Missed Trash Pick-Up",
    "date_created": "2022-05-12T20:01:12.000",
    "date_modified": "2022-05-12T20:01:13.000",
    "request_status": "Pending",
    "responsible_agency": "Department of Sanitation",
    "final_address": "247 26Th St",
    "address_councildis": "A",
    "status": "Assigned to Contractor",
    "contractor": "Metro Disposal",
    "rowid": "882600",
    "final_x": "3665425.04391",
    "final_y": "549963.070932",
    "longitude": "-90.11821187276081",
    "latitude": "30.006686212314953",
    "geocoded_column": {
      "latitude": "30.006686212314953",
      "longitude": "-90.11821187276081"
    }
  },
  {
    "service_request": "2022-882599",
    "request_type": "Trash/Recycling",
    "request_reason": "Request a Large Item Pick Up",
    "date_created": "2022-05-12T20:00:02.000",
    "date_modified": "2022-05-12T20:00:03.000",
    "request_status": "Pending",
    "responsible_agency": "Department of Sanitation",
    "final_address": "247 26Th St",
    "address_councildis": "A",
    "status": "Assigned to Contractor",
    "contractor": "Metro Disposal",
    "rowid": "882599",
    "final_x": "3665425.04391",
    "final_y": "549963.070932",
    "longitude": "-90.11821187276081",
    "latitude": "30.006686212314953",
    "geocoded_column": {
      "latitude": "30.006686212314953",
      "longitude": "-90.11821187276081"
    }
  },
  {
    "service_request": "2022-882598",
    "request_type": "Trash/Recycling",
    "request_reason": "MIssed Recycling Pick-Up",
    "date_created": "2022-05-12T19:58:46.000",
    "date_modified": "2022-05-12T19:58:47.000",
    "request_status": "Pending",
    "responsible_agency": "Department of Sanitation",
    "final_address": "3519 Octavia St",
    "address_councildis": "A",
    "status": "Assigned to Contractor",
    "contractor": "Richards Disposal",
    "rowid": "882598",
    "final_x": "3668621.03009",
    "final_y": "528481.366784",
    "longitude": "-90.10884013589454",
    "latitude": "29.947525187559744",
    "geocoded_column": {
      "latitude": "29.947525187559744",
      "longitude": "-90.10884013589454"
    }
  },
  {
    "service_request": "2022-882597",
    "request_type": "Trash/Recycling",
    "request_reason": "MIssed Recycling Pick-Up",
    "date_created": "2022-05-12T19:56:23.000",
    "date_modified": "2022-05-12T19:56:23.000",
    "request_status": "Pending",
    "responsible_agency": "Department of Sanitation",
    "final_address": "1525 Dufossat St",
    "address_councildis": "B",
    "status": "Assigned to Contractor",
    "contractor": "Richards Disposal",
    "rowid": "882597",
    "final_x": "3668161.69364",
    "final_y": "520678.110521",
    "longitude": "-90.11055336688219",
    "latitude": "29.926082227758133",
    "geocoded_column": {
      "latitude": "29.926082227758133",
      "longitude": "-90.11055336688219"
    }
  },
  {
    "service_request": "2022-882596",
    "request_type": "Parks & Parkways",
    "request_reason": "Request Tree Service (Right of Way/Public Property)",
    "date_created": "2022-05-12T19:46:52.000",
    "date_modified": "2022-05-12T19:46:52.000",
    "request_status": "Pending",
    "responsible_agency": "Department of Parks & Parkway",
    "final_address": "2613 Burgundy St",
    "address_councildis": "C",
    "status": "Pending",
    "rowid": "882596",
    "final_x": "3687041.02863",
    "final_y": "535684.459655",
    "longitude": "-90.0504265620295",
    "latitude": "29.966777104295424",
    "geocoded_column": {
      "latitude": "29.966777104295424",
      "longitude": "-90.0504265620295"
    }
  },
  {
    "service_request": "2022-882595",
    "request_type": "Parks & Parkways",
    "request_reason": "Request Tree Service (Right of Way/Public Property)",
    "date_created": "2022-05-12T19:45:47.000",
    "date_modified": "2022-05-12T19:45:47.000",
    "request_status": "Pending",
    "responsible_agency": "Department of Parks & Parkway",
    "final_address": "7935 Burthe St",
    "address_councildis": "A",
    "status": "Pending",
    "rowid": "882595",
    "final_x": "3661643.83091",
    "final_y": "527296.258047",
    "longitude": "-90.13090923995533",
    "latitude": "29.944469691594854",
    "geocoded_column": {
      "latitude": "29.944469691594854",
      "longitude": "-90.13090923995533"
    }
  },
  {
    "service_request": "2022-882594",
    "request_type": "Trash/Recycling",
    "request_reason": "Missed Trash Pick-Up",
    "date_created": "2022-05-12T19:43:20.000",
    "date_modified": "2022-05-12T19:43:21.000",
    "request_status": "Pending",
    "responsible_agency": "Department of Sanitation",
    "final_address": "2535 Palmyra St",
    "address_councildis": "B",
    "status": "Assigned to Contractor",
    "contractor": "Richards Disposal",
    "rowid": "882594",
    "final_x": "3675468.26433",
    "final_y": "534109.526085",
    "longitude": "-90.08702745490838",
    "latitude": "29.962797770301883",
    "geocoded_column": {
      "latitude": "29.962797770301883",
      "longitude": "-90.08702745490838"
    }
  },
  {
    "service_request": "2022-882593",
    "request_type": "Safety & Permits",
    "request_reason": "Licenses & Permits",
    "date_created": "2022-05-12T19:42:59.000",
    "date_modified": "2022-05-12T19:43:00.000",
    "request_status": "Pending",
    "responsible_agency": "Safety and Permits",
    "final_address": "ROYAL ST & FRENCHMEN ST",
    "address_councildis": "C",
    "status": "Pending",
    "rowid": "882593",
    "final_x": "3684706.3",
    "final_y": "534833.58",
    "longitude": "-90.05782952690005",
    "latitude": "29.964509149186004",
    "geocoded_column": {
      "latitude": "29.964509149186004",
      "longitude": "-90.05782952690005"
    }
  },
  {
    "service_request": "2022-882592",
    "request_type": "Trash/Recycling",
    "request_reason": "MIssed Recycling Pick-Up",
    "date_created": "2022-05-12T19:38:25.000",
    "date_modified": "2022-05-12T19:38:27.000",
    "request_status": "Pending",
    "responsible_agency": "Department of Sanitation",
    "final_address": "514 Bellecastle St",
    "address_councildis": "B",
    "status": "Assigned to Contractor",
    "contractor": "Richards Disposal",
    "rowid": "882592",
    "final_x": "3667611.39258",
    "final_y": "517335.594613",
    "longitude": "-90.11240294170865",
    "latitude": "29.91690749840174",
    "geocoded_column": {
      "latitude": "29.91690749840174",
      "longitude": "-90.11240294170865"
    }
  },
  {
    "service_request": "2022-882591",
    "request_type": "Trash/Recycling",
    "request_reason": "Missed Trash Pick-Up",
    "date_created": "2022-05-12T19:27:19.000",
    "date_modified": "2022-05-12T19:27:20.000",
    "request_status": "Pending",
    "responsible_agency": "Department of Sanitation",
    "final_address": "2525 First St",
    "address_councildis": "B",
    "status": "Assigned to Contractor",
    "contractor": "Richards Disposal",
    "rowid": "882591",
    "final_x": "3675043.45345",
    "final_y": "526173.261182",
    "longitude": "-90.08864119242156",
    "latitude": "29.94098837774725",
    "geocoded_column": {
      "latitude": "29.94098837774725",
      "longitude": "-90.08864119242156"
    }
  },
  {
    "service_request": "2022-882590",
    "request_type": "Trash/Recycling",
    "request_reason": "Missed Trash Pick-Up",
    "date_created": "2022-05-12T19:23:32.000",
    "date_modified": "2022-05-12T19:23:32.000",
    "request_status": "Pending",
    "responsible_agency": "Department of Sanitation",
    "final_address": "1241 Constance St",
    "address_councildis": "B",
    "status": "Assigned to Contractor",
    "contractor": "Richards Disposal",
    "rowid": "882590",
    "final_x": "3680888.57999",
    "final_y": "525219.218237",
    "longitude": "-90.0702202832014",
    "latitude": "29.938189195610676",
    "geocoded_column": {
      "latitude": "29.938189195610676",
      "longitude": "-90.0702202832014"
    }
  },
  {
    "service_request": "2022-882589",
    "request_type": "Trash/Recycling",
    "request_reason": "Missed Trash Pick-Up",
    "date_created": "2022-05-12T19:21:30.000",
    "date_modified": "2022-05-12T19:21:30.000",
    "request_status": "Pending",
    "responsible_agency": "Department of Sanitation",
    "final_address": "1239 Constance St",
    "address_councildis": "B",
    "status": "Assigned to Contractor",
    "contractor": "Richards Disposal",
    "rowid": "882589",
    "final_x": "3680891.55976",
    "final_y": "525230.147517",
    "longitude": "-90.07021049543229",
    "latitude": "29.938219157181614",
    "geocoded_column": {
      "latitude": "29.938219157181614",
      "longitude": "-90.07021049543229"
    }
  },
  {
    "service_request": "2022-882588",
    "request_type": "Abandoned Vehicles",
    "request_reason": "Abandoned/Junk Vehicles",
    "date_created": "2022-05-12T19:21:23.000",
    "date_modified": "2022-05-12T19:21:23.000",
    "request_status": "Pending",
    "responsible_agency": "Department of Public Works",
    "final_address": "4405 Eden St Apt 3",
    "address_councildis": "B",
    "status": "Pending",
    "rowid": "882588",
    "final_x": "3669959.60814",
    "final_y": "530706.773698",
    "longitude": "-90.10453836264034",
    "latitude": "29.95360492654673",
    "geocoded_column": {
      "latitude": "29.95360492654673",
      "longitude": "-90.10453836264034"
    }
  },
  {
    "service_request": "2022-882587",
    "request_type": "Trash/Recycling",
    "request_reason": "Request a Large Item Pick Up",
    "date_created": "2022-05-12T19:09:10.000",
    "date_modified": "2022-05-12T19:09:11.000",
    "request_status": "Pending",
    "responsible_agency": "Department of Sanitation",
    "final_address": "3906 Orleans Ave",
    "address_councildis": "A",
    "status": "Assigned to Contractor",
    "contractor": "Richards Disposal",
    "rowid": "882587",
    "final_x": "3673129.11323",
    "final_y": "539672.51681",
    "longitude": "-90.09422423413557",
    "latitude": "29.978163865241385",
    "geocoded_column": {
      "latitude": "29.978163865241385",
      "longitude": "-90.09422423413557"
    }
  },
  {
    "service_request": "2022-882585",
    "request_type": "Trash/Recycling",
    "request_reason": "Missed Trash Pick-Up",
    "date_created": "2022-05-12T18:59:15.000",
    "date_modified": "2022-05-12T18:59:16.000",
    "request_status": "Pending",
    "responsible_agency": "Department of Sanitation",
    "final_address": "1909 Chippewa St",
    "address_councildis": "B",
    "status": "Assigned to Contractor",
    "contractor": "Richards Disposal",
    "rowid": "882585",
    "final_x": "3680691.44123",
    "final_y": "521653.047545",
    "longitude": "-90.07096670505065",
    "latitude": "29.928389377402418",
    "geocoded_column": {
      "latitude": "29.928389377402418",
      "longitude": "-90.07096670505065"
    }
  },
  {
    "service_request": "2022-882584",
    "request_type": "Roads/Drainage",
    "request_reason": "Street Subsidence (Sinking)",
    "date_created": "2022-05-12T18:56:18.000",
    "date_modified": "2022-05-12T18:56:18.000",
    "request_status": "Pending",
    "responsible_agency": "Department of Public Works",
    "final_address": "723 Governor Nicholls St",
    "address_councildis": "C",
    "status": "Pending",
    "rowid": "882584",
    "final_x": "3683524.40322",
    "final_y": "534050.645317",
    "longitude": "-90.06158930471648",
    "latitude": "29.962392470708824",
    "geocoded_column": {
      "latitude": "29.962392470708824",
      "longitude": "-90.06158930471648"
    }
  },
  {
    "service_request": "2022-882582",
    "request_type": "Trash/Recycling",
    "request_reason": "Missed Trash Pick-Up",
    "date_created": "2022-05-12T18:50:35.000",
    "date_modified": "2022-05-12T18:50:36.000",
    "request_status": "Pending",
    "responsible_agency": "Department of Sanitation",
    "final_address": "2701 S Miro St",
    "address_councildis": "B",
    "status": "Assigned to Contractor",
    "contractor": "Richards Disposal",
    "rowid": "882582",
    "final_x": "3672252.64987",
    "final_y": "528593.317056",
    "longitude": "-90.09736986753163",
    "latitude": "29.94772580249203",
    "geocoded_column": {
      "latitude": "29.94772580249203",
      "longitude": "-90.09736986753163"
    }
  },
  {
    "service_request": "2022-882581",
    "request_type": "Trash/Recycling",
    "request_reason": "Missed Trash Pick-Up",
    "date_created": "2022-05-12T18:50:24.000",
    "date_modified": "2022-05-12T18:50:24.000",
    "request_status": "Pending",
    "responsible_agency": "Department of Sanitation",
    "final_address": "7935 Burthe St",
    "address_councildis": "A",
    "status": "Assigned to Contractor",
    "contractor": "Richards Disposal",
    "rowid": "882581",
    "final_x": "3661643.83091",
    "final_y": "527296.258047",
    "longitude": "-90.13090923995533",
    "latitude": "29.944469691594854",
    "geocoded_column": {
      "latitude": "29.944469691594854",
      "longitude": "-90.13090923995533"
    }
  },
  {
    "service_request": "2022-882580",
    "request_type": "Trash/Recycling",
    "request_reason": "Missed Trash Pick-Up",
    "date_created": "2022-05-12T18:42:28.000",
    "date_modified": "2022-05-12T18:42:28.000",
    "request_status": "Pending",
    "responsible_agency": "Department of Sanitation",
    "final_address": "6026 St Charles Ave",
    "address_councildis": "A",
    "status": "Assigned to Contractor",
    "contractor": "Richards Disposal",
    "rowid": "882580",
    "final_x": "3665428.8832",
    "final_y": "522507.245306",
    "longitude": "-90.11911890483174",
    "latitude": "29.931191676763472",
    "geocoded_column": {
      "latitude": "29.931191676763472",
      "longitude": "-90.11911890483174"
    }
  },
  {
    "service_request": "2022-882579",
    "request_type": "Trash/Recycling",
    "request_reason": "Missed Trash Pick-Up",
    "date_created": "2022-05-12T18:39:48.000",
    "date_modified": "2022-05-12T18:39:49.000",
    "request_status": "Pending",
    "responsible_agency": "Department of Sanitation",
    "final_address": "2100 Camp St, New Orleans, Louisiana, 70130",
    "address_councildis": "B",
    "status": "Assigned to Contractor",
    "contractor": "Richards Disposal",
    "rowid": "882579",
    "final_x": "3678893.94773",
    "final_y": "522516.354106",
    "longitude": "-90.07661111160074",
    "latitude": "29.930817517003458",
    "geocoded_column": {
      "latitude": "29.930817517003458",
      "longitude": "-90.07661111160074"
    }
  },
  {
    "service_request": "2022-882578",
    "request_type": "Trash/Recycling",
    "request_reason": "Missed Trash Pick-Up",
    "date_created": "2022-05-12T18:38:43.000",
    "date_modified": "2022-05-12T18:38:44.000",
    "request_status": "Pending",
    "responsible_agency": "Department of Sanitation",
    "final_address": "1138 Josephine St, New Orleans, Louisiana, 70130",
    "address_councildis": "B",
    "status": "Assigned to Contractor",
    "contractor": "Richards Disposal",
    "rowid": "882578",
    "final_x": "3678939.07432",
    "final_y": "522549.966266",
    "longitude": "-90.0764674893942",
    "latitude": "29.930908578442235",
    "geocoded_column": {
      "latitude": "29.930908578442235",
      "longitude": "-90.0764674893942"
    }
  },
  {
    "service_request": "2022-882577",
    "request_type": "Trash/Recycling",
    "request_reason": "Missed Trash Pick-Up",
    "date_created": "2022-05-12T18:35:48.000",
    "date_modified": "2022-05-12T18:35:49.000",
    "request_status": "Pending",
    "responsible_agency": "Department of Sanitation",
    "final_address": "2914 Annunciation St",
    "address_councildis": "B",
    "status": "Assigned to Contractor",
    "contractor": "Richards Disposal",
    "rowid": "882577",
    "final_x": "3677134.08942",
    "final_y": "519513.446711",
    "longitude": "-90.08227024296154",
    "latitude": "29.922613452660002",
    "geocoded_column": {
      "latitude": "29.922613452660002",
      "longitude": "-90.08227024296154"
    }
  },
  {
    "service_request": "2022-882576",
    "request_type": "Trash/Recycling",
    "request_reason": "Missed Trash Pick-Up",
    "date_created": "2022-05-12T18:34:23.000",
    "date_modified": "2022-05-12T18:34:24.000",
    "request_status": "Pending",
    "responsible_agency": "Department of Sanitation",
    "final_address": "2911 Annunciation St",
    "address_councildis": "B",
    "status": "Assigned to Contractor",
    "contractor": "Richards Disposal",
    "rowid": "882576",
    "final_x": "3677119.22114",
    "final_y": "519591.127032",
    "longitude": "-90.08231449906575",
    "latitude": "29.922827494790358",
    "geocoded_column": {
      "latitude": "29.922827494790358",
      "longitude": "-90.08231449906575"
    }
  },
  {
    "service_request": "2022-882575",
    "request_type": "Trash/Recycling",
    "request_reason": "Missed Trash Pick-Up",
    "date_created": "2022-05-12T18:33:15.000",
    "date_modified": "2022-05-12T18:33:16.000",
    "request_status": "Pending",
    "responsible_agency": "Department of Sanitation",
    "final_address": "2908 Annunciation St",
    "address_councildis": "B",
    "status": "Assigned to Contractor",
    "contractor": "Richards Disposal",
    "rowid": "882575",
    "final_x": "3677169.18696",
    "final_y": "519540.395895",
    "longitude": "-90.0821585251264",
    "latitude": "29.92268650046469",
    "geocoded_column": {
      "latitude": "29.92268650046469",
      "longitude": "-90.0821585251264"
    }
  },
  {
    "service_request": "2022-882574",
    "request_type": "Trash/Recycling",
    "request_reason": "Missed Trash Pick-Up",
    "date_created": "2022-05-12T18:33:08.000",
    "date_modified": "2022-05-12T18:33:08.000",
    "request_status": "Pending",
    "responsible_agency": "Department of Sanitation",
    "final_address": "2408 Pine St, New Orleans, Louisiana, 70125",
    "address_councildis": "A",
    "status": "Assigned to Contractor",
    "contractor": "Richards Disposal",
    "rowid": "882574",
    "final_x": "3666358.19073",
    "final_y": "530441.541698",
    "longitude": "-90.11591906807385",
    "latitude": "29.952981329720956",
    "geocoded_column": {
      "latitude": "29.952981329720956",
      "longitude": "-90.11591906807385"
    }
  },
  {
    "service_request": "2022-882573",
    "request_type": "Trash/Recycling",
    "request_reason": "Missed Trash Pick-Up",
    "date_created": "2022-05-12T18:32:13.000",
    "date_modified": "2022-05-12T18:32:13.000",
    "request_status": "Pending",
    "responsible_agency": "Department of Sanitation",
    "final_address": "2910 Annunciation St",
    "address_councildis": "B",
    "status": "Assigned to Contractor",
    "contractor": "Richards Disposal",
    "rowid": "882573",
    "final_x": "3677159.15912",
    "final_y": "519534.755767",
    "longitude": "-90.08219037344494",
    "latitude": "29.922671293013128",
    "geocoded_column": {
      "latitude": "29.922671293013128",
      "longitude": "-90.08219037344494"
    }
  },
  {
    "service_request": "2022-882572",
    "request_type": "Trash/Recycling",
    "request_reason": "Missed Trash Pick-Up",
    "date_created": "2022-05-12T18:31:06.000",
    "date_modified": "2022-05-12T18:31:08.000",
    "request_status": "Pending",
    "responsible_agency": "Department of Sanitation",
    "final_address": "7933 Oak St",
    "address_councildis": "A",
    "status": "Assigned to Contractor",
    "contractor": "Richards Disposal",
    "rowid": "882572",
    "final_x": "3662402.46208",
    "final_y": "528037.597183",
    "longitude": "-90.12848939708095",
    "latitude": "29.94648622545902",
    "geocoded_column": {
      "latitude": "29.94648622545902",
      "longitude": "-90.12848939708095"
    }
  },
  {
    "service_request": "2022-882571",
    "request_type": "Trash/Recycling",
    "request_reason": "Missed Trash Pick-Up",
    "date_created": "2022-05-12T18:30:55.000",
    "date_modified": "2022-05-12T18:30:55.000",
    "request_status": "Pending",
    "responsible_agency": "Department of Sanitation",
    "final_address": "2912 Annunciation St",
    "address_councildis": "B",
    "status": "Assigned to Contractor",
    "contractor": "Richards Disposal",
    "rowid": "882571",
    "final_x": "3677146.62389",
    "final_y": "519523.474615",
    "longitude": "-90.08223033101143",
    "latitude": "29.922640649840694",
    "geocoded_column": {
      "latitude": "29.922640649840694",
      "longitude": "-90.08223033101143"
    }
  },
  {
    "service_request": "2022-882570",
    "request_type": "Trash/Recycling",
    "request_reason": "Missed Trash Pick-Up",
    "date_created": "2022-05-12T18:29:38.000",
    "date_modified": "2022-05-12T18:29:39.000",
    "request_status": "Pending",
    "responsible_agency": "Department of Sanitation",
    "final_address": "915 Thalia St",
    "address_councildis": "B",
    "status": "Assigned to Contractor",
    "contractor": "Richards Disposal",
    "rowid": "882570",
    "final_x": "3681195.47324",
    "final_y": "525113.379773",
    "longitude": "-90.06925507965235",
    "latitude": "29.93788886923079",
    "geocoded_column": {
      "latitude": "29.93788886923079",
      "longitude": "-90.06925507965235"
    }
  },
  {
    "service_request": "2022-882569",
    "request_type": "Trash/Recycling",
    "request_reason": "Missed Trash Pick-Up",
    "date_created": "2022-05-12T18:26:43.000",
    "date_modified": "2022-05-12T18:26:44.000",
    "request_status": "Pending",
    "responsible_agency": "Department of Sanitation",
    "final_address": "900 BLK Seventh St",
    "address_councildis": "B",
    "status": "Assigned to Contractor",
    "contractor": "Richards Disposal",
    "rowid": "882569",
    "final_x": "3676674.98027",
    "final_y": "519914.529512",
    "longitude": "-90.08370566057935",
    "latitude": "29.923730076055648",
    "geocoded_column": {
      "latitude": "29.923730076055648",
      "longitude": "-90.08370566057935"
    }
  },
  {
    "service_request": "2022-882568",
    "request_type": "Trash/Recycling",
    "request_reason": "Missed Trash Pick-Up",
    "date_created": "2022-05-12T18:25:48.000",
    "date_modified": "2022-05-12T18:25:49.000",
    "request_status": "Pending",
    "responsible_agency": "Department of Sanitation",
    "final_address": "2114 Freret St",
    "address_councildis": "B",
    "status": "Assigned to Contractor",
    "contractor": "Richards Disposal",
    "rowid": "882568",
    "final_x": "3675827.46683",
    "final_y": "526435.974718",
    "longitude": "-90.08615688992354",
    "latitude": "29.941687312682568",
    "geocoded_column": {
      "latitude": "29.941687312682568",
      "longitude": "-90.08615688992354"
    }
  },
  {
    "service_request": "2022-882567",
    "request_type": "Trash/Recycling",
    "request_reason": "MIssed Recycling Pick-Up",
    "date_created": "2022-05-12T18:22:35.000",
    "date_modified": "2022-05-12T18:22:36.000",
    "request_status": "Pending",
    "responsible_agency": "Department of Sanitation",
    "final_address": "609 Eleonore St",
    "address_councildis": "A",
    "status": "Assigned to Contractor",
    "contractor": "Richards Disposal",
    "rowid": "882567",
    "final_x": "3665134.981",
    "final_y": "518484.693558",
    "longitude": "-90.12018116679658",
    "latitude": "29.920139485356092",
    "geocoded_column": {
      "latitude": "29.920139485356092",
      "longitude": "-90.12018116679658"
    }
  },
  {
    "service_request": "2022-882566",
    "request_type": "Trash/Recycling",
    "request_reason": "Missed Trash Pick-Up",
    "date_created": "2022-05-12T18:15:47.000",
    "date_modified": "2022-05-12T18:15:48.000",
    "request_status": "Pending",
    "responsible_agency": "Department of Sanitation",
    "final_address": "1800 BLK First St",
    "address_councildis": "B",
    "status": "Assigned to Contractor",
    "contractor": "Richards Disposal",
    "rowid": "882566",
    "final_x": "3676447.10081",
    "final_y": "523972.782223",
    "longitude": "-90.08428535067644",
    "latitude": "29.934895783034587",
    "geocoded_column": {
      "latitude": "29.934895783034587",
      "longitude": "-90.08428535067644"
    }
  },
  {
    "service_request": "2022-882565",
    "request_type": "Trash/Recycling",
    "request_reason": "Missed Trash Pick-Up",
    "date_created": "2022-05-12T18:14:38.000",
    "date_modified": "2022-05-12T18:14:38.000",
    "request_status": "Pending",
    "responsible_agency": "Department of Sanitation",
    "final_address": "2234 Upperline St, New Orleans, Louisiana, 70115",
    "address_councildis": "B",
    "status": "Assigned to Contractor",
    "contractor": "Richards Disposal",
    "rowid": "882565",
    "final_x": "3669058.16033",
    "final_y": "523103.464955",
    "longitude": "-90.10764157652953",
    "latitude": "29.93272484293292",
    "geocoded_column": {
      "latitude": "29.93272484293292",
      "longitude": "-90.10764157652953"
    }
  },
  {
    "service_request": "2022-882564",
    "request_type": "Trash/Recycling",
    "request_reason": "Missed Trash Pick-Up",
    "date_created": "2022-05-12T18:13:40.000",
    "date_modified": "2022-05-12T18:13:40.000",
    "request_status": "Pending",
    "responsible_agency": "Department of Sanitation",
    "final_address": "1400 BLK Saint Mary St",
    "address_councildis": "B",
    "status": "Assigned to Contractor",
    "contractor": "Richards Disposal",
    "rowid": "882564",
    "final_x": "3678897.43449",
    "final_y": "523755.609757",
    "longitude": "-90.07655719524031",
    "latitude": "29.934224958007146",
    "geocoded_column": {
      "latitude": "29.934224958007146",
      "longitude": "-90.07655719524031"
    }
  },
  {
    "service_request": "2022-882563",
    "request_type": "Trash/Recycling",
    "request_reason": "MIssed Recycling Pick-Up",
    "date_created": "2022-05-12T18:09:34.000",
    "date_modified": "2022-05-12T18:09:35.000",
    "request_status": "Pending",
    "responsible_agency": "Department of Sanitation",
    "final_address": "923 Arabella St",
    "address_councildis": "A",
    "status": "Assigned to Contractor",
    "contractor": "Richards Disposal",
    "rowid": "882563",
    "final_x": "3665983.9161",
    "final_y": "519442.389943",
    "longitude": "-90.11746939698402",
    "latitude": "29.922748108338315",
    "geocoded_column": {
      "latitude": "29.922748108338315",
      "longitude": "-90.11746939698402"
    }
  },
  {
    "service_request": "2022-882562",
    "request_type": "Trash/Recycling",
    "request_reason": "MIssed Recycling Pick-Up",
    "date_created": "2022-05-12T18:07:31.000",
    "date_modified": "2022-05-12T18:07:32.000",
    "request_status": "Pending",
    "responsible_agency": "Department of Sanitation",
    "final_address": "5351 Tchoupitoulas St",
    "address_councildis": "B",
    "status": "Assigned to Contractor",
    "contractor": "Richards Disposal",
    "rowid": "882562",
    "final_x": "3666843.49517",
    "final_y": "517212.276725",
    "longitude": "-90.11483089618059",
    "latitude": "29.916590888881792",
    "geocoded_column": {
      "latitude": "29.916590888881792",
      "longitude": "-90.11483089618059"
    }
  },
  {
    "service_request": "2022-882560",
    "request_type": "Trash/Recycling",
    "request_reason": "Missed Trash Pick-Up",
    "date_created": "2022-05-12T17:58:33.000",
    "date_modified": "2022-05-12T17:58:33.000",
    "request_status": "Pending",
    "responsible_agency": "Department of Sanitation",
    "final_address": "2053 Chippewa St, New Orleans, Louisiana, 70130",
    "address_councildis": "B",
    "status": "Assigned to Contractor",
    "contractor": "Richards Disposal",
    "rowid": "882560",
    "final_x": "3680131.4141",
    "final_y": "521261.502649",
    "longitude": "-90.07274818635328",
    "latitude": "29.927329710260626",
    "geocoded_column": {
      "latitude": "29.927329710260626",
      "longitude": "-90.07274818635328"
    }
  },
  {
    "service_request": "2022-882559",
    "request_type": "Trash/Recycling",
    "request_reason": "Illegal Dumping",
    "date_created": "2022-05-12T17:57:11.000",
    "date_modified": "2022-05-12T17:57:12.000",
    "request_status": "Pending",
    "responsible_agency": "Department of Code Enforcement",
    "final_address": "2316 Milan St",
    "address_councildis": "B",
    "status": "Pending",
    "rowid": "882559",
    "final_x": "3671291.71515",
    "final_y": "523568.753147",
    "longitude": "-90.10057460389051",
    "latitude": "29.933938351117508",
    "geocoded_column": {
      "latitude": "29.933938351117508",
      "longitude": "-90.10057460389051"
    }
  },
  {
    "service_request": "2022-882558",
    "request_type": "Trash/Recycling",
    "request_reason": "Replace Trash Cart",
    "date_created": "2022-05-12T17:48:46.000",
    "date_modified": "2022-05-12T17:48:46.000",
    "request_status": "Pending",
    "responsible_agency": "Department of Sanitation",
    "final_address": "2600 Flood St",
    "address_councildis": "E",
    "status": "Assigned to Contractor",
    "contractor": "Metro Disposal",
    "rowid": "882558",
    "final_x": "3699201.86928",
    "final_y": "539509.23841",
    "longitude": "-90.01188360542093",
    "latitude": "29.976913883358364",
    "geocoded_column": {
      "latitude": "29.976913883358364",
      "longitude": "-90.01188360542093"
    }
  },
  {
    "service_request": "2022-882557",
    "request_type": "Property Maintenance",
    "request_reason": "Property Maintenance",
    "date_created": "2022-05-12T17:47:45.000",
    "date_modified": "2022-05-12T17:47:45.000",
    "request_status": "Pending",
    "responsible_agency": "Department of Code Enforcement",
    "final_address": "2602 Flood St",
    "address_councildis": "E",
    "status": "Pending",
    "rowid": "882557",
    "final_x": "3699208.32842",
    "final_y": "539541.969674",
    "longitude": "-90.01186201332513",
    "latitude": "29.977003677639832",
    "geocoded_column": {
      "latitude": "29.977003677639832",
      "longitude": "-90.01186201332513"
    }
  },
  {
    "service_request": "2022-882556",
    "request_type": "Trash/Recycling",
    "request_reason": "Missed Trash Pick-Up",
    "date_created": "2022-05-12T17:47:04.000",
    "date_modified": "2022-05-12T17:47:49.000",
    "request_status": "Pending",
    "responsible_agency": "Department of Sanitation",
    "final_address": "7822 Oak St",
    "address_councildis": "A",
    "status": "Assigned to Contractor",
    "contractor": "Richards Disposal",
    "rowid": "882556",
    "final_x": "3662631.63322",
    "final_y": "527712.712639",
    "longitude": "-90.12777661128112",
    "latitude": "29.945586269025636",
    "geocoded_column": {
      "latitude": "29.945586269025636",
      "longitude": "-90.12777661128112"
    }
  },
  {
    "service_request": "2022-882555",
    "request_type": "Property Maintenance",
    "request_reason": "Property Maintenance",
    "date_created": "2022-05-12T17:46:08.000",
    "date_modified": "2022-05-12T17:46:08.000",
    "request_status": "Pending",
    "responsible_agency": "Department of Code Enforcement",
    "final_address": "2602 Flood St",
    "address_councildis": "E",
    "status": "Pending",
    "rowid": "882555",
    "final_x": "3699208.32842",
    "final_y": "539541.969674",
    "longitude": "-90.01186201332513",
    "latitude": "29.977003677639832",
    "geocoded_column": {
      "latitude": "29.977003677639832",
      "longitude": "-90.01186201332513"
    }
  },
  {
    "service_request": "2022-882554",
    "request_type": "Trash/Recycling",
    "request_reason": "Missed Trash Pick-Up",
    "date_created": "2022-05-12T17:44:08.000",
    "date_modified": "2022-05-12T17:44:09.000",
    "request_status": "Pending",
    "responsible_agency": "Department of Sanitation",
    "final_address": "1533 Washington Ave",
    "address_councildis": "B",
    "status": "Assigned to Contractor",
    "contractor": "Richards Disposal",
    "rowid": "882554",
    "final_x": "3676110.31809",
    "final_y": "522374.93049",
    "longitude": "-90.08540350910295",
    "latitude": "29.930512302033204",
    "geocoded_column": {
      "latitude": "29.930512302033204",
      "longitude": "-90.08540350910295"
    }
  },
  {
    "service_request": "2022-882553",
    "request_type": "Roads/Drainage",
    "request_reason": "Street Flooding / Drainage",
    "date_created": "2022-05-12T17:41:09.000",
    "date_modified": "2022-05-12T17:41:09.000",
    "request_status": "Pending",
    "responsible_agency": "Department of Public Works",
    "final_address": "1602 S Norman C Francis Prkwy",
    "address_councildis": "B",
    "status": "Pending",
    "rowid": "882553",
    "final_x": "3669539.37031",
    "final_y": "531188.170434",
    "longitude": "-90.10584901749769",
    "latitude": "29.954940994302866",
    "geocoded_column": {
      "latitude": "29.954940994302866",
      "longitude": "-90.10584901749769"
    }
  },
  {
    "service_request": "2022-882552",
    "request_type": "Roads/Drainage",
    "request_reason": "Debris in Roadway",
    "date_created": "2022-05-12T17:36:19.000",
    "date_modified": "2022-05-12T17:36:19.000",
    "request_status": "Pending",
    "responsible_agency": "Department of Public Works",
    "final_address": "335 Lowerline St",
    "address_councildis": "A",
    "status": "Pending",
    "rowid": "882552",
    "final_x": "3661564.48794",
    "final_y": "523591.679867",
    "longitude": "-90.13128245245194",
    "latitude": "29.934285564215774",
    "geocoded_column": {
      "latitude": "29.934285564215774",
      "longitude": "-90.13128245245194"
    }
  },
  {
    "service_request": "2022-882551",
    "request_type": "Safety & Permits",
    "request_reason": "Licenses & Permits",
    "date_created": "2022-05-12T17:33:44.000",
    "date_modified": "2022-05-12T17:33:44.000",
    "request_status": "Pending",
    "responsible_agency": "Safety and Permits",
    "final_address": "900 Royal St",
    "address_councildis": "C",
    "status": "Pending",
    "rowid": "882551",
    "final_x": "3683035.21973",
    "final_y": "533049.216964",
    "longitude": "-90.06316912983237",
    "latitude": "29.95965380550748",
    "geocoded_column": {
      "latitude": "29.95965380550748",
      "longitude": "-90.06316912983237"
    }
  },
  {
    "service_request": "2022-882550",
    "request_type": "Property Maintenance",
    "request_reason": "Property Maintenance",
    "date_created": "2022-05-12T17:32:20.000",
    "date_modified": "2022-05-12T17:32:21.000",
    "request_status": "Pending",
    "responsible_agency": "Department of Code Enforcement",
    "final_address": "191 Westpark Ct",
    "address_councildis": "C",
    "status": "Pending",
    "rowid": "882550",
    "final_x": "3695774.30602",
    "final_y": "522398.393786",
    "longitude": "-90.02332672433009",
    "latitude": "29.929973303604545",
    "geocoded_column": {
      "latitude": "29.929973303604545",
      "longitude": "-90.02332672433009"
    }
  },
  {
    "service_request": "2022-882549",
    "request_type": "Roads/Drainage",
    "request_reason": "Street Flooding / Drainage",
    "date_created": "2022-05-12T17:31:37.000",
    "date_modified": "2022-05-12T17:31:37.000",
    "request_status": "Pending",
    "responsible_agency": "Department of Public Works",
    "final_address": "4520 Eve St",
    "address_councildis": "B",
    "status": "Pending",
    "rowid": "882549",
    "final_x": "3669620.52346",
    "final_y": "531132.324098",
    "longitude": "-90.10559465522043",
    "latitude": "29.954785044569643",
    "geocoded_column": {
      "latitude": "29.954785044569643",
      "longitude": "-90.10559465522043"
    }
  },
  {
    "service_request": "2022-882548",
    "request_type": "Trash/Recycling",
    "request_reason": "MIssed Recycling Pick-Up",
    "date_created": "2022-05-12T17:29:27.000",
    "date_modified": "2022-05-12T17:29:28.000",
    "request_status": "Pending",
    "responsible_agency": "Department of Sanitation",
    "final_address": "700 Block of Jefferson Ave, New Orleans, Louisiana, 70115",
    "status": "Assigned to Contractor",
    "rowid": "882548",
    "longitude": "0.0",
    "latitude": "0.0",
    "geocoded_column": {
      "latitude": "0.0",
      "longitude": "0.0"
    }
  },
  {
    "service_request": "2022-882547",
    "request_type": "Trash/Recycling",
    "request_reason": "MIssed Recycling Pick-Up",
    "date_created": "2022-05-12T17:24:04.000",
    "date_modified": "2022-05-12T17:24:04.000",
    "request_status": "Pending",
    "responsible_agency": "Department of Sanitation",
    "final_address": "2309 Seminole Ln",
    "address_councildis": "B",
    "status": "Assigned to Contractor",
    "contractor": "Richards Disposal",
    "rowid": "882547",
    "final_x": "3673876.99803",
    "final_y": "528332.710464",
    "longitude": "-90.0922500643891",
    "latitude": "29.946960943205077",
    "geocoded_column": {
      "latitude": "29.946960943205077",
      "longitude": "-90.0922500643891"
    }
  },
  {
    "service_request": "2022-882546",
    "request_type": "Trash/Recycling",
    "request_reason": "Missed Trash Pick-Up",
    "date_created": "2022-05-12T17:22:09.000",
    "date_modified": "2022-05-12T17:22:09.000",
    "request_status": "Pending",
    "responsible_agency": "Department of Sanitation",
    "final_address": "321 Lowerline St",
    "address_councildis": "A",
    "status": "Assigned to Contractor",
    "contractor": "Richards Disposal",
    "rowid": "882546",
    "final_x": "3661503.16493",
    "final_y": "523503.154299",
    "longitude": "-90.13147897965148",
    "latitude": "29.934043915529575",
    "geocoded_column": {
      "latitude": "29.934043915529575",
      "longitude": "-90.13147897965148"
    }
  },
  {
    "service_request": "2022-882545",
    "request_type": "Trash/Recycling",
    "request_reason": "Missed Trash Pick-Up",
    "date_created": "2022-05-12T17:21:44.000",
    "date_modified": "2022-05-12T17:21:44.000",
    "request_status": "Pending",
    "responsible_agency": "Department of Sanitation",
    "final_address": "3221 Laurel St",
    "address_councildis": "B",
    "status": "Assigned to Contractor",
    "contractor": "Richards Disposal",
    "rowid": "882545",
    "final_x": "3675953.58081",
    "final_y": "519287.504759",
    "longitude": "-90.0860044036573",
    "latitude": "29.92202757329186",
    "geocoded_column": {
      "latitude": "29.92202757329186",
      "longitude": "-90.0860044036573"
    }
  },
  {
    "service_request": "2022-882544",
    "request_type": "Trash/Recycling",
    "request_reason": "MIssed Recycling Pick-Up",
    "date_created": "2022-05-12T17:15:48.000",
    "date_modified": "2022-05-12T17:15:49.000",
    "request_status": "Pending",
    "responsible_agency": "Department of Sanitation",
    "final_address": "1461 Nashville Ave",
    "address_councildis": "A",
    "status": "Assigned to Contractor",
    "contractor": "Richards Disposal",
    "rowid": "882544",
    "final_x": "3666124.3577",
    "final_y": "521412.214457",
    "longitude": "-90.1169600695963",
    "latitude": "29.928160406162593",
    "geocoded_column": {
      "latitude": "29.928160406162593",
      "longitude": "-90.1169600695963"
    }
  },
  {
    "service_request": "2022-882543",
    "request_type": "Trash/Recycling",
    "request_reason": "MIssed Recycling Pick-Up",
    "date_created": "2022-05-12T17:14:17.000",
    "date_modified": "2022-05-12T17:14:18.000",
    "request_status": "Pending",
    "responsible_agency": "Department of Sanitation",
    "final_address": "2309 Seminole Ln",
    "address_councildis": "B",
    "status": "Assigned to Contractor",
    "contractor": "Richards Disposal",
    "rowid": "882543",
    "final_x": "3673876.99803",
    "final_y": "528332.710464",
    "longitude": "-90.0922500643891",
    "latitude": "29.946960943205077",
    "geocoded_column": {
      "latitude": "29.946960943205077",
      "longitude": "-90.0922500643891"
    }
  },
  {
    "service_request": "2022-882541",
    "request_type": "Trash/Recycling",
    "request_reason": "MIssed Recycling Pick-Up",
    "date_created": "2022-05-12T17:10:01.000",
    "date_modified": "2022-05-12T17:10:02.000",
    "request_status": "Pending",
    "responsible_agency": "Department of Sanitation",
    "final_address": "5826 Clara St",
    "address_councildis": "A",
    "status": "Assigned to Contractor",
    "contractor": "Richards Disposal",
    "rowid": "882541",
    "final_x": "3666914.57978",
    "final_y": "525225.735933",
    "longitude": "-90.11433743670578",
    "latitude": "29.938623284611396",
    "geocoded_column": {
      "latitude": "29.938623284611396",
      "longitude": "-90.11433743670578"
    }
  },
  {
    "service_request": "2022-882540",
    "request_type": "Traffic Signals/Signs/Striping/Streetlights",
    "request_reason": "Traffic Signal Malfunctioning/Damaged",
    "date_created": "2022-05-12T17:08:44.000",
    "date_modified": "2022-05-12T17:08:44.000",
    "request_status": "Pending",
    "responsible_agency": "Department of Public Works",
    "final_address": "808 State St",
    "address_councildis": "A",
    "status": "Pending",
    "rowid": "882540",
    "final_x": "3664690.2432",
    "final_y": "519353.713079",
    "longitude": "-90.12155598798749",
    "latitude": "29.92254195702695",
    "geocoded_column": {
      "latitude": "29.92254195702695",
      "longitude": "-90.12155598798749"
    }
  },
  {
    "service_request": "2022-882539",
    "request_type": "Trash/Recycling",
    "request_reason": "Return Trash Cart",
    "date_created": "2022-05-12T17:06:36.000",
    "date_modified": "2022-05-12T17:06:37.000",
    "request_status": "Pending",
    "responsible_agency": "Department of Sanitation",
    "final_address": "1459 Magazine St",
    "address_councildis": "B",
    "status": "Assigned to Contractor",
    "contractor": "Richards Disposal",
    "rowid": "882539",
    "final_x": "3680211.98971",
    "final_y": "524055.71046",
    "longitude": "-90.07239676331734",
    "latitude": "29.935010424952612",
    "geocoded_column": {
      "latitude": "29.935010424952612",
      "longitude": "-90.07239676331734"
    }
  },
  {
    "service_request": "2022-882538",
    "request_type": "Trash/Recycling",
    "request_reason": "Missed Trash Pick-Up",
    "date_created": "2022-05-12T17:05:24.000",
    "date_modified": "2022-05-12T17:05:25.000",
    "request_status": "Pending",
    "responsible_agency": "Department of Sanitation",
    "final_address": "1461 Magazine St",
    "address_councildis": "B",
    "status": "Assigned to Contractor",
    "contractor": "Richards Disposal",
    "rowid": "882538",
    "final_x": "3680202.78491",
    "final_y": "524023.150652",
    "longitude": "-90.0724269539209",
    "latitude": "29.934921174757065",
    "geocoded_column": {
      "latitude": "29.934921174757065",
      "longitude": "-90.0724269539209"
    }
  },
  {
    "service_request": "2022-882537",
    "request_type": "Trash/Recycling",
    "request_reason": "MIssed Recycling Pick-Up",
    "date_created": "2022-05-12T17:02:36.000",
    "date_modified": "2022-05-12T17:02:38.000",
    "request_status": "Pending",
    "responsible_agency": "Department of Sanitation",
    "final_address": "2015 State St",
    "address_councildis": "A",
    "status": "Assigned to Contractor",
    "contractor": "Richards Disposal",
    "rowid": "882537",
    "final_x": "3666393.45767",
    "final_y": "524150.65478",
    "longitude": "-90.11601873945807",
    "latitude": "29.935682388949466",
    "geocoded_column": {
      "latitude": "29.935682388949466",
      "longitude": "-90.11601873945807"
    }
  },
  {
    "service_request": "2022-882536",
    "request_type": "Trash/Recycling",
    "request_reason": "MIssed Recycling Pick-Up",
    "date_created": "2022-05-12T16:58:56.000",
    "date_modified": "2022-05-12T16:58:57.000",
    "request_status": "Pending",
    "responsible_agency": "Department of Sanitation",
    "final_address": "609 Eleonore St",
    "address_councildis": "A",
    "status": "Assigned to Contractor",
    "contractor": "Richards Disposal",
    "rowid": "882536",
    "final_x": "3665134.981",
    "final_y": "518484.693558",
    "longitude": "-90.12018116679658",
    "latitude": "29.920139485356092",
    "geocoded_column": {
      "latitude": "29.920139485356092",
      "longitude": "-90.12018116679658"
    }
  },
  {
    "service_request": "2022-882535",
    "request_type": "Trash/Recycling",
    "request_reason": "Order Trash Cart",
    "date_created": "2022-05-12T16:54:40.000",
    "date_modified": "2022-05-12T16:54:41.000",
    "request_status": "Pending",
    "responsible_agency": "Department of Sanitation",
    "final_address": "3212 Potomac St",
    "address_councildis": "C",
    "status": "Assigned to Contractor",
    "contractor": "Richards Disposal",
    "rowid": "882535",
    "final_x": "3694671.40266",
    "final_y": "517890.526326",
    "longitude": "-90.02697063038424",
    "latitude": "29.917612819258196",
    "geocoded_column": {
      "latitude": "29.917612819258196",
      "longitude": "-90.02697063038424"
    }
  },
  {
    "service_request": "2022-882534",
    "request_type": "Trash/Recycling",
    "request_reason": "Replace Trash Cart",
    "date_created": "2022-05-12T16:48:55.000",
    "date_modified": "2022-05-12T16:48:56.000",
    "request_status": "Pending",
    "responsible_agency": "Department of Sanitation",
    "final_address": "2214 Lapeyrouse St",
    "address_councildis": "D",
    "status": "Assigned to Contractor",
    "contractor": "Metro Disposal",
    "rowid": "882534",
    "final_x": "3680351.64059",
    "final_y": "539124.928778",
    "longitude": "-90.07143196632114",
    "latitude": "29.976441451484092",
    "geocoded_column": {
      "latitude": "29.976441451484092",
      "longitude": "-90.07143196632114"
    }
  },
  {
    "service_request": "2022-882533",
    "request_type": "Trash/Recycling",
    "request_reason": "MIssed Recycling Pick-Up",
    "date_created": "2022-05-12T16:45:29.000",
    "date_modified": "2022-05-12T16:45:30.000",
    "request_status": "Pending",
    "responsible_agency": "Department of Sanitation",
    "final_address": "1106 Nashville Ave, New Orleans, Louisiana, 70115",
    "address_councildis": "A",
    "status": "Assigned to Contractor",
    "contractor": "Richards Disposal",
    "rowid": "882533",
    "final_x": "3665699.4457",
    "final_y": "520107.234936",
    "longitude": "-90.11834510798866",
    "latitude": "29.924584520037666",
    "geocoded_column": {
      "latitude": "29.924584520037666",
      "longitude": "-90.11834510798866"
    }
  },
  {
    "service_request": "2022-882531",
    "request_type": "Trash/Recycling",
    "request_reason": "Missed Trash Pick-Up",
    "date_created": "2022-05-12T16:45:09.000",
    "date_modified": "2022-05-12T16:45:10.000",
    "request_status": "Pending",
    "responsible_agency": "Department of Sanitation",
    "final_address": "2719 S Robertson St, New Orleans, Louisiana, 70113",
    "address_councildis": "B",
    "status": "Assigned to Contractor",
    "contractor": "Richards Disposal",
    "rowid": "882531",
    "final_x": "3674035.50312",
    "final_y": "525661.724733",
    "longitude": "-90.09184097725526",
    "latitude": "29.939611887690873",
    "geocoded_column": {
      "latitude": "29.939611887690873",
      "longitude": "-90.09184097725526"
    }
  },
  {
    "service_request": "2022-882530",
    "request_type": "Trash/Recycling",
    "request_reason": "Order Trash Cart",
    "date_created": "2022-05-12T16:44:30.000",
    "date_modified": "2022-05-12T16:44:32.000",
    "request_status": "Pending",
    "responsible_agency": "Department of Sanitation",
    "final_address": "3952 Odin St",
    "address_councildis": "D",
    "status": "Assigned to Contractor",
    "contractor": "Metro Disposal",
    "rowid": "882530",
    "final_x": "3688731.19548",
    "final_y": "553898.485847",
    "longitude": "-90.04444202869264",
    "latitude": "30.016806982891058",
    "geocoded_column": {
      "latitude": "30.016806982891058",
      "longitude": "-90.04444202869264"
    }
  },
  {
    "service_request": "2022-882529",
    "request_type": "Trash/Recycling",
    "request_reason": "Missed Trash Pick-Up",
    "date_created": "2022-05-12T16:39:19.000",
    "date_modified": "2022-05-12T16:39:20.000",
    "request_status": "Pending",
    "responsible_agency": "Department of Sanitation",
    "final_address": "2609 Palmyra St",
    "address_councildis": "B",
    "status": "Assigned to Contractor",
    "contractor": "Richards Disposal",
    "rowid": "882529",
    "final_x": "3675271.0667",
    "final_y": "534211.155589",
    "longitude": "-90.08764669133168",
    "latitude": "29.963083113418957",
    "geocoded_column": {
      "latitude": "29.963083113418957",
      "longitude": "-90.08764669133168"
    }
  },
  {
    "service_request": "2022-882528",
    "request_type": "Trash/Recycling",
    "request_reason": "Missed Trash Pick-Up",
    "date_created": "2022-05-12T16:37:19.000",
    "date_modified": "2022-05-12T16:37:20.000",
    "request_status": "Pending",
    "responsible_agency": "Department of Sanitation",
    "final_address": "7033 Freret St, New Orleans, Louisiana, 70118",
    "address_councildis": "A",
    "status": "Assigned to Contractor",
    "contractor": "Richards Disposal",
    "rowid": "882528",
    "final_x": "3664165.71316",
    "final_y": "525684.712701",
    "longitude": "-90.12300063311314",
    "latitude": "29.93996544866302",
    "geocoded_column": {
      "latitude": "29.93996544866302",
      "longitude": "-90.12300063311314"
    }
  },
  {
    "service_request": "2022-882526",
    "request_type": "Trash/Recycling",
    "request_reason": "Missed Trash Pick-Up",
    "date_created": "2022-05-12T16:35:02.000",
    "date_modified": "2022-05-12T16:35:03.000",
    "request_status": "Pending",
    "responsible_agency": "Department of Sanitation",
    "final_address": "2519 Loyola Ave",
    "address_councildis": "B",
    "status": "Assigned to Contractor",
    "contractor": "Richards Disposal",
    "rowid": "882526",
    "final_x": "3675325.86101",
    "final_y": "524742.52422",
    "longitude": "-90.08779868069543",
    "latitude": "29.937045881826396",
    "geocoded_column": {
      "latitude": "29.937045881826396",
      "longitude": "-90.08779868069543"
    }
  },
  {
    "service_request": "2022-882525",
    "request_type": "Traffic Signals/Signs/Striping/Streetlights",
    "request_reason": "Traffic Signal Malfunctioning/Damaged",
    "date_created": "2022-05-12T16:31:51.000",
    "date_modified": "2022-05-12T16:31:52.000",
    "request_status": "Pending",
    "responsible_agency": "Department of Public Works",
    "final_address": "CHEF MENTEUR HWY & DOWNMAN RD & CHEF MENTEUR BRIDGE",
    "address_councildis": "D",
    "status": "Pending",
    "rowid": "882525",
    "final_x": "3696211.9",
    "final_y": "551507.88",
    "longitude": "-90.02089277553281",
    "latitude": "30.010000220946775",
    "geocoded_column": {
      "latitude": "30.010000220946775",
      "longitude": "-90.02089277553281"
    }
  },
  {
    "service_request": "2022-882524",
    "request_type": "Trash/Recycling",
    "request_reason": "Missed Trash Pick-Up",
    "date_created": "2022-05-12T16:23:58.000",
    "date_modified": "2022-05-12T16:23:58.000",
    "request_status": "Pending",
    "responsible_agency": "Department of Sanitation",
    "final_address": "1415 S Roman St",
    "address_councildis": "B",
    "status": "Assigned to Contractor",
    "contractor": "Richards Disposal",
    "rowid": "882524",
    "final_x": "3674496.55944",
    "final_y": "528699.801792",
    "longitude": "-90.09028130333564",
    "latitude": "29.947951856687222",
    "geocoded_column": {
      "latitude": "29.947951856687222",
      "longitude": "-90.09028130333564"
    }
  },
  {
    "service_request": "2022-882523",
    "request_type": "Trash/Recycling",
    "request_reason": "Missed Trash Pick-Up",
    "date_created": "2022-05-12T16:22:53.000",
    "date_modified": "2022-05-12T16:22:53.000",
    "request_status": "Pending",
    "responsible_agency": "Department of Sanitation",
    "final_address": "127 Alvin Callender St",
    "address_councildis": "A",
    "status": "Assigned to Contractor",
    "contractor": "Richards Disposal",
    "rowid": "882523",
    "final_x": "3661079.35078",
    "final_y": "523318.053627",
    "longitude": "-90.13282307405838",
    "latitude": "29.933547163249973",
    "geocoded_column": {
      "latitude": "29.933547163249973",
      "longitude": "-90.13282307405838"
    }
  },
  {
    "service_request": "2022-882522",
    "request_type": "Roads/Drainage",
    "request_reason": "Leaking Hydrant",
    "date_created": "2022-05-12T16:20:17.000",
    "date_modified": "2022-05-12T16:20:19.000",
    "request_status": "Pending",
    "responsible_agency": "Department of Public Works",
    "final_address": "8639 Nelson St",
    "address_councildis": "A",
    "status": "Pending",
    "rowid": "882522",
    "final_x": "3663602.7968",
    "final_y": "533275.17818",
    "longitude": "-90.1245250400697",
    "latitude": "29.960853118178555",
    "geocoded_column": {
      "latitude": "29.960853118178555",
      "longitude": "-90.1245250400697"
    }
  },
  {
    "service_request": "2022-882520",
    "request_type": "Trash/Recycling",
    "request_reason": "Missed Trash Pick-Up",
    "date_created": "2022-05-12T16:17:43.000",
    "date_modified": "2022-05-12T16:17:44.000",
    "request_status": "Pending",
    "responsible_agency": "Department of Sanitation",
    "final_address": "4120 Erato St",
    "address_councildis": "B",
    "status": "Assigned to Contractor",
    "contractor": "Richards Disposal",
    "rowid": "882520",
    "final_x": "3671234.6523",
    "final_y": "531230.559938",
    "longitude": "-90.1004945042858",
    "latitude": "29.95500750656508",
    "geocoded_column": {
      "latitude": "29.95500750656508",
      "longitude": "-90.1004945042858"
    }
  },
  {
    "service_request": "2022-882519",
    "request_type": "Trash/Recycling",
    "request_reason": "Start Trash Service",
    "date_created": "2022-05-12T16:11:49.000",
    "date_modified": "2022-05-12T16:11:50.000",
    "request_status": "Pending",
    "responsible_agency": "Department of Sanitation",
    "final_address": "2807 Calhoun St",
    "address_councildis": "A",
    "status": "Assigned to Contractor",
    "contractor": "Richards Disposal",
    "rowid": "882519",
    "final_x": "3666671.01236",
    "final_y": "526983.80883",
    "longitude": "-90.11504739422583",
    "latitude": "29.94346454257683",
    "geocoded_column": {
      "latitude": "29.94346454257683",
      "longitude": "-90.11504739422583"
    }
  },
  {
    "service_request": "2022-882518",
    "request_type": "Trash/Recycling",
    "request_reason": "Missed Trash Pick-Up",
    "date_created": "2022-05-12T16:10:38.000",
    "date_modified": "2022-05-12T16:10:38.000",
    "request_status": "Pending",
    "responsible_agency": "Department of Sanitation",
    "final_address": "1125 Felicity St",
    "address_councildis": "B",
    "status": "Assigned to Contractor",
    "contractor": "Richards Disposal",
    "rowid": "882518",
    "final_x": "3679851.2637",
    "final_y": "523230.519355",
    "longitude": "-90.0735642136091",
    "latitude": "29.932752331570473",
    "geocoded_column": {
      "latitude": "29.932752331570473",
      "longitude": "-90.0735642136091"
    }
  },
  {
    "service_request": "2022-882517",
    "request_type": "Trash/Recycling",
    "request_reason": "Stop Trash Service",
    "date_created": "2022-05-12T16:10:26.000",
    "date_modified": "2022-05-12T16:10:27.000",
    "request_status": "Pending",
    "responsible_agency": "Department of Sanitation",
    "final_address": "3818 Jena St",
    "address_councildis": "B",
    "status": "Assigned to Contractor",
    "contractor": "Richards Disposal",
    "rowid": "882517",
    "final_x": "3669630.29454",
    "final_y": "528598.760896",
    "longitude": "-90.10564951624902",
    "latitude": "29.94781828813069",
    "geocoded_column": {
      "latitude": "29.94781828813069",
      "longitude": "-90.10564951624902"
    }
  },
  {
    "service_request": "2022-882516",
    "request_type": "Trash/Recycling",
    "request_reason": "Missed Trash Pick-Up",
    "date_created": "2022-05-12T16:10:16.000",
    "date_modified": "2022-05-12T16:10:16.000",
    "request_status": "Pending",
    "responsible_agency": "Department of Sanitation",
    "final_address": "1131 Orange St",
    "address_councildis": "B",
    "status": "Assigned to Contractor",
    "contractor": "Richards Disposal",
    "rowid": "882516",
    "final_x": "3679856.47944",
    "final_y": "523577.759035",
    "longitude": "-90.07353569564594",
    "latitude": "29.933706968638734",
    "geocoded_column": {
      "latitude": "29.933706968638734",
      "longitude": "-90.07353569564594"
    }
  },
  {
    "service_request": "2022-882515",
    "request_type": "Trash/Recycling",
    "request_reason": "Illegal Dumping",
    "date_created": "2022-05-12T16:09:26.000",
    "date_modified": "2022-05-12T16:09:26.000",
    "request_status": "Pending",
    "responsible_agency": "Department of Sanitation",
    "final_address": "1828 Washington Ave",
    "address_councildis": "B",
    "status": "Pending",
    "rowid": "882515",
    "final_x": "3675304.3844",
    "final_y": "523356.957947",
    "longitude": "-90.0879140282435",
    "latitude": "29.93323666860289",
    "geocoded_column": {
      "latitude": "29.93323666860289",
      "longitude": "-90.0879140282435"
    }
  },
  {
    "service_request": "2022-882514",
    "request_type": "Trash/Recycling",
    "request_reason": "Request a Large Item Pick Up",
    "date_created": "2022-05-12T16:08:06.000",
    "date_modified": "2022-05-12T16:08:07.000",
    "request_status": "Pending",
    "responsible_agency": "Department of Sanitation",
    "final_address": "4423 Venus St",
    "address_councildis": "D",
    "status": "Assigned to Contractor",
    "contractor": "Metro Disposal",
    "rowid": "882514",
    "final_x": "3686695.28585",
    "final_y": "549085.556627",
    "longitude": "-90.0510448123428",
    "latitude": "30.003635999411983",
    "geocoded_column": {
      "latitude": "30.003635999411983",
      "longitude": "-90.0510448123428"
    }
  },
  {
    "service_request": "2022-882513",
    "request_type": "Trash/Recycling",
    "request_reason": "Missed Trash Pick-Up",
    "date_created": "2022-05-12T16:06:48.000",
    "date_modified": "2022-05-12T16:06:49.000",
    "request_status": "Pending",
    "responsible_agency": "Department of Sanitation",
    "final_address": "3106 Washington Ave",
    "address_councildis": "B",
    "status": "Assigned to Contractor",
    "contractor": "Richards Disposal",
    "rowid": "882513",
    "final_x": "3672809.49096",
    "final_y": "527052.89811",
    "longitude": "-90.09566423233932",
    "latitude": "29.94347362856386",
    "geocoded_column": {
      "latitude": "29.94347362856386",
      "longitude": "-90.09566423233932"
    }
  },
  {
    "service_request": "2022-882512",
    "request_type": "Trash/Recycling",
    "request_reason": "Missed Trash Pick-Up",
    "date_created": "2022-05-12T15:56:17.000",
    "date_modified": "2022-05-12T15:56:18.000",
    "request_status": "Pending",
    "responsible_agency": "Department of Sanitation",
    "final_address": "7925 Willow St",
    "address_councildis": "A",
    "status": "Assigned to Contractor",
    "contractor": "Richards Disposal",
    "rowid": "882512",
    "final_x": "3662901.82093",
    "final_y": "528532.627328",
    "longitude": "-90.12689627992172",
    "latitude": "29.94783295237911",
    "geocoded_column": {
      "latitude": "29.94783295237911",
      "longitude": "-90.12689627992172"
    }
  },
  {
    "service_request": "2022-882511",
    "request_type": "Trash/Recycling",
    "request_reason": "Missed Trash Pick-Up",
    "date_created": "2022-05-12T15:55:04.000",
    "date_modified": "2022-05-12T15:55:05.000",
    "request_status": "Pending",
    "responsible_agency": "Department of Sanitation",
    "final_address": "2900 Block of Chippewa St, New Orleans, Louisiana, 70115",
    "status": "Assigned to Contractor",
    "rowid": "882511",
    "longitude": "0.0",
    "latitude": "0.0",
    "geocoded_column": {
      "latitude": "0.0",
      "longitude": "0.0"
    }
  },
  {
    "service_request": "2022-882510",
    "request_type": "Roads/Drainage",
    "request_reason": "Leaking Hydrant",
    "date_created": "2022-05-12T15:52:57.000",
    "date_modified": "2022-05-12T15:52:57.000",
    "request_status": "Pending",
    "responsible_agency": "Department of Public Works",
    "final_address": "N BROAD ST & LEPAGE ST",
    "address_councildis": "A",
    "status": "Pending",
    "rowid": "882510",
    "final_x": "3678535.8",
    "final_y": "539466.98",
    "longitude": "-90.07715509859584",
    "latitude": "29.977436836008422",
    "geocoded_column": {
      "latitude": "29.977436836008422",
      "longitude": "-90.07715509859584"
    }
  },
  {
    "service_request": "2022-882509",
    "request_type": "Traffic Signals/Signs/Striping/Streetlights",
    "request_reason": "Street Light Outage/Malfunction",
    "date_created": "2022-05-12T15:51:48.000",
    "date_modified": "2022-05-12T15:51:49.000",
    "request_status": "Pending",
    "responsible_agency": "Department of Public Works",
    "final_address": "WILL STUTLEY DR & LITTLE JOHN DR",
    "address_councildis": "E",
    "status": "Pending",
    "contractor": "Royal Engineering",
    "rowid": "882509",
    "final_x": "3717108.0",
    "final_y": "558239.38",
    "longitude": "-89.95461925754375",
    "latitude": "30.02783452230737",
    "geocoded_column": {
      "latitude": "30.02783452230737",
      "longitude": "-89.95461925754375"
    }
  },
  {
    "service_request": "2022-882508",
    "request_type": "Property Maintenance",
    "request_reason": "Property Maintenance",
    "date_created": "2022-05-12T15:43:08.000",
    "date_modified": "2022-05-12T15:43:09.000",
    "request_status": "Pending",
    "responsible_agency": "Department of Code Enforcement",
    "final_address": "3450 Constance St",
    "address_councildis": "B",
    "status": "Pending",
    "rowid": "882508",
    "final_x": "3674759.63701",
    "final_y": "519061.288439",
    "longitude": "-90.0897809389902",
    "latitude": "29.921441234390297",
    "geocoded_column": {
      "latitude": "29.921441234390297",
      "longitude": "-90.0897809389902"
    }
  },
  {
    "service_request": "2022-882507",
    "request_type": "Trash/Recycling",
    "request_reason": "Repair Recycling Cart",
    "date_created": "2022-05-12T15:37:52.000",
    "date_modified": "2022-05-12T15:37:53.000",
    "request_status": "Pending",
    "responsible_agency": "Department of Sanitation",
    "final_address": "8212 Nelson St",
    "address_councildis": "A",
    "status": "Pending",
    "rowid": "882507",
    "final_x": "3664749.18272",
    "final_y": "532130.821827",
    "longitude": "-90.12094319168138",
    "latitude": "29.957673208390812",
    "geocoded_column": {
      "latitude": "29.957673208390812",
      "longitude": "-90.12094319168138"
    }
  },
  {
    "service_request": "2022-882506",
    "request_type": "Roads/Drainage",
    "request_reason": "Street Flooding / Drainage",
    "date_created": "2022-05-12T15:37:19.000",
    "date_modified": "2022-05-12T15:37:19.000",
    "request_status": "Pending",
    "responsible_agency": "Department of Public Works",
    "final_address": "N Broad St & Bayou Rd, New Orleans, Louisiana, 70119",
    "address_councildis": "D",
    "status": "Pending",
    "rowid": "882506",
    "final_x": "3678555.4",
    "final_y": "539480.98",
    "longitude": "-90.07709271046242",
    "latitude": "29.977474740332134",
    "geocoded_column": {
      "latitude": "29.977474740332134",
      "longitude": "-90.07709271046242"
    }
  },
  {
    "service_request": "2022-882505",
    "request_type": "Trash/Recycling",
    "request_reason": "Repair Trash Cart",
    "date_created": "2022-05-12T15:36:56.000",
    "date_modified": "2022-05-12T15:36:56.000",
    "request_status": "Pending",
    "responsible_agency": "Department of Sanitation",
    "final_address": "8212 Nelson St",
    "address_councildis": "A",
    "status": "Assigned to Contractor",
    "contractor": "Richards Disposal",
    "rowid": "882505",
    "final_x": "3664749.18272",
    "final_y": "532130.821827",
    "longitude": "-90.12094319168138",
    "latitude": "29.957673208390812",
    "geocoded_column": {
      "latitude": "29.957673208390812",
      "longitude": "-90.12094319168138"
    }
  },
  {
    "service_request": "2022-882503",
    "request_type": "Trash/Recycling",
    "request_reason": "Missed Trash Pick-Up",
    "date_created": "2022-05-12T15:26:03.000",
    "date_modified": "2022-05-12T15:26:04.000",
    "request_status": "Pending",
    "responsible_agency": "Department of Sanitation",
    "final_address": "2009 Soniat St, New Orleans, Louisiana, 70115",
    "address_councildis": "B",
    "status": "Assigned to Contractor",
    "contractor": "Richards Disposal",
    "rowid": "882503",
    "final_x": "3668539.32026",
    "final_y": "523029.855803",
    "longitude": "-90.10928200051164",
    "latitude": "29.932537691722416",
    "geocoded_column": {
      "latitude": "29.932537691722416",
      "longitude": "-90.10928200051164"
    }
  },
  {
    "service_request": "2022-882502",
    "request_type": "Trash/Recycling",
    "request_reason": "Request a Large Item Pick Up",
    "date_created": "2022-05-12T15:22:31.000",
    "date_modified": "2022-05-12T15:22:32.000",
    "request_status": "Pending",
    "responsible_agency": "Department of Sanitation",
    "final_address": "6319 Delord St",
    "address_councildis": "A",
    "status": "Assigned to Contractor",
    "contractor": "Richards Disposal",
    "rowid": "882502",
    "final_x": "3666165.10426",
    "final_y": "526468.250878",
    "longitude": "-90.11666196719197",
    "latitude": "29.942061704677425",
    "geocoded_column": {
      "latitude": "29.942061704677425",
      "longitude": "-90.11666196719197"
    }
  },
  {
    "service_request": "2022-882501",
    "request_type": "Trash/Recycling",
    "request_reason": "Start Trash Service",
    "date_created": "2022-05-12T15:17:45.000",
    "date_modified": "2022-05-12T15:17:45.000",
    "request_status": "Pending",
    "responsible_agency": "Department of Sanitation",
    "final_address": "6421 Avenue A",
    "address_councildis": "A",
    "status": "Assigned to Contractor",
    "contractor": "Metro Disposal",
    "rowid": "882501",
    "final_x": "3666027.3273",
    "final_y": "550873.060437",
    "longitude": "-90.11627855946045",
    "latitude": "30.00917079140566",
    "geocoded_column": {
      "latitude": "30.00917079140566",
      "longitude": "-90.11627855946045"
    }
  },
  {
    "service_request": "2022-882500",
    "request_type": "Traffic Signals/Signs/Striping/Streetlights",
    "request_reason": "Street Light Outage/Malfunction",
    "date_created": "2022-05-12T15:15:35.000",
    "date_modified": "2022-05-12T15:15:35.000",
    "request_status": "Pending",
    "responsible_agency": "Department of Public Works",
    "final_address": "5017 Chestnut St",
    "address_councildis": "B",
    "status": "Pending",
    "contractor": "Royal Engineering",
    "rowid": "882500",
    "final_x": "3668517.54702",
    "final_y": "519370.501623",
    "longitude": "-90.10947412553334",
    "latitude": "29.922476270966378",
    "geocoded_column": {
      "latitude": "29.922476270966378",
      "longitude": "-90.10947412553334"
    }
  },
  {
    "service_request": "2022-882499",
    "request_type": "Traffic Signals/Signs/Striping/Streetlights",
    "request_reason": "Street Light Outage/Malfunction",
    "date_created": "2022-05-12T15:15:31.000",
    "date_modified": "2022-05-12T15:15:32.000",
    "request_status": "Pending",
    "responsible_agency": "Department of Public Works",
    "final_address": "5017 Chestnut St",
    "address_councildis": "B",
    "status": "Pending",
    "contractor": "Royal Engineering",
    "rowid": "882499",
    "final_x": "3668517.54702",
    "final_y": "519370.501623",
    "longitude": "-90.10947412553334",
    "latitude": "29.922476270966378",
    "geocoded_column": {
      "latitude": "29.922476270966378",
      "longitude": "-90.10947412553334"
    }
  },
  {
    "service_request": "2022-882498",
    "request_type": "Safety & Permits",
    "request_reason": "Construction permit",
    "date_created": "2022-05-12T15:13:37.000",
    "date_modified": "2022-05-12T15:13:37.000",
    "request_status": "Pending",
    "responsible_agency": "Department of Code Enforcement",
    "final_address": "1010 Dauphine St",
    "address_councildis": "C",
    "status": "Pending",
    "rowid": "882498",
    "final_x": "3682768.38287",
    "final_y": "533818.997317",
    "longitude": "-90.06398481074307",
    "latitude": "29.961778568577063",
    "geocoded_column": {
      "latitude": "29.961778568577063",
      "longitude": "-90.06398481074307"
    }
  },
  {
    "service_request": "2022-882497",
    "request_type": "Roads/Drainage",
    "request_reason": "Pothole",
    "date_created": "2022-05-12T15:10:25.000",
    "date_modified": "2022-05-12T15:10:25.000",
    "request_status": "Pending",
    "responsible_agency": "Department of Public Works",
    "final_address": "10201 Chevy Chase Dr",
    "address_councildis": "E",
    "status": "Pending",
    "rowid": "882497",
    "final_x": "3709952.25745",
    "final_y": "563232.614944",
    "longitude": "-89.97704392618412",
    "latitude": "30.04179873876961",
    "geocoded_column": {
      "latitude": "30.04179873876961",
      "longitude": "-89.97704392618412"
    }
  },
  {
    "service_request": "2022-882496",
    "request_type": "Abandoned Vehicles",
    "request_reason": "Abandoned/Junk Vehicles",
    "date_created": "2022-05-12T15:08:49.000",
    "date_modified": "2022-05-12T15:08:49.000",
    "request_status": "Pending",
    "responsible_agency": "Department of Public Works",
    "final_address": "4600 BLK Dart St",
    "address_councildis": "B",
    "status": "Pending",
    "rowid": "882496",
    "final_x": "3669079.81568",
    "final_y": "531685.879001",
    "longitude": "-90.10728330596875",
    "latitude": "29.956323057738857",
    "geocoded_column": {
      "latitude": "29.956323057738857",
      "longitude": "-90.10728330596875"
    }
  },
  {
    "service_request": "2022-882495",
    "request_type": "Property Maintenance",
    "request_reason": "Property Maintenance",
    "date_created": "2022-05-12T15:03:14.000",
    "date_modified": "2022-05-12T15:03:14.000",
    "request_status": "Pending",
    "responsible_agency": "Department of Code Enforcement",
    "final_address": "3411 Pine St",
    "address_councildis": "B",
    "status": "Pending",
    "rowid": "882495",
    "final_x": "3668410.31303",
    "final_y": "533262.079044",
    "longitude": "-90.1093442128951",
    "latitude": "29.96067676930031",
    "geocoded_column": {
      "latitude": "29.96067676930031",
      "longitude": "-90.1093442128951"
    }
  },