[
  {
    "service_request": "2022-867335",
    "request_type": "Traffic Signals/Signs/Striping/Streetlights",
    "request_reason": "Street Light Outage/Malfunction",
    "date_created": "2022-03-16T01:12:22.000",
    "date_modified": "2022-03-16T01:12:23.000",
    "request_status": "Pending",
    "responsible_agency": "Department of Public Works",
    "final_address": "4843 Knight Dr",
    "address_councildis": "E",
    "status": "Pending",
    "contractor": "Royal Engineering",
    "rowid": "867335",
    "final_x": "3708123.79",
    "final_y": "556348.225434",
    "longitude": "-89.98307889881293",
    "latitude": "30.02292876373871",
    "geocoded_column": {
      "latitude": "30.02292876373871",
      "longitude": "-89.98307889881293"
    }
  },
  {
    "service_request": "2022-867334",
    "request_type": "Roads/Drainage",
    "request_reason": "Street Flooding / Drainage",
    "date_created": "2022-03-15T23:30:00.000",
    "date_modified": "2022-03-15T23:30:00.000",
    "request_status": "Pending",
    "responsible_agency": "Department of Public Works",
    "final_address": "3701 Elysian Fields Ave",
    "address_councildis": "D",
    "status": "Pending",
    "rowid": "867334",
    "final_x": "3684358.73173",
    "final_y": "546310.987856",
    "longitude": "-90.05852387698901",
    "latitude": "29.996078622799633",
    "geocoded_column": {
      "latitude": "29.996078622799633",
      "longitude": "-90.05852387698901"
    }
  },
  {
    "service_request": "2022-867333",
    "request_type": "Trash/Recycling",
    "request_reason": "Return Recycling Cart",
    "date_created": "2022-03-15T23:17:00.000",
    "date_modified": "2022-03-15T23:17:00.000",
    "request_status": "Pending",
    "responsible_agency": "Department of Sanitation",
    "final_address": "2300 Jefferson Ave",
    "address_councildis": "A",
    "status": "Pending",
    "rowid": "867333",
    "final_x": "3667868.54445",
    "final_y": "524062.473084",
    "longitude": "-90.11136482427918",
    "latitude": "29.9353967450289",
    "geocoded_column": {
      "latitude": "29.9353967450289",
      "longitude": "-90.11136482427918"
    }
  },
  {
    "service_request": "2022-867332",
    "request_type": "Traffic Signals/Signs/Striping/Streetlights",
    "request_reason": "Street Light Outage/Malfunction",
    "date_created": "2022-03-15T21:50:40.000",
    "date_modified": "2022-03-15T21:50:41.000",
    "request_status": "Pending",
    "responsible_agency": "Department of Public Works",
    "final_address": "5772 St Anthony St",
    "address_councildis": "D",
    "status": "Pending",
    "contractor": "Royal Engineering",
    "rowid": "867332",
    "final_x": "3681934.695",
    "final_y": "554590.231512",
    "longitude": "-90.06589192940916",
    "latitude": "30.018917489504524",
    "geocoded_column": {
      "latitude": "30.018917489504524",
      "longitude": "-90.06589192940916"
    }
  },
  {
    "service_request": "2022-867331",
    "request_type": "Traffic Signals/Signs/Striping/Streetlights",
    "request_reason": "Street Light Outage/Malfunction",
    "date_created": "2022-03-15T21:49:47.000",
    "date_modified": "2022-03-15T21:49:48.000",
    "request_status": "Pending",
    "responsible_agency": "Department of Public Works",
    "final_address": "4525 Coliseum St",
    "address_councildis": "B",
    "status": "Pending",
    "contractor": "Royal Engineering",
    "rowid": "867331",
    "final_x": "3670337.06068",
    "final_y": "519802.584056",
    "longitude": "-90.10371600540275",
    "latitude": "29.923610797633543",
    "geocoded_column": {
      "latitude": "29.923610797633543",
      "longitude": "-90.10371600540275"
    }
  },
  {
    "service_request": "2022-867330",
    "request_type": "Traffic Signals/Signs/Striping/Streetlights",
    "request_reason": "Traffic Sign Missing/Damaged",
    "date_created": "2022-03-15T21:36:31.000",
    "date_modified": "2022-03-15T21:36:31.000",
    "request_status": "Pending",
    "responsible_agency": "Department of Public Works",
    "final_address": "1801 N Dupre St",
    "address_councildis": "D",
    "status": "Pending",
    "rowid": "867330",
    "final_x": "3679407.94171",
    "final_y": "541830.925964",
    "longitude": "-90.07431854811996",
    "latitude": "29.983910547611412",
    "geocoded_column": {
      "latitude": "29.983910547611412",
      "longitude": "-90.07431854811996"
    }
  },
  {
    "service_request": "2022-867329",
    "request_type": "Traffic Signals/Signs/Striping/Streetlights",
    "request_reason": "Street Light Outage/Malfunction",
    "date_created": "2022-03-15T21:34:05.000",
    "date_modified": "2022-03-15T21:34:05.000",
    "request_status": "Pending",
    "responsible_agency": "Department of Public Works",
    "final_address": "1315 Marigny St",
    "address_councildis": "C",
    "status": "Pending",
    "contractor": "Royal Engineering",
    "rowid": "867329",
    "final_x": "3685436.87509",
    "final_y": "537238.586376",
    "longitude": "-90.05543772878123",
    "latitude": "29.971099700040252",
    "geocoded_column": {
      "latitude": "29.971099700040252",
      "longitude": "-90.05543772878123"
    }
  },
  {
    "service_request": "2022-867328",
    "request_type": "Traffic Signals/Signs/Striping/Streetlights",
    "request_reason": "Traffic Signal Malfunctioning/Damaged",
    "date_created": "2022-03-15T21:32:41.000",
    "date_modified": "2022-03-15T21:32:41.000",
    "request_status": "Pending",
    "responsible_agency": "Department of Public Works",
    "final_address": "N CLAIBORNE AVE & ESPLANADE AVE",
    "address_councildis": "D",
    "status": "Pending",
    "rowid": "867328",
    "final_x": "3681187.9",
    "final_y": "536587.48",
    "longitude": "-90.06887924362073",
    "latitude": "29.969438994559713",
    "geocoded_column": {
      "latitude": "29.969438994559713",
      "longitude": "-90.06887924362073"
    }
  },
  {
    "service_request": "2022-867327",
    "request_type": "Trash/Recycling",
    "request_reason": "Order Recycling Cart",
    "date_created": "2022-03-15T21:27:25.000",
    "date_modified": "2022-03-15T21:27:25.000",
    "request_status": "Pending",
    "responsible_agency": "Department of Sanitation",
    "final_address": "4801 Wilson Ave",
    "address_councildis": "E",
    "status": "Pending",
    "rowid": "867327",
    "final_x": "3703075.23057",
    "final_y": "555191.603289",
    "longitude": "-89.99907364823461",
    "latitude": "30.019911112571325",
    "geocoded_column": {
      "latitude": "30.019911112571325",
      "longitude": "-89.99907364823461"
    }
  },
  {
    "service_request": "2022-867325",
    "request_type": "Traffic Signals/Signs/Striping/Streetlights",
    "request_reason": "Traffic Signal Malfunctioning/Damaged",
    "date_created": "2022-03-15T20:59:39.000",
    "date_modified": "2022-03-15T20:59:39.000",
    "request_status": "Pending",
    "responsible_agency": "Department of Public Works",
    "final_address": "ESPLANADE AVE & N CLAIBORNE AVE",
    "address_councildis": "D",
    "status": "Pending",
    "rowid": "867325",
    "final_x": "3681231.3",
    "final_y": "536639.18",
    "longitude": "-90.06874038104324",
    "latitude": "29.969579834804723",
    "geocoded_column": {
      "latitude": "29.969579834804723",
      "longitude": "-90.06874038104324"
    }
  },
  {
    "service_request": "2022-867324",
    "request_type": "Abandoned Vehicles",
    "request_reason": "Abandoned/Junk Vehicles",
    "date_created": "2022-03-15T20:55:24.000",
    "date_modified": "2022-03-15T20:55:24.000",
    "request_status": "Pending",
    "responsible_agency": "Department of Public Works",
    "final_address": "5816 Tullis Dr",
    "address_councildis": "C",
    "status": "Pending",
    "rowid": "867324",
    "final_x": "3705472.57771",
    "final_y": "513073.636401",
    "longitude": "-89.99305547143246",
    "latitude": "29.904025004238925",
    "geocoded_column": {
      "latitude": "29.904025004238925",
      "longitude": "-89.99305547143246"
    }
  },
  {
    "service_request": "2022-867323",
    "request_type": "Traffic Signals/Signs/Striping/Streetlights",
    "request_reason": "Street Light Outage/Malfunction",
    "date_created": "2022-03-15T20:38:26.000",
    "date_modified": "2022-03-15T20:38:26.000",
    "request_status": "Pending",
    "responsible_agency": "Department of Public Works",
    "final_address": "26 Grand Canyon Dr",
    "address_councildis": "C",
    "status": "Pending",
    "contractor": "Royal Engineering",
    "rowid": "867323",
    "final_x": "3699750.71332",
    "final_y": "517157.420853",
    "longitude": "-90.01096488939694",
    "latitude": "29.915436821529568",
    "geocoded_column": {
      "latitude": "29.915436821529568",
      "longitude": "-90.01096488939694"
    }
  },
  {
    "service_request": "2022-867322",
    "request_type": "Trash/Recycling",
    "request_reason": "Order Recycling Cart",
    "date_created": "2022-03-15T20:27:38.000",
    "date_modified": "2022-03-15T20:27:38.000",
    "request_status": "Pending",
    "responsible_agency": "Department of Sanitation",
    "final_address": "1611 Alix St",
    "address_councildis": "C",
    "status": "Pending",
    "rowid": "867322",
    "final_x": "3690422.45769",
    "final_y": "530178.628801",
    "longitude": "-90.03994431937852",
    "latitude": "29.95153345265962",
    "geocoded_column": {
      "latitude": "29.95153345265962",
      "longitude": "-90.03994431937852"
    }
  },
  {
    "service_request": "2022-867321",
    "request_type": "Trash/Recycling",
    "request_reason": "MIssed Recycling Pick-Up",
    "date_created": "2022-03-15T20:24:57.000",
    "date_modified": "2022-03-15T20:24:58.000",
    "request_status": "Pending",
    "responsible_agency": "Department of Sanitation",
    "final_address": "1139 St Andrew St",
    "address_councildis": "B",
    "status": "Assigned to Contractor",
    "contractor": "Richards Disposal",
    "rowid": "867321",
    "final_x": "3679356.38197",
    "final_y": "522929.281019",
    "longitude": "-90.07513695813607",
    "latitude": "29.93193897647055",
    "geocoded_column": {
      "latitude": "29.93193897647055",
      "longitude": "-90.07513695813607"
    }
  },
  {
    "service_request": "2022-867320",
    "request_type": "Trash/Recycling",
    "request_reason": "Request a Large Item Pick Up",
    "date_created": "2022-03-15T20:13:01.000",
    "date_modified": "2022-03-15T20:13:02.000",
    "request_status": "Pending",
    "responsible_agency": "Department of Sanitation",
    "final_address": "3310 Delachaise St",
    "address_councildis": "B",
    "status": "Assigned to Contractor",
    "contractor": "Richards Disposal",
    "rowid": "867320",
    "final_x": "3671498.29774",
    "final_y": "527157.605887",
    "longitude": "-90.09980046031772",
    "latitude": "29.94380041848533",
    "geocoded_column": {
      "latitude": "29.94380041848533",
      "longitude": "-90.09980046031772"
    }
  },
  {
    "service_request": "2022-867319",
    "request_type": "Roads/Drainage",
    "request_reason": "Man hole cover issue",
    "date_created": "2022-03-15T19:23:12.000",
    "date_modified": "2022-03-15T19:23:12.000",
    "request_status": "Pending",
    "responsible_agency": "Department of Public Works",
    "final_address": "323 Broadway St",
    "address_councildis": "A",
    "status": "Pending",
    "rowid": "867319",
    "final_x": "3661639.47014",
    "final_y": "522633.540538",
    "longitude": "-90.13107747222732",
    "latitude": "29.931648819236358",
    "geocoded_column": {
      "latitude": "29.931648819236358",
      "longitude": "-90.13107747222732"
    }
  },
  {
    "service_request": "2022-867316",
    "request_type": "Trash/Recycling",
    "request_reason": "Repair Trash Cart",
    "date_created": "2022-03-15T19:08:22.000",
    "date_modified": "2022-03-15T19:08:23.000",
    "request_status": "Pending",
    "responsible_agency": "Department of Sanitation",
    "final_address": "11288 Winrock Dr",
    "address_councildis": "E",
    "status": "Assigned to Contractor",
    "contractor": "Metro Disposal",
    "rowid": "867316",
    "final_x": "3716885.24351",
    "final_y": "561609.008863",
    "longitude": "-89.95519508029516",
    "latitude": "30.03710701482057",
    "geocoded_column": {
      "latitude": "30.03710701482057",
      "longitude": "-89.95519508029516"
    }
  },
  {
    "service_request": "2022-867315",
    "request_type": "Trash/Recycling",
    "request_reason": "Repair Trash Cart",
    "date_created": "2022-03-15T19:04:20.000",
    "date_modified": "2022-03-15T19:04:20.000",
    "case_close_date": "2021-08-25T19:00:00.000",
    "request_status": "Pending",
    "responsible_agency": "Department of Sanitation",
    "final_address": "813 Dublin St",
    "address_councildis": "A",
    "status": "Assigned to Contractor",
    "contractor": "Richards Disposal",
    "rowid": "867315",
    "final_x": "3660862.03661",
    "final_y": "527636.441087",
    "longitude": "-90.13336635754749",
    "latitude": "29.94542762185745",
    "geocoded_column": {
      "latitude": "29.94542762185745",
      "longitude": "-90.13336635754749"
    }
  },
  {
    "service_request": "2022-867314",
    "request_type": "Trash/Recycling",
    "request_reason": "Repair Trash Cart",
    "date_created": "2022-03-15T19:01:30.000",
    "date_modified": "2022-03-15T19:01:31.000",
    "request_status": "Pending",
    "responsible_agency": "Department of Sanitation",
    "final_address": "1710 Louisiana Ave",
    "address_councildis": "B",
    "status": "Assigned to Contractor",
    "contractor": "Richards Disposal",
    "rowid": "867314",
    "final_x": "3673888.56814",
    "final_y": "521980.205242",
    "longitude": "-90.09243074543406",
    "latitude": "29.929493282033985",
    "geocoded_column": {
      "latitude": "29.929493282033985",
      "longitude": "-90.09243074543406"
    }
  },
  {
    "service_request": "2022-867313",
    "request_type": "Property Maintenance",
    "request_reason": "Property Maintenance",
    "date_created": "2022-03-15T18:58:25.000",
    "date_modified": "2022-03-15T18:58:25.000",
    "request_status": "Pending",
    "responsible_agency": "Department of Code Enforcement",
    "final_address": "4032 Fairmont Dr",
    "address_councildis": "D",
    "status": "Pending",
    "rowid": "867313",
    "final_x": "3684652.88469",
    "final_y": "547094.757649",
    "longitude": "-90.05756710549112",
    "latitude": "29.998224707010046",
    "geocoded_column": {
      "latitude": "29.998224707010046",
      "longitude": "-90.05756710549112"
    }
  },
  {
    "service_request": "2022-867312",
    "request_type": "Trash/Recycling",
    "request_reason": "Request a Large Item Pick Up",
    "date_created": "2022-03-15T18:47:46.000",
    "date_modified": "2022-03-15T18:47:46.000",
    "request_status": "Pending",
    "responsible_agency": "Department of Sanitation",
    "final_address": "2424 Arts St",
    "address_councildis": "D",
    "status": "Assigned to Contractor",
    "contractor": "Metro Disposal",
    "rowid": "867312",
    "final_x": "3686771.61865",
    "final_y": "541496.199308",
    "longitude": "-90.05107197036266",
    "latitude": "29.982765639201503",
    "geocoded_column": {
      "latitude": "29.982765639201503",
      "longitude": "-90.05107197036266"
    }
  },
  {
    "service_request": "2022-867311",
    "request_type": "Safety & Permits",
    "request_reason": "Licenses & Permits",
    "date_created": "2022-03-15T18:45:46.000",
    "date_modified": "2022-03-15T18:45:46.000",
    "request_status": "Pending",
    "responsible_agency": "Safety and Permits",
    "final_address": "2118 N Rampart St",
    "address_councildis": "C",
    "status": "Pending",
    "rowid": "867311",
    "final_x": "3684786.20751",
    "final_y": "535895.472007",
    "longitude": "-90.05753984850514",
    "latitude": "29.96742653883603",
    "geocoded_column": {
      "latitude": "29.96742653883603",
      "longitude": "-90.05753984850514"
    }
  },
  {
    "service_request": "2022-867310",
    "request_type": "Safety & Permits",
    "request_reason": "Short term Rental (Enforcement)",
    "date_created": "2022-03-15T18:44:43.000",
    "date_modified": "2022-03-15T18:44:43.000",
    "request_status": "Pending",
    "responsible_agency": "Safety and Permits",
    "final_address": "2118 N Rampart St",
    "address_councildis": "C",
    "status": "Pending",
    "rowid": "867310",
    "final_x": "3684786.20751",
    "final_y": "535895.472007",
    "longitude": "-90.05753984850514",
    "latitude": "29.96742653883603",
    "geocoded_column": {
      "latitude": "29.96742653883603",
      "longitude": "-90.05753984850514"
    }
  },
  {
    "service_request": "2022-867309",
    "request_type": "Abandoned Vehicles",
    "request_reason": "Abandoned/Junk Vehicles",
    "date_created": "2022-03-15T18:44:37.000",
    "date_modified": "2022-03-15T18:44:37.000",
    "request_status": "Pending",
    "responsible_agency": "Department of Public Works",
    "final_address": "IBERVILLE ST & CROZAT ST",
    "address_councildis": "C",
    "status": "Pending",
    "rowid": "867309",
    "final_x": "3679869.0",
    "final_y": "532215.68",
    "longitude": "-90.07319627291383",
    "latitude": "29.957457987867603",
    "geocoded_column": {
      "latitude": "29.957457987867603",
      "longitude": "-90.07319627291383"
    }
  },
  {
    "service_request": "2022-867308",
    "request_type": "Safety & Permits",
    "request_reason": "Construction permit",
    "date_created": "2022-03-15T18:43:52.000",
    "date_modified": "2022-03-15T18:43:52.000",
    "request_status": "Pending",
    "responsible_agency": "Department of Code Enforcement",
    "final_address": "2118 N Rampart St",
    "address_councildis": "C",
    "status": "Pending",
    "rowid": "867308",
    "final_x": "3684786.20751",
    "final_y": "535895.472007",
    "longitude": "-90.05753984850514",
    "latitude": "29.96742653883603",
    "geocoded_column": {
      "latitude": "29.96742653883603",
      "longitude": "-90.05753984850514"
    }
  },
  {
    "service_request": "2022-867307",
    "request_type": "Roads/Drainage",
    "request_reason": "Pothole",
    "date_created": "2022-03-15T18:40:24.000",
    "date_modified": "2022-03-15T18:40:24.000",
    "request_status": "Pending",
    "responsible_agency": "Department of Public Works",
    "final_address": "3618 Bruxelles St",
    "address_councildis": "D",
    "status": "Pending",
    "rowid": "867307",
    "final_x": "3680016.72815",
    "final_y": "545717.667088",
    "longitude": "-90.07226056264744",
    "latitude": "29.99457931355713",
    "geocoded_column": {
      "latitude": "29.99457931355713",
      "longitude": "-90.07226056264744"
    }
  },
  {
    "service_request": "2022-867306",
    "request_type": "Roads/Drainage",
    "request_reason": "Pothole",
    "date_created": "2022-03-15T18:39:32.000",
    "date_modified": "2022-03-15T18:39:32.000",
    "request_status": "Pending",
    "responsible_agency": "Department of Public Works",
    "final_address": "1631 Sere St",
    "address_councildis": "D",
    "status": "Pending",
    "rowid": "867306",
    "final_x": "3679911.70402",
    "final_y": "545571.733968",
    "longitude": "-90.07259739297464",
    "latitude": "29.99418122682221",
    "geocoded_column": {
      "latitude": "29.99418122682221",
      "longitude": "-90.07259739297464"
    }
  },
  {
    "service_request": "2022-867305",
    "request_type": "Traffic Signals/Signs/Striping/Streetlights",
    "request_reason": "Street Light Outage/Malfunction",
    "date_created": "2022-03-15T18:27:08.000",
    "date_modified": "2022-03-15T18:27:08.000",
    "request_status": "Pending",
    "responsible_agency": "Department of Public Works",
    "final_address": "2410 Bristol Pl",
    "address_councildis": "C",
    "status": "Pending",
    "contractor": "Royal Engineering",
    "rowid": "867305",
    "final_x": "3702699.16094",
    "final_y": "522181.491322",
    "longitude": "-90.00147423546959",
    "latitude": "29.92915739009808",
    "geocoded_column": {
      "latitude": "29.92915739009808",
      "longitude": "-90.00147423546959"
    }
  },
  {
    "service_request": "2022-867304",
    "request_type": "Traffic Signals/Signs/Striping/Streetlights",
    "request_reason": "Street Light Outage/Malfunction",
    "date_created": "2022-03-15T18:23:43.000",
    "date_modified": "2022-03-15T18:23:44.000",
    "request_status": "Pending",
    "responsible_agency": "Department of Public Works",
    "final_address": "2410 Bristol Pl",
    "address_councildis": "C",
    "status": "Pending",
    "contractor": "Royal Engineering",
    "rowid": "867304",
    "final_x": "3702699.16094",
    "final_y": "522181.491322",
    "longitude": "-90.00147423546959",
    "latitude": "29.92915739009808",
    "geocoded_column": {
      "latitude": "29.92915739009808",
      "longitude": "-90.00147423546959"
    }
  },
  {
    "service_request": "2022-867303",
    "request_type": "Abandoned Vehicles",
    "request_reason": "Abandoned/Junk Vehicles",
    "date_created": "2022-03-15T18:22:04.000",
    "date_modified": "2022-03-15T18:22:04.000",
    "request_status": "Pending",
    "responsible_agency": "Department of Public Works",
    "final_address": "1135 Terpsichore St",
    "address_councildis": "B",
    "status": "Pending",
    "rowid": "867303",
    "final_x": "3680118.16347",
    "final_y": "524623.577148",
    "longitude": "-90.07267324797162",
    "latitude": "29.936574709364567",
    "geocoded_column": {
      "latitude": "29.936574709364567",
      "longitude": "-90.07267324797162"
    }
  },
  {
    "service_request": "2022-867302",
    "request_type": "Traffic Signals/Signs/Striping/Streetlights",
    "request_reason": "Street Light Outage/Malfunction",
    "date_created": "2022-03-15T18:19:31.000",
    "date_modified": "2022-03-15T18:19:31.000",
    "request_status": "Pending",
    "responsible_agency": "Department of Public Works",
    "final_address": "2410 Bristol Pl",
    "address_councildis": "C",
    "status": "Pending",
    "contractor": "Royal Engineering",
    "rowid": "867302",
    "final_x": "3702699.16094",
    "final_y": "522181.491322",
    "longitude": "-90.00147423546959",
    "latitude": "29.92915739009808",
    "geocoded_column": {
      "latitude": "29.92915739009808",
      "longitude": "-90.00147423546959"
    }
  },
  {
    "service_request": "2022-867301",
    "request_type": "Roads/Drainage",
    "request_reason": "Pothole",
    "date_created": "2022-03-15T18:14:06.000",
    "date_modified": "2022-03-15T18:14:06.000",
    "request_status": "Pending",
    "responsible_agency": "Department of Public Works",
    "final_address": "801 Julia St",
    "address_councildis": "B",
    "status": "Pending",
    "rowid": "867301",
    "final_x": "3679959.60872",
    "final_y": "528172.3328",
    "longitude": "-90.07305058637341",
    "latitude": "29.94633740308901",
    "geocoded_column": {
      "latitude": "29.94633740308901",
      "longitude": "-90.07305058637341"
    }
  },
  {
    "service_request": "2022-867300",
    "request_type": "Trash/Recycling",
    "request_reason": "Return Recycling Cart",
    "date_created": "2022-03-15T18:13:59.000",
    "date_modified": "2022-03-15T18:13:59.000",
    "request_status": "Pending",
    "responsible_agency": "Department of Sanitation",
    "final_address": "431 Slidell St",
    "address_councildis": "C",
    "status": "Pending",
    "rowid": "867300",
    "final_x": "3686787.65954",
    "final_y": "528658.337024",
    "longitude": "-90.05147492255388",
    "latitude": "29.947465482986676",
    "geocoded_column": {
      "latitude": "29.947465482986676",
      "longitude": "-90.05147492255388"
    }
  },
  {
    "service_request": "2022-867298",
    "request_type": "Abandoned Vehicles",
    "request_reason": "Abandoned/Junk Vehicles",
    "date_created": "2022-03-15T18:10:41.000",
    "date_modified": "2022-03-15T18:12:28.000",
    "request_status": "Pending",
    "responsible_agency": "Department of Public Works",
    "final_address": "2127 First St",
    "address_councildis": "B",
    "status": "Pending",
    "rowid": "867298",
    "final_x": "3675869.63246",
    "final_y": "524903.270652",
    "longitude": "-90.08607643789945",
    "latitude": "29.937471617840032",
    "geocoded_column": {
      "latitude": "29.937471617840032",
      "longitude": "-90.08607643789945"
    }
  },
  {
    "service_request": "2022-867297",
    "request_type": "Trash/Recycling",
    "request_reason": "MIssed Recycling Pick-Up",
    "date_created": "2022-03-15T18:06:49.000",
    "date_modified": "2022-03-15T18:06:50.000",
    "request_status": "Pending",
    "responsible_agency": "Department of Sanitation",
    "final_address": "2407 Iberville St",
    "address_councildis": "B",
    "status": "Assigned to Contractor",
    "contractor": "Richards Disposal",
    "rowid": "867297",
    "final_x": "3676633.30056",
    "final_y": "534709.763526",
    "longitude": "-90.08332774012753",
    "latitude": "29.9644133255772",
    "geocoded_column": {
      "latitude": "29.9644133255772",
      "longitude": "-90.08332774012753"
    }
  },
  {
    "service_request": "2022-867296",
    "request_type": "Trash/Recycling",
    "request_reason": "Replace Trash Cart",
    "date_created": "2022-03-15T18:03:42.000",
    "date_modified": "2022-03-15T18:03:43.000",
    "request_status": "Pending",
    "responsible_agency": "Department of Sanitation",
    "final_address": "4226 N Claiborne Ave",
    "address_councildis": "D",
    "status": "Assigned to Contractor",
    "contractor": "Metro Disposal",
    "rowid": "867296",
    "final_x": "3693073.28982",
    "final_y": "536916.989704",
    "longitude": "-90.03133255340026",
    "latitude": "29.969979039522794",
    "geocoded_column": {
      "latitude": "29.969979039522794",
      "longitude": "-90.03133255340026"
    }
  },
  {
    "service_request": "2022-867295",
    "request_type": "Traffic Signals/Signs/Striping/Streetlights",
    "request_reason": "Request for Traffic Calming due to Speeding",
    "date_created": "2022-03-15T17:58:45.000",
    "date_modified": "2022-03-15T17:58:45.000",
    "request_status": "Pending",
    "responsible_agency": "Department of Public Works",
    "final_address": "6000 Franklin Ave",
    "address_councildis": "D",
    "status": "Pending",
    "rowid": "867295",
    "final_x": "3686318.97436",
    "final_y": "555227.862297",
    "longitude": "-90.05201665144962",
    "latitude": "30.02053666475763",
    "geocoded_column": {
      "latitude": "30.02053666475763",
      "longitude": "-90.05201665144962"
    }
  },
  {
    "service_request": "2022-867294",
    "request_type": "Trash/Recycling",
    "request_reason": "Replace Trash Cart",
    "date_created": "2022-03-15T17:58:36.000",
    "date_modified": "2022-03-15T17:59:37.000",
    "request_status": "Pending",
    "responsible_agency": "Department of Sanitation",
    "final_address": "2649 Lepage St",
    "address_councildis": "A",
    "status": "Assigned to Contractor",
    "contractor": "Metro Disposal",
    "rowid": "867294",
    "final_x": "3678141.31624",
    "final_y": "539666.983178",
    "longitude": "-90.07839409237721",
    "latitude": "29.97799866128578",
    "geocoded_column": {
      "latitude": "29.97799866128578",
      "longitude": "-90.07839409237721"
    }
  },
  {
    "service_request": "2022-867293",
    "request_type": "Trash/Recycling",
    "request_reason": "Replace Trash Cart",
    "date_created": "2022-03-15T17:56:44.000",
    "date_modified": "2022-03-15T17:56:44.000",
    "request_status": "Pending",
    "responsible_agency": "Department of Sanitation",
    "final_address": "2653 Lepage St",
    "address_councildis": "A",
    "status": "Assigned to Contractor",
    "contractor": "Metro Disposal",
    "rowid": "867293",
    "final_x": "3678151.08328",
    "final_y": "539694.560586",
    "longitude": "-90.0783622906707",
    "latitude": "29.978074195505844",
    "geocoded_column": {
      "latitude": "29.978074195505844",
      "longitude": "-90.0783622906707"
    }
  },
  {
    "service_request": "2022-867291",
    "request_type": "Trash/Recycling",
    "request_reason": "Replace Trash Cart",
    "date_created": "2022-03-15T17:52:12.000",
    "date_modified": "2022-03-15T17:52:13.000",
    "request_status": "Pending",
    "responsible_agency": "Department of Sanitation",
    "final_address": "8500 Dinkins St",
    "address_councildis": "E",
    "status": "Assigned to Contractor",
    "contractor": "Metro Disposal",
    "rowid": "867291",
    "final_x": "3703519.58468",
    "final_y": "562757.352288",
    "longitude": "-89.9973909292627",
    "latitude": "30.040699743954047",
    "geocoded_column": {
      "latitude": "30.040699743954047",
      "longitude": "-89.9973909292627"
    }
  },
  {
    "service_request": "2022-867290",
    "request_type": "Trash/Recycling",
    "request_reason": "Replace Trash Cart",
    "date_created": "2022-03-15T17:50:59.000",
    "date_modified": "2022-03-15T17:51:00.000",
    "request_status": "Pending",
    "responsible_agency": "Department of Sanitation",
    "final_address": "433 Burgundy St",
    "address_councildis": "C",
    "status": "Assigned to Contractor",
    "contractor": "Empire Services",
    "rowid": "867290",
    "final_x": "3681160.5668",
    "final_y": "532468.786244",
    "longitude": "-90.06910907420115",
    "latitude": "29.958114824683726",
    "geocoded_column": {
      "latitude": "29.958114824683726",
      "longitude": "-90.06910907420115"
    }
  },
  {
    "service_request": "2022-867289",
    "request_type": "Trash/Recycling",
    "request_reason": "Illegal Dumping",
    "date_created": "2022-03-15T17:34:19.000",
    "date_modified": "2022-03-15T17:34:19.000",
    "request_status": "Pending",
    "responsible_agency": "Department of Sanitation",
    "final_address": "4037 St Ferdinand St",
    "address_councildis": "D",
    "status": "Pending",
    "rowid": "867289",
    "final_x": "3689913.27523",
    "final_y": "548172.59381",
    "longitude": "-90.04091122154271",
    "latitude": "30.00102627259094",
    "geocoded_column": {
      "latitude": "30.00102627259094",
      "longitude": "-90.04091122154271"
    }
  },
  {
    "service_request": "2022-867288",
    "request_type": "Trash/Recycling",
    "request_reason": "Request a Large Item Pick Up",
    "date_created": "2022-03-15T17:32:54.000",
    "date_modified": "2022-03-15T17:32:54.000",
    "request_status": "Pending",
    "responsible_agency": "Department of Sanitation",
    "final_address": "1517 Cambronne St, New Orleans, Louisiana, 70118",
    "address_councildis": "A",
    "status": "Assigned to Contractor",
    "contractor": "Richards Disposal",
    "rowid": "867288",
    "final_x": "3662010.81095",
    "final_y": "529967.049921",
    "longitude": "-90.1296619905555",
    "latitude": "29.951802919447797",
    "geocoded_column": {
      "latitude": "29.951802919447797",
      "longitude": "-90.1296619905555"
    }
  },
  {
    "service_request": "2022-867287",
    "request_type": "Trash/Recycling",
    "request_reason": "Missed Trash Pick-Up",
    "date_created": "2022-03-15T17:30:41.000",
    "date_modified": "2022-03-15T17:30:42.000",
    "request_status": "Pending",
    "responsible_agency": "Department of Sanitation",
    "final_address": "709 General Pershing St, New Orleans, Louisiana, 70115",
    "address_councildis": "B",
    "status": "Assigned to Contractor",
    "contractor": "Richards Disposal",
    "rowid": "867287",
    "final_x": "3671551.11617",
    "final_y": "518185.417974",
    "longitude": "-90.0999386195876",
    "latitude": "29.91912822644559",
    "geocoded_column": {
      "latitude": "29.91912822644559",
      "longitude": "-90.0999386195876"
    }
  },
  {
    "service_request": "2022-867286",
    "request_type": "Abandoned Vehicles",
    "request_reason": "Abandoned/Junk Vehicles",
    "date_created": "2022-03-15T17:27:21.000",
    "date_modified": "2022-03-15T17:27:21.000",
    "request_status": "Pending",
    "responsible_agency": "Department of Public Works",
    "final_address": "7520 Berg Rd",
    "address_councildis": "E",
    "status": "Pending",
    "rowid": "867286",
    "final_x": "3712356.99608",
    "final_y": "566072.078755",
    "longitude": "-89.96933731239699",
    "latitude": "30.049527632954046",
    "geocoded_column": {
      "latitude": "30.049527632954046",
      "longitude": "-89.96933731239699"
    }
  },
  {
    "service_request": "2022-867285",
    "request_type": "Roads/Drainage",
    "request_reason": "Street Flooding / Drainage",
    "date_created": "2022-03-15T17:23:29.000",
    "date_modified": "2022-03-15T17:23:29.000",
    "request_status": "Pending",
    "responsible_agency": "Department of Public Works",
    "final_address": "1031 Sixth St",
    "address_councildis": "B",
    "status": "Pending",
    "rowid": "867285",
    "final_x": "3676713.55835",
    "final_y": "520468.180728",
    "longitude": "-90.0835648216669",
    "latitude": "29.9252512808144",
    "geocoded_column": {
      "latitude": "29.9252512808144",
      "longitude": "-90.0835648216669"
    }
  },
  {
    "service_request": "2022-867284",
    "request_type": "Traffic Signals/Signs/Striping/Streetlights",
    "request_reason": "Traffic Sign Missing/Damaged",
    "date_created": "2022-03-15T17:21:50.000",
    "date_modified": "2022-03-15T17:21:50.000",
    "request_status": "Pending",
    "responsible_agency": "Department of Public Works",
    "final_address": "OREILLY ST & N DUPRE ST",
    "address_councildis": "D",
    "status": "Pending",
    "rowid": "867284",
    "final_x": "3679410.9",
    "final_y": "541784.68",
    "longitude": "-90.07431080922487",
    "latitude": "29.983783297951806",
    "geocoded_column": {
      "latitude": "29.983783297951806",
      "longitude": "-90.07431080922487"
    }
  },
  {
    "service_request": "2022-867283",
    "request_type": "Traffic Signals/Signs/Striping/Streetlights",
    "request_reason": "Traffic Sign Missing/Damaged",
    "date_created": "2022-03-15T17:15:26.000",
    "date_modified": "2022-03-15T17:15:26.000",
    "request_status": "Pending",
    "responsible_agency": "Department of Public Works",
    "final_address": "830 Julia St",
    "address_councildis": "B",
    "status": "Pending",
    "rowid": "867283",
    "final_x": "3679742.20469",
    "final_y": "528146.135743",
    "longitude": "-90.07373791615615",
    "latitude": "29.946271943078706",
    "geocoded_column": {
      "latitude": "29.946271943078706",
      "longitude": "-90.07373791615615"
    }
  },
  {
    "service_request": "2022-867282",
    "request_type": "Abandoned Vehicles",
    "request_reason": "Abandoned/Junk Vehicles",
    "date_created": "2022-03-15T17:14:09.000",
    "date_modified": "2022-03-15T17:14:09.000",
    "request_status": "Pending",
    "responsible_agency": "Department of Public Works",
    "final_address": "3918 N Prieur St",
    "address_councildis": "D",
    "status": "Pending",
    "rowid": "867282",
    "final_x": "3692377.54934",
    "final_y": "538289.451273",
    "longitude": "-90.03348059183104",
    "latitude": "29.97377454131203",
    "geocoded_column": {
      "latitude": "29.97377454131203",
      "longitude": "-90.03348059183104"
    }
  },
  {
    "service_request": "2022-867281",
    "request_type": "Roads/Drainage",
    "request_reason": "Catch Basin - Clogged",
    "date_created": "2022-03-15T17:00:24.000",
    "date_modified": "2022-03-15T17:00:24.000",
    "request_status": "Pending",
    "responsible_agency": "Department of Public Works",
    "final_address": "3300 S Carrollton Ave",
    "address_councildis": "A",
    "status": "Pending",
    "rowid": "867281",
    "final_x": "3666951.31207",
    "final_y": "534162.308933",
    "longitude": "-90.11392121575463",
    "latitude": "29.963194877834457",
    "geocoded_column": {
      "latitude": "29.963194877834457",
      "longitude": "-90.11392121575463"
    }
  },
  {
    "service_request": "2022-867280",
    "request_type": "Roads/Drainage",
    "request_reason": "Catch Basin - Clogged",
    "date_created": "2022-03-15T17:00:05.000",
    "date_modified": "2022-03-15T17:00:05.000",
    "request_status": "Pending",
    "responsible_agency": "Department of Public Works",
    "final_address": "3300 S Carrollton Ave",
    "address_councildis": "A",
    "status": "Pending",
    "rowid": "867280",
    "final_x": "3666951.31207",
    "final_y": "534162.308933",
    "longitude": "-90.11392121575463",
    "latitude": "29.963194877834457",
    "geocoded_column": {
      "latitude": "29.963194877834457",
      "longitude": "-90.11392121575463"
    }
  },
  {
    "service_request": "2022-867279",
    "request_type": "Trash/Recycling",
    "request_reason": "Repair Trash Cart",
    "date_created": "2022-03-15T16:56:02.000",
    "date_modified": "2022-03-15T16:56:03.000",
    "request_status": "Pending",
    "responsible_agency": "Department of Sanitation",
    "final_address": "139 N Scott St",
    "address_councildis": "A",
    "status": "Assigned to Contractor",
    "contractor": "Richards Disposal",
    "rowid": "867279",
    "final_x": "3671945.74228",
    "final_y": "538193.716105",
    "longitude": "-90.09801210377414",
    "latitude": "29.974132799156926",
    "geocoded_column": {
      "latitude": "29.974132799156926",
      "longitude": "-90.09801210377414"
    }
  },
  {
    "service_request": "2022-867278",
    "request_type": "Roads/Drainage",
    "request_reason": "Catch Basin - Clogged",
    "date_created": "2022-03-15T16:56:02.000",
    "date_modified": "2022-03-15T16:59:30.000",
    "request_status": "Pending",
    "responsible_agency": "Department of Public Works",
    "final_address": "New Orleans,LA",
    "address_councildis": "A",
    "rowid": "867278",
    "final_x": "3666626.09741",
    "final_y": "533517.30778",
    "longitude": "-90.11496986719982",
    "latitude": "29.96143084965536",
    "geocoded_column": {
      "latitude": "29.96143084965536",
      "longitude": "-90.11496986719982"
    }
  },
  {
    "service_request": "2022-867277",
    "request_type": "Roads/Drainage",
    "request_reason": "Catch Basin - Clogged",
    "date_created": "2022-03-15T16:51:17.000",
    "date_modified": "2022-03-15T16:52:37.000",
    "request_status": "Pending",
    "responsible_agency": "Department of Public Works",
    "final_address": "\t3200 South Carrollton Avenue",
    "address_councildis": "A",
    "rowid": "867277",
    "final_x": "3666779.33613",
    "final_y": "533704.127813",
    "longitude": "-90.11447968855605",
    "latitude": "29.961940062086864",
    "geocoded_column": {
      "latitude": "29.961940062086864",
      "longitude": "-90.11447968855605"
    }
  },
  {
    "service_request": "2022-867276",
    "request_type": "Trash/Recycling",
    "request_reason": "Request a Large Item Pick Up",
    "date_created": "2022-03-15T16:45:11.000",
    "date_modified": "2022-03-15T16:45:12.000",
    "request_status": "Pending",
    "responsible_agency": "Department of Sanitation",
    "final_address": "2508 Delachaise St",
    "address_councildis": "B",
    "status": "Assigned to Contractor",
    "contractor": "Richards Disposal",
    "rowid": "867276",
    "final_x": "3672454.32679",
    "final_y": "524413.8007",
    "longitude": "-90.09687549281257",
    "latitude": "29.93622751397274",
    "geocoded_column": {
      "latitude": "29.93622751397274",
      "longitude": "-90.09687549281257"
    }
  },
  {
    "service_request": "2022-867275",
    "request_type": "Traffic Signals/Signs/Striping/Streetlights",
    "request_reason": "Street Name Sign Damaged or Missing",
    "date_created": "2022-03-15T16:41:53.000",
    "date_modified": "2022-03-15T16:41:53.000",
    "request_status": "Pending",
    "responsible_agency": "Department of Public Works",
    "final_address": "1426 S Gayoso St",
    "address_councildis": "B",
    "status": "Pending",
    "rowid": "867275",
    "final_x": "3670893.95879",
    "final_y": "530893.635202",
    "longitude": "-90.10158172561182",
    "latitude": "29.954091149511093",
    "geocoded_column": {
      "latitude": "29.954091149511093",
      "longitude": "-90.10158172561182"
    }
  },
  {
    "service_request": "2022-867274",
    "request_type": "Trash/Recycling",
    "request_reason": "Missed Trash Pick-Up",
    "date_created": "2022-03-15T16:38:42.000",
    "date_modified": "2022-03-15T16:38:43.000",
    "request_status": "Pending",
    "responsible_agency": "Department of Sanitation",
    "final_address": "3931 Louisiana Avenue Prkwy",
    "address_councildis": "B",
    "status": "Assigned to Contractor",
    "contractor": "Richards Disposal",
    "rowid": "867274",
    "final_x": "3671165.69748",
    "final_y": "529259.999553",
    "longitude": "-90.1007791700258",
    "latitude": "29.949591154267402",
    "geocoded_column": {
      "latitude": "29.949591154267402",
      "longitude": "-90.1007791700258"
    }
  },
  {
    "service_request": "2022-867273",
    "request_type": "Property Maintenance",
    "request_reason": "Property Maintenance",
    "date_created": "2022-03-15T16:33:36.000",
    "date_modified": "2022-03-15T16:33:36.000",
    "request_status": "Pending",
    "responsible_agency": "Department of Code Enforcement",
    "final_address": "4826 Stephen Girard Ave",
    "address_councildis": "D",
    "status": "Pending",
    "rowid": "867273",
    "final_x": "3692056.99017",
    "final_y": "550731.973141",
    "longitude": "-90.03404739863088",
    "latitude": "30.007996965220656",
    "geocoded_column": {
      "latitude": "30.007996965220656",
      "longitude": "-90.03404739863088"
    }
  },
  {
    "service_request": "2022-867272",
    "request_type": "Trash/Recycling",
    "request_reason": "Replace Trash Cart",
    "date_created": "2022-03-15T16:32:58.000",
    "date_modified": "2022-03-15T16:32:59.000",
    "request_status": "Pending",
    "responsible_agency": "Department of Sanitation",
    "final_address": "3665 Tchoupitoulas St",
    "address_councildis": "B",
    "status": "Assigned to Contractor",
    "contractor": "Richards Disposal",
    "rowid": "867272",
    "final_x": "3674089.39329",
    "final_y": "517795.891126",
    "longitude": "-90.0919398825908",
    "latitude": "29.917981780522116",
    "geocoded_column": {
      "latitude": "29.917981780522116",
      "longitude": "-90.0919398825908"
    }
  },
  {
    "service_request": "2022-867271",
    "request_type": "Trash/Recycling",
    "request_reason": "Replace Trash Cart",
    "date_created": "2022-03-15T16:32:22.000",
    "date_modified": "2022-03-15T16:32:23.000",
    "request_status": "Pending",
    "responsible_agency": "Department of Sanitation",
    "final_address": "3663 Tchoupitoulas St",
    "address_councildis": "B",
    "status": "Assigned to Contractor",
    "contractor": "Richards Disposal",
    "rowid": "867271",
    "final_x": "3674102.93499",
    "final_y": "517802.14111",
    "longitude": "-90.09189692504415",
    "latitude": "29.917998562572283",
    "geocoded_column": {
      "latitude": "29.917998562572283",
      "longitude": "-90.09189692504415"
    }
  },
  {
    "service_request": "2022-867269",
    "request_type": "Traffic Signals/Signs/Striping/Streetlights",
    "request_reason": "Street Light Outage/Malfunction",
    "date_created": "2022-03-15T16:30:06.000",
    "date_modified": "2022-03-15T16:30:07.000",
    "request_status": "Pending",
    "responsible_agency": "Department of Public Works",
    "final_address": "4956 Music St",
    "address_councildis": "D",
    "status": "Pending",
    "contractor": "Royal Engineering",
    "rowid": "867269",
    "final_x": "3685510.7206",
    "final_y": "551293.279125",
    "longitude": "-90.05470921296994",
    "latitude": "30.009742831200718",
    "geocoded_column": {
      "latitude": "30.009742831200718",
      "longitude": "-90.05470921296994"
    }
  },
  {
    "service_request": "2022-867268",
    "request_type": "Trash/Recycling",
    "request_reason": "Return Trash Cart",
    "date_created": "2022-03-15T16:27:36.000",
    "date_modified": "2022-03-15T16:27:37.000",
    "request_status": "Pending",
    "responsible_agency": "Department of Sanitation",
    "final_address": "968 Wilson Dr",
    "address_councildis": "A",
    "status": "Assigned to Contractor",
    "contractor": "Richards Disposal",
    "rowid": "867268",
    "final_x": "3674193.6676",
    "final_y": "540384.725131",
    "longitude": "-90.09083759445218",
    "latitude": "29.98009049717201",
    "geocoded_column": {
      "latitude": "29.98009049717201",
      "longitude": "-90.09083759445218"
    }
  },
  {
    "service_request": "2022-867267",
    "request_type": "Trash/Recycling",
    "request_reason": "MIssed Recycling Pick-Up",
    "date_created": "2022-03-15T16:26:25.000",
    "date_modified": "2022-03-15T16:26:25.000",
    "request_status": "Pending",
    "responsible_agency": "Department of Sanitation",
    "final_address": "2309 Iberville St, New Orleans, Louisiana, 70119",
    "address_councildis": "B",
    "status": "Assigned to Contractor",
    "contractor": "Richards Disposal",
    "rowid": "867267",
    "final_x": "3676907.40226",
    "final_y": "534519.047429",
    "longitude": "-90.08246872239917",
    "latitude": "29.963880696021",
    "geocoded_column": {
      "latitude": "29.963880696021",
      "longitude": "-90.08246872239917"
    }
  },
  {
    "service_request": "2022-867266",
    "request_type": "Trash/Recycling",
    "request_reason": "Missed Trash Pick-Up",
    "date_created": "2022-03-15T16:24:58.000",
    "date_modified": "2022-03-15T16:24:59.000",
    "request_status": "Pending",
    "responsible_agency": "Department of Sanitation",
    "final_address": "312 Millaudon St",
    "address_councildis": "A",
    "status": "Assigned to Contractor",
    "contractor": "Richards Disposal",
    "rowid": "867266",
    "final_x": "3661489.73344",
    "final_y": "524246.306812",
    "longitude": "-90.13149677497022",
    "latitude": "29.936087738136585",
    "geocoded_column": {
      "latitude": "29.936087738136585",
      "longitude": "-90.13149677497022"
    }
  },
  {
    "service_request": "2022-867265",
    "request_type": "Trash/Recycling",
    "request_reason": "Missed Trash Pick-Up",
    "date_created": "2022-03-15T16:22:34.000",
    "date_modified": "2022-03-15T16:22:35.000",
    "request_status": "Pending",
    "responsible_agency": "Department of Sanitation",
    "final_address": "1531 Lowerline St",
    "address_councildis": "A",
    "status": "Assigned to Contractor",
    "contractor": "Richards Disposal",
    "rowid": "867265",
    "final_x": "3664452.88448",
    "final_y": "527918.451199",
    "longitude": "-90.12201943441225",
    "latitude": "29.946099169987914",
    "geocoded_column": {
      "latitude": "29.946099169987914",
      "longitude": "-90.12201943441225"
    }
  },
  {
    "service_request": "2022-867264",
    "request_type": "Trash/Recycling",
    "request_reason": "Replace Trash Cart",
    "date_created": "2022-03-15T16:18:38.000",
    "date_modified": "2022-03-15T16:18:39.000",
    "request_status": "Pending",
    "responsible_agency": "Department of Sanitation",
    "final_address": "2427 First St",
    "address_councildis": "B",
    "status": "Assigned to Contractor",
    "contractor": "Richards Disposal",
    "rowid": "867264",
    "final_x": "3675257.69512",
    "final_y": "525848.337661",
    "longitude": "-90.08797594127775",
    "latitude": "29.94008854383658",
    "geocoded_column": {
      "latitude": "29.94008854383658",
      "longitude": "-90.08797594127775"
    }
  },
  {
    "service_request": "2022-867263",
    "request_type": "Roads/Drainage",
    "request_reason": "Street Subsidence (Sinking)",
    "date_created": "2022-03-15T16:16:15.000",
    "date_modified": "2022-03-15T16:16:15.000",
    "request_status": "Pending",
    "responsible_agency": "Department of Public Works",
    "final_address": "300 Lakeshore Prkwy",
    "address_councildis": "D",
    "status": "Pending",
    "rowid": "867263",
    "final_x": "3667438.3801",
    "final_y": "556758.25289",
    "longitude": "-90.11162230472624",
    "latitude": "30.0253117087237",
    "geocoded_column": {
      "latitude": "30.0253117087237",
      "longitude": "-90.11162230472624"
    }
  },
  {
    "service_request": "2022-867262",
    "request_type": "Trash/Recycling",
    "request_reason": "Replace Trash Cart",
    "date_created": "2022-03-15T16:08:30.000",
    "date_modified": "2022-03-15T16:08:30.000",
    "request_status": "Pending",
    "responsible_agency": "Department of Sanitation",
    "final_address": "4734 Charlmark Dr",
    "address_councildis": "E",
    "status": "Assigned to Contractor",
    "contractor": "Metro Disposal",
    "rowid": "867262",
    "final_x": "3711354.95314",
    "final_y": "555961.204825",
    "longitude": "-89.97288377304533",
    "latitude": "30.021759518618346",
    "geocoded_column": {
      "latitude": "30.021759518618346",
      "longitude": "-89.97288377304533"
    }
  },
  {
    "service_request": "2022-867261",
    "request_type": "Trash/Recycling",
    "request_reason": "Missed Trash Pick-Up",
    "date_created": "2022-03-15T16:06:05.000",
    "date_modified": "2022-03-15T16:06:06.000",
    "request_status": "Pending",
    "responsible_agency": "Department of Sanitation",
    "final_address": "531 Second St",
    "address_councildis": "B",
    "status": "Assigned to Contractor",
    "contractor": "Richards Disposal",
    "rowid": "867261",
    "final_x": "3678946.68136",
    "final_y": "519703.907704",
    "longitude": "-90.07654202089383",
    "latitude": "29.923082616838766",
    "geocoded_column": {
      "latitude": "29.923082616838766",
      "longitude": "-90.07654202089383"
    }
  },
  {
    "service_request": "2022-867260",
    "request_type": "Abandoned Vehicles",
    "request_reason": "Abandoned/Junk Vehicles",
    "date_created": "2022-03-15T16:02:42.000",
    "date_modified": "2022-03-15T16:04:46.000",
    "request_status": "Pending",
    "responsible_agency": "Department of Public Works",
    "final_address": "S ROMAN ST & CANAL ST",
    "address_councildis": "B",
    "status": "Pending",
    "rowid": "867260",
    "final_x": "3677793.5",
    "final_y": "533199.48",
    "longitude": "-90.07971609870623",
    "latitude": "29.96022570467552",
    "geocoded_column": {
      "latitude": "29.96022570467552",
      "longitude": "-90.07971609870623"
    }
  },
  {
    "service_request": "2022-867259",
    "request_type": "Abandoned Vehicles",
    "request_reason": "Abandoned/Junk Vehicles",
    "date_created": "2022-03-15T15:57:56.000",
    "date_modified": "2022-03-15T15:59:51.000",
    "request_status": "Pending",
    "responsible_agency": "Department of Public Works",
    "final_address": "4725 St Ferdinand Dr",
    "address_councildis": "D",
    "status": "Pending",
    "rowid": "867259",
    "final_x": "3689404.19164",
    "final_y": "550715.312661",
    "longitude": "-90.04242895705809",
    "latitude": "30.00803359871639",
    "geocoded_column": {
      "latitude": "30.00803359871639",
      "longitude": "-90.04242895705809"
    }
  },
  {
    "service_request": "2022-867258",
    "request_type": "Traffic Signals/Signs/Striping/Streetlights",
    "request_reason": "Traffic Signal Malfunctioning/Damaged",
    "date_created": "2022-03-15T15:52:14.000",
    "date_modified": "2022-03-15T15:52:14.000",
    "request_status": "Pending",
    "responsible_agency": "Department of Public Works",
    "final_address": "N Claiborne Ave & Esplanade Ave, New Orleans, Louisiana, 70116",
    "address_councildis": "D",
    "status": "Pending",
    "rowid": "867258",
    "final_x": "3681187.9",
    "final_y": "536587.48",
    "longitude": "-90.06887924362073",
    "latitude": "29.969438994559713",
    "geocoded_column": {
      "latitude": "29.969438994559713",
      "longitude": "-90.06887924362073"
    }
  },
  {
    "service_request": "2022-867257",
    "request_type": "Trash/Recycling",
    "request_reason": "Illegal Dumping",
    "date_created": "2022-03-15T15:51:47.000",
    "date_modified": "2022-03-15T15:51:47.000",
    "request_status": "Pending",
    "responsible_agency": "Department of Sanitation",
    "final_address": "7600 Gannon Rd",
    "address_councildis": "E",
    "status": "Pending",
    "rowid": "867257",
    "final_x": "3716469.08671",
    "final_y": "569659.73431",
    "longitude": "-89.95620443875303",
    "latitude": "30.059256974348585",
    "geocoded_column": {
      "latitude": "30.059256974348585",
      "longitude": "-89.95620443875303"
    }
  },
  {
    "service_request": "2022-867256",
    "request_type": "Trash/Recycling",
    "request_reason": "Start Trash Service",
    "date_created": "2022-03-15T15:49:50.000",
    "date_modified": "2022-03-15T15:49:51.000",
    "request_status": "Pending",
    "responsible_agency": "Department of Sanitation",
    "final_address": "8048 Gus St",
    "address_councildis": "E",
    "status": "Assigned to Contractor",
    "contractor": "Metro Disposal",
    "rowid": "867256",
    "final_x": "3703191.77604",
    "final_y": "563350.236512",
    "longitude": "-89.99840507854358",
    "latitude": "30.04234044688015",
    "geocoded_column": {
      "latitude": "30.04234044688015",
      "longitude": "-89.99840507854358"
    }
  },
  {
    "service_request": "2022-867255",
    "request_type": "Trash/Recycling",
    "request_reason": "Replace Trash Cart",
    "date_created": "2022-03-15T15:49:34.000",
    "date_modified": "2022-03-15T15:49:35.000",
    "request_status": "Pending",
    "responsible_agency": "Department of Sanitation",
    "final_address": "8048 Gus St",
    "address_councildis": "E",
    "status": "Assigned to Contractor",
    "contractor": "Metro Disposal",
    "rowid": "867255",
    "final_x": "3703191.77604",
    "final_y": "563350.236512",
    "longitude": "-89.99840507854358",
    "latitude": "30.04234044688015",
    "geocoded_column": {
      "latitude": "30.04234044688015",
      "longitude": "-89.99840507854358"
    }
  },
  {
    "service_request": "2022-867254",
    "request_type": "Roads/Drainage",
    "request_reason": "Catch Basin - Clogged",
    "date_created": "2022-03-15T15:46:00.000",
    "date_modified": "2022-03-15T15:46:01.000",
    "request_status": "Pending",
    "responsible_agency": "Department of Public Works",
    "final_address": "CADIZ ST & ANNUNCIATION ST",
    "address_councildis": "B",
    "status": "Pending",
    "rowid": "867254",
    "final_x": "3670415.1",
    "final_y": "517676.68",
    "longitude": "-90.10354168706439",
    "latitude": "29.917762932676837",
    "geocoded_column": {
      "latitude": "29.917762932676837",
      "longitude": "-90.10354168706439"
    }
  },
  {
    "service_request": "2022-867253",
    "request_type": "Roads/Drainage",
    "request_reason": "Catch Basin - Clogged",
    "date_created": "2022-03-15T15:43:44.000",
    "date_modified": "2022-03-15T15:57:02.000",
    "request_status": "Pending",
    "responsible_agency": "Department of Public Works",
    "final_address": "New Orleans,LA",
    "address_councildis": "C",
    "rowid": "867253",
    "final_x": "3683292.8173",
    "final_y": "534913.109254",
    "longitude": "-90.06229040798526",
    "latitude": "29.96477101557513",
    "geocoded_column": {
      "latitude": "29.96477101557513",
      "longitude": "-90.06229040798526"
    }
  },
  {
    "service_request": "2022-867252",
    "request_type": "Trash/Recycling",
    "request_reason": "Order Trash Cart",
    "date_created": "2022-03-15T15:41:43.000",
    "date_modified": "2022-03-15T15:41:43.000",
    "request_status": "Pending",
    "responsible_agency": "Department of Sanitation",
    "final_address": "3317 Pleasure St",
    "address_councildis": "D",
    "status": "Pending",
    "rowid": "867252",
    "final_x": "3692337.17334",
    "final_y": "544834.654735",
    "longitude": "-90.03337359262201",
    "latitude": "29.991772760097305",
    "geocoded_column": {
      "latitude": "29.991772760097305",
      "longitude": "-90.03337359262201"
    }
  },
  {
    "service_request": "2022-867251",
    "request_type": "Trash/Recycling",
    "request_reason": "Repair Trash Cart",
    "date_created": "2022-03-15T15:39:45.000",
    "date_modified": "2022-03-15T15:39:45.000",
    "request_status": "Pending",
    "responsible_agency": "Department of Sanitation",
    "final_address": "5180 Basinview Dr",
    "address_councildis": "E",
    "status": "Assigned to Contractor",
    "contractor": "Metro Disposal",
    "rowid": "867251",
    "final_x": "3698643.10276",
    "final_y": "556629.222234",
    "longitude": "-90.01302532626154",
    "latitude": "30.024005178731628",
    "geocoded_column": {
      "latitude": "30.024005178731628",
      "longitude": "-90.01302532626154"
    }
  },
  {
    "service_request": "2022-867250",
    "request_type": "Trash/Recycling",
    "request_reason": "Request a Large Item Pick Up",
    "date_created": "2022-03-15T15:39:32.000",
    "date_modified": "2022-03-15T15:39:33.000",
    "request_status": "Pending",
    "responsible_agency": "Department of Sanitation",
    "final_address": "1130 Toledano St",
    "address_councildis": "B",
    "status": "Assigned to Contractor",
    "contractor": "Richards Disposal",
    "rowid": "867250",
    "final_x": "3675263.5547",
    "final_y": "520023.380088",
    "longitude": "-90.08815728749882",
    "latitude": "29.92407162950826",
    "geocoded_column": {
      "latitude": "29.92407162950826",
      "longitude": "-90.08815728749882"
    }
  },
  {
    "service_request": "2022-867249",
    "request_type": "Trash/Recycling",
    "request_reason": "Illegal Dumping",
    "date_created": "2022-03-15T15:39:28.000",
    "date_modified": "2022-03-15T15:39:28.000",
    "request_status": "Pending",
    "responsible_agency": "Department of Sanitation",
    "final_address": "9532 Palm St",
    "address_councildis": "A",
    "status": "Pending",
    "rowid": "867249",
    "final_x": "3663783.50752",
    "final_y": "538170.099081",
    "longitude": "-90.12379122166736",
    "latitude": "29.974307295625167",
    "geocoded_column": {
      "latitude": "29.974307295625167",
      "longitude": "-90.12379122166736"
    }
  },
  {
    "service_request": "2022-867248",
    "request_type": "Trash/Recycling",
    "request_reason": "Repair Recycling Cart",
    "date_created": "2022-03-15T15:30:02.000",
    "date_modified": "2022-03-15T15:30:02.000",
    "request_status": "Pending",
    "responsible_agency": "Department of Sanitation",
    "final_address": "3114 St Philip St",
    "address_councildis": "A",
    "status": "Pending",
    "rowid": "867248",
    "final_x": "3675835.65109",
    "final_y": "539016.873802",
    "longitude": "-90.0856985589623",
    "latitude": "29.97628031607462",
    "geocoded_column": {
      "latitude": "29.97628031607462",
      "longitude": "-90.0856985589623"
    }
  },
  {
    "service_request": "2022-867247",
    "request_type": "Roads/Drainage",
    "request_reason": "Street Flooding / Drainage",
    "date_created": "2022-03-15T15:27:53.000",
    "date_modified": "2022-03-15T15:27:53.000",
    "request_status": "Pending",
    "responsible_agency": "Department of Public Works",
    "final_address": "1031 Sixth St",
    "address_councildis": "B",
    "status": "Pending",
    "rowid": "867247",
    "final_x": "3676713.55835",
    "final_y": "520468.180728",
    "longitude": "-90.0835648216669",
    "latitude": "29.9252512808144",
    "geocoded_column": {
      "latitude": "29.9252512808144",
      "longitude": "-90.0835648216669"
    }
  },
  {
    "service_request": "2022-867246",
    "request_type": "Trash/Recycling",
    "request_reason": "Request a Large Item Pick Up",
    "date_created": "2022-03-15T15:17:11.000",
    "date_modified": "2022-03-15T15:17:12.000",
    "request_status": "Pending",
    "responsible_agency": "Department of Sanitation",
    "final_address": "3023 St Claude Ave",
    "address_councildis": "C",
    "status": "Assigned to Contractor",
    "contractor": "Metro Disposal",
    "rowid": "867246",
    "final_x": "3688633.79318",
    "final_y": "536194.722759",
    "longitude": "-90.04537851840318",
    "latitude": "29.96813101884379",
    "geocoded_column": {
      "latitude": "29.96813101884379",
      "longitude": "-90.04537851840318"
    }
  },
  {
    "service_request": "2022-867245",
    "request_type": "Trash/Recycling",
    "request_reason": "Request a Large Item Pick Up",
    "date_created": "2022-03-15T15:12:16.000",
    "date_modified": "2022-03-15T15:12:17.000",
    "request_status": "Pending",
    "responsible_agency": "Department of Sanitation",
    "final_address": "38 Vivian Ct",
    "address_councildis": "C",
    "status": "Assigned to Contractor",
    "contractor": "Richards Disposal",
    "rowid": "867245",
    "final_x": "3702168.44266",
    "final_y": "521008.574969",
    "longitude": "-90.00319258063631",
    "latitude": "29.925949227839972",
    "geocoded_column": {
      "latitude": "29.925949227839972",
      "longitude": "-90.00319258063631"
    }
  },
  {
    "service_request": "2022-867244",
    "request_type": "Trash/Recycling",
    "request_reason": "Repair Recycling Cart",
    "date_created": "2022-03-15T15:09:06.000",
    "date_modified": "2022-03-15T15:09:07.000",
    "request_status": "Pending",
    "responsible_agency": "Department of Sanitation",
    "final_address": "1312 Marengo St",
    "address_councildis": "B",
    "status": "Pending",
    "rowid": "867244",
    "final_x": "3671964.0827",
    "final_y": "520286.12204",
    "longitude": "-90.0985636374146",
    "latitude": "29.924892263469047",
    "geocoded_column": {
      "latitude": "29.924892263469047",
      "longitude": "-90.0985636374146"
    }
  },
  {
    "service_request": "2022-867243",
    "request_type": "Trash/Recycling",
    "request_reason": "Replace Trash Cart",
    "date_created": "2022-03-15T15:04:25.000",
    "date_modified": "2022-03-15T15:04:26.000",
    "request_status": "Pending",
    "responsible_agency": "Department of Sanitation",
    "final_address": "1715 Ursulines Ave",
    "address_councildis": "D",
    "status": "Assigned to Contractor",
    "contractor": "Richards Disposal",
    "rowid": "867243",
    "final_x": "3680539.15925",
    "final_y": "535964.546311",
    "longitude": "-90.07094969238703",
    "latitude": "29.967745809557584",
    "geocoded_column": {
      "latitude": "29.967745809557584",
      "longitude": "-90.07094969238703"
    }
  },
  {
    "service_request": "2022-867242",
    "request_type": "Trash/Recycling",
    "request_reason": "Repair Trash Cart",
    "date_created": "2022-03-15T15:03:50.000",
    "date_modified": "2022-03-15T15:06:12.000",
    "request_status": "Pending",
    "responsible_agency": "Department of Sanitation",
    "final_address": "6745 Wuerpel St",
    "address_councildis": "A",
    "status": "Assigned to Contractor",
    "contractor": "Metro Disposal",
    "rowid": "867242",
    "final_x": "3667259.0194",
    "final_y": "552615.730838",
    "longitude": "-90.11232854398796",
    "latitude": "30.0139264952778",
    "geocoded_column": {
      "latitude": "30.0139264952778",
      "longitude": "-90.11232854398796"
    }
  },
  {
    "service_request": "2022-867241",
    "request_type": "Trash/Recycling",
    "request_reason": "Repair Trash Cart",
    "date_created": "2022-03-15T15:01:25.000",
    "date_modified": "2022-03-15T15:01:26.000",
    "request_status": "Pending",
    "responsible_agency": "Department of Sanitation",
    "final_address": "1242 Vallette St",
    "address_councildis": "C",
    "status": "Assigned to Contractor",
    "contractor": "Richards Disposal",
    "rowid": "867241",
    "final_x": "3687455.02556",
    "final_y": "526869.024638",
    "longitude": "-90.04943109839154",
    "latitude": "29.942524937021815",
    "geocoded_column": {
      "latitude": "29.942524937021815",
      "longitude": "-90.04943109839154"
    }
  },
  {
    "service_request": "2022-867238",
    "request_type": "Trash/Recycling",
    "request_reason": "Request a Large Item Pick Up",
    "date_created": "2022-03-15T14:57:23.000",
    "date_modified": "2022-03-15T14:57:23.000",
    "request_status": "Pending",
    "responsible_agency": "Department of Sanitation",
    "final_address": "3317 Fourth St",
    "address_councildis": "B",
    "status": "Assigned to Contractor",
    "contractor": "Richards Disposal",
    "rowid": "867238",
    "final_x": "3672779.9122",
    "final_y": "527909.090239",
    "longitude": "-90.09572842324575",
    "latitude": "29.945828754758562",
    "geocoded_column": {
      "latitude": "29.945828754758562",
      "longitude": "-90.09572842324575"
    }
  },
  {
    "service_request": "2022-867236",
    "request_type": "Roads/Drainage",
    "request_reason": "Man hole cover issue",
    "date_created": "2022-03-15T14:53:20.000",
    "date_modified": "2022-03-15T14:53:20.000",
    "request_status": "Pending",
    "responsible_agency": "Department of Public Works",
    "final_address": "S CLAIBORNE AVE & GRAVIER ST & S CLAIBORNE AV OVERPASS",
    "address_councildis": "B",
    "status": "Pending",
    "rowid": "867236",
    "final_x": "3677541.3",
    "final_y": "531544.08",
    "longitude": "-90.08056964561153",
    "latitude": "29.955681496604203",
    "geocoded_column": {
      "latitude": "29.955681496604203",
      "longitude": "-90.08056964561153"
    }
  },
  {
    "service_request": "2022-867235",
    "request_type": "Traffic Signals/Signs/Striping/Streetlights",
    "request_reason": "Street Light Outage/Malfunction",
    "date_created": "2022-03-15T14:49:52.000",
    "date_modified": "2022-03-15T14:49:53.000",
    "request_status": "Pending",
    "responsible_agency": "Department of Public Works",
    "final_address": "6401 Maumus Ave",
    "address_councildis": "C",
    "status": "Pending",
    "contractor": "Royal Engineering",
    "rowid": "867235",
    "final_x": "3707607.3315",
    "final_y": "516652.416501",
    "longitude": "-89.986185433082",
    "latitude": "29.913796584112944",
    "geocoded_column": {
      "latitude": "29.913796584112944",
      "longitude": "-89.986185433082"
    }
  },
  {
    "service_request": "2022-867234",
    "request_type": "Roads/Drainage",
    "request_reason": "Damaged Sidewalk",
    "date_created": "2022-03-15T14:41:13.000",
    "date_modified": "2022-03-15T14:41:13.000",
    "request_status": "Pending",
    "responsible_agency": "Department of Public Works",
    "final_address": "13500 Dwyer Blvd",
    "address_councildis": "E",
    "status": "Pending",
    "rowid": "867234",
    "final_x": "3725964.52819",
    "final_y": "561878.932895",
    "longitude": "-89.92649246121982",
    "latitude": "30.03754581246318",
    "geocoded_column": {
      "latitude": "30.03754581246318",
      "longitude": "-89.92649246121982"
    }
  },
  {
    "service_request": "2022-867233",
    "request_type": "Traffic Signals/Signs/Striping/Streetlights",
    "request_reason": "Additional signage",
    "date_created": "2022-03-15T14:39:08.000",
    "date_modified": "2022-03-15T14:39:08.000",
    "request_status": "Pending",
    "responsible_agency": "Department of Public Works",
    "final_address": "3635 Napoleon Ave",
    "address_councildis": "B",
    "status": "Pending",
    "rowid": "867233",
    "final_x": "3670228.19239",
    "final_y": "528065.901759",
    "longitude": "-90.10377976396077",
    "latitude": "29.94633547151061",
    "geocoded_column": {
      "latitude": "29.94633547151061",
      "longitude": "-90.10377976396077"
    }
  },
  {
    "service_request": "2022-867232",
    "request_type": "Trash/Recycling",
    "request_reason": "Replace Trash Cart",
    "date_created": "2022-03-15T14:35:10.000",
    "date_modified": "2022-03-15T14:35:10.000",
    "request_status": "Pending",
    "responsible_agency": "Department of Sanitation",
    "final_address": "4700 Allen St",
    "address_councildis": "D",
    "status": "Assigned to Contractor",
    "contractor": "Metro Disposal",
    "rowid": "867232",
    "final_x": "3681616.78652",
    "final_y": "549784.929684",
    "longitude": "-90.06706419565441",
    "latitude": "30.00571431570176",
    "geocoded_column": {
      "latitude": "30.00571431570176",
      "longitude": "-90.06706419565441"
    }
  },
  {
    "service_request": "2022-867231",
    "request_type": "Roads/Drainage",
    "request_reason": "Pothole",
    "date_created": "2022-03-15T14:34:03.000",
    "date_modified": "2022-03-15T14:34:03.000",
    "request_status": "Pending",
    "responsible_agency": "Department of Public Works",
    "final_address": "4114 Mithra St",
    "address_councildis": "D",
    "status": "Pending",
    "rowid": "867231",
    "final_x": "3689135.97404",
    "final_y": "552989.121687",
    "longitude": "-90.04319545225509",
    "latitude": "30.01429404233397",
    "geocoded_column": {
      "latitude": "30.01429404233397",
      "longitude": "-90.04319545225509"
    }
  },
  {
    "service_request": "2022-867230",
    "request_type": "Trash/Recycling",
    "request_reason": "Replace Trash Cart",
    "date_created": "2022-03-15T14:31:59.000",
    "date_modified": "2022-03-15T14:32:00.000",
    "request_status": "Pending",
    "responsible_agency": "Department of Sanitation",
    "final_address": "6338 Catina St",
    "address_councildis": "A",
    "status": "Assigned to Contractor",
    "contractor": "Metro Disposal",
    "rowid": "867230",
    "final_x": "3666835.5401",
    "final_y": "549793.758164",
    "longitude": "-90.11376142470617",
    "latitude": "30.006179457020018",
    "geocoded_column": {
      "latitude": "30.006179457020018",
      "longitude": "-90.11376142470617"
    }
  },
  {
    "service_request": "2022-867229",
    "request_type": "Trash/Recycling",
    "request_reason": "Request a Large Item Pick Up",
    "date_created": "2022-03-15T14:29:41.000",
    "date_modified": "2022-03-15T14:29:42.000",
    "request_status": "Pending",
    "responsible_agency": "Department of Sanitation",
    "final_address": "3429 Touro St",
    "address_councildis": "D",
    "status": "Assigned to Contractor",
    "contractor": "Metro Disposal",
    "rowid": "867229",
    "final_x": "3683549.44527",
    "final_y": "545341.556176",
    "longitude": "-90.06111434963618",
    "latitude": "29.993437763578722",
    "geocoded_column": {
      "latitude": "29.993437763578722",
      "longitude": "-90.06111434963618"
    }
  },
  {
    "service_request": "2022-867228",
    "request_type": "Trash/Recycling",
    "request_reason": "Request a Large Item Pick Up",
    "date_created": "2022-03-15T14:24:23.000",
    "date_modified": "2022-03-15T14:24:24.000",
    "request_status": "Pending",
    "responsible_agency": "Department of Sanitation",
    "final_address": "7520 Pebble Dr",
    "address_councildis": "E",
    "status": "Assigned to Contractor",
    "contractor": "Metro Disposal",
    "rowid": "867228",
    "final_x": "3715450.9653",
    "final_y": "568393.702501",
    "longitude": "-89.95947059050762",
    "latitude": "30.055809514504354",
    "geocoded_column": {
      "latitude": "30.055809514504354",
      "longitude": "-89.95947059050762"
    }
  },
  {
    "service_request": "2022-867227",
    "request_type": "Trash/Recycling",
    "request_reason": "Request a Large Item Pick Up",
    "date_created": "2022-03-15T14:24:21.000",
    "date_modified": "2022-03-15T14:24:22.000",
    "request_status": "Pending",
    "responsible_agency": "Department of Sanitation",
    "final_address": "7300 Beauvoir Ct",
    "address_councildis": "E",
    "status": "Assigned to Contractor",
    "contractor": "Metro Disposal",
    "rowid": "867227",
    "final_x": "3716131.74559",
    "final_y": "567737.274596",
    "longitude": "-89.95734370953899",
    "latitude": "30.053982146545593",
    "geocoded_column": {
      "latitude": "30.053982146545593",
      "longitude": "-89.95734370953899"
    }
  },
  {
    "service_request": "2022-867226",
    "request_type": "Trash/Recycling",
    "request_reason": "Replace Trash Cart",
    "date_created": "2022-03-15T14:23:41.000",
    "date_modified": "2022-03-15T14:23:42.000",
    "request_status": "Pending",
    "responsible_agency": "Department of Sanitation",
    "final_address": "1301 General Ogden St",
    "address_councildis": "A",
    "status": "Assigned to Contractor",
    "contractor": "Richards Disposal",
    "rowid": "867226",
    "final_x": "3660151.73862",
    "final_y": "530538.13965",
    "longitude": "-90.13551323699676",
    "latitude": "29.95342680046426",
    "geocoded_column": {
      "latitude": "29.95342680046426",
      "longitude": "-90.13551323699676"
    }
  },
  {
    "service_request": "2022-867225",
    "request_type": "Traffic Signals/Signs/Striping/Streetlights",
    "request_reason": "Street Light Outage/Malfunction",
    "date_created": "2022-03-15T14:21:44.000",
    "date_modified": "2022-03-15T14:21:44.000",
    "request_status": "Pending",
    "responsible_agency": "Department of Public Works",
    "final_address": "4919 Hickerson Dr",
    "address_councildis": "E",
    "status": "Pending",
    "contractor": "Royal Engineering",
    "rowid": "867225",
    "final_x": "3710262.48901",
    "final_y": "556844.245978",
    "longitude": "-89.97630259540557",
    "latitude": "30.024223155283988",
    "geocoded_column": {
      "latitude": "30.024223155283988",
      "longitude": "-89.97630259540557"
    }
  },
  {
    "service_request": "2022-867224",
    "request_type": "Trash/Recycling",
    "request_reason": "Request a Large Item Pick Up",
    "date_created": "2022-03-15T14:18:54.000",
    "date_modified": "2022-03-15T14:18:54.000",
    "request_status": "Pending",
    "responsible_agency": "Department of Sanitation",
    "final_address": "110 Hathaway Pl",
    "address_councildis": "D",
    "status": "Assigned to Contractor",
    "contractor": "Metro Disposal",
    "rowid": "867224",
    "final_x": "3678317.48315",
    "final_y": "544041.005134",
    "longitude": "-90.0776863093718",
    "latitude": "29.99002039444591",
    "geocoded_column": {
      "latitude": "29.99002039444591",
      "longitude": "-90.0776863093718"
    }
  },
  {
    "service_request": "2022-867222",
    "request_type": "Abandoned Vehicles",
    "request_reason": "Abandoned/Junk Vehicles",
    "date_created": "2022-03-15T14:15:44.000",
    "date_modified": "2022-03-15T14:15:44.000",
    "request_status": "Pending",
    "responsible_agency": "Department of Public Works",
    "final_address": "1600 BLK Delachaise St",
    "address_councildis": "B",
    "status": "Pending",
    "rowid": "867222",
    "final_x": "3673753.79616",
    "final_y": "521577.601318",
    "longitude": "-90.09286995567822",
    "latitude": "29.92839026374273",
    "geocoded_column": {
      "latitude": "29.92839026374273",
      "longitude": "-90.09286995567822"
    }
  },
  {
    "service_request": "2022-867221",
    "request_type": "Trash/Recycling",
    "request_reason": "Request a Large Item Pick Up",
    "date_created": "2022-03-15T14:14:07.000",
    "date_modified": "2022-03-15T14:14:09.000",
    "request_status": "Pending",
    "responsible_agency": "Department of Sanitation",
    "final_address": "2042 Louisa St",
    "address_councildis": "D",
    "status": "Assigned to Contractor",
    "contractor": "Metro Disposal",
    "rowid": "867221",
    "final_x": "3690441.94153",
    "final_y": "539569.06305",
    "longitude": "-90.03954801207999",
    "latitude": "29.97735325418751",
    "geocoded_column": {
      "latitude": "29.97735325418751",
      "longitude": "-90.03954801207999"
    }
  },
  {
    "service_request": "2022-867220",
    "request_type": "Abandoned Vehicles",
    "request_reason": "Abandoned/Junk Vehicles",
    "date_created": "2022-03-15T14:12:53.000",
    "date_modified": "2022-03-15T14:20:31.000",
    "request_status": "Pending",
    "responsible_agency": "Department of Public Works",
    "final_address": "4782 Hickerson Dr",
    "address_councildis": "E",
    "status": "Pending",
    "rowid": "867220",
    "final_x": "3710225.44798",
    "final_y": "556032.945113",
    "longitude": "-89.97644999423244",
    "latitude": "30.021993601969115",
    "geocoded_column": {
      "latitude": "30.021993601969115",
      "longitude": "-89.97644999423244"
    }
  },
  {
    "service_request": "2022-867219",
    "request_type": "Trash/Recycling",
    "request_reason": "Request a Large Item Pick Up",
    "date_created": "2022-03-15T14:07:25.000",
    "date_modified": "2022-03-15T14:07:26.000",
    "request_status": "Pending",
    "responsible_agency": "Department of Sanitation",
    "final_address": "1700 Valmont St",
    "address_councildis": "B",
    "status": "Assigned to Contractor",
    "contractor": "Richards Disposal",
    "rowid": "867219",
    "final_x": "3667867.92033",
    "final_y": "521862.805306",
    "longitude": "-90.11144084744744",
    "latitude": "29.92934837915848",
    "geocoded_column": {
      "latitude": "29.92934837915848",
      "longitude": "-90.11144084744744"
    }
  },
  {
    "service_request": "2022-867218",
    "request_type": "Trash/Recycling",
    "request_reason": "Request a Large Item Pick Up",
    "date_created": "2022-03-15T14:07:11.000",
    "date_modified": "2022-03-15T14:07:12.000",
    "request_status": "Pending",
    "responsible_agency": "Department of Sanitation",
    "final_address": "816 Aline St",
    "address_councildis": "B",
    "status": "Assigned to Contractor",
    "contractor": "Richards Disposal",
    "rowid": "867218",
    "final_x": "3674722.52948",
    "final_y": "518508.377335",
    "longitude": "-90.08991701062574",
    "latitude": "29.919922013428625",
    "geocoded_column": {
      "latitude": "29.919922013428625",
      "longitude": "-90.08991701062574"
    }
  },
  {
    "service_request": "2022-867217",
    "request_type": "Trash/Recycling",
    "request_reason": "Order Trash Cart",
    "date_created": "2022-03-15T14:03:30.000",
    "date_modified": "2022-03-15T14:03:51.000",
    "request_status": "Pending",
    "responsible_agency": "Department of Sanitation",
    "final_address": "2110 Easter Ln",
    "address_councildis": "C",
    "status": "Assigned to Contractor",
    "contractor": "Richards Disposal",
    "rowid": "867217",
    "final_x": "3699538.46512",
    "final_y": "523560.262779",
    "longitude": "-90.01140166447901",
    "latitude": "29.933049174497764",
    "geocoded_column": {
      "latitude": "29.933049174497764",
      "longitude": "-90.01140166447901"
    }
  },
  {
    "service_request": "2022-867216",
    "request_type": "Roads/Drainage",
    "request_reason": "Street Flooding / Drainage",
    "date_created": "2022-03-15T14:01:25.000",
    "date_modified": "2022-03-15T14:01:25.000",
    "request_status": "Pending",
    "responsible_agency": "Department of Public Works",
    "final_address": "3541 Rue Mignon",
    "address_councildis": "C",
    "status": "Pending",
    "rowid": "867216",
    "final_x": "3703269.8307",
    "final_y": "517582.127158",
    "longitude": "-89.99984172527225",
    "latitude": "29.91649247745336",
    "geocoded_column": {
      "latitude": "29.91649247745336",
      "longitude": "-89.99984172527225"
    }
  },
  {
    "service_request": "2022-867215",
    "request_type": "Trash/Recycling",
    "request_reason": "Replace Trash Cart",
    "date_created": "2022-03-15T14:00:19.000",
    "date_modified": "2022-03-15T14:00:20.000",
    "request_status": "Pending",
    "responsible_agency": "Department of Sanitation",
    "final_address": "44 Audubon Blvd, New Orleans, Louisiana, 70118",
    "address_councildis": "A",
    "status": "Assigned to Contractor",
    "contractor": "Richards Disposal",
    "rowid": "867215",
    "final_x": "3665415.68807",
    "final_y": "527295.201983",
    "longitude": "-90.11900037553968",
    "latitude": "29.944357413565754",
    "geocoded_column": {
      "latitude": "29.944357413565754",
      "longitude": "-90.11900037553968"
    }
  },
  {
    "service_request": "2022-867214",
    "request_type": "Property Maintenance",
    "request_reason": "Property Maintenance",
    "date_created": "2022-03-15T14:00:10.000",
    "date_modified": "2022-03-15T14:00:10.000",
    "request_status": "Pending",
    "responsible_agency": "Department of Code Enforcement",
    "final_address": "3834 General Meyer Ave",
    "address_councildis": "C",
    "status": "Pending",
    "rowid": "867214",
    "final_x": "3698256.8449",
    "final_y": "525219.862461",
    "longitude": "-90.01538736405965",
    "latitude": "29.9376530933818",
    "geocoded_column": {
      "latitude": "29.9376530933818",
      "longitude": "-90.01538736405965"
    }
  },
  {
    "service_request": "2022-867213",
    "request_type": "Trash/Recycling",
    "request_reason": "Repair Trash Cart",
    "date_created": "2022-03-15T13:59:21.000",
    "date_modified": "2022-03-15T13:59:21.000",
    "request_status": "Pending",
    "responsible_agency": "Department of Sanitation",
    "final_address": "2905 OReilly St",
    "address_councildis": "D",
    "status": "Assigned to Contractor",
    "contractor": "Metro Disposal",
    "rowid": "867213",
    "final_x": "3679113.5028",
    "final_y": "542058.943756",
    "longitude": "-90.0752406374168",
    "latitude": "29.98454640948932",
    "geocoded_column": {
      "latitude": "29.98454640948932",
      "longitude": "-90.0752406374168"
    }
  },
  {
    "service_request": "2022-867212",
    "request_type": "Property Maintenance",
    "request_reason": "Property Maintenance",
    "date_created": "2022-03-15T13:55:45.000",
    "date_modified": "2022-03-15T13:55:45.000",
    "request_status": "Pending",
    "responsible_agency": "Department of Code Enforcement",
    "final_address": "911 Belleville St",
    "address_councildis": "C",
    "status": "Pending",
    "rowid": "867212",
    "final_x": "3687733.87593",
    "final_y": "528251.899968",
    "longitude": "-90.04850174950909",
    "latitude": "29.94631877955785",
    "geocoded_column": {
      "latitude": "29.94631877955785",
      "longitude": "-90.04850174950909"
    }
  },
  {
    "service_request": "2022-867211",
    "request_type": "Roads/Drainage",
    "request_reason": "Pothole",
    "date_created": "2022-03-15T13:55:10.000",
    "date_modified": "2022-03-15T13:55:10.000",
    "request_status": "Pending",
    "responsible_agency": "Department of Public Works",
    "final_address": "2715 Joseph Street",
    "address_councildis": "A",
    "status": "Pending",
    "rowid": "867211",
    "final_x": "3667753.94209",
    "final_y": "525878.153469",
    "longitude": "-90.11166551116578",
    "latitude": "29.94039264300552",
    "geocoded_column": {
      "latitude": "29.94039264300552",
      "longitude": "-90.11166551116578"
    }
  },
  {
    "service_request": "2022-867210",
    "request_type": "Roads/Drainage",
    "request_reason": "Pothole",
    "date_created": "2022-03-15T13:54:14.000",
    "date_modified": "2022-03-15T13:55:03.000",
    "request_status": "Pending",
    "responsible_agency": "Department of Public Works",
    "final_address": "2715 Joseph St",
    "address_councildis": "A",
    "status": "Pending",
    "rowid": "867210",
    "final_x": "3667753.94209",
    "final_y": "525878.153469",
    "longitude": "-90.11166551116578",
    "latitude": "29.94039264300552",
    "geocoded_column": {
      "latitude": "29.94039264300552",
      "longitude": "-90.11166551116578"
    }
  },
  {
    "service_request": "2022-867209",
    "request_type": "Trash/Recycling",
    "request_reason": "Illegal Dumping",
    "date_created": "2022-03-15T13:54:08.000",
    "date_modified": "2022-03-15T13:54:08.000",
    "request_status": "Pending",
    "responsible_agency": "Department of Sanitation",
    "final_address": "1925 N Johnson St",
    "address_councildis": "D",
    "status": "Pending",
    "rowid": "867209",
    "final_x": "3683078.77544",
    "final_y": "539520.99489",
    "longitude": "-90.06280498870903",
    "latitude": "29.977447631212918",
    "geocoded_column": {
      "latitude": "29.977447631212918",
      "longitude": "-90.06280498870903"
    }
  },
  {
    "service_request": "2022-867208",
    "request_type": "Safety & Permits",
    "request_reason": "Licenses & Permits",
    "date_created": "2022-03-15T13:50:01.000",
    "date_modified": "2022-03-15T14:34:34.000",
    "request_status": "Pending",
    "responsible_agency": "Safety and Permits",
    "final_address": "New Orleans,LA",
    "rowid": "867208",
    "longitude": "0.0",
    "latitude": "0.0",
    "geocoded_column": {
      "latitude": "0.0",
      "longitude": "0.0"
    }
  },
  {
    "service_request": "2022-867207",
    "request_type": "Trash/Recycling",
    "request_reason": "Repair Trash Cart",
    "date_created": "2022-03-15T13:49:40.000",
    "date_modified": "2022-03-15T13:49:41.000",
    "request_status": "Pending",
    "responsible_agency": "Department of Sanitation",
    "final_address": "2945 Copernicus St",
    "address_councildis": "C",
    "status": "Assigned to Contractor",
    "contractor": "Richards Disposal",
    "rowid": "867207",
    "final_x": "3695098.01347",
    "final_y": "524143.599484",
    "longitude": "-90.02539876941492",
    "latitude": "29.934793265099184",
    "geocoded_column": {
      "latitude": "29.934793265099184",
      "longitude": "-90.02539876941492"
    }
  },
  {
    "service_request": "2022-867206",
    "request_type": "Trash/Recycling",
    "request_reason": "Missed Trash Pick-Up",
    "date_created": "2022-03-15T13:49:11.000",
    "date_modified": "2022-03-15T13:55:54.000",
    "request_status": "Pending",
    "responsible_agency": "Department of Sanitation",
    "final_address": "New Orleans,LA",
    "address_councildis": "D",
    "status": "Assigned to Contractor",
    "contractor": "Metro Disposal",
    "rowid": "867206",
    "final_x": "3686607.61628",
    "final_y": "539132.743882",
    "longitude": "-90.05167346935318",
    "latitude": "29.97627201605409",
    "geocoded_column": {
      "latitude": "29.97627201605409",
      "longitude": "-90.05167346935318"
    }
  },
  {
    "service_request": "2022-867205",
    "request_type": "Abandoned Vehicles",
    "request_reason": "Abandoned/Junk Vehicles",
    "date_created": "2022-03-15T13:47:37.000",
    "date_modified": "2022-03-15T13:49:39.000",
    "request_status": "Pending",
    "responsible_agency": "Department of Public Works",
    "final_address": "300 BLK S Murat St",
    "address_councildis": "A",
    "status": "Pending",
    "rowid": "867205",
    "final_x": "3669105.25985",
    "final_y": "538608.594815",
    "longitude": "-90.10696900321648",
    "latitude": "29.975357473095364",
    "geocoded_column": {
      "latitude": "29.975357473095364",
      "longitude": "-90.10696900321648"
    }
  },
  {
    "service_request": "2022-867204",
    "request_type": "Trash/Recycling",
    "request_reason": "Replace Recycling Cart",
    "date_created": "2022-03-15T13:47:10.000",
    "date_modified": "2022-03-15T13:47:10.000",
    "request_status": "Pending",
    "responsible_agency": "Department of Sanitation",
    "final_address": "140 Oakmont Dr, New Orleans, Louisiana, 70128",
    "address_councildis": "E",
    "status": "Pending",
    "rowid": "867204",
    "final_x": "3719928.64294",
    "final_y": "563482.249888",
    "longitude": "-89.94550567996218",
    "latitude": "30.04215666531329",
    "geocoded_column": {
      "latitude": "30.04215666531329",
      "longitude": "-89.94550567996218"
    }
  },
  {
    "service_request": "2022-867203",
    "request_type": "Trash/Recycling",
    "request_reason": "Request a Large Item Pick Up",
    "date_created": "2022-03-15T13:46:04.000",
    "date_modified": "2022-03-15T13:46:05.000",
    "request_status": "Pending",
    "responsible_agency": "Department of Sanitation",
    "final_address": "5313 Timber Haven Ln",
    "address_councildis": "C",
    "status": "Assigned to Contractor",
    "contractor": "Richards Disposal",
    "rowid": "867203",
    "final_x": "3703822.19633",
    "final_y": "511339.661808",
    "longitude": "-89.99832781387074",
    "latitude": "29.899310139188913",
    "geocoded_column": {
      "latitude": "29.899310139188913",
      "longitude": "-89.99832781387074"
    }
  },
  {
    "service_request": "2022-867202",
    "request_type": "Trash/Recycling",
    "request_reason": "Order Recycling Cart",
    "date_created": "2022-03-15T13:42:46.000",
    "date_modified": "2022-03-15T13:42:46.000",
    "request_status": "Pending",
    "responsible_agency": "Department of Sanitation",
    "final_address": "6204 Vermillion Blvd",
    "address_councildis": "D",
    "status": "Pending",
    "rowid": "867202",
    "final_x": "3682971.40431",
    "final_y": "555775.786841",
    "longitude": "-90.06257475362337",
    "latitude": "30.022145759928886",
    "geocoded_column": {
      "latitude": "30.022145759928886",
      "longitude": "-90.06257475362337"
    }
  },
  {
    "service_request": "2022-867201",
    "request_type": "Roads/Drainage",
    "request_reason": "Street Flooding / Drainage",
    "date_created": "2022-03-15T13:42:21.000",
    "date_modified": "2022-03-15T13:42:21.000",
    "request_status": "Pending",
    "responsible_agency": "Department of Public Works",
    "final_address": "2014 N Johnson St",
    "address_councildis": "D",
    "status": "Pending",
    "rowid": "867201",
    "final_x": "3683784.42076",
    "final_y": "539506.940682",
    "longitude": "-90.06057682080234",
    "latitude": "29.97738745401622",
    "geocoded_column": {
      "latitude": "29.97738745401622",
      "longitude": "-90.06057682080234"
    }
  },
  {
    "service_request": "2022-867200",
    "request_type": "Traffic Signals/Signs/Striping/Streetlights",
    "request_reason": "Request for Stop Sign",
    "date_created": "2022-03-15T13:41:16.000",
    "date_modified": "2022-03-15T13:41:16.000",
    "request_status": "Pending",
    "responsible_agency": "Department of Public Works",
    "final_address": "522 Seguin St",
    "address_councildis": "C",
    "status": "Pending",
    "rowid": "867200",
    "final_x": "3686564.72962",
    "final_y": "529821.853761",
    "longitude": "-90.05213772044806",
    "latitude": "29.9506716129551",
    "geocoded_column": {
      "latitude": "29.9506716129551",
      "longitude": "-90.05213772044806"
    }
  },
  {
    "service_request": "2022-867199",
    "request_type": "Trash/Recycling",
    "request_reason": "Start Trash Service",
    "date_created": "2022-03-15T13:35:42.000",
    "date_modified": "2022-03-15T13:35:43.000",
    "request_status": "Pending",
    "responsible_agency": "Department of Sanitation",
    "final_address": "901 Wagner St",
    "address_councildis": "C",
    "status": "Assigned to Contractor",
    "contractor": "Richards Disposal",
    "rowid": "867199",
    "final_x": "3690461.00214",
    "final_y": "528182.675648",
    "longitude": "-90.03989375568219",
    "latitude": "29.946044071947455",
    "geocoded_column": {
      "latitude": "29.946044071947455",
      "longitude": "-90.03989375568219"
    }
  },
  {
    "service_request": "2022-867198",
    "request_type": "Trash/Recycling",
    "request_reason": "Missed Trash Pick-Up",
    "date_created": "2022-03-15T13:35:07.000",
    "date_modified": "2022-03-15T13:35:08.000",
    "request_status": "Pending",
    "responsible_agency": "Department of Sanitation",
    "final_address": "901 Wagner St",
    "address_councildis": "C",
    "status": "Assigned to Contractor",
    "contractor": "Richards Disposal",
    "rowid": "867198",
    "final_x": "3690461.00214",
    "final_y": "528182.675648",
    "longitude": "-90.03989375568219",
    "latitude": "29.946044071947455",
    "geocoded_column": {
      "latitude": "29.946044071947455",
      "longitude": "-90.03989375568219"
    }
  },
  {
    "service_request": "2022-867197",
    "request_type": "Property Maintenance",
    "request_reason": "Property Maintenance",
    "date_created": "2022-03-15T13:31:46.000",
    "date_modified": "2022-03-15T13:31:46.000",
    "request_status": "Pending",
    "responsible_agency": "Department of Code Enforcement",
    "final_address": "5769 Cameron Blvd",
    "address_councildis": "D",
    "status": "Pending",
    "rowid": "867197",
    "final_x": "3682530.48943",
    "final_y": "554648.600408",
    "longitude": "-90.06400738767712",
    "latitude": "30.019059848432168",
    "geocoded_column": {
      "latitude": "30.019059848432168",
      "longitude": "-90.06400738767712"
    }
  },
  {
    "service_request": "2022-867195",
    "request_type": "Trash/Recycling",
    "request_reason": "Order Trash Cart",
    "date_created": "2022-03-15T13:22:48.000",
    "date_modified": "2022-03-15T13:22:48.000",
    "request_status": "Pending",
    "responsible_agency": "Department of Sanitation",
    "final_address": "4821 Congress Dr",
    "address_councildis": "D",
    "status": "Assigned to Contractor",
    "contractor": "Metro Disposal",
    "rowid": "867195",
    "final_x": "3692299.1567",
    "final_y": "552062.973142",
    "longitude": "-90.03323461326983",
    "latitude": "30.01164916971203",
    "geocoded_column": {
      "latitude": "30.01164916971203",
      "longitude": "-90.03323461326983"
    }
  },
  {
    "service_request": "2022-867194",
    "request_type": "Property Maintenance",
    "request_reason": "Property Maintenance",
    "date_created": "2022-03-15T13:22:47.000",
    "date_modified": "2022-03-15T13:22:48.000",
    "request_status": "Pending",
    "responsible_agency": "Department of Code Enforcement",
    "final_address": "1128 Adams St",
    "address_councildis": "A",
    "status": "Pending",
    "rowid": "867194",
    "final_x": "3662951.06541",
    "final_y": "527332.460351",
    "longitude": "-90.12678069669099",
    "latitude": "29.944531451952443",
    "geocoded_column": {
      "latitude": "29.944531451952443",
      "longitude": "-90.12678069669099"
    }
  },
  {
    "service_request": "2022-867193",
    "request_type": "Abandoned Vehicles",
    "request_reason": "Abandoned/Junk Vehicles",
    "date_created": "2022-03-15T13:22:06.000",
    "date_modified": "2022-03-15T13:22:06.000",
    "request_status": "Pending",
    "responsible_agency": "Department of Public Works",
    "final_address": "2562 St Nick Dr",
    "address_councildis": "C",
    "status": "Pending",
    "rowid": "867193",
    "final_x": "3699405.23216",
    "final_y": "521612.623993",
    "longitude": "-90.01189317704053",
    "latitude": "29.92769806561524",
    "geocoded_column": {
      "latitude": "29.92769806561524",
      "longitude": "-90.01189317704053"
    }
  },
  {
    "service_request": "2022-867192",
    "request_type": "Roads/Drainage",
    "request_reason": "Catch Basin - Clogged",
    "date_created": "2022-03-15T13:20:48.000",
    "date_modified": "2022-03-15T13:20:48.000",
    "request_status": "Pending",
    "responsible_agency": "Department of Public Works",
    "final_address": "301 N Carrollton Ave",
    "address_councildis": "A",
    "status": "Pending",
    "rowid": "867192",
    "final_x": "3671615.31969",
    "final_y": "539045.621834",
    "longitude": "-90.09902667417641",
    "latitude": "29.97648504225232",
    "geocoded_column": {
      "latitude": "29.97648504225232",
      "longitude": "-90.09902667417641"
    }
  },
  {
    "service_request": "2022-867191",
    "request_type": "Roads/Drainage",
    "request_reason": "Catch Basin - Clogged",
    "date_created": "2022-03-15T13:19:12.000",
    "date_modified": "2022-03-15T13:19:12.000",
    "request_status": "Pending",
    "responsible_agency": "Department of Public Works",
    "final_address": "3001 Bienville Ave",
    "address_councildis": "B",
    "status": "Pending",
    "rowid": "867191",
    "final_x": "3674822.66619",
    "final_y": "536566.609991",
    "longitude": "-90.08898191087472",
    "latitude": "29.969573213726136",
    "geocoded_column": {
      "latitude": "29.969573213726136",
      "longitude": "-90.08898191087472"
    }
  },
  {
    "service_request": "2022-867190",
    "request_type": "Roads/Drainage",
    "request_reason": "Catch Basin - Clogged",
    "date_created": "2022-03-15T13:17:53.000",
    "date_modified": "2022-03-15T13:17:53.000",
    "request_status": "Pending",
    "responsible_agency": "Department of Public Works",
    "final_address": "3001 Bienville Ave",
    "address_councildis": "B",
    "status": "Pending",
    "rowid": "867190",
    "final_x": "3674822.66619",
    "final_y": "536566.609991",
    "longitude": "-90.08898191087472",
    "latitude": "29.969573213726136",
    "geocoded_column": {
      "latitude": "29.969573213726136",
      "longitude": "-90.08898191087472"
    }
  },
  {
    "service_request": "2022-867189",
    "request_type": "Tax and Revenue",
    "request_reason": "Sales Tax Question",
    "date_created": "2022-03-15T13:17:35.000",
    "date_modified": "2022-03-15T13:21:44.000",
    "request_status": "Pending",
    "responsible_agency": "Bureau of Revenue",
    "final_address": "New Orleans,LA",
    "rowid": "867189",
    "longitude": "0.0",
    "latitude": "0.0",
    "geocoded_column": {
      "latitude": "0.0",
      "longitude": "0.0"
    }
  },
  {
    "service_request": "2022-867188",
    "request_type": "Roads/Drainage",
    "request_reason": "Catch Basin - Clogged",
    "date_created": "2022-03-15T13:16:00.000",
    "date_modified": "2022-03-15T13:16:00.000",
    "request_status": "Pending",
    "responsible_agency": "Department of Public Works",
    "final_address": "3019 Canal St",
    "address_councildis": "B",
    "status": "Pending",
    "rowid": "867188",
    "final_x": "3674377.00257",
    "final_y": "536183.248519",
    "longitude": "-90.09040248942972",
    "latitude": "29.96853239965694",
    "geocoded_column": {
      "latitude": "29.96853239965694",
      "longitude": "-90.09040248942972"
    }
  },
  {
    "service_request": "2022-867187",
    "request_type": "Parks & Parkways",
    "request_reason": "Request Tree Service (Right of Way/Public Property)",
    "date_created": "2022-03-15T13:15:46.000",
    "date_modified": "2022-03-15T13:15:46.000",
    "request_status": "Pending",
    "responsible_agency": "Department of Parks & Parkway",
    "final_address": "14TH ST & FLEUR DE LIS DR",
    "address_councildis": "A",
    "status": "Pending",
    "rowid": "867187",
    "final_x": "3665152.4",
    "final_y": "548129.38",
    "longitude": "-90.11913461669027",
    "latitude": "30.0016521426651",
    "geocoded_column": {
      "latitude": "30.0016521426651",
      "longitude": "-90.11913461669027"
    }
  },
  {
    "service_request": "2022-867186",
    "request_type": "Trash/Recycling",
    "request_reason": "Request a Large Item Pick Up",
    "date_created": "2022-03-15T13:15:16.000",
    "date_modified": "2022-03-15T13:15:16.000",
    "request_status": "Pending",
    "responsible_agency": "Department of Sanitation",
    "final_address": "4712 Perlita St",
    "address_councildis": "D",
    "status": "Assigned to Contractor",
    "contractor": "Metro Disposal",
    "rowid": "867186",
    "final_x": "3678604.98133",
    "final_y": "549939.301268",
    "longitude": "-90.07657383268673",
    "latitude": "30.006229956260675",
    "geocoded_column": {
      "latitude": "30.006229956260675",
      "longitude": "-90.07657383268673"
    }
  },