[
  {
    "service_request": "2023-1033191",
    "request_type": "Traffic Signals/Signs/Striping/Streetlights",
    "request_reason": "Traffic Sign Missing/Damaged",
    "date_created": "2023-09-08T01:42:27.000",
    "date_modified": "2023-09-08T01:42:27.000",
    "request_status": "Pending",
    "responsible_agency": "Department of Public Works",
    "final_address": "1839 Bordeaux St",
    "address_councildis": "B",
    "status": "Pending",
    "rowid": "1033191",
    "final_x": "3669329.85428",
    "final_y": "521753.37337",
    "longitude": "-90.10682947979618",
    "latitude": "29.92900452881874",
    "geocoded_column": {
      "latitude": "29.92900452881874",
      "longitude": "-90.10682947979618"
    }
  },
  {
    "service_request": "2023-1033190",
    "request_type": "Traffic Signals/Signs/Striping/Streetlights",
    "request_reason": "Street Light Outage/Malfunction",
    "date_created": "2023-09-08T01:27:46.000",
    "date_modified": "2023-09-08T01:27:47.000",
    "request_status": "Pending",
    "responsible_agency": "Department of Public Works",
    "status": "Assigned to Contractor",
    "contractor": "Legacy Professional Services",
    "rowid": "1033190",
    "longitude": "0.0",
    "latitude": "0.0",
    "geocoded_column": {
      "latitude": "0.0",
      "longitude": "0.0"
    }
  },
  {
    "service_request": "2023-1033189",
    "request_type": "Roads/Drainage",
    "request_reason": "Pothole",
    "date_created": "2023-09-08T00:38:12.000",
    "date_modified": "2023-09-08T00:38:12.000",
    "request_status": "Pending",
    "responsible_agency": "Department of Public Works",
    "final_address": "1836 Valence St",
    "address_councildis": "B",
    "status": "Pending",
    "rowid": "1033189",
    "final_x": "3669548.88276",
    "final_y": "521749.076666",
    "longitude": "-90.10613819354518",
    "latitude": "29.928986265896693",
    "geocoded_column": {
      "latitude": "29.928986265896693",
      "longitude": "-90.10613819354518"
    }
  },
  {
    "service_request": "2023-1033188",
    "request_type": "Roads/Drainage",
    "request_reason": "Pothole",
    "date_created": "2023-09-08T00:15:53.000",
    "date_modified": "2023-09-08T00:15:53.000",
    "request_status": "Pending",
    "responsible_agency": "Department of Public Works",
    "final_address": "6061 Pitt St",
    "address_councildis": "A",
    "status": "Pending",
    "rowid": "1033188",
    "final_x": "3664964.69159",
    "final_y": "521343.071609",
    "longitude": "-90.12062320038766",
    "latitude": "29.928004084090347",
    "geocoded_column": {
      "latitude": "29.928004084090347",
      "longitude": "-90.12062320038766"
    }
  },
  {
    "service_request": "2023-1033187",
    "request_type": "Roads/Drainage",
    "request_reason": "Pothole",
    "date_created": "2023-09-08T00:12:45.000",
    "date_modified": "2023-09-08T00:12:45.000",
    "request_status": "Pending",
    "responsible_agency": "Department of Public Works",
    "final_address": "6035 Pitt St",
    "address_councildis": "A",
    "status": "Pending",
    "rowid": "1033187",
    "final_x": "3665046.23386",
    "final_y": "521355.372985",
    "longitude": "-90.12036537801447",
    "latitude": "29.928035535745135",
    "geocoded_column": {
      "latitude": "29.928035535745135",
      "longitude": "-90.12036537801447"
    }
  },
  {
    "service_request": "2023-1033186",
    "request_type": "Property Maintenance",
    "request_reason": "Property Maintenance",
    "date_created": "2023-09-08T00:08:10.000",
    "date_modified": "2023-09-08T00:08:10.000",
    "request_status": "Pending",
    "responsible_agency": "Department of Code Enforcement",
    "final_address": "1835 Andry St",
    "address_councildis": "E",
    "status": "Pending",
    "rowid": "1033186",
    "final_x": "3698008.60535",
    "final_y": "536847.305736",
    "longitude": "-90.01574896339582",
    "latitude": "29.969632312269646",
    "geocoded_column": {
      "latitude": "29.969632312269646",
      "longitude": "-90.01574896339582"
    }
  },
  {
    "service_request": "2023-1033185",
    "request_type": "Roads/Drainage",
    "request_reason": "Pothole",
    "date_created": "2023-09-08T00:07:34.000",
    "date_modified": "2023-09-08T00:07:34.000",
    "request_status": "Pending",
    "responsible_agency": "Department of Public Works",
    "final_address": "5926 Pitt St",
    "address_councildis": "A",
    "status": "Pending",
    "rowid": "1033185",
    "final_x": "3665467.7065",
    "final_y": "521009.245113",
    "longitude": "-90.11904645902852",
    "latitude": "29.9270715185238",
    "geocoded_column": {
      "latitude": "29.9270715185238",
      "longitude": "-90.11904645902852"
    }
  },
  {
    "service_request": "2023-1033184",
    "request_type": "Roads/Drainage",
    "request_reason": "Street Subsidence (Sinking)",
    "date_created": "2023-09-07T23:53:42.000",
    "date_modified": "2023-09-07T23:53:42.000",
    "request_status": "Pending",
    "responsible_agency": "Department of Public Works",
    "final_address": "6001 Camp St",
    "address_councildis": "A",
    "status": "Pending",
    "rowid": "1033184",
    "final_x": "3664662.45978",
    "final_y": "519641.233144",
    "longitude": "-90.12163409192962",
    "latitude": "29.923333355022592",
    "geocoded_column": {
      "latitude": "29.923333355022592",
      "longitude": "-90.12163409192962"
    }
  },
  {
    "service_request": "2023-1033183",
    "request_type": "Roads/Drainage",
    "request_reason": "Pothole",
    "date_created": "2023-09-07T23:26:16.000",
    "date_modified": "2023-09-07T23:26:16.000",
    "request_status": "Pending",
    "responsible_agency": "Department of Public Works",
    "final_address": "1423 Dufossat St",
    "address_councildis": "B",
    "status": "Pending",
    "rowid": "1033183",
    "final_x": "3668174.01178",
    "final_y": "520369.628984",
    "longitude": "-90.11052487395027",
    "latitude": "29.925233639881142",
    "geocoded_column": {
      "latitude": "29.925233639881142",
      "longitude": "-90.11052487395027"
    }
  },
  {
    "service_request": "2023-1033182",
    "request_type": "Trash/Recycling",
    "request_reason": "Order Recycling Cart",
    "date_created": "2023-09-07T23:17:25.000",
    "date_modified": "2023-09-07T23:17:25.000",
    "request_status": "Pending",
    "responsible_agency": "Department of Sanitation",
    "final_address": "7900 Mackenzie St",
    "address_councildis": "E",
    "status": "Pending",
    "rowid": "1033182",
    "final_x": "3710431.00984",
    "final_y": "566903.24458",
    "longitude": "-89.97539342673397",
    "latitude": "30.051875901734157",
    "geocoded_column": {
      "latitude": "30.051875901734157",
      "longitude": "-89.97539342673397"
    }
  },
  {
    "service_request": "2023-1033181",
    "request_type": "Traffic Signals/Signs/Striping/Streetlights",
    "request_reason": "Street Light Outage/Malfunction",
    "date_created": "2023-09-07T23:16:42.000",
    "date_modified": "2023-09-07T23:16:42.000",
    "request_status": "Pending",
    "responsible_agency": "Department of Public Works",
    "final_address": "3520 Indiana St",
    "address_councildis": "C",
    "status": "Assigned to Contractor",
    "contractor": "Legacy Professional Services",
    "rowid": "1033181",
    "final_x": "3693823.38102",
    "final_y": "520530.526776",
    "longitude": "-90.02955253320269",
    "latitude": "29.924898488224432",
    "geocoded_column": {
      "latitude": "29.924898488224432",
      "longitude": "-90.02955253320269"
    }
  },
  {
    "service_request": "2023-1033180",
    "request_type": "Safety & Permits",
    "request_reason": "Licenses & Permits",
    "date_created": "2023-09-07T22:34:44.000",
    "date_modified": "2023-09-07T22:34:44.000",
    "request_status": "Pending",
    "responsible_agency": "Safety and Permits",
    "status": "Pending",
    "rowid": "1033180",
    "longitude": "0.0",
    "latitude": "0.0",
    "geocoded_column": {
      "latitude": "0.0",
      "longitude": "0.0"
    }
  },
  {
    "service_request": "2023-1033179",
    "request_type": "Roads/Drainage",
    "request_reason": "Pothole",
    "date_created": "2023-09-07T21:58:40.000",
    "date_modified": "2023-09-07T21:58:40.000",
    "request_status": "Pending",
    "responsible_agency": "Department of Public Works",
    "final_address": "4013 Chestnut St",
    "address_councildis": "B",
    "status": "Pending",
    "rowid": "1033179",
    "final_x": "3672339.99182",
    "final_y": "519701.916664",
    "longitude": "-90.09739690471109",
    "latitude": "29.923274741723816",
    "geocoded_column": {
      "latitude": "29.923274741723816",
      "longitude": "-90.09739690471109"
    }
  },
  {
    "service_request": "2023-1033178",
    "request_type": "Traffic Signals/Signs/Striping/Streetlights",
    "request_reason": "Street Light Outage/Malfunction",
    "date_created": "2023-09-07T21:55:24.000",
    "date_modified": "2023-09-07T21:55:24.000",
    "request_status": "Pending",
    "responsible_agency": "Department of Public Works",
    "final_address": "1029 Port St",
    "address_councildis": "C",
    "status": "Assigned to Contractor",
    "contractor": "Legacy Professional Services",
    "rowid": "1033178",
    "final_x": "3687396.0767",
    "final_y": "536185.994503",
    "longitude": "-90.04928757534358",
    "latitude": "29.968145215056435",
    "geocoded_column": {
      "latitude": "29.968145215056435",
      "longitude": "-90.04928757534358"
    }
  },
  {
    "service_request": "2023-1033177",
    "request_type": "Roads/Drainage",
    "request_reason": "Pothole",
    "date_created": "2023-09-07T21:50:56.000",
    "date_modified": "2023-09-07T21:50:56.000",
    "request_status": "Pending",
    "responsible_agency": "Department of Public Works",
    "final_address": "6216 Camp St",
    "address_councildis": "A",
    "status": "Pending",
    "rowid": "1033177",
    "final_x": "3663748.11187",
    "final_y": "519930.497272",
    "longitude": "-90.12451072353035",
    "latitude": "29.92415529590064",
    "geocoded_column": {
      "latitude": "29.92415529590064",
      "longitude": "-90.12451072353035"
    }
  },
  {
    "service_request": "2023-1033176",
    "request_type": "Traffic Signals/Signs/Striping/Streetlights",
    "request_reason": "Street Light Outage/Malfunction",
    "date_created": "2023-09-07T21:49:40.000",
    "date_modified": "2023-09-07T21:49:41.000",
    "request_status": "Pending",
    "responsible_agency": "Department of Public Works",
    "final_address": "2413 Painters St",
    "address_councildis": "D",
    "status": "Assigned to Contractor",
    "contractor": "Legacy Professional Services",
    "rowid": "1033176",
    "final_x": "3687198.01442",
    "final_y": "541441.943436",
    "longitude": "-90.04972712104794",
    "latitude": "29.982603327635545",
    "geocoded_column": {
      "latitude": "29.982603327635545",
      "longitude": "-90.04972712104794"
    }
  },
  {
    "service_request": "2023-1033174",
    "request_type": "Traffic Signals/Signs/Striping/Streetlights",
    "request_reason": "Traffic Sign Missing/Damaged",
    "date_created": "2023-09-07T21:45:17.000",
    "date_modified": "2023-09-07T21:45:17.000",
    "request_status": "Pending",
    "responsible_agency": "Department of Public Works",
    "final_address": "4028 Coliseum St",
    "address_councildis": "B",
    "status": "Pending",
    "rowid": "1033174",
    "final_x": "3672122.83758",
    "final_y": "519903.154808",
    "longitude": "-90.09807553169775",
    "latitude": "29.923834521068446",
    "geocoded_column": {
      "latitude": "29.923834521068446",
      "longitude": "-90.09807553169775"
    }
  },
  {
    "service_request": "2023-1033173",
    "request_type": "Traffic Signals/Signs/Striping/Streetlights",
    "request_reason": "Street Light Outage/Malfunction",
    "date_created": "2023-09-07T21:30:23.000",
    "date_modified": "2023-09-07T21:30:24.000",
    "request_status": "Pending",
    "responsible_agency": "Department of Public Works",
    "final_address": "760 Harrison Ave",
    "address_councildis": "A",
    "status": "Assigned to Contractor",
    "contractor": "Legacy Professional Services",
    "rowid": "1033173",
    "final_x": "3669127.11316",
    "final_y": "549118.469139",
    "longitude": "-90.10654460468272",
    "latitude": "30.004255384142354",
    "geocoded_column": {
      "latitude": "30.004255384142354",
      "longitude": "-90.10654460468272"
    }
  },
  {
    "service_request": "2023-1033172",
    "request_type": "Traffic Signals/Signs/Striping/Streetlights",
    "request_reason": "Street Light Outage/Malfunction",
    "date_created": "2023-09-07T21:29:28.000",
    "date_modified": "2023-09-07T21:29:29.000",
    "request_status": "Pending",
    "responsible_agency": "Department of Public Works",
    "final_address": "760 Harrison Ave",
    "address_councildis": "A",
    "status": "Assigned to Contractor",
    "contractor": "Legacy Professional Services",
    "rowid": "1033172",
    "final_x": "3669127.11316",
    "final_y": "549118.469139",
    "longitude": "-90.10654460468272",
    "latitude": "30.004255384142354",
    "geocoded_column": {
      "latitude": "30.004255384142354",
      "longitude": "-90.10654460468272"
    }
  },
  {
    "service_request": "2023-1033171",
    "request_type": "Traffic Signals/Signs/Striping/Streetlights",
    "request_reason": "Street Light Outage/Malfunction",
    "date_created": "2023-09-07T21:24:26.000",
    "date_modified": "2023-09-07T21:24:27.000",
    "request_status": "Pending",
    "responsible_agency": "Department of Public Works",
    "final_address": "7130 Freret St",
    "address_councildis": "A",
    "status": "Assigned to Contractor",
    "contractor": "Legacy Professional Services",
    "rowid": "1033171",
    "final_x": "3663829.488",
    "final_y": "525814.911357",
    "longitude": "-90.12405781260513",
    "latitude": "29.940333214611833",
    "geocoded_column": {
      "latitude": "29.940333214611833",
      "longitude": "-90.12405781260513"
    }
  },
  {
    "service_request": "2023-1033170",
    "request_type": "Traffic Signals/Signs/Striping/Streetlights",
    "request_reason": "Street Light Outage/Malfunction",
    "date_created": "2023-09-07T21:22:12.000",
    "date_modified": "2023-09-07T21:22:13.000",
    "request_status": "Pending",
    "responsible_agency": "Department of Public Works",
    "final_address": "6155 Marshal Foch St",
    "address_councildis": "A",
    "status": "Assigned to Contractor",
    "contractor": "Legacy Professional Services",
    "rowid": "1033170",
    "final_x": "3669983.40161",
    "final_y": "548231.88789",
    "longitude": "-90.10386947772076",
    "latitude": "30.001792358858477",
    "geocoded_column": {
      "latitude": "30.001792358858477",
      "longitude": "-90.10386947772076"
    }
  },
  {
    "service_request": "2023-1033169",
    "request_type": "Traffic Signals/Signs/Striping/Streetlights",
    "request_reason": "Street Light Outage/Malfunction",
    "date_created": "2023-09-07T21:15:51.000",
    "date_modified": "2023-09-07T21:15:52.000",
    "request_status": "Pending",
    "responsible_agency": "Department of Public Works",
    "final_address": "5953 Marshal Foch St",
    "address_councildis": "A",
    "status": "Assigned to Contractor",
    "contractor": "Legacy Professional Services",
    "rowid": "1033169",
    "final_x": "3669889.58785",
    "final_y": "546921.323345",
    "longitude": "-90.10421025748067",
    "latitude": "29.998191529099344",
    "geocoded_column": {
      "latitude": "29.998191529099344",
      "longitude": "-90.10421025748067"
    }
  },
  {
    "service_request": "2023-1033168",
    "request_type": "Traffic Signals/Signs/Striping/Streetlights",
    "request_reason": "Street Light Outage/Malfunction",
    "date_created": "2023-09-07T21:13:53.000",
    "date_modified": "2023-09-07T21:13:53.000",
    "request_status": "Pending",
    "responsible_agency": "Department of Public Works",
    "final_address": "5922 Marshal Foch St",
    "address_councildis": "A",
    "status": "Assigned to Contractor",
    "contractor": "Legacy Professional Services",
    "rowid": "1033168",
    "final_x": "3669687.36385",
    "final_y": "546714.013649",
    "longitude": "-90.10485610438451",
    "latitude": "29.997627462283",
    "geocoded_column": {
      "latitude": "29.997627462283",
      "longitude": "-90.10485610438451"
    }
  },
  {
    "service_request": "2023-1033167",
    "request_type": "Traffic Signals/Signs/Striping/Streetlights",
    "request_reason": "Street Light Outage/Malfunction",
    "date_created": "2023-09-07T21:11:09.000",
    "date_modified": "2023-09-07T21:11:09.000",
    "request_status": "Pending",
    "responsible_agency": "Department of Public Works",
    "final_address": "5824 Marshal Foch St",
    "address_councildis": "A",
    "status": "Assigned to Contractor",
    "contractor": "Legacy Professional Services",
    "rowid": "1033167",
    "final_x": "3669627.32212",
    "final_y": "546058.939472",
    "longitude": "-90.10506795738348",
    "latitude": "29.995828004686874",
    "geocoded_column": {
      "latitude": "29.995828004686874",
      "longitude": "-90.10506795738348"
    }
  },
  {
    "service_request": "2023-1033166",
    "request_type": "Traffic Signals/Signs/Striping/Streetlights",
    "request_reason": "Street Light Outage/Malfunction",
    "date_created": "2023-09-07T21:02:33.000",
    "date_modified": "2023-09-07T21:02:34.000",
    "request_status": "Pending",
    "responsible_agency": "Department of Public Works",
    "final_address": "6075 Argonne Blvd",
    "address_councildis": "A",
    "status": "Assigned to Contractor",
    "contractor": "Legacy Professional Services",
    "rowid": "1033166",
    "final_x": "3670258.78286",
    "final_y": "547713.489426",
    "longitude": "-90.10301710110474",
    "latitude": "30.00035881606608",
    "geocoded_column": {
      "latitude": "30.00035881606608",
      "longitude": "-90.10301710110474"
    }
  },
  {
    "service_request": "2023-1033164",
    "request_type": "Roads/Drainage",
    "request_reason": "Pothole",
    "date_created": "2023-09-07T20:52:52.000",
    "date_modified": "2023-09-07T20:52:52.000",
    "request_status": "Pending",
    "responsible_agency": "Department of Public Works",
    "final_address": "5823 Perrier St",
    "address_councildis": "A",
    "status": "Pending",
    "rowid": "1033164",
    "final_x": "3665601.07367",
    "final_y": "520421.208184",
    "longitude": "-90.11864512991228",
    "latitude": "29.92545071542357",
    "geocoded_column": {
      "latitude": "29.92545071542357",
      "longitude": "-90.11864512991228"
    }
  },
  {
    "service_request": "2023-1033165",
    "request_type": "Roads/Drainage",
    "request_reason": "Pothole",
    "date_created": "2023-09-07T20:52:52.000",
    "date_modified": "2023-09-07T20:52:52.000",
    "request_status": "Pending",
    "responsible_agency": "Department of Public Works",
    "final_address": "5823 Perrier St",
    "address_councildis": "A",
    "status": "Pending",
    "rowid": "1033165",
    "final_x": "3665601.07367",
    "final_y": "520421.208184",
    "longitude": "-90.11864512991228",
    "latitude": "29.92545071542357",
    "geocoded_column": {
      "latitude": "29.92545071542357",
      "longitude": "-90.11864512991228"
    }
  },
  {
    "service_request": "2023-1033163",
    "request_type": "Roads/Drainage",
    "request_reason": "Pothole",
    "date_created": "2023-09-07T20:52:50.000",
    "date_modified": "2023-09-07T20:52:50.000",
    "request_status": "Pending",
    "responsible_agency": "Department of Public Works",
    "final_address": "5823 Perrier St",
    "address_councildis": "A",
    "status": "Pending",
    "rowid": "1033163",
    "final_x": "3665601.07367",
    "final_y": "520421.208184",
    "longitude": "-90.11864512991228",
    "latitude": "29.92545071542357",
    "geocoded_column": {
      "latitude": "29.92545071542357",
      "longitude": "-90.11864512991228"
    }
  },
  {
    "service_request": "2023-1033162",
    "request_type": "Property Maintenance",
    "request_reason": "Property Maintenance",
    "date_created": "2023-09-07T20:43:24.000",
    "date_modified": "2023-09-07T20:43:24.000",
    "request_status": "Pending",
    "responsible_agency": "Department of Code Enforcement",
    "final_address": "4911 Schindler Dr",
    "address_councildis": "E",
    "status": "Pending",
    "rowid": "1033162",
    "final_x": "3714328.42207",
    "final_y": "557408.829467",
    "longitude": "-89.9634338095821",
    "latitude": "30.025642505934314",
    "geocoded_column": {
      "latitude": "30.025642505934314",
      "longitude": "-89.9634338095821"
    }
  },
  {
    "service_request": "2023-1033161",
    "request_type": "Roads/Drainage",
    "request_reason": "Debris in Roadway",
    "date_created": "2023-09-07T20:14:52.000",
    "date_modified": "2023-09-07T20:14:52.000",
    "request_status": "Pending",
    "responsible_agency": "Department of Public Works",
    "final_address": "1600 BLK Gentilly Blvd",
    "address_councildis": "A",
    "status": "Pending",
    "rowid": "1033161",
    "final_x": "3678466.33922",
    "final_y": "540986.456857",
    "longitude": "-90.07732187465622",
    "latitude": "29.981616965282427",
    "geocoded_column": {
      "latitude": "29.981616965282427",
      "longitude": "-90.07732187465622"
    }
  },
  {
    "service_request": "2023-1033160",
    "request_type": "Traffic Signals/Signs/Striping/Streetlights",
    "request_reason": "Street Light Outage/Malfunction",
    "date_created": "2023-09-07T20:13:20.000",
    "date_modified": "2023-09-07T20:13:20.000",
    "request_status": "Pending",
    "responsible_agency": "Department of Public Works",
    "final_address": "2517 Danneel St",
    "address_councildis": "B",
    "status": "Assigned to Contractor",
    "contractor": "Legacy Professional Services",
    "rowid": "1033160",
    "final_x": "3675762.70888",
    "final_y": "524186.569788",
    "longitude": "-90.0864386257026",
    "latitude": "29.935504124789308",
    "geocoded_column": {
      "latitude": "29.935504124789308",
      "longitude": "-90.0864386257026"
    }
  },
  {
    "service_request": "2023-1033159",
    "request_type": "Property Maintenance",
    "request_reason": "Property Maintenance",
    "date_created": "2023-09-07T20:10:08.000",
    "date_modified": "2023-09-07T20:10:08.000",
    "request_status": "Pending",
    "responsible_agency": "Department of Code Enforcement",
    "final_address": "4218 Baudin St",
    "address_councildis": "A",
    "status": "Pending",
    "rowid": "1033159",
    "final_x": "3669473.45588",
    "final_y": "537515.696392",
    "longitude": "-90.10584311418887",
    "latitude": "29.972341529275763",
    "geocoded_column": {
      "latitude": "29.972341529275763",
      "longitude": "-90.10584311418887"
    }
  },
  {
    "service_request": "2023-1033157",
    "request_type": "Roads/Drainage",
    "request_reason": "Damaged Sidewalk",
    "date_created": "2023-09-07T20:00:44.000",
    "date_modified": "2023-09-07T20:00:44.000",
    "request_status": "Pending",
    "responsible_agency": "Department of Public Works",
    "final_address": "4518 Freret St",
    "address_councildis": "B",
    "status": "Pending",
    "rowid": "1033157",
    "final_x": "3669952.22836",
    "final_y": "523950.45766",
    "longitude": "-90.10479039905101",
    "latitude": "29.935027473150473",
    "geocoded_column": {
      "latitude": "29.935027473150473",
      "longitude": "-90.10479039905101"
    }
  },
  {
    "service_request": "2023-1033156",
    "request_type": "Trash/Recycling",
    "request_reason": "Start Trash Service",
    "date_created": "2023-09-07T19:55:26.000",
    "date_modified": "2023-09-07T19:55:27.000",
    "request_status": "Pending",
    "responsible_agency": "Department of Sanitation",
    "final_address": "1725 Frenchmen St",
    "address_councildis": "D",
    "status": "Assigned to Contractor",
    "contractor": "IV Waste",
    "rowid": "1033156",
    "final_x": "3684431.59029",
    "final_y": "538694.622153",
    "longitude": "-90.05856138986302",
    "latitude": "29.975134080318078",
    "geocoded_column": {
      "latitude": "29.975134080318078",
      "longitude": "-90.05856138986302"
    }
  },
  {
    "service_request": "2023-1033155",
    "request_type": "Roads/Drainage",
    "request_reason": "Debris in Roadway",
    "date_created": "2023-09-07T19:18:35.000",
    "date_modified": "2023-09-07T19:18:35.000",
    "request_status": "Pending",
    "responsible_agency": "Department of Public Works",
    "final_address": "5501 Chestnut St",
    "address_councildis": "A",
    "status": "Pending",
    "rowid": "1033155",
    "final_x": "3666535.4361",
    "final_y": "519655.128312",
    "longitude": "-90.11572132420206",
    "latitude": "29.923316968586114",
    "geocoded_column": {
      "latitude": "29.923316968586114",
      "longitude": "-90.11572132420206"
    }
  },
  {
    "service_request": "2023-1033153",
    "request_type": "Trash/Recycling",
    "request_reason": "Request a Large Item Pick Up",
    "date_created": "2023-09-07T18:59:35.000",
    "date_modified": "2023-09-07T18:59:36.000",
    "request_status": "Pending",
    "responsible_agency": "Department of Sanitation",
    "final_address": "3326 Baudin St",
    "address_councildis": "B",
    "status": "Assigned to Contractor",
    "contractor": "Richards Disposal",
    "rowid": "1033153",
    "final_x": "3672422.38913",
    "final_y": "535258.599814",
    "longitude": "-90.09660679085789",
    "latitude": "29.966048080980972",
    "geocoded_column": {
      "latitude": "29.966048080980972",
      "longitude": "-90.09660679085789"
    }
  },
  {
    "service_request": "2023-1033152",
    "request_type": "Roads/Drainage",
    "request_reason": "Catch Basin - Clogged",
    "date_created": "2023-09-07T18:59:28.000",
    "date_modified": "2023-09-07T18:59:28.000",
    "request_status": "Pending",
    "responsible_agency": "Department of Public Works",
    "final_address": "8305 Oleander St",
    "address_councildis": "A",
    "status": "Pending",
    "rowid": "1033152",
    "final_x": "3666211.36397",
    "final_y": "534214.682117",
    "longitude": "-90.11625613800375",
    "latitude": "29.963360518539847",
    "geocoded_column": {
      "latitude": "29.963360518539847",
      "longitude": "-90.11625613800375"
    }
  },
  {
    "service_request": "2023-1033151",
    "request_type": "Roads/Drainage",
    "request_reason": "Street Flooding / Drainage",
    "date_created": "2023-09-07T18:54:05.000",
    "date_modified": "2023-09-07T18:54:05.000",
    "request_status": "Pending",
    "responsible_agency": "Department of Public Works",
    "final_address": "1530 Calhoun St",
    "address_councildis": "A",
    "status": "Pending",
    "rowid": "1033151",
    "final_x": "3664577.95488",
    "final_y": "522522.634746",
    "longitude": "-90.12180467382811",
    "latitude": "29.93125875937909",
    "geocoded_column": {
      "latitude": "29.93125875937909",
      "longitude": "-90.12180467382811"
    }
  },
  {
    "service_request": "2023-1033150",
    "request_type": "Safety & Permits",
    "request_reason": "Licenses & Permits",
    "date_created": "2023-09-07T18:49:56.000",
    "date_modified": "2023-09-07T18:51:34.000",
    "request_status": "Pending",
    "responsible_agency": "Safety and Permits",
    "final_address": "5401 Desire Dr",
    "address_councildis": "D",
    "status": "Pending",
    "rowid": "1033150",
    "final_x": "3691098.91548",
    "final_y": "553605.180119",
    "longitude": "-90.03697153736209",
    "latitude": "30.015927057321665",
    "geocoded_column": {
      "latitude": "30.015927057321665",
      "longitude": "-90.03697153736209"
    }
  },
  {
    "service_request": "2023-1033149",
    "request_type": "Safety & Permits",
    "request_reason": "Licenses & Permits",
    "date_created": "2023-09-07T18:49:54.000",
    "date_modified": "2023-09-07T18:51:47.000",
    "request_status": "Pending",
    "responsible_agency": "Safety and Permits",
    "final_address": "1031 Joseph St, New Orleans, Louisiana, 70115",
    "address_councildis": "A",
    "rowid": "1033149",
    "final_x": "3666383.51213",
    "final_y": "519851.38124",
    "longitude": "-90.11619431214088",
    "latitude": "29.923861040547372",
    "geocoded_column": {
      "latitude": "29.923861040547372",
      "longitude": "-90.11619431214088"
    }
  },
  {
    "service_request": "2023-1033148",
    "request_type": "Abandoned Vehicles",
    "request_reason": "Abandoned/Junk Vehicles",
    "date_created": "2023-09-07T18:42:15.000",
    "date_modified": "2023-09-07T18:42:15.000",
    "request_status": "Pending",
    "responsible_agency": "Department of Public Works",
    "final_address": "1314 Marigny St",
    "address_councildis": "C",
    "status": "Pending",
    "rowid": "1033148",
    "final_x": "3685309.61071",
    "final_y": "537200.096904",
    "longitude": "-90.05584100117046",
    "latitude": "29.970997769406587",
    "geocoded_column": {
      "latitude": "29.970997769406587",
      "longitude": "-90.05584100117046"
    }
  },
  {
    "service_request": "2023-1033147",
    "request_type": "Traffic Signals/Signs/Striping/Streetlights",
    "request_reason": "Street Light Outage/Malfunction",
    "date_created": "2023-09-07T18:40:27.000",
    "date_modified": "2023-09-07T18:40:28.000",
    "request_status": "Pending",
    "responsible_agency": "Department of Public Works",
    "final_address": "145 26Th St",
    "address_councildis": "A",
    "status": "Assigned to Contractor",
    "contractor": "Legacy Professional Services",
    "rowid": "1033147",
    "final_x": "3665839.99584",
    "final_y": "549948.119828",
    "longitude": "-90.11690142776051",
    "latitude": "30.006632995864553",
    "geocoded_column": {
      "latitude": "30.006632995864553",
      "longitude": "-90.11690142776051"
    }
  },
  {
    "service_request": "2023-1033146",
    "request_type": "Roads/Drainage",
    "request_reason": "Street Flooding / Drainage",
    "date_created": "2023-09-07T18:33:43.000",
    "date_modified": "2023-09-07T18:33:43.000",
    "request_status": "Pending",
    "responsible_agency": "Department of Public Works",
    "final_address": "332 Calhoun St",
    "address_councildis": "A",
    "status": "Pending",
    "rowid": "1033146",
    "final_x": "3662835.88397",
    "final_y": "518370.209974",
    "longitude": "-90.12744215448869",
    "latitude": "29.9198914223849",
    "geocoded_column": {
      "latitude": "29.9198914223849",
      "longitude": "-90.12744215448869"
    }
  },
  {
    "service_request": "2023-1033145",
    "request_type": "Trash/Recycling",
    "request_reason": "Replace Trash Cart",
    "date_created": "2023-09-07T18:25:24.000",
    "date_modified": "2023-09-07T18:25:25.000",
    "request_status": "Pending",
    "responsible_agency": "Department of Sanitation",
    "status": "Assigned to Contractor",
    "rowid": "1033145",
    "longitude": "0.0",
    "latitude": "0.0",
    "geocoded_column": {
      "latitude": "0.0",
      "longitude": "0.0"
    }
  },
  {
    "service_request": "2023-1033144",
    "request_type": "Trash/Recycling",
    "request_reason": "Replace Trash Cart",
    "date_created": "2023-09-07T18:12:28.000",
    "date_modified": "2023-09-07T18:12:29.000",
    "request_status": "Pending",
    "responsible_agency": "Department of Sanitation",
    "final_address": "4315 S Tonti St",
    "address_councildis": "B",
    "status": "Assigned to Contractor",
    "contractor": "Richards Disposal",
    "rowid": "1033144",
    "final_x": "3670379.43758",
    "final_y": "528218.724608",
    "longitude": "-90.10329704897927",
    "latitude": "29.94675122100869",
    "geocoded_column": {
      "latitude": "29.94675122100869",
      "longitude": "-90.10329704897927"
    }
  },
  {
    "service_request": "2023-1033143",
    "request_type": "Trash/Recycling",
    "request_reason": "Missed Trash Pick-Up",
    "date_created": "2023-09-07T18:02:46.000",
    "date_modified": "2023-09-07T18:02:47.000",
    "request_status": "Pending",
    "responsible_agency": "Department of Sanitation",
    "final_address": "5914 Boeing St",
    "address_councildis": "D",
    "status": "Assigned to Contractor",
    "contractor": "Waste Pro",
    "rowid": "1033143",
    "final_x": "3696396.55658",
    "final_y": "553012.729879",
    "longitude": "-90.02025489830102",
    "latitude": "30.014132177162907",
    "geocoded_column": {
      "latitude": "30.014132177162907",
      "longitude": "-90.02025489830102"
    }
  },
  {
    "service_request": "2023-1033142",
    "request_type": "Trash/Recycling",
    "request_reason": "MIssed Recycling Pick-Up",
    "date_created": "2023-09-07T17:59:22.000",
    "date_modified": "2023-09-07T17:59:22.000",
    "request_status": "Pending",
    "responsible_agency": "Department of Sanitation",
    "final_address": "5411 Marais St",
    "address_councildis": "E",
    "status": "Assigned to Contractor",
    "contractor": "Waste Pro",
    "rowid": "1033142",
    "final_x": "3697396.18288",
    "final_y": "534329.577605",
    "longitude": "-90.01777432509826",
    "latitude": "29.962728807486187",
    "geocoded_column": {
      "latitude": "29.962728807486187",
      "longitude": "-90.01777432509826"
    }
  },
  {
    "service_request": "2023-1033141",
    "request_type": "Roads/Drainage",
    "request_reason": "Pothole",
    "date_created": "2023-09-07T17:53:56.000",
    "date_modified": "2023-09-07T17:53:56.000",
    "request_status": "Pending",
    "responsible_agency": "Department of Public Works",
    "final_address": "1000 BLK Saint Ann St",
    "address_councildis": "C",
    "status": "Pending",
    "rowid": "1033141",
    "final_x": "3681773.20663",
    "final_y": "533527.615475",
    "longitude": "-90.06713758219901",
    "latitude": "29.961007643990218",
    "geocoded_column": {
      "latitude": "29.961007643990218",
      "longitude": "-90.06713758219901"
    }
  },
  {
    "service_request": "2023-1033140",
    "request_type": "Trash/Recycling",
    "request_reason": "Missed Trash Pick-Up",
    "date_created": "2023-09-07T17:49:10.000",
    "date_modified": "2023-09-07T17:49:11.000",
    "request_status": "Pending",
    "responsible_agency": "Department of Sanitation",
    "final_address": "804 Roosevelt Pl",
    "address_councildis": "A",
    "status": "Assigned to Contractor",
    "contractor": "Richards Disposal",
    "rowid": "1033140",
    "final_x": "3673576.30004",
    "final_y": "539639.26401",
    "longitude": "-90.09281299303812",
    "latitude": "29.97805912684594",
    "geocoded_column": {
      "latitude": "29.97805912684594",
      "longitude": "-90.09281299303812"
    }
  },
  {
    "service_request": "2023-1033139",
    "request_type": "Roads/Drainage",
    "request_reason": "Street Subsidence (Sinking)",
    "date_created": "2023-09-07T17:45:09.000",
    "date_modified": "2023-09-07T17:45:09.000",
    "request_status": "Pending",
    "responsible_agency": "Department of Public Works",
    "final_address": "401 Warrington Dr",
    "address_councildis": "D",
    "status": "Pending",
    "rowid": "1033139",
    "final_x": "3681780.15503",
    "final_y": "548093.49045",
    "longitude": "-90.06660715137113",
    "latitude": "30.001058499238567",
    "geocoded_column": {
      "latitude": "30.001058499238567",
      "longitude": "-90.06660715137113"
    }
  },
  {
    "service_request": "2023-1033138",
    "request_type": "Roads/Drainage",
    "request_reason": "Street Flooding / Drainage",
    "date_created": "2023-09-07T17:43:55.000",
    "date_modified": "2023-09-07T17:43:55.000",
    "request_status": "Pending",
    "responsible_agency": "Department of Public Works",
    "final_address": "5830 Clara St",
    "address_councildis": "A",
    "status": "Pending",
    "rowid": "1033138",
    "final_x": "3666865.15943",
    "final_y": "525242.333181",
    "longitude": "-90.1144929051928",
    "latitude": "29.93867036728341",
    "geocoded_column": {
      "latitude": "29.93867036728341",
      "longitude": "-90.1144929051928"
    }
  },
  {
    "service_request": "2023-1033137",
    "request_type": "Trash/Recycling",
    "request_reason": "Replace Trash Cart",
    "date_created": "2023-09-07T17:38:21.000",
    "date_modified": "2023-09-07T17:38:21.000",
    "request_status": "Pending",
    "responsible_agency": "Department of Sanitation",
    "final_address": "10221 Castlewood Dr",
    "address_councildis": "E",
    "status": "Assigned to Contractor",
    "contractor": "Waste Pro",
    "rowid": "1033137",
    "final_x": "3709159.82283",
    "final_y": "564642.356705",
    "longitude": "-89.97949565118068",
    "latitude": "30.045700731411507",
    "geocoded_column": {
      "latitude": "30.045700731411507",
      "longitude": "-89.97949565118068"
    }
  },
  {
    "service_request": "2023-1033136",
    "request_type": "Roads/Drainage",
    "request_reason": "Catch Basin - Clogged",
    "date_created": "2023-09-07T17:32:37.000",
    "date_modified": "2023-09-07T17:32:37.000",
    "request_status": "Pending",
    "responsible_agency": "Department of Public Works",
    "final_address": "919 Short St",
    "address_councildis": "A",
    "status": "Pending",
    "rowid": "1033136",
    "final_x": "3661713.52685",
    "final_y": "527384.388991",
    "longitude": "-90.13068626794377",
    "latitude": "29.944710012364858",
    "geocoded_column": {
      "latitude": "29.944710012364858",
      "longitude": "-90.13068626794377"
    }
  },
  {
    "service_request": "2023-1033135",
    "request_type": "Trash/Recycling",
    "request_reason": "Repair Recycling Cart",
    "date_created": "2023-09-07T17:31:16.000",
    "date_modified": "2023-09-07T17:31:17.000",
    "request_status": "Pending",
    "responsible_agency": "Department of Sanitation",
    "final_address": "3809 Annunciation St",
    "address_councildis": "B",
    "status": "Pending",
    "rowid": "1033135",
    "final_x": "3673535.96206",
    "final_y": "518055.421174",
    "longitude": "-90.09367790277257",
    "latitude": "29.9187118803954",
    "geocoded_column": {
      "latitude": "29.9187118803954",
      "longitude": "-90.09367790277257"
    }
  },
  {
    "service_request": "2023-1033134",
    "request_type": "Traffic Signals/Signs/Striping/Streetlights",
    "request_reason": "Traffic Signal Malfunctioning/Damaged",
    "date_created": "2023-09-07T17:30:03.000",
    "date_modified": "2023-09-07T17:30:04.000",
    "request_status": "Pending",
    "responsible_agency": "Department of Public Works",
    "final_address": "BROADWAY ST & FRERET ST",
    "address_councildis": "A",
    "status": "Pending",
    "rowid": "1033134",
    "final_x": "3663791.9",
    "final_y": "525884.78",
    "longitude": "-90.12417415672215",
    "latitude": "29.940526421809565",
    "geocoded_column": {
      "latitude": "29.940526421809565",
      "longitude": "-90.12417415672215"
    }
  },
  {
    "service_request": "2023-1033133",
    "request_type": "Trash/Recycling",
    "request_reason": "Replace Trash Cart",
    "date_created": "2023-09-07T17:29:09.000",
    "date_modified": "2023-09-07T17:29:10.000",
    "request_status": "Pending",
    "responsible_agency": "Department of Sanitation",
    "final_address": "301 S Norman C Francis Pkwy, #B, New Orleans, Louisiana, 70119",
    "status": "Assigned to Contractor",
    "rowid": "1033133",
    "longitude": "0.0",
    "latitude": "0.0",
    "geocoded_column": {
      "latitude": "0.0",
      "longitude": "0.0"
    }
  },
  {
    "service_request": "2023-1033132",
    "request_type": "Trash/Recycling",
    "request_reason": "MIssed Recycling Pick-Up",
    "date_created": "2023-09-07T17:20:39.000",
    "date_modified": "2023-09-07T17:20:40.000",
    "request_status": "Pending",
    "responsible_agency": "Department of Sanitation",
    "final_address": "4506 Pitt St",
    "address_councildis": "B",
    "status": "Assigned to Contractor",
    "contractor": "Richards Disposal",
    "rowid": "1033132",
    "final_x": "3670405.21223",
    "final_y": "520475.540472",
    "longitude": "-90.10347807519366",
    "latitude": "29.925459202326614",
    "geocoded_column": {
      "latitude": "29.925459202326614",
      "longitude": "-90.10347807519366"
    }
  },
  {
    "service_request": "2023-1033131",
    "request_type": "Roads/Drainage",
    "request_reason": "Pothole",
    "date_created": "2023-09-07T17:19:09.000",
    "date_modified": "2023-09-07T17:19:09.000",
    "request_status": "Pending",
    "responsible_agency": "Department of Public Works",
    "final_address": "2300 BLK Chestnut St",
    "address_councildis": "B",
    "status": "Pending",
    "rowid": "1033131",
    "final_x": "3677887.40042",
    "final_y": "522265.375861",
    "longitude": "-90.07979730875776",
    "latitude": "29.930157725464746",
    "geocoded_column": {
      "latitude": "29.930157725464746",
      "longitude": "-90.07979730875776"
    }
  },
  {
    "service_request": "2023-1033130",
    "request_type": "Trash/Recycling",
    "request_reason": "Missed Trash Pick-Up",
    "date_created": "2023-09-07T17:06:31.000",
    "date_modified": "2023-09-07T17:06:32.000",
    "request_status": "Pending",
    "responsible_agency": "Department of Sanitation",
    "final_address": "1223 Philip St",
    "address_councildis": "B",
    "status": "Assigned to Contractor",
    "contractor": "Richards Disposal",
    "rowid": "1033130",
    "final_x": "3678211.73205",
    "final_y": "522329.680826",
    "longitude": "-90.07877122329332",
    "latitude": "29.93032478286037",
    "geocoded_column": {
      "latitude": "29.93032478286037",
      "longitude": "-90.07877122329332"
    }
  },
  {
    "service_request": "2023-1033129",
    "request_type": "Parks & Parkways",
    "request_reason": "Request Tree Service (Right of Way/Public Property)",
    "date_created": "2023-09-07T17:03:22.000",
    "date_modified": "2023-09-07T17:04:55.000",
    "request_status": "Pending",
    "responsible_agency": "Department of Parks & Parkway",
    "final_address": "4701 Stephen Girard Ave",
    "address_councildis": "D",
    "status": "Pending",
    "rowid": "1033129",
    "final_x": "3691630.38096",
    "final_y": "550731.957973",
    "longitude": "-90.03539518134446",
    "latitude": "30.008010217678304",
    "geocoded_column": {
      "latitude": "30.008010217678304",
      "longitude": "-90.03539518134446"
    }
  },
  {
    "service_request": "2023-1033128",
    "request_type": "Traffic Signals/Signs/Striping/Streetlights",
    "request_reason": "Traffic Sign Missing/Damaged",
    "date_created": "2023-09-07T16:55:37.000",
    "date_modified": "2023-09-07T16:55:37.000",
    "request_status": "Pending",
    "responsible_agency": "Department of Public Works",
    "final_address": "2830 Soniat St",
    "address_councildis": "B",
    "status": "Pending",
    "rowid": "1033128",
    "final_x": "3668530.17006",
    "final_y": "525873.036605",
    "longitude": "-90.1092149984166",
    "latitude": "29.940355794290785",
    "geocoded_column": {
      "latitude": "29.940355794290785",
      "longitude": "-90.1092149984166"
    }
  },
  {
    "service_request": "2023-1033127",
    "request_type": "Trash/Recycling",
    "request_reason": "Request a Large Item Pick Up",
    "date_created": "2023-09-07T16:55:06.000",
    "date_modified": "2023-09-07T17:04:45.000",
    "request_status": "Pending",
    "responsible_agency": "Department of Sanitation",
    "final_address": "6623 Catina St",
    "address_councildis": "A",
    "status": "Assigned to Contractor",
    "contractor": "IV Waste",
    "rowid": "1033127",
    "final_x": "3667087.92308",
    "final_y": "552010.101334",
    "longitude": "-90.11288950367872",
    "latitude": "30.01226623856778",
    "geocoded_column": {
      "latitude": "30.01226623856778",
      "longitude": "-90.11288950367872"
    }
  },
  {
    "service_request": "2023-1033126",
    "request_type": "Trash/Recycling",
    "request_reason": "Replace Trash Cart",
    "date_created": "2023-09-07T16:43:00.000",
    "date_modified": "2023-09-07T16:56:08.000",
    "request_status": "Pending",
    "responsible_agency": "Department of Sanitation",
    "final_address": "2006 Prytania St, New Orleans, Louisiana, 70130",
    "address_councildis": "B",
    "status": "Assigned to Contractor",
    "contractor": "Richards Disposal",
    "rowid": "1033126",
    "final_x": "3678532.03163",
    "final_y": "523638.870715",
    "longitude": "-90.07771479874896",
    "latitude": "29.93391497906619",
    "geocoded_column": {
      "latitude": "29.93391497906619",
      "longitude": "-90.07771479874896"
    }
  },
  {
    "service_request": "2023-1033125",
    "request_type": "Trash/Recycling",
    "request_reason": "Request a Large Item Pick Up",
    "date_created": "2023-09-07T16:42:57.000",
    "date_modified": "2023-09-07T16:56:04.000",
    "request_status": "Pending",
    "responsible_agency": "Department of Sanitation",
    "final_address": "3302 Metropolitan St",
    "address_councildis": "D",
    "status": "Assigned to Contractor",
    "contractor": "IV Waste",
    "rowid": "1033125",
    "final_x": "3691428.76688",
    "final_y": "544669.985487",
    "longitude": "-90.03624893353735",
    "latitude": "29.991348285546795",
    "geocoded_column": {
      "latitude": "29.991348285546795",
      "longitude": "-90.03624893353735"
    }
  },
  {
    "service_request": "2023-1033124",
    "request_type": "Trash/Recycling",
    "request_reason": "Replace Trash Cart",
    "date_created": "2023-09-07T16:41:44.000",
    "date_modified": "2023-09-07T16:54:14.000",
    "request_status": "Pending",
    "responsible_agency": "Department of Sanitation",
    "final_address": "2006 Prytania St",
    "address_councildis": "B",
    "status": "Assigned to Contractor",
    "contractor": "Richards Disposal",
    "rowid": "1033124",
    "final_x": "3678532.03163",
    "final_y": "523638.870715",
    "longitude": "-90.07771479874896",
    "latitude": "29.93391497906619",
    "geocoded_column": {
      "latitude": "29.93391497906619",
      "longitude": "-90.07771479874896"
    }
  },
  {
    "service_request": "2023-1033123",
    "request_type": "Roads/Drainage",
    "request_reason": "Pothole",
    "date_created": "2023-09-07T16:41:14.000",
    "date_modified": "2023-09-07T16:41:14.000",
    "request_status": "Pending",
    "responsible_agency": "Department of Public Works",
    "final_address": "DESIRE ST & LAW ST",
    "address_councildis": "D",
    "status": "Pending",
    "rowid": "1033123",
    "final_x": "3691584.6",
    "final_y": "541361.38",
    "longitude": "-90.03587503389929",
    "latitude": "29.982245960339977",
    "geocoded_column": {
      "latitude": "29.982245960339977",
      "longitude": "-90.03587503389929"
    }
  },
  {
    "service_request": "2023-1033122",
    "request_type": "Trash/Recycling",
    "request_reason": "Illegal Dumping",
    "date_created": "2023-09-07T16:39:47.000",
    "date_modified": "2023-09-07T16:51:24.000",
    "request_status": "Pending",
    "responsible_agency": "Department of Sanitation",
    "final_address": "3821 Prytania St",
    "address_councildis": "B",
    "status": "Pending",
    "rowid": "1033122",
    "final_x": "3672808.64123",
    "final_y": "520613.04716",
    "longitude": "-90.0958864931361",
    "latitude": "29.925766150743545",
    "geocoded_column": {
      "latitude": "29.925766150743545",
      "longitude": "-90.0958864931361"
    }
  },
  {
    "service_request": "2023-1033121",
    "request_type": "Traffic Signals/Signs/Striping/Streetlights",
    "request_reason": "Street Light Outage/Malfunction",
    "date_created": "2023-09-07T16:39:12.000",
    "date_modified": "2023-09-07T16:50:31.000",
    "request_status": "Pending",
    "responsible_agency": "Department of Public Works",
    "final_address": "4230 Mithra St",
    "address_councildis": "D",
    "status": "Assigned to Contractor",
    "contractor": "Legacy Professional Services",
    "rowid": "1033121",
    "final_x": "3689597.36137",
    "final_y": "553029.339735",
    "longitude": "-90.04173627063896",
    "latitude": "30.014390334918534",
    "geocoded_column": {
      "latitude": "30.014390334918534",
      "longitude": "-90.04173627063896"
    }
  },
  {
    "service_request": "2023-1033120",
    "request_type": "Safety & Permits",
    "request_reason": "Licenses & Permits",
    "date_created": "2023-09-07T16:37:18.000",
    "date_modified": "2023-09-07T16:37:18.000",
    "request_status": "Pending",
    "responsible_agency": "Safety and Permits",
    "final_address": "501 Verret St",
    "address_councildis": "C",
    "status": "Pending",
    "rowid": "1033120",
    "final_x": "3686944.49545",
    "final_y": "529813.720705",
    "longitude": "-90.05093890491304",
    "latitude": "29.950637568569384",
    "geocoded_column": {
      "latitude": "29.950637568569384",
      "longitude": "-90.05093890491304"
    }
  },
  {
    "service_request": "2023-1033119",
    "request_type": "Property Maintenance",
    "request_reason": "Property Maintenance",
    "date_created": "2023-09-07T16:36:13.000",
    "date_modified": "2023-09-07T17:06:46.000",
    "request_status": "Pending",
    "responsible_agency": "Department of Code Enforcement",
    "final_address": "5120 Congress Dr",
    "address_councildis": "D",
    "status": "Pending",
    "rowid": "1033119",
    "final_x": "3691785.08745",
    "final_y": "553227.974551",
    "longitude": "-90.03481705491022",
    "latitude": "30.014868518900247",
    "geocoded_column": {
      "latitude": "30.014868518900247",
      "longitude": "-90.03481705491022"
    }
  },
  {
    "service_request": "2023-1033118",
    "request_type": "Traffic Signals/Signs/Striping/Streetlights",
    "request_reason": "Street Light Outage/Malfunction",
    "date_created": "2023-09-07T16:34:19.000",
    "date_modified": "2023-09-07T16:43:33.000",
    "request_status": "Pending",
    "responsible_agency": "Department of Public Works",
    "final_address": "MOREL ST & MORRISON RD",
    "address_councildis": "E",
    "status": "Assigned to Contractor",
    "contractor": "Legacy Professional Services",
    "rowid": "1033118",
    "final_x": "3719272.1",
    "final_y": "571372.88",
    "longitude": "-89.94727892968767",
    "latitude": "30.06387448273678",
    "geocoded_column": {
      "latitude": "30.06387448273678",
      "longitude": "-89.94727892968767"
    }
  },
  {
    "service_request": "2023-1033117",
    "request_type": "Trash/Recycling",
    "request_reason": "Missed Trash Pick-Up",
    "date_created": "2023-09-07T16:29:40.000",
    "date_modified": "2023-09-07T16:36:53.000",
    "request_status": "Pending",
    "responsible_agency": "Department of Sanitation",
    "final_address": "4819 Stemway Dr",
    "address_councildis": "D",
    "status": "Assigned to Contractor",
    "contractor": "Waste Pro",
    "rowid": "1033117",
    "final_x": "3696944.30288",
    "final_y": "554613.412184",
    "longitude": "-90.01846627174314",
    "latitude": "30.018516179245157",
    "geocoded_column": {
      "latitude": "30.018516179245157",
      "longitude": "-90.01846627174314"
    }
  },
  {
    "service_request": "2023-1033116",
    "request_type": "Trash/Recycling",
    "request_reason": "Order Trash Cart",
    "date_created": "2023-09-07T16:27:09.000",
    "date_modified": "2023-09-07T16:33:26.000",
    "request_status": "Pending",
    "responsible_agency": "Department of Sanitation",
    "final_address": "4917 N Claiborne Ave",
    "address_councildis": "E",
    "status": "Assigned to Contractor",
    "contractor": "Waste Pro",
    "rowid": "1033116",
    "final_x": "3696055.05878",
    "final_y": "536280.002119",
    "longitude": "-90.02193890627353",
    "latitude": "29.96813405197663",
    "geocoded_column": {
      "latitude": "29.96813405197663",
      "longitude": "-90.02193890627353"
    }
  },
  {
    "service_request": "2023-1033115",
    "request_type": "Trash/Recycling",
    "request_reason": "Missed Trash Pick-Up",
    "date_created": "2023-09-07T16:24:14.000",
    "date_modified": "2023-09-07T16:29:26.000",
    "request_status": "Pending",
    "responsible_agency": "Department of Sanitation",
    "final_address": "4917 N Claiborne Ave",
    "address_councildis": "E",
    "status": "Assigned to Contractor",
    "contractor": "Waste Pro",
    "rowid": "1033115",
    "final_x": "3696055.05878",
    "final_y": "536280.002119",
    "longitude": "-90.02193890627353",
    "latitude": "29.96813405197663",
    "geocoded_column": {
      "latitude": "29.96813405197663",
      "longitude": "-90.02193890627353"
    }
  },
  {
    "service_request": "2023-1033114",
    "request_type": "Trash/Recycling",
    "request_reason": "Missed Trash Pick-Up",
    "date_created": "2023-09-07T16:23:48.000",
    "date_modified": "2023-09-07T16:28:49.000",
    "request_status": "Pending",
    "responsible_agency": "Department of Sanitation",
    "final_address": "2011 Seventh St",
    "address_councildis": "B",
    "status": "Assigned to Contractor",
    "contractor": "Richards Disposal",
    "rowid": "1033114",
    "final_x": "3674424.90484",
    "final_y": "523390.120827",
    "longitude": "-90.09068935732729",
    "latitude": "29.933354110852612",
    "geocoded_column": {
      "latitude": "29.933354110852612",
      "longitude": "-90.09068935732729"
    }
  },
  {
    "service_request": "2023-1033113",
    "request_type": "Trash/Recycling",
    "request_reason": "Request a Large Item Pick Up",
    "date_created": "2023-09-07T16:21:59.000",
    "date_modified": "2023-09-07T16:26:26.000",
    "request_status": "Pending",
    "responsible_agency": "Department of Sanitation",
    "final_address": "17 Curtis Dr",
    "address_councildis": "E",
    "status": "Assigned to Contractor",
    "contractor": "Waste Pro",
    "rowid": "1033113",
    "final_x": "3698136.62045",
    "final_y": "560621.04003",
    "longitude": "-90.01448052556228",
    "latitude": "30.034997181978593",
    "geocoded_column": {
      "latitude": "30.034997181978593",
      "longitude": "-90.01448052556228"
    }
  },
  {
    "service_request": "2023-1033112",
    "request_type": "Trash/Recycling",
    "request_reason": "Missed Trash Pick-Up",
    "date_created": "2023-09-07T16:21:12.000",
    "date_modified": "2023-09-07T16:25:22.000",
    "request_status": "Pending",
    "responsible_agency": "Department of Sanitation",
    "final_address": "2011 Seventh St",
    "address_councildis": "B",
    "status": "Assigned to Contractor",
    "contractor": "Richards Disposal",
    "rowid": "1033112",
    "final_x": "3674424.90484",
    "final_y": "523390.120827",
    "longitude": "-90.09068935732729",
    "latitude": "29.933354110852612",
    "geocoded_column": {
      "latitude": "29.933354110852612",
      "longitude": "-90.09068935732729"
    }
  },
  {
    "service_request": "2023-1033110",
    "request_type": "Trash/Recycling",
    "request_reason": "Request a Large Item Pick Up",
    "date_created": "2023-09-07T16:18:37.000",
    "date_modified": "2023-09-07T16:21:47.000",
    "request_status": "Pending",
    "responsible_agency": "Department of Code Enforcement",
    "final_address": "4437 Francis Dr",
    "address_councildis": "D",
    "status": "Assigned to Contractor",
    "contractor": "Waste Pro",
    "rowid": "1033110",
    "final_x": "3698452.53188",
    "final_y": "552772.700246",
    "longitude": "-90.01376782418565",
    "latitude": "30.013407243268137",
    "geocoded_column": {
      "latitude": "30.013407243268137",
      "longitude": "-90.01376782418565"
    }
  },
  {
    "service_request": "2023-1033107",
    "request_type": "Abandoned Vehicles",
    "request_reason": "Abandoned/Junk Vehicles",
    "date_created": "2023-09-07T16:17:17.000",
    "date_modified": "2023-09-07T16:17:17.000",
    "request_status": "Pending",
    "responsible_agency": "Department of Public Works",
    "final_address": "7700 BLK Cohn St",
    "address_councildis": "A",
    "status": "Pending",
    "rowid": "1033107",
    "final_x": "3664579.20689",
    "final_y": "529313.906055",
    "longitude": "-90.121573995516",
    "latitude": "29.94993254844717",
    "geocoded_column": {
      "latitude": "29.94993254844717",
      "longitude": "-90.121573995516"
    }
  },
  {
    "service_request": "2023-1033106",
    "request_type": "Abandoned Vehicles",
    "request_reason": "Abandoned/Junk Vehicles",
    "date_created": "2023-09-07T16:16:47.000",
    "date_modified": "2023-09-07T16:16:47.000",
    "request_status": "Pending",
    "responsible_agency": "Department of Public Works",
    "final_address": " & ECONOMICS ST",
    "address_councildis": "D",
    "status": "Pending",
    "rowid": "1033106",
    "final_x": "3688215.13",
    "final_y": "559340.33",
    "longitude": "-90.04587938571166",
    "latitude": "30.031785975160673",
    "geocoded_column": {
      "latitude": "30.031785975160673",
      "longitude": "-90.04587938571166"
    }
  },
  {
    "service_request": "2023-1033104",
    "request_type": "Abandoned Vehicles",
    "request_reason": "Abandoned/Junk Vehicles",
    "date_created": "2023-09-07T16:15:29.000",
    "date_modified": "2023-09-07T16:15:29.000",
    "request_status": "Pending",
    "responsible_agency": "Department of Public Works",
    "final_address": " & FOREST ISLE DR",
    "address_councildis": "C",
    "status": "Pending",
    "rowid": "1033104",
    "final_x": "3705932.1",
    "final_y": "512829.92",
    "longitude": "-89.99161423218112",
    "latitude": "29.90334007988865",
    "geocoded_column": {
      "latitude": "29.90334007988865",
      "longitude": "-89.99161423218112"
    }
  },
  {
    "service_request": "2023-1033103",
    "request_type": "Roads/Drainage",
    "request_reason": "Catch Basin - Clogged",
    "date_created": "2023-09-07T16:14:38.000",
    "date_modified": "2023-09-07T16:14:38.000",
    "request_status": "Pending",
    "responsible_agency": "Department of Public Works",
    "final_address": "3405 Carondelet St",
    "address_councildis": "B",
    "status": "Pending",
    "rowid": "1033103",
    "final_x": "3673955.39297",
    "final_y": "521904.455738",
    "longitude": "-90.09222238141342",
    "latitude": "29.929283005298256",
    "geocoded_column": {
      "latitude": "29.929283005298256",
      "longitude": "-90.09222238141342"
    }
  },
  {
    "service_request": "2023-1033102",
    "request_type": "Parks & Parkways",
    "request_reason": "Request Tree Service (Right of Way/Public Property)",
    "date_created": "2023-09-07T16:14:33.000",
    "date_modified": "2023-09-07T16:16:14.000",
    "request_status": "Pending",
    "responsible_agency": "Department of Parks & Parkway",
    "final_address": "4403 Pauger St",
    "address_councildis": "D",
    "status": "Pending",
    "rowid": "1033102",
    "final_x": "3682920.28456",
    "final_y": "548793.303763",
    "longitude": "-90.06298088253477",
    "latitude": "30.00294802848574",
    "geocoded_column": {
      "latitude": "30.00294802848574",
      "longitude": "-90.06298088253477"
    }
  },
  {
    "service_request": "2023-1033101",
    "request_type": "Property Maintenance",
    "request_reason": "Property Maintenance",
    "date_created": "2023-09-07T16:13:42.000",
    "date_modified": "2023-09-07T16:13:42.000",
    "request_status": "Pending",
    "responsible_agency": "Department of Code Enforcement",
    "final_address": "3316 Jena St",
    "address_councildis": "B",
    "status": "Pending",
    "rowid": "1033101",
    "final_x": "3669748.90324",
    "final_y": "527009.395902",
    "longitude": "-90.10532880145755",
    "latitude": "29.94344455715648",
    "geocoded_column": {
      "latitude": "29.94344455715648",
      "longitude": "-90.10532880145755"
    }
  },
  {
    "service_request": "2023-1033100",
    "request_type": "Abandoned Vehicles",
    "request_reason": "Abandoned/Junk Vehicles",
    "date_created": "2023-09-07T16:12:47.000",
    "date_modified": "2023-09-07T16:12:47.000",
    "request_status": "Pending",
    "responsible_agency": "Department of Public Works",
    "final_address": "1459 N Dorgenois St",
    "address_councildis": "D",
    "status": "Pending",
    "rowid": "1033100",
    "final_x": "3679021.84987",
    "final_y": "539158.67041",
    "longitude": "-90.07563067859627",
    "latitude": "29.976574430554916",
    "geocoded_column": {
      "latitude": "29.976574430554916",
      "longitude": "-90.07563067859627"
    }
  },
  {
    "service_request": "2023-1033099",
    "request_type": "Parks & Parkways",
    "request_reason": "Request Tree Service (Right of Way/Public Property)",
    "date_created": "2023-09-07T16:10:56.000",
    "date_modified": "2023-09-07T16:10:56.000",
    "request_status": "Pending",
    "responsible_agency": "Department of Parks & Parkway",
    "final_address": "2002 Pine St",
    "address_councildis": "A",
    "status": "Pending",
    "rowid": "1033099",
    "final_x": "3665496.96212",
    "final_y": "529114.759168",
    "longitude": "-90.11868287031277",
    "latitude": "29.949358240084972",
    "geocoded_column": {
      "latitude": "29.949358240084972",
      "longitude": "-90.11868287031277"
    }
  },
  {
    "service_request": "2023-1033098",
    "request_type": "Abandoned Vehicles",
    "request_reason": "Abandoned/Junk Vehicles",
    "date_created": "2023-09-07T16:05:00.000",
    "date_modified": "2023-09-07T16:05:00.000",
    "request_status": "Pending",
    "responsible_agency": "Department of Public Works",
    "final_address": "1714 N Broad St",
    "address_councildis": "D",
    "status": "Pending",
    "rowid": "1033098",
    "final_x": "3679690.67784",
    "final_y": "540804.960715",
    "longitude": "-90.07346114553293",
    "latitude": "29.981080955292015",
    "geocoded_column": {
      "latitude": "29.981080955292015",
      "longitude": "-90.07346114553293"
    }
  },
  {
    "service_request": "2023-1033097",
    "request_type": "Trash/Recycling",
    "request_reason": "Request a Large Item Pick Up",
    "date_created": "2023-09-07T16:02:51.000",
    "date_modified": "2023-09-07T16:02:52.000",
    "request_status": "Pending",
    "responsible_agency": "Department of Sanitation",
    "final_address": "7200 Arbor Dr",
    "address_councildis": "E",
    "status": "Assigned to Contractor",
    "contractor": "Waste Pro",
    "rowid": "1033097",
    "final_x": "3700567.51575",
    "final_y": "557884.815643",
    "longitude": "-90.00689866171606",
    "latitude": "30.02739646652489",
    "geocoded_column": {
      "latitude": "30.02739646652489",
      "longitude": "-90.00689866171606"
    }
  },
  {
    "service_request": "2023-1033096",
    "request_type": "Trash/Recycling",
    "request_reason": "Missed Trash Pick-Up",
    "date_created": "2023-09-07T15:56:44.000",
    "date_modified": "2023-09-07T15:56:45.000",
    "request_status": "Pending",
    "responsible_agency": "Department of Sanitation",
    "final_address": "5518 Royal St",
    "address_councildis": "E",
    "status": "Assigned to Contractor",
    "contractor": "Waste Pro",
    "rowid": "1033096",
    "final_x": "3697454.19728",
    "final_y": "532282.502147",
    "longitude": "-90.01766534910855",
    "latitude": "29.957098243862255",
    "geocoded_column": {
      "latitude": "29.957098243862255",
      "longitude": "-90.01766534910855"
    }
  },
  {
    "service_request": "2023-1033095",
    "request_type": "Traffic Signals/Signs/Striping/Streetlights",
    "request_reason": "Disabled Parking Sign ",
    "date_created": "2023-09-07T15:50:13.000",
    "date_modified": "2023-09-07T15:50:14.000",
    "request_status": "Pending",
    "responsible_agency": "Department of Public Works",
    "final_address": "2417 Josephine St",
    "address_councildis": "B",
    "status": "Pending",
    "rowid": "1033095",
    "final_x": "3676088.95374",
    "final_y": "526378.134846",
    "longitude": "-90.0853333108126",
    "latitude": "29.94152044359696",
    "geocoded_column": {
      "latitude": "29.94152044359696",
      "longitude": "-90.0853333108126"
    }
  },
  {
    "service_request": "2023-1033094",
    "request_type": "Trash/Recycling",
    "request_reason": "Order Trash Cart",
    "date_created": "2023-09-07T15:48:42.000",
    "date_modified": "2023-09-07T15:48:44.000",
    "request_status": "Pending",
    "responsible_agency": "Department of Sanitation",
    "final_address": "New Orleans,LA",
    "address_councildis": "D",
    "status": "Assigned to Contractor",
    "contractor": "IV Waste",
    "rowid": "1033094",
    "final_x": "3673227.11604",
    "final_y": "555179.428953",
    "longitude": "-90.09338471728549",
    "latitude": "30.020799532404542",
    "geocoded_column": {
      "latitude": "30.020799532404542",
      "longitude": "-90.09338471728549"
    }
  },
  {
    "service_request": "2023-1033093",
    "request_type": "Trash/Recycling",
    "request_reason": "Request a Large Item Pick Up",
    "date_created": "2023-09-07T15:45:12.000",
    "date_modified": "2023-09-07T15:45:13.000",
    "request_status": "Pending",
    "responsible_agency": "Department of Sanitation",
    "final_address": "13165 Wales St",
    "address_councildis": "E",
    "status": "Assigned to Contractor",
    "contractor": "Waste Pro",
    "rowid": "1033093",
    "final_x": "3716294.32524",
    "final_y": "571067.073511",
    "longitude": "-89.95670339571441",
    "latitude": "30.06313234751536",
    "geocoded_column": {
      "latitude": "30.06313234751536",
      "longitude": "-89.95670339571441"
    }
  },
  {
    "service_request": "2023-1033092",
    "request_type": "Trash/Recycling",
    "request_reason": "Illegal Dumping",
    "date_created": "2023-09-07T15:43:38.000",
    "date_modified": "2023-09-07T15:43:38.000",
    "request_status": "Pending",
    "responsible_agency": "Department of Code Enforcement",
    "final_address": "3320 Iberville St",
    "address_councildis": "B",
    "status": "Pending",
    "rowid": "1033092",
    "final_x": "3673716.69691",
    "final_y": "536851.846728",
    "longitude": "-90.0924649069756",
    "latitude": "29.970390496757844",
    "geocoded_column": {
      "latitude": "29.970390496757844",
      "longitude": "-90.0924649069756"
    }
  },
  {
    "service_request": "2023-1033091",
    "request_type": "Trash/Recycling",
    "request_reason": "Illegal Dumping",
    "date_created": "2023-09-07T15:41:44.000",
    "date_modified": "2023-09-07T15:41:44.000",
    "request_status": "Pending",
    "responsible_agency": "Department of Sanitation",
    "final_address": "1209 Lesseps St",
    "address_councildis": "D",
    "status": "Pending",
    "rowid": "1033091",
    "final_x": "3692843.55926",
    "final_y": "535515.241734",
    "longitude": "-90.03210833369269",
    "latitude": "29.966131903927405",
    "geocoded_column": {
      "latitude": "29.966131903927405",
      "longitude": "-90.03210833369269"
    }
  },
  {
    "service_request": "2023-1033090",
    "request_type": "Trash/Recycling",
    "request_reason": "Order Trash Cart",
    "date_created": "2023-09-07T15:41:35.000",
    "date_modified": "2023-09-07T15:41:35.000",
    "request_status": "Pending",
    "responsible_agency": "Department of Sanitation",
    "final_address": "11021 Roger Dr Apt B",
    "address_councildis": "E",
    "status": "Assigned to Contractor",
    "contractor": "Waste Pro",
    "rowid": "1033090",
    "final_x": "3712214.91237",
    "final_y": "563601.173857",
    "longitude": "-89.96987930726505",
    "latitude": "30.0427382925519",
    "geocoded_column": {
      "latitude": "30.0427382925519",
      "longitude": "-89.96987930726505"
    }
  },
  {
    "service_request": "2023-1033088",
    "request_type": "Parks & Parkways",
    "request_reason": "Request Tree Service (Right of Way/Public Property)",
    "date_created": "2023-09-07T15:40:49.000",
    "date_modified": "2023-09-07T15:40:49.000",
    "request_status": "Pending",
    "responsible_agency": "Department of Parks & Parkway",
    "final_address": "3304 Jena St",
    "address_councildis": "B",
    "status": "Pending",
    "rowid": "1033088",
    "final_x": "3669802.85236",
    "final_y": "526884.868798",
    "longitude": "-90.10516268379413",
    "latitude": "29.94310055816512",
    "geocoded_column": {
      "latitude": "29.94310055816512",
      "longitude": "-90.10516268379413"
    }
  },
  {
    "service_request": "2023-1033087",
    "request_type": "Trash/Recycling",
    "request_reason": "Order Recycling Cart",
    "date_created": "2023-09-07T15:37:59.000",
    "date_modified": "2023-09-07T15:38:00.000",
    "request_status": "Pending",
    "responsible_agency": "Department of Sanitation",
    "final_address": "1815 S Rampart St",
    "address_councildis": "B",
    "status": "Pending",
    "rowid": "1033087",
    "final_x": "3677171.32322",
    "final_y": "525659.859581",
    "longitude": "-90.08194082055647",
    "latitude": "29.93951296412135",
    "geocoded_column": {
      "latitude": "29.93951296412135",
      "longitude": "-90.08194082055647"
    }
  },
  {
    "service_request": "2023-1033086",
    "request_type": "Trash/Recycling",
    "request_reason": "Order Trash Cart",
    "date_created": "2023-09-07T15:37:50.000",
    "date_modified": "2023-09-07T15:37:50.000",
    "request_status": "Pending",
    "responsible_agency": "Department of Sanitation",
    "final_address": "1815 S Rampart St",
    "address_councildis": "B",
    "status": "Assigned to Contractor",
    "contractor": "Richards Disposal",
    "rowid": "1033086",
    "final_x": "3677171.32322",
    "final_y": "525659.859581",
    "longitude": "-90.08194082055647",
    "latitude": "29.93951296412135",
    "geocoded_column": {
      "latitude": "29.93951296412135",
      "longitude": "-90.08194082055647"
    }
  },
  {
    "service_request": "2023-1033085",
    "request_type": "Trash/Recycling",
    "request_reason": "Return Recycling Cart",
    "date_created": "2023-09-07T15:35:20.000",
    "date_modified": "2023-09-07T15:35:20.000",
    "request_status": "Pending",
    "responsible_agency": "Department of Sanitation",
    "final_address": "4523 Iberville St",
    "address_councildis": "A",
    "status": "Pending",
    "rowid": "1033085",
    "final_x": "3669853.26126",
    "final_y": "539922.376522",
    "longitude": "-90.10456211149005",
    "latitude": "29.978947894716445",
    "geocoded_column": {
      "latitude": "29.978947894716445",
      "longitude": "-90.10456211149005"
    }
  },
  {
    "service_request": "2023-1033084",
    "request_type": "Property Maintenance",
    "request_reason": "Property Maintenance",
    "date_created": "2023-09-07T15:35:04.000",
    "date_modified": "2023-09-07T15:35:05.000",
    "request_status": "Pending",
    "responsible_agency": "Department of Code Enforcement",
    "final_address": "1529 Elizardi Blvd",
    "address_councildis": "C",
    "status": "Pending",
    "rowid": "1033084",
    "final_x": "3694629.40221",
    "final_y": "525529.530493",
    "longitude": "-90.02682827259524",
    "latitude": "29.93861879944335",
    "geocoded_column": {
      "latitude": "29.93861879944335",
      "longitude": "-90.02682827259524"
    }
  },
  {
    "service_request": "2023-1033083",
    "request_type": "Trash/Recycling",
    "request_reason": "Request a Large Item Pick Up",
    "date_created": "2023-09-07T15:34:31.000",
    "date_modified": "2023-09-07T15:34:31.000",
    "request_status": "Pending",
    "responsible_agency": "Department of Sanitation",
    "final_address": "4031 Athis Ct",
    "address_councildis": "D",
    "status": "Assigned to Contractor",
    "contractor": "IV Waste",
    "rowid": "1033083",
    "final_x": "3688451.64841",
    "final_y": "554623.349016",
    "longitude": "-90.0452995330909",
    "latitude": "30.01880873123938",
    "geocoded_column": {
      "latitude": "30.01880873123938",
      "longitude": "-90.0452995330909"
    }
  },
  {
    "service_request": "2023-1033082",
    "request_type": "Trash/Recycling",
    "request_reason": "Return Trash Cart",
    "date_created": "2023-09-07T15:30:36.000",
    "date_modified": "2023-09-07T15:30:36.000",
    "request_status": "Pending",
    "responsible_agency": "Department of Sanitation",
    "final_address": "5915 Stratford Pl",
    "address_councildis": "C",
    "status": "Assigned to Contractor",
    "contractor": "Richards Disposal",
    "rowid": "1033082",
    "final_x": "3705591.04657",
    "final_y": "516122.053428",
    "longitude": "-89.99256901083064",
    "latitude": "29.91240329572241",
    "geocoded_column": {
      "latitude": "29.91240329572241",
      "longitude": "-89.99256901083064"
    }
  },
  {
    "service_request": "2023-1033081",
    "request_type": "Trash/Recycling",
    "request_reason": "Repair Trash Cart",
    "date_created": "2023-09-07T15:30:06.000",
    "date_modified": "2023-09-07T15:30:06.000",
    "request_status": "Pending",
    "responsible_agency": "Department of Sanitation",
    "final_address": "5915 Stratford Pl",
    "address_councildis": "C",
    "status": "Assigned to Contractor",
    "contractor": "Richards Disposal",
    "rowid": "1033081",
    "final_x": "3705591.04657",
    "final_y": "516122.053428",
    "longitude": "-89.99256901083064",
    "latitude": "29.91240329572241",
    "geocoded_column": {
      "latitude": "29.91240329572241",
      "longitude": "-89.99256901083064"
    }
  },
  {
    "service_request": "2023-1033080",
    "request_type": "Trash/Recycling",
    "request_reason": "Missed Trash Pick-Up",
    "date_created": "2023-09-07T15:27:33.000",
    "date_modified": "2023-09-07T15:27:34.000",
    "request_status": "Pending",
    "responsible_agency": "Department of Sanitation",
    "final_address": "5316 N Prieur St A",
    "address_councildis": "E",
    "status": "Assigned to Contractor",
    "contractor": "Waste Pro",
    "rowid": "1033080",
    "final_x": "3697789.46103",
    "final_y": "536972.824136",
    "longitude": "-90.01643648056452",
    "latitude": "29.969984369910474",
    "geocoded_column": {
      "latitude": "29.969984369910474",
      "longitude": "-90.01643648056452"
    }
  },
  {
    "service_request": "2023-1033079",
    "request_type": "Abandoned Vehicles",
    "request_reason": "Abandoned/Junk Vehicles",
    "date_created": "2023-09-07T15:27:16.000",
    "date_modified": "2023-09-07T15:27:16.000",
    "request_status": "Pending",
    "responsible_agency": "Department of Public Works",
    "final_address": "7700 BLK Cohn St",
    "address_councildis": "A",
    "status": "Pending",
    "rowid": "1033079",
    "final_x": "3664579.20689",
    "final_y": "529313.906055",
    "longitude": "-90.121573995516",
    "latitude": "29.94993254844717",
    "geocoded_column": {
      "latitude": "29.94993254844717",
      "longitude": "-90.121573995516"
    }
  },
  {
    "service_request": "2023-1033078",
    "request_type": "Trash/Recycling",
    "request_reason": "Illegal Dumping",
    "date_created": "2023-09-07T15:25:54.000",
    "date_modified": "2023-09-07T15:25:54.000",
    "request_status": "Pending",
    "responsible_agency": "Department of Sanitation",
    "final_address": "3320 Iberville St",
    "address_councildis": "B",
    "status": "Pending",
    "rowid": "1033078",
    "final_x": "3673716.69691",
    "final_y": "536851.846728",
    "longitude": "-90.0924649069756",
    "latitude": "29.970390496757844",
    "geocoded_column": {
      "latitude": "29.970390496757844",
      "longitude": "-90.0924649069756"
    }
  },
  {
    "service_request": "2023-1033077",
    "request_type": "Roads/Drainage",
    "request_reason": "Catch Basin - Broken/Damage",
    "date_created": "2023-09-07T15:16:34.000",
    "date_modified": "2023-09-07T15:16:35.000",
    "request_status": "Pending",
    "responsible_agency": "Department of Public Works",
    "final_address": "5426 N Galvez St",
    "address_councildis": "E",
    "status": "Pending",
    "rowid": "1033077",
    "final_x": "3698445.16605",
    "final_y": "537607.097928",
    "longitude": "-90.01434265407289",
    "latitude": "29.971707657349803",
    "geocoded_column": {
      "latitude": "29.971707657349803",
      "longitude": "-90.01434265407289"
    }
  },
  {
    "service_request": "2023-1033076",
    "request_type": "Trash/Recycling",
    "request_reason": "Missed Trash Pick-Up",
    "date_created": "2023-09-07T15:15:24.000",
    "date_modified": "2023-09-07T15:15:25.000",
    "request_status": "Pending",
    "responsible_agency": "Department of Sanitation",
    "final_address": "2240 Frenchmen St",
    "address_councildis": "D",
    "status": "Assigned to Contractor",
    "contractor": "IV Waste",
    "rowid": "1033076",
    "final_x": "3684203.73257",
    "final_y": "540654.539595",
    "longitude": "-90.05921219388814",
    "latitude": "29.980530135378046",
    "geocoded_column": {
      "latitude": "29.980530135378046",
      "longitude": "-90.05921219388814"
    }
  },
  {
    "service_request": "2023-1033075",
    "request_type": "Parks & Parkways",
    "request_reason": "Request Tree Service (Right of Way/Public Property)",
    "date_created": "2023-09-07T15:08:36.000",
    "date_modified": "2023-09-07T15:08:37.000",
    "request_status": "Pending",
    "responsible_agency": "Department of Parks & Parkway",
    "final_address": "7701 Downman Rd",
    "address_councildis": "D",
    "status": "Pending",
    "rowid": "1033075",
    "final_x": "3694667.44304",
    "final_y": "558710.169948",
    "longitude": "-90.02551254293856",
    "latitude": "30.02985235580821",
    "geocoded_column": {
      "latitude": "30.02985235580821",
      "longitude": "-90.02551254293856"
    }
  },
  {
    "service_request": "2023-1033074",
    "request_type": "Trash/Recycling",
    "request_reason": "Request a Large Item Pick Up",
    "date_created": "2023-09-07T15:04:29.000",
    "date_modified": "2023-09-07T15:04:30.000",
    "request_status": "Pending",
    "responsible_agency": "Department of Sanitation",
    "final_address": "8930 Lake Forest Blvd",
    "address_councildis": "E",
    "status": "Assigned to Contractor",
    "contractor": "Waste Pro",
    "rowid": "1033074",
    "final_x": "3707347.51736",
    "final_y": "558289.881628",
    "longitude": "-89.98545955476317",
    "latitude": "30.028292689837787",
    "geocoded_column": {
      "latitude": "30.028292689837787",
      "longitude": "-89.98545955476317"
    }
  },
  {
    "service_request": "2023-1033073",
    "request_type": "Roads/Drainage",
    "request_reason": "Pothole",
    "date_created": "2023-09-07T15:04:18.000",
    "date_modified": "2023-09-07T15:04:18.000",
    "request_status": "Pending",
    "responsible_agency": "Department of Public Works",
    "final_address": "ELYSIAN FIELDS AV OVER & ELYSIAN FIELDS AVE & ABUNDANCE ST",
    "address_councildis": "D",
    "status": "Pending",
    "rowid": "1033073",
    "final_x": "3684376.2",
    "final_y": "543672.68",
    "longitude": "-90.05856141600397",
    "latitude": "29.98882368167206",
    "geocoded_column": {
      "latitude": "29.98882368167206",
      "longitude": "-90.05856141600397"
    }
  },
  {
    "service_request": "2023-1033072",
    "request_type": "Property Maintenance",
    "request_reason": "Property Maintenance",
    "date_created": "2023-09-07T15:03:54.000",
    "date_modified": "2023-09-07T15:03:54.000",
    "request_status": "Pending",
    "responsible_agency": "Department of Code Enforcement",
    "final_address": "1820 Harmony St",
    "address_councildis": "B",
    "status": "Pending",
    "rowid": "1033072",
    "final_x": "3674419.71534",
    "final_y": "522648.578234",
    "longitude": "-90.09073112723787",
    "latitude": "29.931315264146356",
    "geocoded_column": {
      "latitude": "29.931315264146356",
      "longitude": "-90.09073112723787"
    }
  },
  {
    "service_request": "2023-1033071",
    "request_type": "Trash/Recycling",
    "request_reason": "Illegal Dumping",
    "date_created": "2023-09-07T15:03:17.000",
    "date_modified": "2023-09-07T15:03:17.000",
    "request_status": "Pending",
    "responsible_agency": "Department of Sanitation",
    "final_address": "3320 Iberville St",
    "address_councildis": "B",
    "status": "Pending",
    "rowid": "1033071",
    "final_x": "3673716.69691",
    "final_y": "536851.846728",
    "longitude": "-90.0924649069756",
    "latitude": "29.970390496757844",
    "geocoded_column": {
      "latitude": "29.970390496757844",
      "longitude": "-90.0924649069756"
    }
  },
  {
    "service_request": "2023-1033070",
    "request_type": "Trash/Recycling",
    "request_reason": "Request a Large Item Pick Up",
    "date_created": "2023-09-07T15:00:33.000",
    "date_modified": "2023-09-07T15:00:34.000",
    "request_status": "Pending",
    "responsible_agency": "Department of Sanitation",
    "final_address": "7607 Plum St",
    "address_councildis": "A",
    "status": "Assigned to Contractor",
    "contractor": "Richards Disposal",
    "rowid": "1033070",
    "final_x": "3663498.80423",
    "final_y": "527512.237311",
    "longitude": "-90.12504533124681",
    "latitude": "29.945009910622566",
    "geocoded_column": {
      "latitude": "29.945009910622566",
      "longitude": "-90.12504533124681"
    }
  },
  {
    "service_request": "2023-1033069",
    "request_type": "Trash/Recycling",
    "request_reason": "Missed Trash Pick-Up",
    "date_created": "2023-09-07T14:58:06.000",
    "date_modified": "2023-09-07T14:58:07.000",
    "request_status": "Pending",
    "responsible_agency": "Department of Sanitation",
    "final_address": "2001 Tennessee St",
    "address_councildis": "E",
    "status": "Assigned to Contractor",
    "contractor": "Waste Pro",
    "rowid": "1033069",
    "final_x": "3696683.03882",
    "final_y": "537724.025032",
    "longitude": "-90.01990345847176",
    "latitude": "29.9720848213998",
    "geocoded_column": {
      "latitude": "29.9720848213998",
      "longitude": "-90.01990345847176"
    }
  },
  {
    "service_request": "2023-1033068",
    "request_type": "Property Maintenance",
    "request_reason": "Property Maintenance",
    "date_created": "2023-09-07T14:57:17.000",
    "date_modified": "2023-09-07T14:57:17.000",
    "request_status": "Pending",
    "responsible_agency": "Department of Code Enforcement",
    "final_address": "2231 Gentilly Blvd",
    "address_councildis": "D",
    "status": "Pending",
    "rowid": "1033068",
    "final_x": "3680872.25538",
    "final_y": "544649.427535",
    "longitude": "-90.06959527506972",
    "latitude": "29.9916161150436",
    "geocoded_column": {
      "latitude": "29.9916161150436",
      "longitude": "-90.06959527506972"
    }
  },
  {
    "service_request": "2023-1033067",
    "request_type": "Roads/Drainage",
    "request_reason": "Pothole",
    "date_created": "2023-09-07T14:55:13.000",
    "date_modified": "2023-09-07T14:55:13.000",
    "request_status": "Pending",
    "responsible_agency": "Department of Public Works",
    "final_address": "2500 BLK Piety St",
    "address_councildis": "D",
    "status": "Pending",
    "rowid": "1033067",
    "final_x": "3691204.23238",
    "final_y": "541254.657108",
    "longitude": "-90.03708022878409",
    "latitude": "29.981964347770905",
    "geocoded_column": {
      "latitude": "29.981964347770905",
      "longitude": "-90.03708022878409"
    }
  },
  {
    "service_request": "2023-1033066",
    "request_type": "Parks & Parkways",
    "request_reason": "Request Tree Service (Right of Way/Public Property)",
    "date_created": "2023-09-07T14:54:19.000",
    "date_modified": "2023-09-07T14:54:19.000",
    "request_status": "Pending",
    "responsible_agency": "Department of Parks & Parkway",
    "final_address": "2426 Esplanade Ave",
    "address_councildis": "D",
    "status": "Pending",
    "rowid": "1033066",
    "final_x": "3678785.64533",
    "final_y": "538352.185737",
    "longitude": "-90.0764046258249",
    "latitude": "29.974364002399764",
    "geocoded_column": {
      "latitude": "29.974364002399764",
      "longitude": "-90.0764046258249"
    }
  },
  {
    "service_request": "2023-1033065",
    "request_type": "Roads/Drainage",
    "request_reason": "Pothole",
    "date_created": "2023-09-07T14:50:15.000",
    "date_modified": "2023-09-07T14:50:15.000",
    "request_status": "Pending",
    "responsible_agency": "Department of Public Works",
    "final_address": "4205 Perrier St",
    "address_councildis": "B",
    "status": "Pending",
    "rowid": "1033065",
    "final_x": "3671596.53287",
    "final_y": "520171.374008",
    "longitude": "-90.09972777393337",
    "latitude": "29.924587628722843",
    "geocoded_column": {
      "latitude": "29.924587628722843",
      "longitude": "-90.09972777393337"
    }
  },
  {
    "service_request": "2023-1033063",
    "request_type": "Roads/Drainage",
    "request_reason": "Damaged Sidewalk",
    "date_created": "2023-09-07T14:49:57.000",
    "date_modified": "2023-09-07T14:49:57.000",
    "request_status": "Pending",
    "responsible_agency": "Department of Public Works",
    "final_address": "7636 Daniel Dr",
    "address_councildis": "E",
    "status": "Pending",
    "rowid": "1033063",
    "final_x": "3704997.40356",
    "final_y": "562809.22832",
    "longitude": "-89.99271864140077",
    "latitude": "30.040794923833808",
    "geocoded_column": {
      "latitude": "30.040794923833808",
      "longitude": "-89.99271864140077"
    }
  },
  {
    "service_request": "2023-1033062",
    "request_type": "Traffic Signals/Signs/Striping/Streetlights",
    "request_reason": "Street Light Outage/Malfunction",
    "date_created": "2023-09-07T14:48:26.000",
    "date_modified": "2023-09-07T14:48:26.000",
    "request_status": "Pending",
    "responsible_agency": "Department of Public Works",
    "final_address": "Tullis Drive & Woodland Highway",
    "address_councildis": "C",
    "status": "Assigned to Contractor",
    "contractor": "Legacy Professional Services",
    "rowid": "1033062",
    "final_x": "3707205.59345",
    "final_y": "514432.767539",
    "longitude": "-89.98753572107634",
    "latitude": "29.907706296217956",
    "geocoded_column": {
      "latitude": "29.907706296217956",
      "longitude": "-89.98753572107634"
    }
  },
  {
    "service_request": "2023-1033061",
    "request_type": "Roads/Drainage",
    "request_reason": "Pothole",
    "date_created": "2023-09-07T14:48:14.000",
    "date_modified": "2023-09-07T14:48:14.000",
    "request_status": "Pending",
    "responsible_agency": "Department of Public Works",
    "final_address": "CAMP ST & WEBSTER ST",
    "address_councildis": "A",
    "status": "Pending",
    "rowid": "1033061",
    "final_x": "3664242.7",
    "final_y": "519748.38",
    "longitude": "-90.12295554828665",
    "latitude": "29.92364017409267",
    "geocoded_column": {
      "latitude": "29.92364017409267",
      "longitude": "-90.12295554828665"
    }
  },
  {
    "service_request": "2023-1033060",
    "request_type": "Traffic Signals/Signs/Striping/Streetlights",
    "request_reason": "Street Light Outage/Malfunction",
    "date_created": "2023-09-07T14:47:51.000",
    "date_modified": "2023-09-07T14:47:51.000",
    "request_status": "Pending",
    "responsible_agency": "Department of Public Works",
    "final_address": "Tullis Drive & Woodland Highway",
    "address_councildis": "C",
    "status": "Assigned to Contractor",
    "contractor": "Legacy Professional Services",
    "rowid": "1033060",
    "final_x": "3707205.59345",
    "final_y": "514432.767539",
    "longitude": "-89.98753572107634",
    "latitude": "29.907706296217956",
    "geocoded_column": {
      "latitude": "29.907706296217956",
      "longitude": "-89.98753572107634"
    }
  },
  {
    "service_request": "2023-1033059",
    "request_type": "Trash/Recycling",
    "request_reason": "Replace Trash Cart",
    "date_created": "2023-09-07T14:45:55.000",
    "date_modified": "2023-09-07T14:45:56.000",
    "request_status": "Pending",
    "responsible_agency": "Department of Sanitation",
    "final_address": "57 Thrasher St",
    "address_councildis": "D",
    "status": "Assigned to Contractor",
    "contractor": "IV Waste",
    "rowid": "1033059",
    "final_x": "3672605.69384",
    "final_y": "556326.846682",
    "longitude": "-90.09530906176884",
    "latitude": "30.02397299453558",
    "geocoded_column": {
      "latitude": "30.02397299453558",
      "longitude": "-90.09530906176884"
    }
  },
  {
    "service_request": "2023-1033058",
    "request_type": "Roads/Drainage",
    "request_reason": "Catch Basin - Broken/Damage",
    "date_created": "2023-09-07T14:45:42.000",
    "date_modified": "2023-09-07T14:45:42.000",
    "request_status": "Pending",
    "responsible_agency": "Department of Public Works",
    "final_address": "540 N Cortez St",
    "address_councildis": "A",
    "status": "Pending",
    "rowid": "1033058",
    "final_x": "3673245.67572",
    "final_y": "538862.846985",
    "longitude": "-90.09388374888503",
    "latitude": "29.975934082608557",
    "geocoded_column": {
      "latitude": "29.975934082608557",
      "longitude": "-90.09388374888503"
    }
  },
  {
    "service_request": "2023-1033057",
    "request_type": "Property Maintenance",
    "request_reason": "Property Maintenance",
    "date_created": "2023-09-07T14:37:36.000",
    "date_modified": "2023-09-07T14:37:37.000",
    "request_status": "Pending",
    "responsible_agency": "Department of Code Enforcement",
    "final_address": "5527 Marigny St",
    "address_councildis": "D",
    "status": "Pending",
    "rowid": "1033057",
    "final_x": "3684103.42165",
    "final_y": "553289.515159",
    "longitude": "-90.05908523060502",
    "latitude": "30.015274857417435",
    "geocoded_column": {
      "latitude": "30.015274857417435",
      "longitude": "-90.05908523060502"
    }
  },
  {
    "service_request": "2023-1033056",
    "request_type": "Trash/Recycling",
    "request_reason": "Repair Trash Cart",
    "date_created": "2023-09-07T14:36:19.000",
    "date_modified": "2023-09-07T14:36:20.000",
    "request_status": "Pending",
    "responsible_agency": "Department of Sanitation",
    "final_address": "416 River Oaks Dr",
    "address_councildis": "C",
    "status": "Assigned to Contractor",
    "contractor": "Richards Disposal",
    "rowid": "1033056",
    "final_x": "3701598.49629",
    "final_y": "521916.731002",
    "longitude": "-90.00495848626628",
    "latitude": "29.928464522876336",
    "geocoded_column": {
      "latitude": "29.928464522876336",
      "longitude": "-90.00495848626628"
    }
  },
  {
    "service_request": "2023-1033055",
    "request_type": "Abandoned Vehicles",
    "request_reason": "Abandoned/Junk Vehicles",
    "date_created": "2023-09-07T14:35:05.000",
    "date_modified": "2023-09-07T14:35:05.000",
    "request_status": "Pending",
    "responsible_agency": "Department of Public Works",
    "final_address": "501 Hillary St",
    "address_councildis": "A",
    "status": "Pending",
    "rowid": "1033055",
    "final_x": "3661709.12806",
    "final_y": "525354.587837",
    "longitude": "-90.13076741596554",
    "latitude": "29.93912883123011",
    "geocoded_column": {
      "latitude": "29.93912883123011",
      "longitude": "-90.13076741596554"
    }
  },
  {
    "service_request": "2023-1033054",
    "request_type": "Trash/Recycling",
    "request_reason": "Order Recycling Cart",
    "date_created": "2023-09-07T14:29:47.000",
    "date_modified": "2023-09-07T14:29:48.000",
    "request_status": "Pending",
    "responsible_agency": "Department of Sanitation",
    "final_address": "3204 Second St",
    "address_councildis": "B",
    "status": "Pending",
    "rowid": "1033054",
    "final_x": "3673474.853",
    "final_y": "527868.543615",
    "longitude": "-90.09353564437936",
    "latitude": "29.94569660770432",
    "geocoded_column": {
      "latitude": "29.94569660770432",
      "longitude": "-90.09353564437936"
    }
  },
  {
    "service_request": "2023-1033053",
    "request_type": "Trash/Recycling",
    "request_reason": "Missed Trash Pick-Up",
    "date_created": "2023-09-07T14:29:34.000",
    "date_modified": "2023-09-07T14:29:34.000",
    "request_status": "Pending",
    "responsible_agency": "Department of Sanitation",
    "final_address": "3204 Second St",
    "address_councildis": "B",
    "status": "Assigned to Contractor",
    "contractor": "Richards Disposal",
    "rowid": "1033053",
    "final_x": "3673474.853",
    "final_y": "527868.543615",
    "longitude": "-90.09353564437936",
    "latitude": "29.94569660770432",
    "geocoded_column": {
      "latitude": "29.94569660770432",
      "longitude": "-90.09353564437936"
    }
  },
  {
    "service_request": "2023-1033052",
    "request_type": "Trash/Recycling",
    "request_reason": "Order Trash Cart",
    "date_created": "2023-09-07T14:29:09.000",
    "date_modified": "2023-09-07T14:29:10.000",
    "request_status": "Pending",
    "responsible_agency": "Department of Sanitation",
    "final_address": "3204 Second St",
    "address_councildis": "B",
    "status": "Assigned to Contractor",
    "contractor": "Richards Disposal",
    "rowid": "1033052",
    "final_x": "3673474.853",
    "final_y": "527868.543615",
    "longitude": "-90.09353564437936",
    "latitude": "29.94569660770432",
    "geocoded_column": {
      "latitude": "29.94569660770432",
      "longitude": "-90.09353564437936"
    }
  },
  {
    "service_request": "2023-1033051",
    "request_type": "Abandoned Vehicles",
    "request_reason": "Abandoned/Junk Vehicles",
    "date_created": "2023-09-07T14:27:49.000",
    "date_modified": "2023-09-07T14:27:49.000",
    "request_status": "Pending",
    "responsible_agency": "Department of Public Works",
    "final_address": "2300 BLK Clouet St",
    "address_councildis": "D",
    "status": "Pending",
    "rowid": "1033051",
    "final_x": "3690181.54972",
    "final_y": "540705.795016",
    "longitude": "-90.04032990033383",
    "latitude": "29.98048694456995",
    "geocoded_column": {
      "latitude": "29.98048694456995",
      "longitude": "-90.04032990033383"
    }
  },
  {
    "service_request": "2023-1033050",
    "request_type": "Trash/Recycling",
    "request_reason": "Order Trash Cart",
    "date_created": "2023-09-07T14:27:30.000",
    "date_modified": "2023-09-07T14:27:32.000",
    "request_status": "Pending",
    "responsible_agency": "Department of Sanitation",
    "final_address": "1926 Dumaine St",
    "address_councildis": "D",
    "status": "Assigned to Contractor",
    "contractor": "Richards Disposal",
    "rowid": "1033050",
    "final_x": "3679424.85711",
    "final_y": "535733.540039",
    "longitude": "-90.07447670380448",
    "latitude": "29.96714433009678",
    "geocoded_column": {
      "latitude": "29.96714433009678",
      "longitude": "-90.07447670380448"
    }
  },
  {
    "service_request": "2023-1033049",
    "request_type": "Roads/Drainage",
    "request_reason": "Catch Basin - Clogged",
    "date_created": "2023-09-07T14:26:20.000",
    "date_modified": "2023-09-07T14:26:20.000",
    "request_status": "Pending",
    "responsible_agency": "Department of Public Works",
    "final_address": "643 Magazine St",
    "address_councildis": "B",
    "status": "Pending",
    "rowid": "1033049",
    "final_x": "3681282.14421",
    "final_y": "528427.908096",
    "longitude": "-90.06886597656198",
    "latitude": "29.947000085796354",
    "geocoded_column": {
      "latitude": "29.947000085796354",
      "longitude": "-90.06886597656198"
    }
  },
  {
    "service_request": "2023-1033048",
    "request_type": "Trash/Recycling",
    "request_reason": "Illegal Dumping",
    "date_created": "2023-09-07T14:21:03.000",
    "date_modified": "2023-09-07T14:21:03.000",
    "request_status": "Pending",
    "responsible_agency": "Department of Sanitation",
    "final_address": "3713 Clara St",
    "address_councildis": "B",
    "status": "Pending",
    "rowid": "1033048",
    "final_x": "3671959.23323",
    "final_y": "525354.877501",
    "longitude": "-90.09840650160825",
    "latitude": "29.938829850610656",
    "geocoded_column": {
      "latitude": "29.938829850610656",
      "longitude": "-90.09840650160825"
    }
  },
  {
    "service_request": "2023-1033047",
    "request_type": "Trash/Recycling",
    "request_reason": "Repair Trash Cart",
    "date_created": "2023-09-07T14:20:19.000",
    "date_modified": "2023-09-07T14:20:20.000",
    "request_status": "Pending",
    "responsible_agency": "Department of Sanitation",
    "final_address": "7716 Spruce St",
    "address_councildis": "A",
    "status": "Assigned to Contractor",
    "contractor": "Richards Disposal",
    "rowid": "1033047",
    "final_x": "3664797.32768",
    "final_y": "529543.963521",
    "longitude": "-90.12087759775568",
    "latitude": "29.950558787642155",
    "geocoded_column": {
      "latitude": "29.950558787642155",
      "longitude": "-90.12087759775568"
    }
  },
  {
    "service_request": "2023-1033046",
    "request_type": "Trash/Recycling",
    "request_reason": "Repair Trash Cart",
    "date_created": "2023-09-07T14:19:53.000",
    "date_modified": "2023-09-07T14:19:54.000",
    "request_status": "Pending",
    "responsible_agency": "Department of Sanitation",
    "final_address": "7718 Spruce St",
    "address_councildis": "A",
    "status": "Assigned to Contractor",
    "contractor": "Richards Disposal",
    "rowid": "1033046",
    "final_x": "3664787.77511",
    "final_y": "529552.925505",
    "longitude": "-90.1209074605516",
    "latitude": "29.950583708129784",
    "geocoded_column": {
      "latitude": "29.950583708129784",
      "longitude": "-90.1209074605516"
    }
  },
  {
    "service_request": "2023-1033045",
    "request_type": "Trash/Recycling",
    "request_reason": "Illegal Dumping",
    "date_created": "2023-09-07T14:19:41.000",
    "date_modified": "2023-09-07T14:19:41.000",
    "request_status": "Pending",
    "responsible_agency": "Department of Sanitation",
    "final_address": "3713 Clara St",
    "address_councildis": "B",
    "status": "Pending",
    "rowid": "1033045",
    "final_x": "3671959.23323",
    "final_y": "525354.877501",
    "longitude": "-90.09840650160825",
    "latitude": "29.938829850610656",
    "geocoded_column": {
      "latitude": "29.938829850610656",
      "longitude": "-90.09840650160825"
    }
  },
  {
    "service_request": "2023-1033044",
    "request_type": "Property Maintenance",
    "request_reason": "Property Maintenance",
    "date_created": "2023-09-07T14:19:18.000",
    "date_modified": "2023-09-07T14:19:18.000",
    "request_status": "Pending",
    "responsible_agency": "Department of Code Enforcement",
    "final_address": "5000 Madrid St",
    "address_councildis": "D",
    "status": "Pending",
    "rowid": "1033044",
    "final_x": "3691189.35043",
    "final_y": "556150.290266",
    "longitude": "-90.0365948004848",
    "latitude": "30.022922345986164",
    "geocoded_column": {
      "latitude": "30.022922345986164",
      "longitude": "-90.0365948004848"
    }
  },
  {
    "service_request": "2023-1033043",
    "request_type": "Trash/Recycling",
    "request_reason": "Order Recycling Cart",
    "date_created": "2023-09-07T14:15:18.000",
    "date_modified": "2023-09-07T14:15:19.000",
    "request_status": "Pending",
    "responsible_agency": "Department of Sanitation",
    "final_address": "1221 N Rendon St",
    "address_councildis": "A",
    "status": "Pending",
    "rowid": "1033043",
    "final_x": "3675943.44949",
    "final_y": "539738.781514",
    "longitude": "-90.08533326641063",
    "latitude": "29.978262086814937",
    "geocoded_column": {
      "latitude": "29.978262086814937",
      "longitude": "-90.08533326641063"
    }
  },